     3.04           OBSERVATION DATA    M: Mixed            RINEX VERSION / TYPE
RTKCONV 2.4.3 b34                       20251030 064121 UTC PGM / RUN BY / DATE 
format: u-blox UBX                                          COMMENT             
log: D:\GPdata\10_30\fingure_290_phone_10_30_1.ubx          COMMENT             
                                                            MARKER NAME         
                                                            MARKER NUMBER       
                                                            MARKER TYPE         
                                                            OBSERVER / AGENCY   
                                                            REC # / TYPE / VERS 
                                                            ANT # / TYPE        
        0.0000        0.0000        0.0000                  APPROX POSITION XYZ 
        0.0000        0.0000        0.0000                  ANTENNA: DELTA H/E/N
G    8 C1C L1C D1C S1C C2L L2L D2L S2L                      SYS / # / OBS TYPES 
C    8 C2I L2I D2I S2I C7I L7I D7I S7I                      SYS / # / OBS TYPES 
  2025    10    30    06    20   45.1600000     GPS         TIME OF FIRST OBS   
  2025    10    30    06    21   33.6400000     GPS         TIME OF LAST OBS    
G L1C                                                       SYS / PHASE SHIFT   
G L2L  0.00000                                              SYS / PHASE SHIFT   
C L2I                                                       SYS / PHASE SHIFT   
C L7I                                                       SYS / PHASE SHIFT   
  0                                                         GLONASS SLOT / FRQ #
 C1C    0.000 C1P    0.000 C2C    0.000 C2P    0.000        GLONASS COD/PHS/BIS 
                                                            END OF HEADER       
> 2025 10 30 06 20 45.1600000  0 23                     
G32  22038912.716   115815265.0341      -2929.902          45.000    22038906.529    90245637.5261      -2283.073          42.000  
G29  23076048.609   121265464.4151       -603.193          42.000    23076040.388    94492539.3891       -469.912          40.000  
G28  21260248.789   111723360.4981      -1195.366          46.000    21260238.762    87057123.1591       -931.475          47.000  
G26  20339978.821   106887308.8881        672.374          48.000    20339971.310    83288793.4791        523.961          46.000  
G31  20622254.857   108370679.2911        146.580          47.000    20622244.555    84444644.1671        114.263          45.000  
G04  24472079.120   128601618.8281       3179.583          32.000    24472073.738   100209081.6201       2476.903          35.000  
C33  22508852.159   117209494.9531       -714.049          50.000                                                                  
C06  36574140.900   190451150.4781       -158.938          45.000    36574123.431   147268839.5571       -122.917          48.000  
C14  22685845.969   118131138.2321      -2268.038          46.000    22685831.325    91346435.6871      -1753.993          50.000  
C16  37002235.561   192680350.1861       -189.788          48.000    37002223.908   148992621.5701       -146.634          48.000  
C24  21847919.239   113767851.9001       -868.283          50.000                                                                  
C26  24445050.987   127291796.0181      -2562.997          44.000                                                                  
G03  22889321.717   120284187.2521       -136.955          40.000    22889316.920    93727914.6381       -106.669          41.000  
G16  22411523.253   117773363.7691       2974.376          41.000                                                                  
C09  37725564.397   196446914.9261       -148.063          44.000    37725550.104   151905158.2841       -114.747          48.000  
C25  23638767.355   123093271.8201       1568.933          45.000                                                                  
C13  38378824.585   199848603.7981      -2265.761          41.000    38378818.550   154535596.0751      -1751.978          43.000  
C08  39209689.945   204175134.9221      -2461.542          35.000    39209677.797   157881119.4721      -1903.314          43.000  
C10  40491032.875   210847430.1581        933.759          34.000    40491033.642   163040600.4291        722.150          38.000  
C35  25951521.864   135136388.2621        376.757          38.000                                                                  
C07  39553907.159   205967545.8631       1119.851          38.000    39553896.761   159267149.2441        866.193          40.000  
C12  26441215.506   137686336.6731       2309.523          36.000    26441214.016   106467837.9041       1786.029          44.000  
G25  24420312.777   128329617.8571      -3914.531          32.000    24420306.441    99997068.7041      -3049.849          35.000  
> 2025 10 30 06 20 45.2000000  0 23                     
G32  22038935.011   115815382.226       -2929.836          45.000    22038928.819    90245728.852       -2283.164          42.000  
G29  23076053.197   121265488.529        -602.990          42.000    23076044.984    94492558.189        -469.993          40.000  
G28  21260257.895   111723408.295       -1195.121          46.000    21260247.861    87057160.400        -931.237          47.000  
G26  20339973.695   106887281.987         672.467          48.000    20339966.200    83288772.517         524.042          46.000  
G31  20622253.719   108370673.423         146.630          47.000    20622243.437    84444639.588         114.386          45.000  
G04  24472054.924   128601491.690        3178.809          32.000    24472049.537   100208982.498        2477.676          34.000  
C33  22508857.681   117209523.511        -714.004          50.000                                                                  
C06  36574142.112   190451156.826        -158.790          45.000    36574124.643   147268844.468        -122.817          48.000  
C14  22685863.388   118131228.958       -2268.126          46.000    22685848.712    91346505.834       -1753.807          50.000  
C16  37002237.026   192680357.762        -189.582          48.000    37002225.375   148992627.427        -146.493          48.000  
C24  21847925.919   113767886.621        -868.176          50.000                                                                  
C26  24445070.671   127291898.535       -2562.991          44.000                                                                  
G03  22889322.748   120284192.735        -137.046          40.000    22889317.959    93727918.908        -106.743          41.000  
G16  22411500.611   117773244.780        2974.583          41.000                                                                  
C09  37725565.542   196446920.842        -147.958          44.000    37725551.232   151905162.859        -114.549          48.000  
C25  23638755.302   123093209.058        1568.994          45.000                                                                  
C13  38378842.017   199848694.421       -2265.662          41.000    38378835.921   154535666.148       -1751.848          43.000  
C08  39209708.857   204175233.357       -2461.018          35.000    39209696.698   157881195.601       -1903.267          43.000  
C10  40491025.703   210847392.763         934.498          34.000    40491026.446   163040571.535         722.211          38.000  
C35  25951518.980   135136373.184         376.882          38.000                                                                  
C07  39553898.553   205967501.048        1120.094          38.000    39553888.177   159267114.600         866.119          40.000  
C12  26441197.787   137686244.298        2309.415          36.000    26441196.275   106467766.464        1786.004          44.000  
G25  24420342.571   128329774.418       -3914.214          32.000    24420336.236    99997190.690       -3049.671          35.000  
> 2025 10 30 06 20 45.2400000  0 23                     
G32  22038957.299   115815499.418       -2929.824          45.000    22038951.107    90245820.151       -2282.661          42.000  
G29  23076057.781   121265512.641        -602.840          42.000    23076049.573    94492576.980        -469.879          40.000  
G28  21260266.958   111723456.086       -1194.892          46.000    21260256.963    87057197.647        -931.213          47.000  
G26  20339968.592   106887255.100         672.249          48.000    20339961.080    83288751.568         523.805          46.000  
G31  20622252.597   108370667.549         146.766          47.000    20622242.330    84444635.013         114.380          45.000  
G04  24472030.747   128601364.552        3178.401          32.000    24472025.342   100208883.419        2477.321          34.000  
C33  22508863.160   117209552.070        -714.017          50.000                                                                  
C06  36574143.305   190451163.182        -158.867          45.000    36574125.886   147268849.377        -122.736          48.000  
C14  22685880.814   118131319.680       -2268.099          46.000    22685866.147    91346575.982       -1753.713          50.000  
C16  37002238.482   192680365.335        -189.396          48.000    37002226.801   148992633.285        -146.463          48.000  
C24  21847932.624   113767921.344        -868.102          50.000                                                                  
C26  24445090.387   127292001.048       -2562.903          44.000                                                                  
G03  22889323.785   120284198.213        -136.976          40.000    22889318.980    93727923.185        -106.885          41.000  
G16  22411477.959   117773125.799        2974.547          41.000                                                                  
C09  37725566.664   196446926.760        -147.942          44.000    37725552.384   151905167.438        -114.455          48.000  
C25  23638743.224   123093146.305        1568.883          45.000                                                                  
C13  38378859.409   199848785.045       -2265.582          41.000    38378853.325   154535736.230       -1751.972          43.000  
C08  39209727.767   204175331.792       -2460.844          35.000    39209715.595   157881271.738       -1903.350          43.000  
C10  40491018.517   210847355.394         934.334          34.000    40491019.298   163040542.639         722.294          38.000  
C35  25951516.081   135136358.108         376.919          38.000                                                                  
C07  39553889.926   205967456.225        1120.403          38.000    39553879.588   159267079.956         866.050          40.000  
C12  26441180.052   137686151.915        2309.396          36.000    26441178.528   106467695.020        1786.041          44.000  
G25  24420372.357   128329930.984       -3914.244          32.000    24420366.030    99997312.717       -3050.304          35.000  
> 2025 10 30 06 20 45.2800000  0 23                     
G32  22038979.601   115815616.611       -2929.817          45.000    22038973.419    90245911.479       -2282.948          42.000  
G29  23076062.366   121265536.764        -602.955          42.000    23076054.160    94492595.781        -470.019          40.000  
G28  21260276.035   111723503.884       -1194.896          46.000    21260266.045    87057234.893        -931.156          47.000  
G26  20339963.447   106887228.202         672.350          48.000    20339955.960    83288730.607         523.887          46.000  
G31  20622251.458   108370661.678         146.777          47.000    20622241.221    84444630.446         114.238          45.000  
G04  24472006.528   128601237.410        3178.324          32.000    24472001.151   100208784.337        2477.141          35.000  
C33  22508868.599   117209580.634        -714.113          50.000                                                                  
C06  36574144.528   190451169.525        -158.690          45.000    36574127.110   147268854.287        -122.733          48.000  
C14  22685898.224   118131410.409       -2268.174          46.000    22685883.563    91346646.138       -1753.835          50.000  
C16  37002239.938   192680372.908        -189.296          48.000    37002228.236   148992639.143        -146.439          48.000  
C24  21847939.308   113767956.067        -868.084          50.000                                                                  
C26  24445110.073   127292103.561       -2562.832          44.000                                                                  
G03  22889324.837   120284203.705        -137.221          40.000    22889320.035    93727927.463        -106.939          41.000  
G16  22411455.332   117773006.825        2974.413          41.000                                                                  
C09  37725567.802   196446932.679        -147.976          44.000    37725553.514   151905172.025        -114.591          48.000  
C25  23638731.138   123093083.554        1568.754          45.000                                                                  
C13  38378876.809   199848875.671       -2265.638          41.000    38378870.701   154535806.302       -1751.867          43.000  
C08  39209746.681   204175430.272       -2461.625          35.000    39209734.519   157881347.865       -1903.252          43.000  
C10  40491011.323   210847318.034         934.065          34.000    40491012.098   163040513.740         722.341          38.000  
C35  25951513.193   135136343.048         376.661          38.000                                                                  
C07  39553881.316   205967411.415        1120.369          38.000    39553870.968   159267045.293         866.333          40.000  
C12  26441162.307   137686059.518        2309.693          36.000    26441160.810   106467623.579        1786.016          44.000  
G25  24420402.162   128330087.594       -3914.874          32.000    24420395.846    99997434.732       -3050.430          35.000  
> 2025 10 30 06 20 45.3200000  0 23                     
G32  22039001.893   115815733.813       -2930.013          45.000    22038995.724    90246002.803       -2283.107          42.000  
G29  23076066.947   121265560.891        -603.125          42.000    23076058.740    94492614.588        -470.174          40.000  
G28  21260285.143   111723551.690       -1195.040          46.000    21260275.175    87057272.149        -931.296          47.000  
G26  20339958.296   106887201.302         672.431          48.000    20339950.818    83288709.650         523.856          46.000  
G31  20622250.354   108370655.810         146.685          47.000    20622240.091    84444625.870         114.324          45.000  
G04  24471982.351   128601110.241        3178.813          32.000    24471976.965   100208685.274        2476.669          35.000  
C33  22508874.092   117209609.199        -714.180          50.000                                                                  
C06  36574145.729   190451175.885        -158.878          45.000    36574128.353   147268859.198        -122.769          48.000  
C14  22685915.660   118131501.136       -2268.205          46.000    22685900.957    91346716.295       -1753.925          50.000  
C16  37002241.418   192680380.491        -189.450          48.000    37002229.684   148992645.009        -146.584          48.000  
C24  21847945.987   113767990.788        -868.054          50.000                                                                  
C26  24445129.738   127292206.072       -2562.766          44.000                                                                  
G03  22889325.880   120284209.171        -136.880          40.000    22889321.058    93727931.716        -106.536          41.000  
G16  22411432.684   117772887.850        2974.379          41.000                                                                  
C09  37725568.928   196446938.615        -148.298          44.000    37725554.653   151905176.606        -114.565          48.000  
C25  23638719.081   123093020.792        1568.921          45.000                                                                  
C13  38378894.214   199848966.301       -2265.718          41.000    38378888.095   154535876.380       -1751.917          43.000  
C08  39209765.593   204175528.742       -2461.893          35.000    39209753.435   157881423.990       -1903.191          43.000  
C10  40491004.137   210847280.642         934.398          34.000    40491004.937   163040484.832         722.504          38.000  
C35  25951510.292   135136327.968         376.889          38.000                                                                  
C07  39553872.700   205967366.597        1120.450          38.000    39553862.362   159267010.645         866.293          40.000  
C12  26441144.573   137685967.118        2309.858          36.000    26441143.055   106467552.138        1785.998          44.000  
G25  24420431.974   128330244.131       -3914.041          32.000    24420425.634    99997556.723       -3050.082          35.000  
> 2025 10 30 06 20 45.3600000  0 23                     
G32  22039024.189   115815851.011       -2930.015          45.000    22039018.040    90246094.116       -2282.995          42.000  
G29  23076071.543   121265585.019        -603.249          42.000    23076063.345    94492633.396        -470.260          40.000  
G28  21260294.257   111723599.497       -1195.158          46.000    21260284.245    87057309.395        -931.241          47.000  
G26  20339953.202   106887174.411         672.305          48.000    20339945.717    83288688.697         523.826          46.000  
G31  20622249.241   108370649.949         146.524          47.000    20622238.976    84444621.298         114.281          45.000  
G04  24471958.138   128600983.048        3179.462          32.000    24471952.765   100208586.207        2476.396          34.000  
C33  22508879.598   117209637.762        -714.146          50.000                                                                  
C06  36574146.953   190451182.235        -158.823          45.000    36574129.594   147268864.117        -122.913          48.000  
C14  22685933.087   118131591.862       -2268.172          46.000    22685918.380    91346786.450       -1753.936          50.000  
C16  37002242.886   192680388.074        -189.540          48.000    37002231.167   148992650.875        -146.667          48.000  
C24  21847952.624   113768025.513        -868.107          50.000                                                                  
C26  24445149.409   127292308.596       -2562.975          44.000                                                                  
G03  22889326.925   120284214.647        -136.883          40.000    22889322.100    93727935.982        -106.564          41.000  
G16  22411410.028   117772768.866        2974.521          41.000                                                                  
C09  37725570.037   196446944.536        -148.173          44.000    37725555.766   151905181.173        -114.259          48.000  
C25  23638707.008   123092958.044        1568.767          45.000                                                                  
C13  38378911.606   199849056.939       -2265.908          41.000    38378905.515   154535946.456       -1751.892          43.000  
C08  39209784.507   204175627.217       -2461.985          35.000    39209772.353   157881500.129       -1903.420          43.000  
C10  40490996.977   210847243.272         934.344          34.000    40490997.735   163040455.940         722.383          38.000  
C35  25951507.404   135136312.894         376.862          38.000                                                                  
C07  39553864.128   205967321.794        1120.208          38.000    39553853.757   159266975.999         866.183          40.000  
C12  26441126.838   137685874.714        2310.135          36.000    26441125.319   106467480.699        1785.936          44.000  
G25  24420461.799   128330400.746       -3914.866          32.000    24420455.426    99997678.721       -3049.958          35.000  
> 2025 10 30 06 20 45.4000000  0 23                     
G32  22039046.483   115815968.201       -2929.862          45.000    22039040.367    90246185.441       -2283.137          42.000  
G29  23076076.136   121265609.145        -603.247          42.000    23076067.931    94492652.188        -470.007          40.000  
G28  21260303.305   111723647.300       -1195.133          46.000    21260293.312    87057346.643        -931.221          47.000  
G26  20339948.091   106887147.513         672.375          48.000    20339940.599    83288667.741         523.870          46.000  
G31  20622248.110   108370644.079         146.618          47.000    20622237.857    84444616.723         114.331          45.000  
G04  24471933.931   128600855.886        3179.219          32.000    24471928.552   100208487.089        2477.300          34.000  
C33  22508885.096   117209666.321        -714.044          50.000                                                                  
C06  36574148.172   190451188.584        -158.772          45.000    36574130.821   147268869.029        -122.897          48.000  
C14  22685950.511   118131682.577       -2267.957          46.000    22685935.821    91346856.605       -1753.928          50.000  
C16  37002244.331   192680395.655        -189.550          48.000    37002232.629   148992656.731        -146.514          48.000  
C24  21847959.270   113768060.240        -868.172          50.000                                                                  
C26  24445169.108   127292411.102       -2562.776          44.000                                                                  
G03  22889327.981   120284220.124        -136.877          40.000    22889323.157    93727940.253        -106.646          41.000  
G16  22411387.404   117772649.890        2974.415          41.000                                                                  
C09  37725571.185   196446950.453        -148.026          44.000    37725556.904   151905185.747        -114.238          48.000  
C25  23638694.991   123092895.281        1568.952          45.000                                                                  
C13  38378929.004   199849147.559       -2265.617          41.000    38378922.923   154536016.536       -1752.004          43.000  
C08  39209803.404   204175725.670       -2461.559          35.000    39209791.255   157881576.258       -1903.365          43.000  
C10  40490989.786   210847205.920         933.958          34.000    40490990.569   163040427.046         722.320          38.000  
C35  25951504.508   135136297.833         376.623          38.000                                                                  
C07  39553855.523   205967276.978        1120.332          38.000    39553845.137   159266941.349         866.156          40.000  
C12  26441109.105   137685782.308        2310.258          36.000    26441107.581   106467409.251        1786.096          44.000  
G25  24420491.584   128330557.334       -3914.844          32.000    24420485.225    99997800.751       -3050.533          35.000  
> 2025 10 30 06 20 45.4400000  0 23                     
G32  22039068.781   115816085.390       -2929.754          45.000    22039062.666    90246276.769       -2283.217          42.000  
G29  23076080.713   121265633.255        -602.893          42.000    23076072.518    94492670.971        -469.707          40.000  
G28  21260312.413   111723695.097       -1195.011          46.000    21260302.416    87057383.887        -931.127          47.000  
G26  20339942.943   106887120.613         672.481          48.000    20339935.481    83288646.783         523.926          46.000  
G31  20622246.993   108370638.205         146.791          47.000    20622236.754    84444612.146         114.386          45.000  
G04  24471909.747   128600728.745        3178.780          32.000    24471904.338   100208387.996        2477.373          34.000  
C33  22508890.582   117209694.879        -713.981          50.000                                                                  
C06  36574149.380   190451194.925        -158.616          45.000    36574132.055   147268873.932        -122.686          48.000  
C14  22685967.940   118131773.298       -2267.985          46.000    22685953.252    91346926.751       -1753.763          50.000  
C16  37002245.786   192680403.228        -189.400          48.000    37002234.082   148992662.580        -146.302          48.000  
C24  21847965.952   113768094.961        -868.113          50.000                                                                  
C26  24445188.809   127292513.603       -2562.573          44.000                                                                  
G03  22889329.006   120284225.592        -136.733          40.000    22889324.186    93727944.516        -106.584          41.000  
G16  22411364.750   117772530.899        2974.626          41.000                                                                  
C09  37725572.332   196446956.373        -147.971          44.000    37725558.057   151905190.320        -114.274          48.000  
C25  23638682.942   123092832.515        1569.105          45.000                                                                  
C13  38378946.431   199849238.169       -2265.285          41.000    38378940.337   154536086.609       -1751.911          43.000  
C08  39209822.317   204175824.095       -2461.015          35.000    39209810.147   157881652.378       -1903.164          43.000  
C10  40490982.598   210847168.528         934.515          34.000    40490983.394   163040398.138         722.570          38.000  
C35  25951501.610   135136282.750         376.908          38.000                                                                  
C07  39553846.904   205967232.160        1120.430          38.000    39553836.494   159266906.691         866.267          40.000  
C12  26441091.344   137685689.899        2310.411          36.000    26441089.838   106467337.805        1786.127          44.000  
G25  24420521.380   128330713.867       -3913.921          32.000    24420515.013    99997922.746       -3050.226          35.000  
> 2025 10 30 06 20 45.4800000  0 23                     
G32  22039091.061   115816202.570       -2929.545          45.000    22039084.949    90246368.076       -2282.884          42.000  
G29  23076085.300   121265657.377        -602.978          42.000    23076077.114    94492689.761        -469.712          40.000  
G28  21260321.487   111723742.888       -1194.834          46.000    21260311.504    87057421.130        -931.095          47.000  
G26  20339937.805   106887093.710         672.611          48.000    20339930.349    83288625.814         524.150          46.000  
G31  20622245.876   108370632.323         146.999          47.000    20622235.642    84444607.565         114.497          45.000  
G04  24471885.536   128600601.564        3179.221          32.000    24471880.154   100208288.898        2477.477          34.000  
C33  22508896.052   117209723.431        -713.857          50.000                                                                  
C06  36574150.595   190451201.270        -158.574          45.000    36574133.257   147268878.831        -122.526          48.000  
C14  22685985.353   118131864.018       -2267.980          46.000    22685970.698    91346996.901       -1753.739          50.000  
C16  37002247.234   192680410.790        -189.139          48.000    37002235.588   148992668.431        -146.250          48.000  
C24  21847972.645   113768129.673        -867.891          50.000                                                                  
C26  24445208.491   127292616.107       -2562.522          44.000                                                                  
G03  22889330.064   120284231.076        -136.954          40.000    22889325.225    93727948.793        -106.849          41.000  
G16  22411342.123   117772411.910        2974.740          41.000                                                                  
C09  37725573.463   196446962.278        -147.688          44.000    37725559.192   151905194.892        -114.282          48.000  
C25  23638670.904   123092769.748        1569.222          45.000                                                                  
C13  38378963.827   199849328.776       -2265.052          41.000    38378957.722   154536156.683       -1751.862          43.000  
C08  39209841.223   204175922.528       -2460.831          36.000    39209829.054   157881728.505       -1903.183          43.000  
C10  40490975.424   210847131.139         934.711          34.000    40490976.180   163040369.242         722.485          38.000  
C35  25951498.723   135136267.681         376.748          38.000                                                                  
C07  39553838.289   205967187.343        1120.431          38.000    39553827.903   159266872.038         866.300          40.000  
C12  26441073.586   137685597.518        2309.892          36.000    26441072.094   106467266.356        1786.182          44.000  
G25  24420551.125   128330870.417       -3913.793          32.000    24420544.807    99998044.756       -3050.331          35.000  
> 2025 10 30 06 20 45.5200000  0 23                     
G32  22039113.352   115816319.759       -2929.610          45.000    22039107.221    90246459.376       -2282.586          42.000  
G29  23076089.912   121265681.492        -602.916          42.000    23076081.692    94492708.548        -469.728          40.000  
G28  21260330.580   111723790.679       -1194.756          46.000    21260320.599    87057458.374        -931.105          47.000  
G26  20339932.693   106887066.813         672.497          48.000    20339925.261    83288604.858         524.010          46.000  
G31  20622244.743   108370626.442         147.084          47.000    20622234.526    84444602.988         114.447          45.000  
G04  24471861.355   128600474.392        3179.201          32.000    24471855.966   100208189.810        2477.264          34.000  
C33  22508901.518   117209751.987        -713.853          50.000                                                                  
C06  36574151.836   190451207.609        -158.479          45.000    36574134.484   147268883.732        -122.500          48.000  
C14  22686002.762   118131954.737       -2267.982          46.000    22685988.109    91347067.048       -1753.677          50.000  
C16  37002248.680   192680418.355        -189.069          48.000    37002237.081   148992674.286        -146.335          48.000  
C24  21847979.336   113768164.386        -867.812          50.000                                                                  
C26  24445228.177   127292718.614       -2562.595          44.000                                                                  
G03  22889331.112   120284236.557        -137.009          40.000    22889326.262    93727953.068        -106.903          41.000  
G16  22411319.480   117772292.920        2974.779          41.000                                                                  
C09  37725574.582   196446968.190        -147.731          44.000    37725560.323   151905199.470        -114.390          48.000  
C25  23638658.845   123092706.982        1569.190          45.000                                                                  
C13  38378981.231   199849419.391       -2265.209          41.000    38378975.128   154536226.749       -1751.714          43.000  
C08  39209860.123   204176020.947       -2460.490          35.000    39209847.966   157881804.614       -1902.873          43.000  
C10  40490968.245   210847093.754         934.804          34.000    40490968.976   163040340.330         722.765          38.000  
C35  25951495.820   135136252.601         376.919          38.000                                                                  
C07  39553829.683   205967142.523        1120.481          38.000    39553819.304   159266837.389         866.221          40.000  
C12  26441055.845   137685505.115        2309.997          36.000    26441054.327   106467194.905        1786.243          44.000  
G25  24420580.910   128331027.029       -3914.963          32.000    24420574.592    99998166.741       -3049.890          35.000  
> 2025 10 30 06 20 45.5600000  0 23                     
G32  22039135.656   115816436.959       -2929.884          45.000    22039129.535    90246550.704       -2282.977          42.000  
G29  23076094.508   121265705.625        -603.206          42.000    23076086.275    94492727.341        -469.810          40.000  
G28  21260339.668   111723838.489       -1195.083          46.000    21260329.708    87057495.618        -931.114          47.000  
G26  20339927.593   106887039.918         672.385          48.000    20339920.151    83288583.905         523.861          46.000  
G31  20622243.631   108370620.581         146.689          47.000    20622233.398    84444598.416         114.335          45.000  
G04  24471837.153   128600347.226        3179.127          32.000    24471831.779   100208090.748        2476.487          34.000  
C33  22508906.965   117209780.561        -714.229          50.000                                                                  
C06  36574153.046   190451213.959        -158.658          45.000    36574135.670   147268888.647        -122.731          48.000  
C14  22686020.189   118132045.467       -2268.211          46.000    22686005.498    91347137.206       -1753.863          50.000  
C16  37002250.083   192680425.935        -189.367          48.000    37002238.540   148992680.147        -146.490          48.000  
C24  21847985.962   113768199.110        -868.002          50.000                                                                  
C26  24445247.843   127292821.139       -2562.975          44.000                                                                  
G03  22889332.158   120284242.037        -137.040          40.000    22889327.309    93727957.321        -106.530          41.000  
G16  22411296.846   117772173.950        2974.405          41.000                                                                  
C09  37725575.701   196446974.118        -148.044          44.000    37725561.445   151905204.050        -114.517          48.000  
C25  23638646.763   123092644.231        1568.869          45.000                                                                  
C13  38378998.654   199849510.026       -2265.697          41.000    38378992.519   154536296.817       -1751.703          43.000  
C08  39209879.037   204176119.441       -2461.693          35.000    39209866.879   157881880.754       -1903.253          42.000  
C10  40490961.040   210847056.377         934.601          34.000    40490961.804   163040311.433         722.615          38.000  
C35  25951492.908   135136237.536         376.703          38.000                                                                  
C07  39553821.060   205967097.711        1120.381          38.000    39553810.745   159266802.732         866.321          40.000  
C12  26441038.093   137685412.727        2309.725          36.000    26441036.561   106467123.458        1786.193          44.000  
G25  24420610.700   128331183.568       -3914.234          32.000    24420604.403    99998288.732       -3049.752          35.000  
> 2025 10 30 06 20 45.6000000  0 23                     
G32  22039157.955   115816554.159       -2930.002          45.000    22039151.839    90246642.035       -2283.251          42.000  
G29  23076099.125   121265729.766        -603.486          42.000    23076090.872    94492746.157        -470.260          40.000  
G28  21260348.781   111723886.303       -1195.321          46.000    21260338.807    87057532.872        -931.300          47.000  
G26  20339922.497   106887013.040         672.019          48.000    20339915.019    83288562.955         523.706          46.000  
G31  20622242.530   108370614.728         146.345          47.000    20622232.282    84444593.849         114.169          45.000  
G04  24471812.938   128600220.088        3178.661          32.000    24471807.596   100207991.656        2476.785          34.000  
C33  22508912.452   117209809.138        -714.472          50.000                                                                  
C06  36574154.264   190451220.317        -158.900          45.000    36574136.878   147268893.564        -122.925          48.000  
C14  22686037.601   118132136.205       -2268.436          46.000    22686022.941    91347207.367       -1754.014          50.000  
C16  37002251.518   192680433.522        -189.636          48.000    37002240.025   148992686.014        -146.681          48.000  
C24  21847992.626   113768233.848        -868.365          50.000                                                                  
C26  24445267.530   127292923.661       -2563.124          44.000                                                                  
G03  22889333.224   120284247.530        -137.284          40.000    22889328.351    93727961.596        -106.747          41.000  
G16  22411274.205   117772054.975        2974.301          41.000                                                                  
C09  37725576.843   196446980.046        -148.245          44.000    37725562.581   151905208.638        -114.704          48.000  
C25  23638634.671   123092581.494        1568.464          45.000                                                                  
C13  38379016.064   199849600.651       -2265.726          41.000    38379009.959   154536366.900       -1751.980          43.000  
C08  39209897.950   204176217.888       -2461.547          35.000    39209885.810   157881956.888       -1903.359          42.000  
C10  40490953.862   210847019.008         934.380          34.000    40490954.634   163040282.549         722.272          38.000  
C35  25951489.975   135136222.473         376.580          38.000                                                                  
C07  39553812.436   205967052.914        1120.060          38.000    39553802.128   159266768.083         866.266          40.000  
C12  26441020.363   137685320.332        2309.751          36.000    26441018.846   106467052.021        1785.940          44.000  
G25  24420640.512   128331340.136       -3914.327          32.000    24420634.187    99998410.735       -3049.949          35.000  
> 2025 10 30 06 20 45.6400000  0 23                     
G32  22039180.253   115816671.363       -2930.118          45.000    22039174.154    90246733.371       -2283.422          42.000  
G29  23076103.728   121265753.899        -603.449          42.000    23076095.469    94492764.967        -470.375          40.000  
G28  21260357.866   111723934.111       -1195.324          46.000    21260347.906    87057570.127        -931.393          47.000  
G26  20339917.376   106886986.150         672.090          48.000    20339909.896    83288541.997         523.814          46.000  
G31  20622241.392   108370608.859         146.513          47.000    20622231.192    84444589.277         114.232          45.000  
G04  24471788.728   128600092.941        3178.578          32.000    24471783.396   100207892.558        2477.139          34.000  
C33  22508917.952   117209837.699        -714.218          50.000                                                                  
C06  36574155.488   190451226.669        -158.883          45.000    36574138.082   147268898.471        -122.825          48.000  
C14  22686055.031   118132226.935       -2268.392          46.000    22686040.346    91347277.525       -1754.023          50.000  
C16  37002252.962   192680441.099        -189.588          48.000    37002241.479   148992691.876        -146.695          48.000  
C24  21847999.285   113768268.577        -868.375          50.000                                                                  
C26  24445287.221   127293026.177       -2563.065          44.000                                                                  
G03  22889334.267   120284253.010        -137.162          40.000    22889329.402    93727965.876        -106.967          41.000  
G16  22411251.566   117771936.007        2974.173          41.000                                                                  
C09  37725577.985   196446985.965        -148.105          44.000    37725563.699   151905213.213        -114.528          48.000  
C25  23638622.631   123092518.736        1568.712          45.000                                                                  
C13  38379033.465   199849691.285       -2265.904          41.000    38379027.363   154536436.983       -1752.121          43.000  
C08  39209916.859   204176316.344       -2461.562          35.000    39209904.722   157882033.035       -1903.601          43.000  
C10  40490946.678   210846981.653         933.971          34.000    40490947.444   163040253.641         722.524          38.000  
C35  25951487.068   135136207.404         376.671          38.000                                                                  
C07  39553803.837   205967008.107        1120.042          38.000    39553793.533   159266733.428         866.364          40.000  
C12  26441002.638   137685227.930        2309.974          36.000    26441001.116   106466980.571        1786.127          44.000  
G25  24420670.288   128331496.689       -3914.110          32.000    24420663.973    99998532.736       -3050.009          35.000  
> 2025 10 30 06 20 45.6800000  0 23                     
G32  22039202.540   115816788.554       -2929.931          45.000    22039196.472    90246824.687       -2283.164          42.000  
G29  23076108.318   121265778.013        -603.077          42.000    23076100.062    94492783.770        -470.218          40.000  
G28  21260366.942   111723981.897       -1194.931          46.000    21260357.011    87057607.376        -931.346          47.000  
G26  20339912.246   106886959.247         672.415          48.000    20339904.788    83288521.039         523.895          46.000  
G31  20622240.290   108370602.980         146.815          47.000    20622230.072    84444584.704         114.288          46.000  
G04  24471764.540   128599965.772        3178.943          32.000    24471759.210   100207793.472        2477.119          34.000  
C33  22508923.445   117209866.258        -714.065          50.000                                                                  
C06  36574156.706   190451233.008        -158.627          45.000    36574139.275   147268903.378        -122.771          48.000  
C14  22686072.454   118132317.655       -2268.148          46.000    22686057.749    91347347.673       -1753.812          50.000  
C16  37002254.427   192680448.668        -189.330          48.000    37002242.904   148992697.723        -146.394          48.000  
C24  21848005.965   113768303.292        -868.100          50.000                                                                  
C26  24445306.907   127293128.675       -2562.650          44.000                                                                  
G03  22889335.292   120284258.499        -137.262          40.000    22889330.432    93727970.156        -107.084          41.000  
G16  22411228.899   117771817.017        2974.524          41.000                                                                  
C09  37725579.110   196446991.872        -147.800          44.000    37725564.796   151905217.778        -114.255          48.000  
C25  23638610.580   123092455.964        1569.138          45.000                                                                  
C13  38379050.878   199849781.898       -2265.520          41.000    38379044.765   154536507.041       -1751.689          43.000  
C08  39209935.769   204176414.803       -2461.581          35.000    39209923.649   157882109.150       -1903.187          43.000  
C10  40490939.502   210846944.285         934.002          34.000    40490940.273   163040224.734         722.696          38.000  
C35  25951484.204   135136192.338         376.672          38.000                                                                  
C07  39553795.255   205966963.297        1120.085          38.000    39553784.923   159266698.772         866.427          40.000  
C12  26440984.903   137685135.515        2310.363          36.000    26440983.371   106466909.120        1786.274          44.000  
G25  24420700.071   128331653.269       -3914.462          32.000    24420693.765    99998654.749       -3050.227          35.000  
> 2025 10 30 06 20 45.7200000  0 23                     
G32  22039224.829   115816905.736       -2929.642          45.000    22039218.765    90246915.993       -2282.856          42.000  
G29  23076112.900   121265802.133        -602.979          42.000    23076104.678    94492802.566        -469.946          40.000  
G28  21260376.050   111724029.688       -1194.796          46.000    21260366.098    87057644.617        -931.152          47.000  
G26  20339907.117   106886932.354         672.364          48.000    20339899.685    83288500.083         523.882          45.000  
G31  20622239.185   108370597.104         146.932          47.000    20622228.948    84444580.126         114.380          46.000  
G04  24471740.345   128599838.584        3179.397          32.000    24471735.015   100207694.383        2477.129          34.000  
C33  22508928.937   117209894.818        -714.005          50.000                                                                  
C06  36574157.912   190451239.345        -158.396          45.000    36574140.522   147268908.277        -122.607          48.000  
C14  22686089.856   118132408.370       -2267.935          46.000    22686075.186    91347417.824       -1753.782          50.000  
C16  37002255.878   192680456.226        -189.036          48.000    37002244.360   148992703.569        -146.191          48.000  
C24  21848012.646   113768338.005        -867.893          50.000                                                                  
C26  24445326.586   127293231.173       -2562.415          44.000                                                                  
G03  22889336.322   120284263.978        -137.110          40.000    22889331.466    93727974.426        -106.937          41.000  
G16  22411206.244   117771698.031        2974.643          41.000                                                                  
C09  37725580.246   196446997.779        -147.665          44.000    37725565.924   151905222.345        -114.152          48.000  
C25  23638598.540   123092393.201        1569.148          45.000                                                                  
C13  38379068.272   199849872.509       -2265.305          41.000    38379062.154   154536577.118       -1751.838          43.000  
C08  39209954.675   204176513.242       -2461.272          35.000    39209942.538   157882185.266       -1902.984          42.000  
C10  40490932.347   210846906.898         934.398          34.000    40490933.079   163040195.820         722.843          38.000  
C35  25951481.313   135136177.255         377.005          38.000                                                                  
C07  39553786.659   205966918.461        1120.579          38.000    39553776.328   159266664.110         866.492          40.000  
C12  26440967.146   137685043.130        2309.960          36.000    26440965.586   106466837.672        1786.255          44.000  
G25  24420729.862   128331809.846       -3914.551          32.000    24420723.551    99998776.730       -3049.851          35.000  
> 2025 10 30 06 20 45.7600000  0 23                     
G32  22039247.144   115817022.927       -2929.708          45.000    22039241.080    90247007.313       -2282.906          42.000  
G29  23076117.492   121265826.262        -603.107          42.000    23076109.283    94492821.371        -470.037          40.000  
G28  21260385.166   111724077.492       -1194.963          46.000    21260375.182    87057681.859        -931.063          47.000  
G26  20339902.009   106886905.469         672.176          48.000    20339894.572    83288479.135         523.714          45.000  
G31  20622238.091   108370591.235         146.826          47.000    20622227.817    84444575.550         114.392          46.000  
G04  24471716.159   128599711.409        3179.422          32.000    24471710.814   100207595.290        2477.150          34.000  
C33  22508934.417   117209923.381        -714.058          50.000                                                                  
C06  36574159.097   190451245.688        -158.420          45.000    36574141.726   147268913.183        -122.634          48.000  
C14  22686107.265   118132499.096       -2268.061          46.000    22686092.619    91347487.982       -1753.917          50.000  
C16  37002257.327   192680463.798        -189.143          48.000    37002245.803   148992709.424        -146.302          48.000  
C24  21848019.286   113768372.725        -867.934          50.000                                                                  
C26  24445346.256   127293333.692       -2562.747          44.000                                                                  
G03  22889337.352   120284269.461        -137.091          40.000    22889332.516    93727978.697        -106.816          41.000  
G16  22411183.633   117771579.060        2974.460          41.000                                                                  
C09  37725581.359   196447003.687        -147.605          44.000    37725567.073   151905226.915        -114.202          48.000  
C25  23638586.491   123092330.441        1569.055          45.000                                                                  
C13  38379085.675   199849963.125       -2265.331          41.000    38379079.573   154536647.188       -1751.807          43.000  
C08  39209973.577   204176611.666       -2460.722          35.000    39209961.468   157882261.395       -1903.113          42.000  
C10  40490925.162   210846869.498         934.798          34.000    40490925.920   163040166.908         722.804          38.000  
C35  25951478.411   135136162.178         377.033          38.000                                                                  
C07  39553778.044   205966873.625        1120.835          38.000    39553767.725   159266629.447         866.552          40.000  
C12  26440949.430   137684950.724        2310.096          36.000    26440947.838   106466766.214        1786.403          44.000  
G25  24420759.656   128331966.419       -3914.416          32.000    24420753.356    99998898.741       -3050.081          35.000  
> 2025 10 30 06 20 45.8000000  0 23                     
G32  22039269.464   115817140.126       -2929.912          45.000    22039263.409    90247098.636       -2283.040          42.000  
G29  23076122.098   121265850.396        -603.335          42.000    23076113.861    94492840.173        -470.051          40.000  
G28  21260394.276   111724125.294       -1195.056          46.000    21260384.275    87057719.106        -931.138          47.000  
G26  20339896.902   106886878.579         672.165          48.000    20339889.442    83288458.184         523.696          46.000  
G31  20622236.992   108370585.368         146.721          47.000    20622226.694    84444570.977         114.355          46.000  
G04  24471691.941   128599584.270        3178.802          32.000    24471686.595   100207496.201        2477.114          34.000  
C33  22508939.871   117209951.956        -714.305          50.000                                                                  
C06  36574160.286   190451252.032        -158.513          45.000    36574142.959   147268918.091        -122.694          48.000  
C14  22686124.688   118132589.829       -2268.278          46.000    22686110.027    91347558.145       -1754.081          50.000  
C16  37002258.771   192680471.372        -189.303          48.000    37002247.243   148992715.282        -146.447          48.000  
C24  21848025.907   113768407.451        -868.068          50.000                                                                  
C26  24445365.932   127293436.200       -2562.780          44.000                                                                  
G03  22889338.403   120284274.946        -137.123          40.000    22889333.553    93727982.982        -107.082          41.000  
G16  22411161.005   117771460.074        2974.614          41.000                                                                  
C09  37725582.462   196447009.606        -147.838          44.000    37725568.222   151905231.494        -114.399          48.000  
C25  23638574.420   123092267.695        1568.722          45.000                                                                  
C13  38379103.093   199850053.746       -2265.449          41.000    38379096.994   154536717.267       -1751.980          43.000  
C08  39209992.474   204176710.113       -2460.897          36.000    39209980.391   157882337.526       -1903.241          42.000  
C10  40490917.986   210846832.124         934.590          34.000    40490918.725   163040138.016         722.442          38.000  
C35  25951475.521   135136147.122         376.596          38.000                                                                  
C07  39553769.452   205966828.810        1120.605          38.000    39553759.128   159266594.813         865.996          40.000  
C12  26440931.686   137684858.314        2310.262          36.000    26440930.101   106466694.774        1786.112          44.000  
G25  24420789.439   128332122.987       -3914.234          32.000    24420783.149    99999020.745       -3050.055          35.000  
> 2025 10 30 06 20 45.8400000  0 23                     
G32  22039291.793   115817257.334       -2930.153          45.000    22039285.707    90247189.965       -2283.219          42.000  
G29  23076126.677   121265874.531        -603.458          42.000    23076118.449    94492858.968        -469.938          40.000  
G28  21260403.389   111724173.106       -1195.261          46.000    21260393.373    87057756.357        -931.260          47.000  
G26  20339891.811   106886851.698         672.016          48.000    20339884.337    83288437.233         523.710          46.000  
G31  20622235.901   108370579.506         146.555          47.000    20622225.588    84444566.411         114.182          46.000  
G04  24471667.737   128599457.087        3179.157          32.000    24471662.419   100207397.113        2477.119          34.000  
C33  22508945.346   117209980.533        -714.460          50.000                                                                  
C06  36574161.515   190451258.390        -158.795          45.000    36574144.209   147268923.003        -122.799          48.000  
C14  22686142.100   118132680.564       -2268.460          46.000    22686127.447    91347628.301       -1754.028          50.000  
C16  37002260.233   192680478.950        -189.470          48.000    37002248.687   148992721.140        -146.517          48.000  
C24  21848032.542   113768442.181        -868.243          50.000                                                                  
C26  24445385.611   127293538.718       -2562.943          44.000                                                                  
G03  22889339.467   120284280.435        -137.237          40.000    22889334.595    93727987.252        -106.885          41.000  
G16  22411138.369   117771341.103        2974.415          41.000                                                                  
C09  37725583.615   196447015.523        -147.965          44.000    37725569.342   151905236.075        -114.537          48.000  
C25  23638562.373   123092204.938        1568.797          45.000                                                                  
C13  38379120.485   199850144.376       -2265.720          41.000    38379114.380   154536787.346       -1752.010          43.000  
C08  39210011.362   204176808.569       -2461.180          35.000    39209999.271   157882413.665       -1903.456          42.000  
C10  40490910.812   210846794.743         934.563          34.000    40490911.576   163040109.129         722.194          38.000  
C35  25951472.642   135136132.067         376.308          38.000                                                                  
C07  39553760.848   205966784.004        1120.232          38.000    39553750.522   159266560.167         865.929          40.000  
C12  26440913.942   137684765.942        2309.645          36.000    26440912.363   106466623.345        1785.718          44.000  
G25  24420819.242   128332279.546       -3914.033          32.000    24420812.951    99999142.741       -3049.910          35.000  
> 2025 10 30 06 20 45.8800000  0 23                     
G32  22039314.099   115817374.542       -2930.241          45.000    22039308.017    90247281.298       -2283.356          42.000  
G29  23076131.275   121265898.672        -603.581          42.000    23076123.033    94492877.783        -470.293          40.000  
G28  21260412.501   111724220.926       -1195.511          46.000    21260402.478    87057793.617        -931.489          47.000  
G26  20339886.698   106886824.812         672.055          48.000    20339879.226    83288416.285         523.679          46.000  
G31  20622234.783   108370573.648         146.420          47.000    20622224.473    84444561.846         114.109          46.000  
G04  24471643.556   128599329.906        3179.466          32.000    24471638.218   100207298.026        2477.135          34.000  
C33  22508950.858   117210009.111        -714.525          50.000                                                                  
C06  36574162.708   190451264.750        -158.993          45.000    36574145.439   147268927.917        -122.902          48.000  
C14  22686159.537   118132771.301       -2268.558          46.000    22686144.854    91347698.465       -1754.109          50.000  
C16  37002261.706   192680486.531        -189.567          48.000    37002250.153   148992727.005        -146.675          48.000  
C24  21848039.200   113768476.917        -868.421          50.000                                                                  
C26  24445405.309   127293641.227       -2562.885          44.000                                                                  
G03  22889340.515   120284285.942        -137.632          40.000    22889335.637    93727991.525        -106.867          41.000  
G16  22411115.745   117771222.135        2974.211          41.000                                                                  
C09  37725584.747   196447021.454        -148.267          44.000    37725570.483   151905240.660        -114.667          48.000  
C25  23638550.326   123092142.189        1568.705          45.000                                                                  
C13  38379137.901   199850235.004       -2265.799          41.000    38379131.792   154536857.420       -1751.936          43.000  
C08  39210030.270   204176907.026       -2461.406          35.000    39210018.172   157882489.791       -1903.303          42.000  
C10  40490903.621   210846757.378         934.207          34.000    40490904.403   163040080.238         722.189          38.000  
C35  25951469.770   135136117.014         376.091          38.000                                                                  
C07  39553752.253   205966739.221        1119.614          38.000    39553741.913   159266525.514         866.029          40.000  
C12  26440896.208   137684673.548        2309.715          36.000    26440894.613   106466551.899        1785.911          44.000  
G25  24420849.027   128332436.098       -3913.868          32.000    24420842.728    99999264.758       -3050.259          35.000  
> 2025 10 30 06 20 45.9200000  0 23                     
G32  22039336.394   115817491.751       -2930.314          45.000    22039330.323    90247372.633       -2283.433          42.000  
G29  23076135.857   121265922.813        -603.666          42.000    23076127.663    94492896.602        -470.547          40.000  
G28  21260421.604   111724268.729       -1195.333          46.000    21260411.577    87057830.871        -931.471          47.000  
G26  20339881.581   106886797.931         672.025          48.000    20339874.107    83288395.340         523.631          46.000  
G31  20622233.658   108370567.780         146.551          47.000    20622223.343    84444557.272         114.258          46.000  
G04  24471619.382   128599202.785        3178.409          32.000    24471614.018   100207198.928        2477.364          34.000  
C33  22508956.392   117210037.684        -714.465          50.000                                                                  
C06  36574163.926   190451271.102        -158.909          45.000    36574146.684   147268932.828        -122.861          48.000  
C14  22686176.977   118132862.042       -2268.615          46.000    22686162.271    91347768.629       -1754.144          50.000  
C16  37002263.203   192680494.112        -189.600          48.000    37002251.606   148992732.863        -146.584          48.000  
C24  21848045.919   113768511.650        -868.459          50.000                                                                  
C26  24445424.991   127293743.755       -2563.101          44.000                                                                  
G03  22889341.557   120284291.440        -137.627          40.000    22889336.690    93727995.806        -107.006          41.000  
G16  22411093.105   117771103.172        2974.049          41.000                                                                  
C09  37725585.891   196447027.373        -148.139          44.000    37725571.625   151905245.234        -114.498          48.000  
C25  23638538.278   123092079.430        1568.866          45.000                                                                  
C13  38379155.271   199850325.639       -2265.934          41.000    38379149.205   154536927.508       -1752.157          43.000  
C08  39210049.149   204177005.490       -2461.686          35.000    39210037.076   157882565.918       -1903.265          42.000  
C10  40490896.429   210846720.007         934.109          34.000    40490897.226   163040051.346         722.192          38.000  
C35  25951466.869   135136101.939         376.454          38.000                                                                  
C07  39553743.664   205966694.411        1119.885          38.000    39553733.322   159266490.861         866.161          40.000  
C12  26440878.490   137684581.161        2309.617          36.000    26440876.878   106466480.447        1786.146          44.000  
G25  24420878.842   128332592.697       -3914.635          32.000    24420872.518    99999386.756       -3050.193          35.000  
> 2025 10 30 06 20 45.9600000  0 23                     
G32  22039358.683   115817608.959       -2930.310          45.000    22039352.626    90247463.953       -2283.196          42.000  
G29  23076140.472   121265946.954        -603.645          42.000    23076132.255    94492915.408        -470.386          40.000  
G28  21260430.697   111724316.532       -1195.197          46.000    21260420.640    87057868.121        -931.407          47.000  
G26  20339876.490   106886771.053         671.938          48.000    20339868.976    83288374.392         523.669          46.000  
G31  20622232.530   108370561.922         146.433          47.000    20622222.203    84444552.706         114.184          46.000  
G04  24471595.170   128599075.624        3178.647          32.000    24471589.828   100207099.821        2477.713          34.000  
C33  22508961.868   117210066.257        -714.420          50.000                                                                  
C06  36574165.158   190451277.448        -158.776          45.000    36574147.931   147268937.743        -122.904          48.000  
C14  22686194.396   118132952.775       -2268.491          46.000    22686179.681    91347838.792       -1754.117          50.000  
C16  37002264.686   192680501.688        -189.514          48.000    37002253.051   148992738.719        -146.491          48.000  
C24  21848052.624   113768546.379        -868.368          50.000                                                                  
C26  24445444.702   127293846.271       -2563.027          44.000                                                                  
G03  22889342.601   120284296.930        -137.441          40.000    22889337.739    93728000.104        -107.400          41.000  
G16  22411070.477   117770984.204        2974.073          41.000                                                                  
C09  37725587.034   196447033.307        -148.373          44.000    37725572.762   151905249.815        -114.530          48.000  
C25  23638526.217   123092016.678        1568.823          45.000                                                                  
C13  38379172.676   199850416.259       -2265.748          41.000    38379166.615   154536997.584       -1752.058          43.000  
C08  39210068.040   204177103.960       -2461.899          35.000    39210055.992   157882642.046       -1903.245          42.000  
C10  40490889.263   210846682.652         933.835          34.000    40490890.062   163040022.453         722.238          38.000  
C35  25951463.960   135136086.879         376.469          38.000                                                                  
C07  39553735.063   205966649.606        1119.952          38.000    39553724.702   159266456.193         866.516          40.000  
C12  26440860.747   137684488.762        2309.808          36.000    26440859.123   106466409.006        1786.090          44.000  
G25  24420908.661   128332749.269       -3914.294          32.000    24420902.316    99999508.761       -3050.215          35.000  
> 2025 10 30 06 20 46.0000000  0 23                     
G32  22039380.967   115817726.159       -2930.145          45.000    22039374.909    90247555.272       -2283.057          42.000  
G29  23076145.052   121265971.096        -603.636          42.000    23076136.844    94492934.214        -470.265          40.000  
G28  21260439.793   111724364.339       -1195.214          46.000    21260429.740    87057905.380        -931.464          47.000  
G26  20339871.383   106886744.176         671.877          48.000    20339863.841    83288353.443         523.700          46.000  
G31  20622231.410   108370556.062         146.428          47.000    20622221.101    84444548.140         114.104          46.000  
G04  24471570.974   128598948.468        3178.834          32.000    24471565.640   100207000.744        2477.302          34.000  
C33  22508967.346   117210094.835        -714.490          50.000                                                                  
C06  36574166.376   190451283.799        -158.743          45.000    36574149.172   147268942.646        -122.698          48.000  
C14  22686211.817   118133043.510       -2268.421          46.000    22686197.108    91347908.953       -1754.072          50.000  
C16  37002266.167   192680509.265        -189.459          48.000    37002254.536   148992744.579        -146.506          48.000  
C24  21848059.291   113768581.109        -868.307          50.000                                                                  
C26  24445464.382   127293948.788       -2562.993          44.000                                                                  
G03  22889343.624   120284302.423        -137.385          40.000    22889338.780    93728004.388        -107.295          41.000  
G16  22411047.811   117770865.230        2974.198          41.000                                                                  
C09  37725588.171   196447039.225        -148.179          44.000    37725573.895   151905254.391        -114.466          48.000  
C25  23638514.156   123091953.925        1568.785          45.000                                                                  
C13  38379190.087   199850506.887       -2265.705          41.000    38379183.974   154537067.664       -1752.064          43.000  
C08  39210086.954   204177202.424       -2461.906          35.000    39210074.913   157882718.182       -1903.356          42.000  
C10  40490882.064   210846645.269         934.354          34.000    40490882.868   163039993.539         722.629          38.000  
C35  25951461.071   135136071.827         376.344          38.000                                                                  
C07  39553726.449   205966604.787        1120.242          38.000    39553716.095   159266421.550         866.279          40.000  
C12  26440842.998   137684396.356        2310.092          36.000    26440841.405   106466337.562        1786.108          44.000  
G25  24420938.473   128332905.846       -3914.348          33.000    24420932.129    99999630.776       -3050.349          35.000  
> 2025 10 30 06 20 46.0400000  0 23                     
G32  22039403.239   115817843.350       -2929.868          45.000    22039397.220    90247646.599       -2283.119          42.000  
G29  23076149.627   121265995.236        -603.598          42.000    23076141.428    94492953.019        -470.190          40.000  
G28  21260448.898   111724412.149       -1195.276          46.000    21260438.831    87057942.631        -931.376          47.000  
G26  20339866.269   106886717.294         671.940          48.000    20339858.706    83288332.495         523.674          46.000  
G31  20622230.274   108370550.199         146.521          47.000    20622219.999    84444543.572         114.141          46.000  
G04  24471546.799   128598821.276        3179.608          32.000    24471541.452   100206901.685        2476.697          34.000  
C33  22508972.844   117210123.407        -714.374          50.000                                                                  
C06  36574167.618   190451290.146        -158.694          45.000    36574150.375   147268947.550        -122.617          48.000  
C14  22686229.244   118133134.245       -2268.383          46.000    22686214.527    91347979.111       -1753.983          50.000  
C16  37002267.597   192680516.841        -189.429          48.000    37002256.000   148992750.433        -146.395          48.000  
C24  21848065.987   113768615.834        -868.204          50.000                                                                  
C26  24445484.106   127294051.291       -2562.731          44.000                                                                  
G03  22889344.679   120284307.909        -137.267          40.000    22889339.812    93728008.662        -106.970          41.000  
G16  22411025.168   117770746.254        2974.332          41.000                                                                  
C09  37725589.300   196447045.132        -147.849          44.000    37725575.051   151905258.962        -114.333          48.000  
C25  23638502.081   123091891.172        1568.773          45.000                                                                  
C13  38379207.500   199850597.517       -2265.748          41.000    38379201.383   154537137.737       -1751.916          43.000  
C08  39210105.859   204177300.880       -2461.629          35.000    39210093.814   157882794.308       -1903.263          42.000  
C10  40490874.884   210846607.885         934.644          34.000    40490875.672   163039964.631         722.746          38.000  
C35  25951458.192   135136056.776         376.270          38.000                                                                  
C07  39553717.851   205966559.964        1120.464          38.000    39553707.477   159266386.894         866.382          40.000  
C12  26440825.255   137684303.960        2310.029          36.000    26440823.683   106466266.110        1786.275          44.000  
G25  24420968.239   128333062.407       -3914.149          33.000    24420961.929    99999752.755       -3049.855          35.000  
> 2025 10 30 06 20 46.0800000  0 23                     
G32  22039425.524   115817960.553       -2929.938          45.000    22039419.516    90247737.926       -2283.131          42.000  
G29  23076154.216   121266019.375        -603.554          42.000    23076146.022    94492971.824        -470.141          41.000  
G28  21260457.988   111724459.946       -1195.047          46.000    21260447.935    87057979.876        -931.231          47.000  
G26  20339861.134   106886690.400         672.214          48.000    20339853.591    83288311.546         523.687          46.000  
G31  20622229.143   108370544.327         146.724          47.000    20622218.877    84444539.003         114.178          46.000  
G04  24471522.595   128598694.124        3179.120          32.000    24471517.278   100206802.620        2476.521          34.000  
C33  22508978.341   117210151.982        -714.381          50.000                                                                  
C06  36574168.842   190451296.482        -158.423          45.000    36574151.573   147268952.458        -122.662          48.000  
C14  22686246.695   118133224.972       -2268.193          46.000    22686231.935    91348049.278       -1754.093          50.000  
C16  37002269.044   192680524.410        -189.287          48.000    37002257.464   148992756.286        -146.312          48.000  
C24  21848072.648   113768650.553        -868.031          50.000                                                                  
C26  24445503.806   127294153.794       -2562.560          44.000                                                                  
G03  22889345.728   120284313.393        -137.156          40.000    22889340.843    93728012.945        -107.024          41.000  
G16  22411002.527   117770627.278        2974.413          41.000                                                                  
C09  37725590.438   196447051.040        -147.695          44.000    37725576.164   151905263.534        -114.285          48.000  
C25  23638490.018   123091828.413        1568.859          45.000                                                                  
C13  38379224.885   199850688.123       -2265.323          41.000    38379218.761   154537207.816       -1751.948          43.000  
C08  39210124.742   204177399.302       -2460.866          35.000    39210112.710   157882870.434       -1903.212          42.000  
C10  40490867.713   210846570.521         934.377          34.000    40490868.497   163039935.715         722.931          38.000  
C35  25951455.263   135136041.706         376.599          38.000                                                                  
C07  39553709.222   205966515.108        1121.094          38.000    39553698.880   159266352.248         866.205          40.000  
C12  26440807.493   137684211.568        2309.843          36.000    26440805.894   106466194.656        1786.354          44.000  
G25  24420998.047   128333218.966       -3913.961          33.000    24420991.737    99999874.794       -3050.607          35.000  
> 2025 10 30 06 20 46.1200000  0 23                     
G32  22039447.816   115818077.754       -2929.987          45.000    22039441.812    90247829.243       -2282.988          42.000  
G29  23076158.806   121266043.503        -603.315          42.000    23076150.617    94492990.638        -470.267          41.000  
G28  21260467.064   111724507.744       -1194.973          46.000    21260457.036    87058017.128        -931.307          47.000  
G26  20339856.003   106886663.516         672.149          48.000    20339848.486    83288290.598         523.668          46.000  
G31  20622228.039   108370538.464         146.662          47.000    20622217.772    84444534.432         114.208          46.000  
G04  24471498.396   128598566.960        3179.032          32.000    24471493.081   100206703.529        2476.879          34.000  
C33  22508983.856   117210180.557        -714.388          50.000                                                                  
C06  36574170.074   190451302.825        -158.433          45.000    36574152.802   147268957.369        -122.750          48.000  
C14  22686264.132   118133315.700       -2268.165          46.000    22686249.344    91348119.439       -1754.086          50.000  
C16  37002270.507   192680531.978        -189.194          48.000    37002258.924   148992762.143        -146.382          48.000  
C24  21848079.273   113768685.281        -868.123          50.000                                                                  
C26  24445523.491   127294256.312       -2562.794          44.000                                                                  
G03  22889346.771   120284318.898        -137.510          40.000    22889341.888    93728017.228        -107.096          41.000  
G16  22410979.885   117770508.309        2974.287          41.000                                                                  
C09  37725591.561   196447056.956        -147.789          44.000    37725577.288   151905268.110        -114.364          48.000  
C25  23638477.968   123091765.654        1568.927          45.000                                                                  
C13  38379242.290   199850778.743       -2265.417          41.000    38379236.140   154537277.885       -1751.800          43.000  
C08  39210143.629   204177497.751       -2460.974          35.000    39210131.583   157882946.571       -1903.416          42.000  
C10  40490860.512   210846533.143         934.367          34.000    40490861.284   163039906.811         722.787          38.000  
C35  25951452.350   135136026.642         376.660          38.000                                                                  
C07  39553700.632   205966470.290        1120.739          38.000    39553690.274   159266317.584         866.464          40.000  
C12  26440789.751   137684119.187        2309.498          36.000    26440788.169   106466123.202        1786.384          44.000  
G25  24421027.867   128333375.556       -3914.431          33.000    24421021.527    99999996.795       -3050.284          35.000  
> 2025 10 30 06 20 46.1600000  0 23                     
G32  22039470.138   115818194.965       -2930.201          45.000    22039464.122    90247920.572       -2283.115          42.000  
G29  23076163.407   121266067.646        -603.456          42.000    23076155.205    94493009.450        -470.304          41.000  
G28  21260476.175   111724555.559       -1195.224          46.000    21260466.140    87058054.377        -931.302          47.000  
G26  20339850.913   106886636.640         671.944          48.000    20339843.394    83288269.656         523.568          46.000  
G31  20622226.926   108370532.599         146.636          47.000    20622216.673    84444529.862         114.252          45.000  
G04  24471474.218   128598439.785        3179.370          32.000    24471468.881   100206604.405        2477.657          34.000  
C33  22508989.341   117210209.135        -714.451          50.000                                                                  
C06  36574171.264   190451309.175        -158.608          45.000    36574153.981   147268962.275        -122.694          48.000  
C14  22686281.557   118133406.442       -2268.408          46.000    22686266.779    91348189.602       -1754.079          50.000  
C16  37002271.945   192680539.554        -189.337          48.000    37002260.394   148992768.005        -146.526          48.000  
C24  21848085.921   113768720.014        -868.299          50.000                                                                  
C26  24445543.195   127294358.823       -2562.784          44.000                                                                  
G03  22889347.792   120284324.410        -137.821          40.000    22889342.918    93728021.514        -107.157          41.000  
G16  22410957.226   117770389.335        2974.295          41.000                                                                  
C09  37725592.705   196447062.879        -147.973          44.000    37725578.405   151905272.688        -114.459          48.000  
C25  23638465.908   123091702.910        1568.687          45.000                                                                  
C13  38379259.661   199850869.365       -2265.529          41.000    38379253.520   154537347.969       -1752.010          43.000  
C08  39210162.525   204177596.199       -2461.089          35.000    39210150.504   157883022.698       -1903.295          42.000  
C10  40490853.354   210846495.753         934.587          34.000    40490854.135   163039877.920         722.484          38.000  
C35  25951449.477   135136011.581         376.607          38.000                                                                  
C07  39553692.036   205966425.506        1119.879          38.000    39553681.676   159266282.931         866.366          40.000  
C12  26440772.012   137684026.773        2310.061          36.000    26440770.434   106466051.756        1786.198          44.000  
G25  24421057.644   128333532.128       -3914.460          33.000    24421051.320   100000118.811       -3050.393          35.000  
> 2025 10 30 06 20 46.2000000  0 23                     
G32  22039492.464   115818312.177       -2930.333          45.000    22039486.421    90248011.916       -2283.503          42.000  
G29  23076168.026   121266091.795        -603.683          42.000    23076159.809    94493028.264        -470.340          40.000  
G28  21260485.280   111724603.371       -1195.299          46.000    21260475.225    87058091.631        -931.387          47.000  
G26  20339845.811   106886609.762         671.902          48.000    20339838.266    83288248.714         523.507          46.000  
G31  20622225.812   108370526.738         146.519          47.000    20622215.545    84444525.289         114.282          45.000  
G04  24471449.989   128598312.606        3179.489          32.000    24471444.694   100206505.319        2477.397          34.000  
C33  22508994.789   117210237.720        -714.603          50.000                                                                  
C06  36574172.479   190451315.530        -158.779          45.000    36574155.180   147268967.185        -122.756          48.000  
C14  22686298.964   118133497.186       -2268.597          46.000    22686284.221    91348259.767       -1754.130          50.000  
C16  37002273.389   192680547.127        -189.375          48.000    37002261.861   148992773.862        -146.498          48.000  
C24  21848092.564   113768754.747        -868.360          50.000                                                                  
C26  24445562.901   127294461.346       -2563.016          44.000                                                                  
G03  22889348.832   120284329.909        -137.696          40.000    22889343.978    93728025.793        -107.081          41.000  
G16  22410934.594   117770270.373        2974.062          41.000                                                                  
C09  37725593.872   196447068.796        -147.972          44.000    37725579.519   151905277.269        -114.540          48.000  
C25  23638453.858   123091640.166        1568.570          45.000                                                                  
C13  38379277.058   199850960.006       -2265.904          41.000    38379270.933   154537418.047       -1752.003          43.000  
C08  39210181.458   204177694.690       -2462.006          35.000    39210169.442   157883098.818       -1903.109          42.000  
C10  40490846.192   210846458.357         934.838          34.000    40490846.940   163039849.011         722.619          38.000  
C35  25951446.596   135135996.536         376.273          38.000                                                                  
C07  39553683.442   205966380.697        1119.980          38.000    39553673.063   159266248.284         866.193          40.000  
C12  26440754.267   137683934.376        2309.948          36.000    26440752.695   106465980.320        1785.927          44.000  
G25  24421087.428   128333688.693       -3914.211          32.000    24421081.104   100000240.797       -3049.957          35.000  
> 2025 10 30 06 20 46.2400000  0 23                     
G32  22039514.766   115818429.380       -2930.224          45.000    22039508.724    90248103.256       -2283.597          42.000  
G29  23076172.618   121266115.942        -603.749          42.000    23076164.393    94493047.078        -470.358          40.000  
G28  21260494.387   111724651.179       -1195.273          46.000    21260484.326    87058128.884        -931.377          47.000  
G26  20339840.678   106886582.889         671.803          48.000    20339833.154    83288227.771         523.527          46.000  
G31  20622224.695   108370520.874         146.544          47.000    20622214.427    84444520.729         114.054          45.000  
G04  24471425.810   128598185.465        3178.918          32.000    24471420.504   100206406.227        2477.391          34.000  
C33  22509000.283   117210266.303        -714.645          50.000                                                                  
C06  36574173.707   190451321.879        -158.781          45.000    36574156.399   147268972.093        -122.748          48.000  
C14  22686316.391   118133587.933       -2268.687          46.000    22686301.658    91348329.933       -1754.167          50.000  
C16  37002274.809   192680554.705        -189.457          48.000    37002263.326   148992779.721        -146.530          48.000  
C24  21848099.236   113768789.476        -868.297          50.000                                                                  
C26  24445582.621   127294563.854       -2562.885          44.000                                                                  
G03  22889349.868   120284335.400        -137.488          40.000    22889345.023    93728030.071        -106.974          41.000  
G16  22410911.947   117770151.397        2974.227          41.000                                                                  
C09  37725594.994   196447074.718        -148.033          44.000    37725580.694   151905281.838        -114.354          48.000  
C25  23638441.833   123091577.418        1568.590          45.000                                                                  
C13  38379294.463   199851050.635       -2265.847          41.000    38379288.317   154537488.118       -1751.861          43.000  
C08  39210200.362   204177793.131       -2461.503          35.000    39210188.331   157883174.947       -1903.162          42.000  
C10  40490839.019   210846421.000         934.238          34.000    40490839.770   163039820.115         722.467          38.000  
C35  25951443.707   135135981.473         376.407          38.000                                                                  
C07  39553674.825   205966335.875        1120.282          38.000    39553664.477   159266213.634         866.179          40.000  
C12  26440736.537   137683841.969        2310.077          36.000    26440734.930   106465908.875        1785.972          44.000  
G25  24421117.195   128333845.259       -3914.103          33.000    24421110.896   100000362.790       -3049.817          35.000  
> 2025 10 30 06 20 46.2800000  0 23                     
G32  22039537.066   115818546.582       -2930.133          45.000    22039531.032    90248194.582       -2283.351          42.000  
G29  23076177.205   121266140.076        -603.540          42.000    23076168.991    94493065.894        -470.440          40.000  
G28  21260503.482   111724698.984       -1195.198          46.000    21260493.435    87058166.131        -931.266          47.000  
G26  20339835.574   106886556.010         671.892          48.000    20339828.036    83288206.826         523.571          46.000  
G31  20622223.574   108370515.016         146.465          47.000    20622213.307    84444516.160         114.104          45.000  
G04  24471401.603   128598058.313        3178.718          32.000    24471396.315   100206307.130        2477.477          34.000  
C33  22509005.808   117210294.879        -714.528          50.000                                                                  
C06  36574174.944   190451328.224        -158.712          45.000    36574157.626   147268977.002        -122.732          48.000  
C14  22686333.782   118133678.672       -2268.615          46.000    22686319.078    91348400.099       -1754.185          50.000  
C16  37002276.268   192680562.277        -189.364          48.000    37002264.796   148992785.569        -146.340          48.000  
C24  21848105.893   113768824.203        -868.239          50.000                                                                  
C26  24445602.325   127294666.366       -2562.844          44.000                                                                  
G03  22889350.921   120284340.893        -137.414          40.000    22889346.059    93728034.360        -107.139          41.000  
G16  22410889.306   117770032.425        2974.268          41.000                                                                  
C09  37725596.137   196447080.627        -147.830          44.000    37725581.837   151905286.413        -114.368          48.000  
C25  23638429.781   123091514.663        1568.769          45.000                                                                  
C13  38379311.863   199851141.251       -2265.532          41.000    38379305.733   154537558.181       -1751.665          43.000  
C08  39210219.286   204177891.575       -2461.262          35.000    39210207.229   157883251.074       -1903.207          42.000  
C10  40490831.843   210846383.610         934.555          34.000    40490832.609   163039791.207         722.634          38.000  
C35  25951440.820   135135966.409         376.514          38.000                                                                  
C07  39553666.225   205966291.067        1120.256          38.000    39553655.847   159266178.977         866.272          40.000  
C12  26440718.767   137683749.569        2310.034          36.000    26440717.204   106465837.437        1785.905          44.000  
G25  24421146.988   128334001.831       -3914.187          32.000    24421140.697   100000484.770       -3049.442          35.000  
> 2025 10 30 06 20 46.3200000  0 23                     
G32  22039559.357   115818663.789       -2930.180          45.000    22039553.329    90248285.905       -2283.205          42.000  
G29  23076181.795   121266164.226        -603.698          42.000    23076173.574    94493084.706        -470.383          40.000  
G28  21260512.561   111724746.791       -1195.186          46.000    21260502.553    87058203.386        -931.344          47.000  
G26  20339830.456   106886529.129         671.973          48.000    20339822.929    83288185.881         523.608          46.000  
G31  20622222.464   108370509.155         146.477          47.000    20622212.196    84444511.595         114.098          45.000  
G04  24471377.436   128597931.169        3178.545          32.000    24471372.116   100206208.067        2476.887          34.000  
C33  22509011.289   117210323.461        -714.553          50.000                                                                  
C06  36574176.157   190451334.570        -158.680          45.000    36574158.829   147268981.906        -122.661          48.000  
C14  22686351.207   118133769.411       -2268.530          46.000    22686336.528    91348470.267       -1754.235          50.000  
C16  37002277.763   192680569.844        -189.222          48.000    37002266.221   148992791.427        -146.414          48.000  
C24  21848112.539   113768858.931        -868.242          50.000                                                                  
C26  24445622.022   127294768.883       -2562.897          44.000                                                                  
G03  22889351.965   120284346.395        -137.503          40.000    22889347.101    93728038.662        -107.504          41.000  
G16  22410866.659   117769913.449        2974.362          41.000                                                                  
C09  37725597.254   196447086.546        -147.907          43.000    37725582.992   151905290.994        -114.501          48.000  
C25  23638417.739   123091451.906        1568.904          45.000                                                                  
C13  38379329.282   199851231.875       -2265.495          41.000    38379323.107   154537628.263       -1751.931          43.000  
C08  39210238.182   204177990.045       -2461.669          35.000    39210226.137   157883327.211       -1903.427          42.000  
C10  40490824.660   210846346.241         934.338          34.000    40490825.418   163039762.324         722.220          38.000  
C35  25951437.934   135135951.363         376.256          38.000                                                                  
C07  39553657.641   205966246.252        1120.334          38.000    39553647.262   159266144.323         866.277          40.000  
C12  26440701.019   137683657.169        2310.003          36.000    26440699.459   106465765.989        1786.060          44.000  
G25  24421176.774   128334158.396       -3914.153          32.000    24421170.484   100000606.793       -3050.071          35.000  
> 2025 10 30 06 20 46.3600000  0 23                     
G32  22039581.661   115818780.996       -2930.214          45.000    22039575.641    90248377.229       -2283.132          42.000  
G29  23076186.421   121266188.379        -603.860          42.000    23076178.183    94493103.532        -470.551          40.000  
G28  21260521.664   111724794.599       -1195.222          46.000    21260511.669    87058240.651        -931.583          47.000  
G26  20339825.353   106886502.258         671.848          48.000    20339817.809    83288164.939         523.539          46.000  
G31  20622221.356   108370503.296         146.471          47.000    20622211.097    84444507.034         113.993          46.000  
G04  24471353.277   128597804.048        3178.113          32.000    24471347.925   100206108.979        2477.079          34.000  
C33  22509016.769   117210352.046        -714.623          50.000                                                                  
C06  36574177.361   190451340.920        -158.761          45.000    36574160.062   147268986.815        -122.710          48.000  
C14  22686368.665   118133860.150       -2268.492          46.000    22686353.950    91348540.438       -1754.291          50.000  
C16  37002279.246   192680577.422        -189.394          48.000    37002267.630   148992797.291        -146.536          48.000  
C24  21848119.192   113768893.666        -868.373          50.000                                                                  
C26  24445641.738   127294871.399       -2562.936          44.000                                                                  
G03  22889353.017   120284351.907        -137.721          40.000    22889348.147    93728042.954        -107.519          41.000  
G16  22410844.031   117769794.501        2973.865          41.000                                                                  
C09  37725598.371   196447092.468        -148.022          43.000    37725584.144   151905295.571        -114.462          48.000  
C25  23638405.684   123091389.155        1568.829          45.000                                                                  
C13  38379346.683   199851322.498       -2265.471          41.000    38379340.517   154537698.349       -1752.177          43.000  
C08  39210257.090   204178088.495       -2461.471          35.000    39210245.037   157883403.357       -1903.622          42.000  
C10  40490817.480   210846308.877         934.191          34.000    40490818.268   163039733.438         722.060          38.000  
C35  25951435.050   135135936.297         376.452          38.000                                                                  
C07  39553649.037   205966201.452        1120.129          38.000    39553638.648   159266109.675         866.206          40.000  
C12  26440683.243   137683564.773        2309.867          36.000    26440681.711   106465694.542        1786.152          44.000  
G25  24421206.568   128334314.971       -3914.498          32.000    24421200.296   100000728.812       -3050.500          35.000  
> 2025 10 30 06 20 46.4000000  0 23                     
G32  22039603.983   115818898.209       -2930.341          45.000    22039597.938    90248468.559       -2283.220          42.000  
G29  23076191.017   121266212.520        -603.682          42.000    23076182.789    94493122.346        -470.396          40.000  
G28  21260530.777   111724842.416       -1195.387          46.000    21260520.774    87058277.912        -931.650          47.000  
G26  20339820.244   106886475.386         671.799          48.000    20339812.698    83288144.006         523.309          46.000  
G31  20622220.255   108370497.439         146.416          47.000    20622209.973    84444502.470         114.006          46.000  
G04  24471329.078   128597676.880        3178.706          32.000    24471323.736   100206009.923        2476.571          34.000  
C33  22509022.252   117210380.637        -714.761          50.000                                                                  
C06  36574178.578   190451347.271        -158.785          45.000    36574161.299   147268991.729        -122.821          48.000  
C14  22686386.101   118133950.885       -2268.378          46.000    22686371.390    91348610.609       -1754.315          50.000  
C16  37002280.705   192680585.004        -189.582          48.000    37002269.086   148992803.150        -146.548          48.000  
C24  21848125.879   113768928.398        -868.377          50.000                                                                  
C26  24445661.440   127294973.908       -2562.802          44.000                                                                  
G03  22889354.063   120284357.427        -138.002          40.000    22889349.182    93728047.240        -107.396          41.000  
G16  22410821.405   117769675.534        2973.997          41.000                                                                  
C09  37725599.512   196447098.385        -147.976          43.000    37725585.290   151905300.149        -114.507          48.000  
C25  23638393.630   123091326.405        1568.749          45.000                                                                  
C13  38379364.061   199851413.135       -2265.786          41.000    38379357.922   154537768.433       -1752.194          43.000  
C08  39210276.000   204178186.943       -2461.324          35.000    39210263.954   157883479.490       -1903.504          42.000  
C10  40490810.290   210846271.524         933.809          34.000    40490811.080   163039704.536         722.267          38.000  
C35  25951432.160   135135921.256         376.158          38.000                                                                  
C07  39553640.423   205966156.630        1120.359          38.000    39553630.025   159266075.022         866.270          40.000  
C12  26440665.514   137683472.377        2309.837          36.000    26440663.983   106465623.097        1786.120          44.000  
G25  24421236.376   128334471.572       -3915.068          32.000    24421230.087   100000850.823       -3050.587          35.000  
> 2025 10 30 06 20 46.4400000  0 23                     
G32  22039626.322   115819015.425       -2930.434          45.000    22039620.249    90248559.904       -2283.562          42.000  
G29  23076195.611   121266236.671        -603.783          42.000    23076187.377    94493141.158        -470.316          40.000  
G28  21260539.895   111724890.228       -1195.381          46.000    21260529.862    87058315.157        -931.377          47.000  
G26  20339815.154   106886448.519         671.663          48.000    20339807.591    83288123.071         523.299          46.000  
G31  20622219.148   108370491.585         146.330          47.000    20622208.841    84444497.903         114.105          45.000  
G04  24471304.889   128597549.680        3179.678          32.000    24471299.554   100205910.818        2477.197          34.000  
C33  22509027.778   117210409.226        -714.823          50.000                                                                  
C06  36574179.780   190451353.614        -158.694          45.000    36574162.520   147268996.644        -122.889          48.000  
C14  22686403.511   118134041.635       -2268.622          46.000    22686388.799    91348680.778       -1754.308          50.000  
C16  37002282.176   192680592.584        -189.608          48.000    37002270.550   148992809.005        -146.476          48.000  
C24  21848132.570   113768963.134        -868.433          50.000                                                                  
C26  24445681.092   127295076.420       -2562.777          44.000                                                                  
G03  22889355.099   120284362.932        -137.853          40.000    22889350.223    93728051.531        -107.339          41.000  
G16  22410798.762   117769556.564        2974.146          41.000                                                                  
C09  37725600.670   196447104.300        -147.899          43.000    37725586.437   151905304.725        -114.475          48.000  
C25  23638381.584   123091263.657        1568.656          45.000                                                                  
C13  38379381.450   199851503.763       -2265.804          41.000    38379375.304   154537838.518       -1752.199          43.000  
C08  39210294.923   204178285.384       -2461.102          35.000    39210282.844   157883555.619       -1903.347          42.000  
C10  40490803.113   210846234.115         934.711          34.000    40490803.879   163039675.623         722.661          38.000  
C35  25951429.265   135135906.208         376.141          38.000                                                                  
C07  39553631.830   205966111.825        1120.106          38.000    39553621.422   159266040.367         866.342          40.000  
C12  26440647.778   137683379.984        2309.813          36.000    26440646.237   106465551.647        1786.206          44.000  
G25  24421266.189   128334628.091       -3913.676          32.000    24421259.878   100000972.818       -3050.266          35.000  
> 2025 10 30 06 20 46.4800000  0 23                     
G32  22039648.636   115819132.644       -2930.539          45.000    22039642.554    90248651.244       -2283.605          42.000  
G29  23076200.180   121266260.831        -603.989          42.000    23076191.976    94493159.974        -470.342          40.000  
G28  21260548.990   111724938.041       -1195.377          46.000    21260538.955    87058352.414        -931.407          47.000  
G26  20339810.031   106886421.650         671.670          48.000    20339802.467    83288102.131         523.394          46.000  
G31  20622218.034   108370485.732         146.275          47.000    20622207.712    84444493.336         114.160          45.000  
G04  24471280.674   128597422.510        3179.644          32.000    24471275.348   100205811.732        2477.201          34.000  
C33  22509033.291   117210437.817        -714.852          50.000                                                                  
C06  36574180.989   190451359.971        -158.844          45.000    36574163.748   147269001.552        -122.827          48.000  
C14  22686420.925   118134132.387       -2268.792          46.000    22686406.205    91348750.944       -1754.224          50.000  
C16  37002283.632   192680600.162        -189.526          48.000    37002272.024   148992814.869        -146.585          48.000  
C24  21848139.258   113768997.872        -868.488          50.000                                                                  
C26  24445700.762   127295178.945       -2563.016          44.000                                                                  
G03  22889356.167   120284368.437        -137.752          40.000    22889351.262    93728055.825        -107.402          41.000  
G16  22410776.125   117769437.599        2974.132          41.000                                                                  
C09  37725601.804   196447110.234        -148.224          43.000    37725587.597   151905309.296        -114.355          48.000  
C25  23638369.507   123091200.920        1568.423          45.000                                                                  
C13  38379398.859   199851594.393       -2265.791          41.000    38379392.701   154537908.599       -1752.125          43.000  
C08  39210313.843   204178383.858       -2461.635          35.000    39210301.754   157883631.746       -1903.225          42.000  
C10  40490795.978   210846196.745         934.473          34.000    40490796.691   163039646.724         722.607          38.000  
C35  25951426.368   135135891.161         376.138          38.000                                                                  
C07  39553623.246   205966067.002        1120.419          38.000    39553612.788   159266005.725         866.171          40.000  
C12  26440630.021   137683287.595        2309.727          36.000    26440628.492   106465480.201        1786.157          44.000  
G25  24421295.977   128334784.689       -3914.372          32.000    24421289.658   100001094.796       -3049.669          35.000  
> 2025 10 30 06 20 46.5200000  0 23                     
G32  22039670.924   115819249.863       -2930.534          45.000    22039664.875    90248742.581       -2283.567          42.000  
G29  23076204.773   121266284.991        -604.086          42.000    23076196.584    94493178.812        -470.770          40.000  
G28  21260558.082   111724985.853       -1195.368          46.000    21260548.064    87058389.673        -931.473          47.000  
G26  20339804.907   106886394.783         671.653          48.000    20339797.344    83288081.195         523.387          46.000  
G31  20622216.950   108370479.881         146.220          47.000    20622206.603    84444488.771         114.129          45.000  
G04  24471256.495   128597295.365        3179.012          32.000    24471251.154   100205712.632        2477.452          34.000  
C33  22509038.799   117210466.408        -714.843          50.000                                                                  
C06  36574182.193   190451366.327        -158.927          45.000    36574165.008   147269006.460        -122.769          48.000  
C14  22686438.355   118134223.136       -2268.813          46.000    22686423.620    91348821.122       -1754.429          50.000  
C16  37002285.086   192680607.743        -189.544          48.000    37002273.487   148992820.723        -146.467          48.000  
C24  21848145.930   113769032.611        -868.538          50.000                                                                  
C26  24445720.457   127295281.467       -2563.105          44.000                                                                  
G03  22889357.236   120284373.950        -137.821          40.000    22889352.305    93728060.127        -107.512          41.000  
G16  22410753.501   117769318.644        2973.920          41.000                                                                  
C09  37725602.927   196447116.164        -148.289          43.000    37725588.693   151905313.876        -114.497          48.000  
C25  23638357.465   123091138.176        1568.461          45.000                                                                  
C13  38379416.281   199851685.027       -2265.865          41.000    38379410.118   154537978.676       -1752.070          43.000  
C08  39210332.774   204178482.309       -2461.482          35.000    39210320.675   157883707.892       -1903.475          42.000  
C10  40490788.811   210846159.365         934.523          34.000    40490789.515   163039617.849         722.089          38.000  
C35  25951423.477   135135876.116         376.094          38.000                                                                  
C07  39553614.643   205966022.189        1120.374          38.000    39553604.175   159265971.072         866.216          40.000  
C12  26440612.271   137683195.200        2309.802          36.000    26440610.737   106465408.758        1786.045          44.000  
G25  24421325.781   128334941.279       -3914.642          32.000    24421319.461   100001216.830       -3050.388          35.000  
> 2025 10 30 06 20 46.5600000  0 23                     
G32  22039693.223   115819367.082       -2930.544          45.000    22039687.185    90248833.922       -2283.536          42.000  
G29  23076209.374   121266309.145        -603.970          42.000    23076201.187    94493197.631        -470.685          40.000  
G28  21260567.183   111725033.673       -1195.489          46.000    21260557.191    87058426.934        -931.536          47.000  
G26  20339799.810   106886367.919         671.572          48.000    20339792.238    83288060.268         523.188          46.000  
G31  20622215.844   108370474.036         146.116          47.000    20622205.472    84444484.222         113.821          45.000  
G04  24471232.309   128597168.212        3178.810          32.000    24471226.961   100205613.552        2477.241          34.000  
C33  22509044.294   117210495.004        -714.945          50.000                                                                  
C06  36574183.400   190451372.686        -158.999          45.000    36574166.246   147269011.376        -122.869          48.000  
C14  22686455.799   118134313.892       -2268.926          46.000    22686441.056    91348891.293       -1754.388          50.000  
C16  37002286.533   192680615.317        -189.434          48.000    37002274.958   148992826.589        -146.611          48.000  
C24  21848152.589   113769067.349        -868.528          50.000                                                                  
C26  24445740.141   127295383.986       -2563.115          44.000                                                                  
G03  22889358.298   120284379.469        -137.971          40.000    22889353.338    93728064.412        -107.279          41.000  
G16  22410730.877   117769199.687        2973.853          41.000                                                                  
C09  37725604.080   196447122.085        -148.126          43.000    37725589.832   151905318.464        -114.692          48.000  
C25  23638345.414   123091075.431        1568.554          45.000                                                                  
C13  38379433.667   199851775.657       -2265.784          41.000    38379427.518   154538048.764       -1752.218          43.000  
C08  39210351.711   204178580.790       -2461.845          35.000    39210339.584   157883784.021       -1903.373          42.000  
C10  40490781.640   210846121.999         934.315          34.000    40490782.328   163039588.932         722.630          38.000  
C35  25951420.577   135135861.063         376.201          38.000                                                                  
C07  39553606.031   205965977.383        1120.193          38.000    39553595.584   159265936.433         866.028          40.000  
C12  26440594.546   137683102.796        2310.042          36.000    26440592.965   106465337.317        1785.972          44.000  
G25  24421355.613   128335097.900       -3915.344          32.000    24421349.251   100001338.850       -3050.620          35.000  
> 2025 10 30 06 20 46.6000000  0 23                     
G32  22039715.513   115819484.301       -2930.508          45.000    22039709.480    90248925.263       -2283.536          42.000  
G29  23076213.958   121266333.305        -604.072          42.000    23076205.767    94493216.462        -470.828          40.000  
G28  21260576.300   111725081.500       -1195.670          46.000    21260566.299    87058464.200        -931.639          47.000  
G26  20339794.697   106886341.057         671.498          48.000    20339787.136    83288039.337         523.184          46.000  
G31  20622214.726   108370468.183         146.228          47.000    20622204.370    84444479.674         113.618          45.000  
G04  24471208.101   128597041.093        3178.058          32.000    24471202.753   100205514.456        2477.336          34.000  
C33  22509049.753   117210523.598        -714.941          50.000                                                                  
C06  36574184.626   190451379.043        -158.995          45.000    36574167.477   147269016.292        -122.917          48.000  
C14  22686473.225   118134404.649       -2269.031          46.000    22686458.490    91348961.472       -1754.462          50.000  
C16  37002287.953   192680622.899        -189.540          48.000    37002276.441   148992832.453        -146.660          48.000  
C24  21848159.289   113769102.093        -868.616          50.000                                                                  
C26  24445759.823   127295486.516       -2563.262          44.000                                                                  
G03  22889359.339   120284384.989        -138.070          40.000    22889354.375    93728068.707        -107.364          41.000  
G16  22410708.245   117769080.733        2973.819          41.000                                                                  
C09  37725605.223   196447128.005        -148.012          43.000    37725590.975   151905323.048        -114.733          48.000  
C25  23638333.351   123091012.688        1568.535          45.000                                                                  
C13  38379451.072   199851866.293       -2265.876          41.000    38379444.940   154538118.848       -1752.180          43.000  
C08  39210370.606   204178679.260       -2461.866          35.000    39210358.517   157883860.157       -1903.401          42.000  
C10  40490774.447   210846084.647         933.878          34.000    40490775.142   163039560.027         722.655          38.000  
C35  25951417.703   135135846.023         375.966          38.000                                                                  
C07  39553597.411   205965932.585        1119.995          38.000    39553586.984   159265901.796         865.903          40.000  
C12  26440576.800   137683010.403        2309.980          36.000    26440575.219   106465265.873        1786.016          44.000  
G25  24421385.410   128335254.428       -3913.981          32.000    24421379.040   100001460.872       -3050.748          35.000  
> 2025 10 30 06 20 46.6400000  0 23                     
G32  22039737.824   115819601.530       -2930.662          45.000    22039731.794    90249016.597       -2283.439          42.000  
G29  23076218.559   121266357.474        -604.252          42.000    23076210.349    94493235.303        -471.013          40.000  
G28  21260585.399   111725129.326       -1195.739          46.000    21260575.403    87058501.460        -931.602          47.000  
G26  20339789.574   106886314.203         671.332          48.000    20339782.019    83288018.409         523.154          46.000  
G31  20622213.616   108370462.330         146.271          47.000    20622203.250    84444475.118         113.700          45.000  
G04  24471183.927   128596913.944        3178.348          32.000    24471178.564   100205415.397        2476.821          34.000  
C33  22509055.202   117210552.203        -715.104          50.000                                                                  
C06  36574185.832   190451385.391        -158.813          45.000    36574168.688   147269021.217        -123.092          48.000  
C14  22686490.668   118134495.404       -2269.015          46.000    22686475.926    91349031.654       -1754.568          50.000  
C16  37002289.370   192680630.487        -189.680          48.000    37002277.915   148992838.314        -146.606          48.000  
C24  21848165.973   113769136.838        -868.658          50.000                                                                  
C26  24445779.520   127295589.035       -2563.136          44.000                                                                  
G03  22889360.382   120284390.501        -137.917          40.000    22889355.442    93728073.012        -107.628          41.000  
G16  22410685.610   117768961.778        2973.822          41.000                                                                  
C09  37725606.344   196447133.927        -148.027          43.000    37725592.123   151905327.628        -114.635          48.000  
C25  23638321.332   123090949.949        1568.443          45.000                                                                  
C13  38379468.451   199851956.929       -2265.932          41.000    38379462.326   154538188.932       -1752.124          43.000  
C08  39210389.529   204178777.695       -2461.254          35.000    39210377.397   157883936.300       -1903.538          42.000  
C10  40490767.277   210846047.289         933.890          34.000    40490767.981   163039531.135         722.358          38.000  
C35  25951414.812   135135830.989         375.736          38.000                                                                  
C07  39553588.817   205965887.792        1119.794          38.000    39553578.388   159265867.151         865.995          40.000  
C12  26440559.050   137682918.036        2309.376          36.000    26440557.491   106465194.419        1786.256          44.000  
G25  24421415.179   128335411.014       -3914.360          32.000    24421408.850   100001582.855       -3050.057          35.000  
> 2025 10 30 06 20 46.6800000  0 23                     
G32  22039760.135   115819718.753       -2930.653          45.000    22039754.085    90249107.943       -2283.590          42.000  
G29  23076223.162   121266381.640        -604.269          42.000    23076214.935    94493254.121        -470.625          40.000  
G28  21260594.487   111725177.147       -1195.659          46.000    21260584.501    87058538.731        -931.738          47.000  
G26  20339784.465   106886287.347         671.296          48.000    20339776.895    83287997.472         523.291          46.000  
G31  20622212.486   108370456.489         146.098          47.000    20622202.141    84444470.557         113.923          45.000  
G04  24471159.706   128596786.735        3179.550          32.000    24471154.369   100205316.348        2476.368          34.000  
C33  22509060.701   117210580.805        -715.133          50.000                                                                  
C06  36574187.074   190451391.753        -158.998          45.000    36574169.904   147269026.130        -122.988          48.000  
C14  22686508.130   118134586.162       -2268.999          46.000    22686493.366    91349101.835       -1754.577          50.000  
C16  37002290.832   192680638.072        -189.675          48.000    37002279.385   148992844.174        -146.560          48.000  
C24  21848172.668   113769171.578        -868.583          50.000                                                                  
C26  24445799.214   127295691.555       -2563.042          44.000                                                                  
G03  22889361.415   120284396.022        -138.023          40.000    22889356.501    93728077.322        -107.833          41.000  
G16  22410662.988   117768842.828        2973.741          41.000                                                                  
C09  37725607.469   196447139.855        -148.156          43.000    37725593.266   151905332.204        -114.488          48.000  
C25  23638309.293   123090887.214        1568.357          45.000                                                                  
C13  38379485.866   199852047.578       -2266.178          41.000    38379479.733   154538259.014       -1752.081          43.000  
C08  39210408.437   204178876.171       -2461.640          35.000    39210396.329   157884012.436       -1903.487          42.000  
C10  40490760.092   210846009.931         933.840          34.000    40490760.831   163039502.256         721.974          38.000  
C35  25951411.921   135135815.952         375.753          38.000                                                                  
C07  39553580.203   205965842.991        1119.890          38.000    39553569.796   159265832.501         866.128          40.000  
C12  26440541.311   137682825.635        2309.685          36.000    26440539.756   106465122.987        1785.935          44.000  
G25  24421444.980   128335567.585       -3914.382          32.000    24421438.630   100001704.865       -3050.161          35.000  
> 2025 10 30 06 20 46.7200000  0 23                     
G32  22039782.454   115819835.972       -2930.541          45.000    22039776.404    90249199.288       -2283.668          42.000  
G29  23076227.764   121266405.808        -604.304          42.000    23076219.521    94493272.950        -470.677          40.000  
G28  21260603.573   111725224.959       -1195.439          46.000    21260593.597    87058575.995        -931.700          47.000  
G26  20339779.360   106886260.489         671.341          48.000    20339771.797    83287976.547         523.153          46.000  
G31  20622211.355   108370450.640         146.173          47.000    20622201.019    84444465.991         114.088          45.000  
G04  24471135.535   128596659.619        3178.569          32.000    24471130.164   100205217.251        2476.948          34.000  
C33  22509066.201   117210609.400        -715.010          50.000                                                                  
C06  36574188.317   190451398.113        -159.047          45.000    36574171.115   147269031.039        -122.837          48.000  
C14  22686525.560   118134676.914       -2268.884          46.000    22686510.775    91349172.010       -1754.468          50.000  
C16  37002292.259   192680645.655        -189.633          48.000    37002280.846   148992850.035        -146.554          48.000  
C24  21848179.341   113769206.325        -868.681          50.000                                                                  
C26  24445818.899   127295794.080       -2563.090          44.000                                                                  
G03  22889362.470   120284401.551        -138.211          40.000    22889357.561    93728081.623        -107.682          41.000  
G16  22410640.358   117768723.865        2973.975          41.000                                                                  
C09  37725608.579   196447145.780        -148.154          43.000    37725594.429   151905336.785        -114.515          48.000  
C25  23638297.248   123090824.470        1568.475          45.000                                                                  
C13  38379503.267   199852138.208       -2265.911          41.000    38379497.140   154538329.095       -1751.989          43.000  
C08  39210427.351   204178974.646       -2461.908          35.000    39210415.231   157884088.570       -1903.434          42.000  
C10  40490752.921   210845972.551         934.242          34.000    40490753.642   163039473.373         721.893          38.000  
C35  25951409.043   135135800.907         375.958          38.000                                                                  
C07  39553571.592   205965798.162        1120.439          38.000    39553561.189   159265797.861         866.046          40.000  
C12  26440523.559   137682733.253        2309.519          36.000    26440522.033   106465051.547        1785.911          44.000  
G25  24421474.815   128335724.181       -3914.831          32.000    24421468.440   100001826.889       -3050.447          35.000  
> 2025 10 30 06 20 46.7600000  0 23                     
G32  22039804.737   115819953.189       -2930.493          45.000    22039798.709    90249290.627       -2283.579          42.000  
G29  23076232.351   121266429.962        -604.012          42.000    23076224.125    94493291.778        -470.730          40.000  
G28  21260612.664   111725272.772       -1195.329          46.000    21260602.683    87058613.242        -931.388          47.000  
G26  20339774.231   106886233.621         671.572          48.000    20339766.707    83287955.618         523.179          46.000  
G31  20622210.209   108370444.782         146.357          47.000    20622199.917    84444461.430         114.088          45.000  
G04  24471111.336   128596532.469        3178.516          32.000    24471105.962   100205118.177        2476.957          34.000  
C33  22509071.699   117210637.992        -714.858          50.000                                                                  
C06  36574189.560   190451404.453        -158.715          45.000    36574172.323   147269035.946        -122.714          48.000  
C14  22686542.973   118134767.662       -2268.746          46.000    22686528.167    91349242.185       -1754.418          50.000  
C16  37002293.718   192680653.226        -189.375          48.000    37002282.285   148992855.897        -146.582          48.000  
C24  21848186.015   113769241.063        -868.555          50.000                                                                  
C26  24445838.599   127295896.601       -2563.079          44.000                                                                  
G03  22889363.507   120284407.070        -138.107          40.000    22889358.598    93728085.923        -107.549          41.000  
G16  22410617.710   117768604.900        2974.112          41.000                                                                  
C09  37725609.718   196447151.707        -148.185          43.000    37725595.584   151905341.361        -114.432          48.000  
C25  23638285.202   123090761.725        1568.543          45.000                                                                  
C13  38379520.680   199852228.835       -2265.696          41.000    38379514.540   154538399.177       -1752.039          43.000  
C08  39210446.253   204179073.112       -2461.917          35.000    39210434.158   157884164.714       -1903.560          42.000  
C10  40490745.728   210845935.142         934.879          34.000    40490746.473   163039444.469         722.293          38.000  
C35  25951406.165   135135785.864         376.045          38.000                                                                  
C07  39553562.966   205965753.338        1120.602          38.000    39553552.577   159265763.189         866.588          40.000  
C12  26440505.792   137682640.838        2310.117          36.000    26440504.289   106464980.102        1786.029          44.000  
G25  24421504.625   128335880.767       -3914.857          32.000    24421498.239   100001948.889       -3050.247          35.000  
> 2025 10 30 06 20 46.8000000  0 23                     
G32  22039827.046   115820070.401       -2930.323          45.000    22039821.011    90249381.969       -2283.553          42.000  
G29  23076236.947   121266454.123        -603.990          42.000    23076228.713    94493310.602        -470.680          40.000  
G28  21260621.780   111725320.587       -1195.323          46.000    21260611.772    87058650.498        -931.363          47.000  
G26  20339769.085   106886206.752         671.720          48.000    20339761.579    83287934.679         523.354          46.000  
G31  20622209.085   108370438.923         146.461          47.000    20622198.807    84444456.870         114.038          45.000  
G04  24471087.147   128596405.320        3178.607          32.000    24471081.767   100205019.073        2477.423          34.000  
C33  22509077.192   117210666.584        -714.803          50.000                                                                  
C06  36574190.802   190451410.796        -158.577          45.000    36574173.521   147269040.854        -122.659          48.000  
C14  22686560.437   118134858.410       -2268.665          46.000    22686545.613    91349312.359       -1754.368          50.000  
C16  37002295.205   192680660.793        -189.193          48.000    37002283.730   148992861.754        -146.462          48.000  
C24  21848192.721   113769275.798        -868.425          50.000                                                                  
C26  24445858.308   127295999.110       -2562.863          44.000                                                                  
G03  22889364.575   120284412.595        -138.099          40.000    22889359.630    93728090.220        -107.430          41.000  
G16  22410595.063   117768485.932        2974.229          41.000                                                                  
C09  37725610.865   196447157.618        -147.853          43.000    37725596.724   151905345.941        -114.472          48.000  
C25  23638273.136   123090698.979        1568.610          45.000                                                                  
C13  38379538.079   199852319.466       -2265.709          41.000    38379531.951   154538469.259       -1752.045          43.000  
C08  39210465.157   204179171.551       -2461.253          35.000    39210453.057   157884240.842       -1903.317          42.000  
C10  40490738.535   210845897.782         934.350          34.000    40490739.293   163039415.545         722.946          38.000  
C35  25951403.292   135135770.813         376.213          38.000                                                                  
C07  39553554.360   205965708.559        1119.895          38.000    39553543.964   159265728.543         866.354          40.000  
C12  26440488.061   137682548.439        2310.097          36.000    26440486.560   106464908.657        1786.071          44.000  
G25  24421534.403   128336037.350       -3914.730          32.000    24421528.036   100002070.871       -3049.731          35.000  
> 2025 10 30 06 20 46.8400000  0 23                     
G32  22039849.371   115820187.621       -2930.380          45.000    22039843.316    90249473.303       -2283.410          42.000  
G29  23076241.532   121266478.267        -603.690          42.000    23076233.330    94493329.420        -470.542          40.000  
G28  21260630.874   111725368.391       -1195.135          46.000    21260620.863    87058687.759        -931.448          47.000  
G26  20339763.973   106886179.875         671.911          48.000    20339756.478    83287913.739         523.483          46.000  
G31  20622207.974   108370433.070         146.393          47.000    20622197.700    84444452.308         114.038          45.000  
G04  24471062.958   128596278.160        3178.799          32.000    24471057.586   100204919.987        2477.378          34.000  
C33  22509082.663   117210695.177        -714.806          50.000                                                                  
C06  36574192.029   190451417.139        -158.533          45.000    36574174.743   147269045.759        -122.620          48.000  
C14  22686577.850   118134949.161       -2268.706          46.000    22686563.041    91349382.528       -1754.250          50.000  
C16  37002296.662   192680668.367        -189.239          48.000    37002285.172   148992867.612        -146.419          48.000  
C24  21848199.429   113769310.525        -868.214          50.000                                                                  
C26  24445877.987   127296101.614       -2562.659          44.000                                                                  
G03  22889365.621   120284418.103        -137.850          40.000    22889360.678    93728094.522        -107.462          41.000  
G16  22410572.416   117768366.977        2974.019          41.000                                                                  
C09  37725611.996   196447163.530        -147.737          43.000    37725597.908   151905350.518        -114.435          48.000  
C25  23638261.110   123090636.226        1568.794          45.000                                                                  
C13  38379555.469   199852410.080       -2265.458          41.000    38379549.339   154538539.340       -1752.046          43.000  
C08  39210484.036   204179270.003       -2461.170          35.000    39210471.932   157884316.960       -1903.059          42.000  
C10  40490731.370   210845860.418         934.163          34.000    40490732.091   163039386.625         723.157          38.000  
C35  25951400.415   135135755.763         376.280          38.000                                                                  
C07  39553545.759   205965663.731        1120.352          38.000    39553535.370   159265693.882         866.476          40.000  
C12  26440470.301   137682456.046        2309.874          36.000    26440468.794   106464837.210        1786.121          44.000  
G25  24421564.213   128336193.921       -3914.353          32.000    24421557.846   100002192.889       -3050.094          35.000  
> 2025 10 30 06 20 46.8800000  0 23                     
G32  22039871.658   115820304.831       -2930.313          45.000    22039865.617    90249564.639       -2283.376          42.000  
G29  23076246.132   121266502.422        -603.757          42.000    23076237.916    94493348.244        -470.537          40.000  
G28  21260639.965   111725416.211       -1195.357          46.000    21260629.963    87058725.020        -931.513          47.000  
G26  20339758.895   106886153.015         671.666          48.000    20339751.378    83287892.804         523.438          46.000  
G31  20622206.862   108370427.216         146.331          47.000    20622196.573    84444447.746         114.025          45.000  
G04  24471038.771   128596150.978        3179.277          32.000    24471033.387   100204820.877        2477.646          34.000  
C33  22509088.128   117210723.777        -714.973          50.000                                                                  
C06  36574193.248   190451423.489        -158.673          45.000    36574175.949   147269050.667        -122.656          48.000  
C14  22686595.277   118135039.911       -2268.719          46.000    22686580.443    91349452.697       -1754.215          50.000  
C16  37002298.147   192680675.940        -189.289          48.000    37002286.613   148992873.467        -146.370          48.000  
C24  21848206.068   113769345.256        -868.203          50.000                                                                  
C26  24445897.672   127296204.128       -2562.754          44.000                                                                  
G03  22889366.670   120284423.617        -137.867          40.000    22889361.701    93728098.823        -107.535          41.000  
G16  22410549.805   117768248.030        2973.718          41.000                                                                  
C09  37725613.133   196447169.446        -147.806          43.000    37725599.042   151905355.087        -114.296          48.000  
C25  23638249.048   123090573.473        1568.830          45.000                                                                  
C13  38379572.895   199852500.690       -2265.287          41.000    38379566.744   154538609.423       -1752.113          43.000  
C08  39210502.928   204179368.421       -2460.601          35.000    39210490.853   157884393.095       -1903.238          42.000  
C10  40490724.183   210845823.045         934.218          34.000    40490724.918   163039357.732         722.623          38.000  
C35  25951397.531   135135740.715         376.227          38.000                                                                  
C07  39553537.144   205965618.900        1120.690          38.000    39553526.775   159265659.239         866.200          40.000  
C12  26440452.576   137682363.639        2310.022          36.000    26440451.071   106464765.766        1786.108          44.000  
G25  24421593.978   128336350.487       -3914.099          32.000    24421587.642   100002314.883       -3049.907          35.000  
> 2025 10 30 06 20 46.9200000  0 23                     
G32  22039894.013   115820422.058       -2930.568          45.000    22039887.939    90249655.978       -2283.416          42.000  
G29  23076250.730   121266526.598        -604.192          42.000    23076242.511    94493367.075        -470.688          40.000  
G28  21260649.074   111725464.031       -1195.473          46.000    21260639.089    87058762.281        -931.523          47.000  
G26  20339753.785   106886126.161         671.379          48.000    20339746.293    83287871.878         523.232          46.000  
G31  20622205.745   108370421.372         146.134          47.000    20622195.462    84444443.184         114.000          45.000  
G04  24471014.570   128596023.834        3178.963          32.000    24471009.182   100204721.815        2476.914          34.000  
C33  22509093.598   117210752.382        -715.123          50.000                                                                  
C06  36574194.430   190451429.851        -158.983          45.000    36574177.144   147269055.580        -122.805          48.000  
C14  22686612.704   118135130.667       -2268.873          46.000    22686597.854    91349522.878       -1754.439          50.000  
C16  37002299.597   192680683.517        -189.400          48.000    37002288.063   148992879.321        -146.340          48.000  
C24  21848212.735   113769380.005        -868.547          50.000                                                                  
C26  24445917.332   127296306.653       -2562.999          44.000                                                                  
G03  22889367.729   120284429.132        -137.885          40.000    22889362.737    93728103.115        -107.435          41.000  
G16  22410527.171   117768129.075        2973.776          41.000                                                                  
C09  37725614.265   196447175.365        -147.922          43.000    37725600.164   151905359.664        -114.355          48.000  
C25  23638236.994   123090510.731        1568.663          45.000                                                                  
C13  38379590.306   199852591.336       -2265.867          41.000    38379584.143   154538679.501       -1752.027          43.000  
C08  39210521.843   204179466.890       -2461.233          35.000    39210509.759   157884469.235       -1903.430          42.000  
C10  40490716.996   210845785.650         934.662          34.000    40490717.769   163039328.849         722.164          38.000  
C35  25951394.627   135135725.657         376.363          38.000                                                                  
C07  39553528.524   205965574.102        1120.227          38.000    39553518.151   159265624.591         866.118          40.000  
C12  26440434.835   137682271.242        2309.935          36.000    26440433.313   106464694.318        1786.169          44.000  
G25  24421623.773   128336507.053       -3914.044          32.000    24421617.438   100002436.918       -3050.546          35.000  
> 2025 10 30 06 20 46.9600000  0 23                     
G32  22039916.336   115820539.290       -2930.804          45.000    22039910.225    90249747.318       -2283.490          42.000  
G29  23076255.333   121266550.772        -604.427          42.000    23076247.112    94493385.906        -470.782          40.000  
G28  21260658.168   111725511.863       -1195.748          46.000    21260648.208    87058799.547        -931.633          47.000  
G26  20339748.697   106886099.315         671.114          48.000    20339741.179    83287850.959         522.959          46.000  
G31  20622204.655   108370415.533         145.944          47.000    20622194.367    84444438.631         113.834          45.000  
G04  24470990.352   128595896.697        3178.663          32.000    24470985.001   100204622.754        2476.593          34.000  
C33  22509099.107   117210780.992        -715.291          50.000                                                                  
C06  36574195.665   190451436.210        -159.093          45.000    36574178.351   147269060.494        -122.887          48.000  
C14  22686630.116   118135221.431       -2269.120          46.000    22686615.262    91349593.059       -1754.571          50.000  
C16  37002301.065   192680691.101        -189.599          48.000    37002289.523   148992885.185        -146.532          48.000  
C24  21848219.373   113769414.757        -868.810          50.000                                                                  
C26  24445937.009   127296409.185       -2563.262          44.000                                                                  
G03  22889368.784   120284434.662        -138.136          40.000    22889363.811    93728107.438        -107.938          41.000  
G16  22410504.544   117768010.120        2973.784          41.000                                                                  
C09  37725615.410   196447181.293        -148.130          43.000    37725601.288   151905364.249        -114.572          48.000  
C25  23638224.952   123090448.000        1568.349          45.000                                                                  
C13  38379607.702   199852681.993       -2266.415          41.000    38379601.555   154538749.588       -1752.131          43.000  
C08  39210540.759   204179565.404       -2462.405          35.000    39210528.663   157884545.379       -1903.642          42.000  
C10  40490709.811   210845748.278         934.492          34.000    40490710.571   163039299.988         721.597          38.000  
C35  25951391.725   135135710.651         375.469          38.000                                                                  
C07  39553519.914   205965529.310        1119.858          38.000    39553509.539   159265589.932         866.307          40.000  
C12  26440417.101   137682178.864        2309.435          36.000    26440415.572   106464622.873        1786.120          44.000  
G25  24421653.592   128336663.626       -3914.116          32.000    24421647.239   100002558.914       -3050.203          35.000  
> 2025 10 30 06 20 47.0000000  0 23                     
G32  22039938.629   115820656.523       -2930.912          45.000    22039932.511    90249838.671       -2283.760          42.000  
G29  23076259.931   121266574.950        -604.495          42.000    23076251.713    94493404.748        -471.006          40.000  
G28  21260667.271   111725559.693       -1195.885          46.000    21260657.325    87058836.813        -931.692          47.000  
G26  20339743.590   106886072.466         671.074          48.000    20339736.064    83287830.039         522.900          46.000  
G31  20622203.542   108370409.689         145.963          47.000    20622193.257    84444434.081         113.705          45.000  
G04  24470966.182   128595769.560        3178.345          32.000    24470960.774   100204523.678        2476.674          34.000  
C33  22509104.647   117210809.597        -715.242          50.000                                                                  
C06  36574196.869   190451442.567        -159.071          45.000    36574179.590   147269065.415        -123.025          48.000  
C14  22686647.542   118135312.197       -2269.255          46.000    22686632.716    91349663.249       -1754.770          50.000  
C16  37002302.510   192680698.689        -189.748          48.000    37002290.987   148992891.053        -146.717          48.000  
C24  21848226.023   113769449.510        -868.923          50.000                                                                  
C26  24445956.689   127296511.719       -2563.416          44.000                                                                  
G03  22889369.841   120284440.207        -138.586          40.000    22889364.862    93728111.752        -107.995          41.000  
G16  22410481.891   117767891.176        2973.593          41.000                                                                  
C09  37725616.562   196447187.222        -148.259          43.000    37725602.426   151905368.832        -114.646          48.000  
C25  23638212.878   123090385.273        1568.098          45.000                                                                  
C13  38379625.126   199852772.634       -2266.275          41.000    38379618.984   154538819.681       -1752.310          43.000  
C08  39210559.683   204179663.866       -2462.090          35.000    39210547.592   157884621.512       -1903.531          42.000  
C10  40490702.626   210845710.925         933.950          34.000    40490703.398   163039271.057         722.683          38.000  
C35  25951388.843   135135695.622         375.493          38.000                                                                  
C07  39553511.309   205965484.513        1119.788          38.000    39553500.938   159265555.296         866.055          40.000  
C12  26440399.368   137682086.480        2309.401          36.000    26440397.824   106464551.432        1786.046          44.000  
G25  24421683.406   128336820.201       -3914.240          32.000    24421677.042   100002680.935       -3050.438          35.000  
> 2025 10 30 06 20 47.0400000  0 23                     
G32  22039960.952   115820773.753       -2930.891          45.000    22039954.818    90249930.022       -2283.850          42.000  
G29  23076264.521   121266599.123        -604.410          42.000    23076256.316    94493423.588        -471.078          40.000  
G28  21260676.364   111725607.507       -1195.616          46.000    21260666.406    87058874.072        -931.602          47.000  
G26  20339738.464   106886045.607         671.282          48.000    20339730.943    83287809.111         523.045          46.000  
G31  20622202.425   108370403.837         146.155          47.000    20622192.141    84444429.525         113.774          45.000  
G04  24470941.972   128595642.340        3179.698          32.000    24470936.584   100204424.582        2477.151          34.000  
C33  22509110.142   117210838.202        -715.208          50.000                                                                  
C06  36574198.056   190451448.906        -158.696          45.000    36574180.817   147269070.324        -122.887          48.000  
C14  22686664.988   118135402.959       -2269.224          46.000    22686650.131    91349733.431       -1754.702          50.000  
C16  37002303.988   192680706.269        -189.637          48.000    37002292.472   148992896.917        -146.711          48.000  
C24  21848232.704   113769484.250        -868.726          50.000                                                                  
C26  24445976.389   127296614.232       -2563.103          44.000                                                                  
G03  22889370.904   120284445.740        -138.562          40.000    22889365.917    93728116.059        -107.859          41.000  
G16  22410459.257   117767772.221        2973.727          41.000                                                                  
C09  37725617.709   196447193.143        -148.121          43.000    37725603.584   151905373.415        -114.656          48.000  
C25  23638200.836   123090322.535        1568.254          45.000                                                                  
C13  38379642.529   199852863.271       -2266.028          41.000    38379636.392   154538889.763       -1752.148          43.000  
C08  39210578.588   204179762.322       -2461.667          35.000    39210566.475   157884697.644       -1903.422          42.000  
C10  40490695.469   210845673.570         933.748          34.000    40490696.217   163039242.169         722.505          38.000  
C35  25951385.964   135135680.573         375.950          38.000                                                                  
C07  39553502.715   205965439.699        1120.110          38.000    39553492.312   159265520.650         866.028          40.000  
C12  26440381.637   137681994.089        2309.625          36.000    26440380.069   106464479.997        1785.886          44.000  
G25  24421713.199   128336976.792       -3914.680          32.000    24421706.835   100002802.943       -3050.300          35.000  
> 2025 10 30 06 20 47.0800000  0 23                     
G32  22039983.256   115820890.983       -2930.868          45.000    22039977.139    90250021.376       -2283.955          42.000  
G29  23076269.106   121266623.287        -604.214          42.000    23076260.910    94493442.426        -471.076          40.000  
G28  21260685.451   111725655.321       -1195.443          46.000    21260675.518    87058911.343        -931.728          47.000  
G26  20339733.337   106886018.752         671.325          48.000    20339725.805    83287788.186         523.102          46.000  
G31  20622201.325   108370397.991         146.142          47.000    20622191.025    84444424.971         113.799          45.000  
G04  24470917.779   128595515.200        3179.119          32.000    24470912.396   100204325.516        2476.866          34.000  
C33  22509115.656   117210866.809        -715.227          50.000                                                                  
C06  36574199.231   190451455.262        -158.809          45.000    36574182.041   147269075.237        -122.854          48.000  
C14  22686682.434   118135493.724       -2269.215          46.000    22686667.550    91349803.615       -1754.686          50.000  
C16  37002305.432   192680713.844        -189.502          48.000    37002293.962   148992902.780        -146.668          48.000  
C24  21848239.398   113769518.990        -868.575          50.000                                                                  
C26  24445996.104   127296716.746       -2562.906          44.000                                                                  
G03  22889371.931   120284451.266        -138.325          40.000    22889366.939    93728120.361        -107.677          41.000  
G16  22410436.615   117767653.268        2973.798          41.000                                                                  
C09  37725618.874   196447199.068        -148.107          43.000    37725604.714   151905378.001        -114.718          48.000  
C25  23638188.791   123090259.796        1568.377          45.000                                                                  
C13  38379659.927   199852953.897       -2265.782          41.000    38379653.796   154538959.851       -1752.192          43.000  
C08  39210597.477   204179860.772       -2461.428          35.000    39210585.356   157884773.791       -1903.629          42.000  
C10  40490688.317   210845636.209         933.826          34.000    40490689.040   163039213.281         722.251          38.000  
C35  25951383.097   135135665.543         375.842          38.000                                                                  
C07  39553494.102   205965394.889        1120.212          38.000    39553483.699   159265486.012         865.945          40.000  
C12  26440363.883   137681901.692        2309.909          36.000    26440362.338   106464408.560        1785.856          44.000  
G25  24421743.026   128337133.368       -3914.645          32.000    24421736.611   100002924.919       -3049.705          35.000  
> 2025 10 30 06 20 47.1200000  0 23                     
G32  22040005.559   115821008.216       -2930.886          45.000    22039999.447    90250112.725       -2283.885          42.000  
G29  23076273.724   121266647.467        -604.392          42.000    23076265.521    94493461.268        -471.112          40.000  
G28  21260694.577   111725703.150       -1195.630          46.000    21260684.624    87058948.609        -931.732          47.000  
G26  20339728.239   106885991.901         671.269          48.000    20339720.694    83287767.263         523.058          46.000  
G31  20622200.212   108370392.149         146.068          47.000    20622189.921    84444420.416         113.874          45.000  
G04  24470893.591   128595388.085        3178.082          32.000    24470888.203   100204226.429        2477.107          34.000  
C33  22509121.134   117210895.421        -715.302          50.000                                                                  
C06  36574200.473   190451461.626        -158.992          45.000    36574183.283   147269080.156        -122.947          48.000  
C14  22686699.881   118135584.480       -2269.042          46.000    22686684.979    91349873.803       -1754.716          50.000  
C16  37002306.880   192680721.426        -189.548          48.000    37002295.437   148992908.642        -146.608          48.000  
C24  21848246.060   113769553.735        -868.584          50.000                                                                  
C26  24446015.788   127296819.272       -2563.018          44.000                                                                  
G03  22889372.983   120284456.808        -138.514          40.000    22889368.007    93728124.675        -107.791          41.000  
G16  22410413.982   117767534.326        2973.604          41.000                                                                  
C09  37725620.025   196447204.984        -147.943          43.000    37725605.839   151905382.585        -114.664          48.000  
C25  23638176.717   123090197.057        1568.458          45.000                                                                  
C13  38379677.323   199853044.535       -2265.850          41.000    38379671.181   154539029.941       -1752.241          43.000  
C08  39210616.391   204179959.265       -2462.057          35.000    39210604.256   157884849.943       -1903.801          42.000  
C10  40490681.148   210845598.835         934.194          34.000    40490681.837   163039184.385         722.331          38.000  
C35  25951380.182   135135650.504         375.975          38.000                                                                  
C07  39553485.496   205965350.076        1120.317          38.000    39553475.116   159265451.376         865.864          40.000  
C12  26440346.164   137681809.306        2309.809          36.000    26440344.619   106464337.118        1785.955          44.000  
G25  24421772.819   128337289.941       -3914.539          32.000    24421766.410   100003046.950       -3050.287          35.000  
> 2025 10 30 06 20 47.1600000  0 23                     
G32  22040027.845   115821125.445       -2930.828          45.000    22040021.744    90250204.062       -2283.626          42.000  
G29  23076278.317   121266671.645        -604.505          42.000    23076270.118    94493480.093        -470.809          40.000  
G28  21260703.700   111725750.980       -1195.753          46.000    21260693.709    87058985.875        -931.709          47.000  
G26  20339723.114   106885965.047         671.306          48.000    20339715.582    83287746.343         522.964          46.000  
G31  20622199.108   108370386.307         146.025          47.000    20622188.787    84444415.860         113.892          45.000  
G04  24470869.355   128595260.941        3178.230          32.000    24470864.005   100204127.366        2476.714          34.000  
C33  22509126.614   117210924.033        -715.358          50.000                                                                  
C06  36574201.712   190451467.981        -158.942          45.000    36574184.529   147269085.069        -122.899          48.000  
C14  22686717.296   118135675.242       -2269.069          46.000    22686702.404    91349943.983       -1754.595          50.000  
C16  37002308.357   192680729.008        -189.554          48.000    37002296.888   148992914.495        -146.402          48.000  
C24  21848252.747   113769588.478        -868.572          50.000                                                                  
C26  24446035.480   127296921.798       -2563.135          44.000                                                                  
G03  22889374.030   120284462.336        -138.348          40.000    22889369.073    93728128.981        -107.683          41.000  
G16  22410391.318   117767415.370        2973.762          41.000                                                                  
C09  37725621.174   196447210.911        -148.054          43.000    37725606.967   151905387.161        -114.492          48.000  
C25  23638164.664   123090134.317        1568.500          45.000                                                                  
C13  38379694.731   199853135.180       -2266.030          41.000    38379688.562   154539100.028       -1752.204          43.000  
C08  39210635.291   204180057.718       -2461.613          35.000    39210623.167   157884926.063       -1903.318          42.000  
C10  40490673.969   210845561.443         934.611          34.000    40490674.661   163039155.484         722.465          38.000  
C35  25951377.296   135135635.484         375.633          38.000                                                                  
C07  39553476.900   205965305.270        1120.255          38.000    39553466.515   159265416.731         865.980          40.000  
C12  26440328.420   137681716.905        2309.919          36.000    26440326.882   106464265.664        1786.282          44.000  
G25  24421802.606   128337446.516       -3914.435          33.000    24421796.211   100003168.981       -3050.652          35.000  
> 2025 10 30 06 20 47.2000000  0 23                     
G32  22040050.154   115821242.665       -2930.640          45.000    22040044.075    90250295.410       -2283.654          42.000  
G29  23076282.931   121266695.810        -604.271          42.000    23076274.706    94493498.933        -470.892          40.000  
G28  21260712.808   111725798.805       -1195.713          46.000    21260702.811    87059023.148        -931.816          47.000  
G26  20339718.007   106885938.201         671.164          48.000    20339710.483    83287725.423         522.940          46.000  
G31  20622198.003   108370380.468         145.939          47.000    20622187.668    84444411.306         113.848          45.000  
G04  24470845.166   128595133.762        3179.011          32.000    24470839.809   100204028.292        2476.622          34.000  
C33  22509132.144   117210952.644        -715.337          50.000                                                                  
C06  36574202.900   190451474.334        -158.873          45.000    36574185.792   147269089.980        -122.841          48.000  
C14  22686734.745   118135766.001       -2269.012          46.000    22686719.818    91350014.165       -1754.559          50.000  
C16  37002309.789   192680736.589        -189.589          48.000    37002298.369   148992920.358        -146.491          48.000  
C24  21848259.408   113769623.230        -868.738          50.000                                                                  
C26  24446055.168   127297024.324       -2563.226          44.000                                                                  
G03  22889375.083   120284467.866        -138.254          40.000    22889370.126    93728133.297        -107.873          41.000  
G16  22410368.664   117767296.424        2973.703          41.000                                                                  
C09  37725622.312   196447216.835        -148.125          43.000    37725608.099   151905391.741        -114.488          48.000  
C25  23638152.602   123090071.585        1568.358          45.000                                                                  
C13  38379712.151   199853225.818       -2266.091          41.000    38379705.964   154539170.108       -1752.056          43.000  
C08  39210654.200   204180156.191       -2461.838          35.000    39210642.086   157885002.197       -1903.267          42.000  
C10  40490666.776   210845524.047         934.947          34.000    40490667.465   163039126.580         722.577          38.000  
C35  25951374.414   135135620.445         375.784          38.000                                                                  
C07  39553468.281   205965260.458        1120.304          38.000    39553457.874   159265382.065         866.439          40.000  
C12  26440310.694   137681624.496        2310.128          36.000    26440309.148   106464194.218        1786.231          44.000  
G25  24421832.390   128337603.129       -3915.060          33.000    24421826.005   100003290.995       -3050.554          35.000  
> 2025 10 30 06 20 47.2400000  0 23                     
G32  22040072.482   115821359.899       -2930.780          45.000    22040066.394    90250386.763       -2283.779          42.000  
G29  23076287.547   121266719.990        -604.416          42.000    23076279.299    94493517.769        -470.886          40.000  
G28  21260721.894   111725846.630       -1195.669          46.000    21260711.886    87059060.404        -931.585          47.000  
G26  20339712.913   106885911.357         671.077          48.000    20339705.383    83287704.505         522.915          46.000  
G31  20622196.887   108370374.624         146.032          47.000    20622186.557    84444406.758         113.706          45.000  
G04  24470820.983   128595006.629        3178.663          32.000    24470815.607   100203929.228        2476.401          34.000  
C33  22509137.658   117210981.247        -715.177          50.000                                                                  
C06  36574204.136   190451480.683        -158.756          45.000    36574187.024   147269094.889        -122.770          48.000  
C14  22686752.160   118135856.768       -2269.133          46.000    22686737.258    91350084.350       -1754.592          50.000  
C16  37002311.227   192680744.173        -189.605          48.000    37002299.810   148992926.220        -146.538          48.000  
C24  21848266.066   113769657.981        -868.800          50.000                                                                  
C26  24446074.850   127297126.856       -2563.353          44.000                                                                  
G03  22889376.158   120284473.391        -138.136          40.000    22889371.182    93728137.622        -108.104          41.000  
G16  22410346.041   117767177.474        2973.743          41.000                                                                  
C09  37725623.456   196447222.760        -148.142          43.000    37725609.235   151905396.317        -114.427          48.000  
C25  23638140.520   123090008.848        1568.396          45.000                                                                  
C13  38379729.557   199853316.455       -2266.023          41.000    38379723.360   154539240.205       -1752.290          43.000  
C08  39210673.119   204180254.653       -2461.691          35.000    39210660.999   157885078.351       -1903.626          42.000  
C10  40490659.589   210845486.699         934.150          34.000    40490660.333   163039097.676         722.585          38.000  
C35  25951371.545   135135605.393         376.124          38.000                                                                  
C07  39553459.660   205965215.680        1119.724          38.000    39553449.287   159265347.408         866.493          40.000  
C12  26440292.959   137681532.103        2309.898          36.000    26440291.440   106464122.779        1786.033          44.000  
G25  24421862.198   128337759.701       -3914.661          33.000    24421855.790   100003413.016       -3050.623          35.000  
> 2025 10 30 06 20 47.2800000  0 23                     
G32  22040094.771   115821477.130       -2930.798          45.000    22040088.721    90250478.114       -2283.816          42.000  
G29  23076292.156   121266744.177        -604.635          42.000    23076283.907    94493536.609        -470.994          40.000  
G28  21260730.991   111725894.455       -1195.665          46.000    21260720.981    87059097.671        -931.609          47.000  
G26  20339707.794   106885884.508         671.122          48.000    20339700.284    83287683.580         523.028          46.000  
G31  20622195.775   108370368.779         146.094          47.000    20622185.435    84444402.207         113.701          45.000  
G04  24470796.842   128594879.491        3178.451          32.000    24470791.399   100203830.124        2476.991          34.000  
C33  22509143.146   117211009.856        -715.204          50.000                                                                  
C06  36574205.378   190451487.032        -158.682          45.000    36574188.215   147269099.801        -122.787          48.000  
C14  22686769.584   118135947.539       -2269.239          46.000    22686754.697    91350154.532       -1754.573          50.000  
C16  37002312.673   192680751.747        -189.436          48.000    37002301.249   148992932.081        -146.537          48.000  
C24  21848272.789   113769692.728        -868.750          50.000                                                                  
C26  24446094.529   127297229.377       -2563.167          44.000                                                                  
G03  22889377.196   120284478.932        -138.370          40.000    22889372.222    93728141.930        -107.887          41.000  
G16  22410323.386   117767058.526        2973.730          41.000                                                                  
C09  37725624.596   196447228.690        -148.243          43.000    37725610.369   151905400.901        -114.523          48.000  
C25  23638128.489   123089946.115        1568.316          45.000                                                                  
C13  38379746.952   199853407.087       -2265.875          41.000    38379740.779   154539310.285       -1752.167          43.000  
C08  39210692.016   204180353.109       -2461.575          35.000    39210679.919   157885154.491       -1903.615          42.000  
C10  40490652.409   210845449.376         933.309          34.000    40490653.175   163039068.786         722.415          38.000  
C35  25951368.679   135135590.384         375.498          38.000                                                                  
C07  39553451.052   205965170.853        1120.236          38.000    39553440.687   159265312.769         866.145          40.000  
C12  26440275.228   137681439.720        2309.634          36.000    26440273.705   106464051.342        1785.936          44.000  
G25  24421891.991   128337916.270       -3914.260          33.000    24421885.588   100003535.002       -3050.052          35.000  
> 2025 10 30 06 20 47.3200000  0 23                     
G32  22040117.068   115821594.374       -2931.050          45.000    22040111.014    90250569.458       -2283.705          42.000  
G29  23076296.744   121266768.356        -604.575          42.000    23076288.503    94493555.451        -471.088          41.000  
G28  21260740.093   111725942.281       -1195.687          46.000    21260730.086    87059134.932        -931.572          47.000  
G26  20339702.710   106885857.664         671.072          48.000    20339695.182    83287662.660         522.990          46.000  
G31  20622194.662   108370362.939         146.007          47.000    20622184.318    84444397.659         113.646          45.000  
G04  24470772.696   128594752.359        3178.358          32.000    24470767.209   100203731.003        2477.747          34.000  
C33  22509148.621   117211038.476        -715.433          50.000                                                                  
C06  36574206.606   190451493.387        -158.799          45.000    36574189.438   147269104.721        -122.953          48.000  
C14  22686787.031   118136038.309       -2269.282          46.000    22686772.140    91350224.719       -1754.643          50.000  
C16  37002314.122   192680759.329        -189.511          48.000    37002302.681   148992937.943        -146.583          48.000  
C24  21848279.453   113769727.475        -868.730          50.000                                                                  
C26  24446114.225   127297331.895       -2563.030          44.000                                                                  
G03  22889378.242   120284484.476        -138.545          40.000    22889373.269    93728146.240        -107.806          41.000  
G16  22410300.767   117766939.589        2973.492          41.000                                                                  
C09  37725625.731   196447234.607        -148.090          43.000    37725611.495   151905405.492        -114.726          48.000  
C25  23638116.429   123089883.382        1568.303          45.000                                                                  
C13  38379764.353   199853497.726       -2265.943          41.000    38379758.176   154539380.381       -1752.364          43.000  
C08  39210710.922   204180451.549       -2461.168          35.000    39210698.815   157885230.629       -1903.574          42.000  
C10  40490645.242   210845411.990         934.067          34.000    40490645.988   163039039.898         722.225          38.000  
C35  25951365.804   135135575.373         375.195          38.000                                                                  
C07  39553442.440   205965126.055        1120.088          38.000    39553432.064   159265278.124         866.034          40.000  
C12  26440257.491   137681347.340        2309.444          36.000    26440255.968   106463979.902        1785.899          44.000  
G25  24421921.802   128338072.853       -3914.496          33.000    24421915.384   100003657.013       -3050.190          35.000  
> 2025 10 30 06 20 47.3600000  0 23                     
G32  22040139.387   115821711.607       -2930.965          45.000    22040133.312    90250660.809       -2283.769          42.000  
G29  23076301.356   121266792.542        -604.656          42.000    23076293.100    94493574.300        -471.282          41.000  
G28  21260749.216   111725990.109       -1195.748          46.000    21260739.189    87059172.203        -931.700          47.000  
G26  20339697.621   106885830.821         671.042          48.000    20339690.085    83287641.754         522.736          46.000  
G31  20622193.543   108370357.096         146.038          47.000    20622183.187    84444393.112         113.658          45.000  
G04  24470748.499   128594625.190        3178.951          32.000    24470743.006   100203631.938        2477.213          34.000  
C33  22509154.119   117211067.097        -715.557          50.000                                                                  
C06  36574207.811   190451499.748        -158.962          45.000    36574190.636   147269109.639        -123.014          48.000  
C14  22686804.448   118136129.080       -2269.318          46.000    22686789.604    91350294.915       -1754.851          50.000  
C16  37002315.583   192680766.910        -189.543          48.000    37002304.118   148992943.807        -146.640          48.000  
C24  21848286.091   113769762.223        -868.737          50.000                                                                  
C26  24446133.920   127297434.421       -2563.135          44.000                                                                  
G03  22889379.289   120284490.018        -138.624          40.000    22889374.324    93728150.556        -107.876          41.000  
G16  22410278.139   117766820.639        2973.664          41.000                                                                  
C09  37725626.869   196447240.538        -148.198          43.000    37725612.657   151905410.072        -114.635          48.000  
C25  23638104.365   123089820.650        1568.285          45.000                                                                  
C13  38379781.759   199853588.364       -2265.999          41.000    38379775.578   154539450.467       -1752.278          43.000  
C08  39210729.815   204180549.999       -2461.083          35.000    39210717.724   157885306.774       -1903.654          42.000  
C10  40490638.035   210845374.604         934.502          34.000    40490638.797   163039011.001         722.318          38.000  
C35  25951362.928   135135560.332         375.673          38.000                                                                  
C07  39553433.861   205965081.252        1120.049          38.000    39553423.462   159265243.490         865.819          40.000  
C12  26440239.729   137681254.934        2309.939          36.000    26440238.237   106463908.452        1786.109          44.000  
G25  24421951.600   128338229.456       -3914.863          33.000    24421945.196   100003779.028       -3050.264          35.000  
> 2025 10 30 06 20 47.4000000  0 23                     
G32  22040161.672   115821828.834       -2930.809          45.000    22040155.633    90250752.183       -2284.228          42.000  
G29  23076305.956   121266816.719        -604.490          42.000    23076297.697    94493593.148        -471.316          40.000  
G28  21260758.320   111726037.938       -1195.764          46.000    21260748.316    87059209.477        -931.843          47.000  
G26  20339692.508   106885803.977         671.043          48.000    20339684.982    83287620.838         522.787          46.000  
G31  20622192.437   108370351.258         145.946          47.000    20622182.069    84444388.557         113.800          45.000  
G04  24470724.278   128594498.030        3179.111          32.000    24470718.815   100203532.866        2476.986          34.000  
C33  22509159.628   117211095.716        -715.553          50.000                                                                  
C06  36574209.022   190451506.109        -159.065          45.000    36574191.838   147269114.553        -122.937          48.000  
C14  22686821.878   118136219.852       -2269.348          46.000    22686807.032    91350365.111       -1754.955          50.000  
C16  37002317.080   192680774.494        -189.587          48.000    37002305.557   148992949.671        -146.630          48.000  
C24  21848292.762   113769796.975        -868.801          50.000                                                                  
C26  24446153.608   127297536.944       -2563.143          44.000                                                                  
G03  22889380.343   120284495.565        -138.774          40.000    22889375.388    93728154.880        -108.050          41.000  
G16  22410255.523   117766701.699        2973.561          41.000                                                                  
C09  37725628.016   196447246.459        -148.121          43.000    37725613.796   151905414.651        -114.539          48.000  
C25  23638092.299   123089757.908        1568.458          45.000                                                                  
C13  38379799.162   199853679.005       -2266.085          41.000    38379792.986   154539520.558       -1752.302          43.000  
C08  39210748.702   204180648.491       -2461.889          35.000    39210736.628   157885382.914       -1903.618          42.000  
C10  40490630.853   210845337.236         934.267          34.000    40490631.618   163038982.103         722.460          38.000  
C35  25951360.026   135135545.300         375.778          38.000                                                                  
C07  39553425.241   205965036.461        1119.854          38.000    39553414.868   159265208.843         865.959          40.000  
C12  26440221.981   137681162.563        2309.475          36.000    26440220.487   106463837.012        1785.991          43.000  
G25  24421981.394   128338386.015       -3914.372          33.000    24421974.994   100003901.058       -3050.670          35.000  
> 2025 10 30 06 20 47.4400000  0 23                     
G32  22040183.975   115821946.077       -2930.978          45.000    22040177.941    90250843.534       -2284.018          42.000  
G29  23076310.550   121266840.900        -604.510          42.000    23076302.301    94493612.004        -471.394          40.000  
G28  21260767.410   111726085.767       -1195.783          46.000    21260757.403    87059246.747        -931.838          47.000  
G26  20339687.431   106885777.143         670.875          48.000    20339679.855    83287599.922         522.857          46.000  
G31  20622191.337   108370345.425         145.811          47.000    20622180.947    84444384.001         113.874          45.000  
G04  24470700.052   128594370.912        3178.458          32.000    24470694.620   100203433.817        2476.339          34.000  
C33  22509165.128   117211124.337        -715.576          50.000                                                                  
C06  36574210.262   190451512.460        -158.914          45.000    36574193.027   147269119.466        -122.876          48.000  
C14  22686839.295   118136310.619       -2269.290          46.000    22686824.471    91350435.299       -1754.851          50.000  
C16  37002318.534   192680782.080        -189.684          48.000    37002307.001   148992955.540        -146.733          48.000  
C24  21848299.428   113769831.727        -868.826          50.000                                                                  
C26  24446173.307   127297639.471       -2563.195          44.000                                                                  
G03  22889381.413   120284501.106        -138.657          40.000    22889376.449    93728159.200        -108.061          41.000  
G16  22410232.885   117766582.751        2973.619          41.000                                                                  
C09  37725629.150   196447252.389        -148.223          43.000    37725614.907   151905419.229        -114.495          48.000  
C25  23638080.236   123089695.176        1568.371          45.000                                                                  
C13  38379816.567   199853769.661       -2266.355          41.000    38379810.389   154539590.645       -1752.247          43.000  
C08  39210767.612   204180746.992       -2462.454          35.000    39210755.562   157885459.042       -1903.393          42.000  
C10  40490623.667   210845299.890         933.740          34.000    40490624.446   163038953.213         722.369          38.000  
C35  25951357.146   135135530.285         375.455          38.000                                                                  
C07  39553416.631   205964991.668        1119.802          38.000    39553406.282   159265174.201         866.012          40.000  
C12  26440204.239   137681070.177        2309.513          36.000    26440202.747   106463765.572        1785.985          43.000  
G25  24422011.222   128338542.638       -3915.187          33.000    24422004.797   100004023.067       -3050.474          35.000  
> 2025 10 30 06 20 47.4800000  0 23                     
G32  22040206.295   115822063.328       -2931.248          45.000    22040200.237    90250934.892       -2284.035          42.000  
G29  23076315.155   121266865.095        -604.755          42.000    23076306.898    94493630.849        -471.286          40.000  
G28  21260776.537   111726133.608       -1195.986          46.000    21260766.515    87059284.023        -931.908          47.000  
G26  20339682.313   106885750.310         670.777          48.000    20339674.732    83287579.006         522.888          46.000  
G31  20622190.228   108370339.598         145.676          47.000    20622179.825    84444379.462         113.596          45.000  
G04  24470675.844   128594243.766        3178.480          32.000    24470670.437   100203334.785        2475.812          34.000  
C33  22509170.603   117211152.960        -715.620          50.000                                                                  
C06  36574211.474   190451518.823        -159.025          45.000    36574194.202   147269124.382        -122.891          48.000  
C14  22686856.709   118136401.398       -2269.462          46.000    22686841.904    91350505.496       -1754.919          50.000  
C16  37002320.012   192680789.664        -189.688          48.000    37002308.469   148992961.402        -146.653          48.000  
C24  21848306.068   113769866.487        -868.987          50.000                                                                  
C26  24446192.990   127297741.997       -2563.203          44.000                                                                  
G03  22889382.460   120284506.657        -138.770          40.000    22889377.506    93728163.521        -108.078          41.000  
G16  22410210.236   117766463.814        2973.471          41.000                                                                  
C09  37725630.308   196447258.318        -148.234          43.000    37725616.043   151905423.814        -114.592          48.000  
C25  23638068.180   123089632.465        1567.915          45.000                                                                  
C13  38379833.993   199853860.312       -2266.428          41.000    38379827.803   154539660.736       -1752.259          43.000  
C08  39210786.496   204180845.447       -2461.954          35.000    39210774.468   157885535.188       -1903.542          42.000  
C10  40490616.501   210845262.523         933.907          34.000    40490617.273   163038924.325         722.255          38.000  
C35  25951354.245   135135515.248         375.727          38.000                                                                  
C07  39553408.028   205964946.853        1120.134          38.000    39553397.690   159265139.570         865.856          40.000  
C12  26440186.462   137680977.778        2309.754          36.000    26440185.008   106463694.137        1785.899          43.000  
G25  24422041.004   128338699.193       -3914.476          33.000    24422034.582   100004145.072       -3050.304          35.000  
> 2025 10 30 06 20 47.5200000  0 23                     
G32  22040228.633   115822180.580       -2931.369          45.000    22040222.553    90251026.260       -2284.201          42.000  
G29  23076319.784   121266889.305        -605.186          42.000    23076311.517    94493649.693        -471.166          40.000  
G28  21260785.653   111726181.445       -1196.015          46.000    21260775.635    87059321.304        -932.056          47.000  
G26  20339677.192   106885723.477         670.754          48.000    20339669.632    83287558.107         522.583          46.000  
G31  20622189.119   108370333.772         145.578          47.000    20622178.707    84444374.925         113.381          45.000  
G04  24470651.662   128594116.639        3178.246          32.000    24470646.232   100203235.693        2476.554          34.000  
C33  22509176.094   117211181.586        -715.701          50.000                                                                  
C06  36574212.712   190451525.196        -159.314          45.000    36574195.438   147269129.305        -123.043          48.000  
C14  22686874.138   118136492.185       -2269.680          46.000    22686859.291    91350575.695       -1755.032          50.000  
C16  37002321.465   192680797.258        -189.841          48.000    37002309.944   148992967.273        -146.756          48.000  
C24  21848312.727   113769901.251        -869.146          50.000                                                                  
C26  24446212.695   127297844.538       -2563.457          44.000                                                                  
G03  22889383.514   120284512.201        -138.718          40.000    22889378.588    93728167.861        -108.417          41.000  
G16  22410187.609   117766344.877        2973.370          41.000                                                                  
C09  37725631.422   196447264.255        -148.411          43.000    37725617.172   151905428.407        -114.788          48.000  
C25  23638056.151   123089569.746        1567.793          45.000                                                                  
C13  38379851.402   199853950.959       -2266.397          41.000    38379845.211   154539730.829       -1752.345          43.000  
C08  39210805.374   204180943.903       -2461.646          35.000    39210793.389   157885611.332       -1903.564          42.000  
C10  40490609.298   210845225.180         933.580          34.000    40490610.101   163038895.430         722.314          38.000  
C35  25951351.374   135135500.253         375.124          38.000                                                                  
C07  39553399.433   205964902.071        1119.783          38.000    39553389.090   159265104.923         866.038          40.000  
C12  26440168.736   137680885.390        2309.692          36.000    26440167.239   106463622.705        1785.776          43.000  
G25  24422070.798   128338855.781       -3914.711          33.000    24422064.380   100004267.092       -3050.487          35.000  
> 2025 10 30 06 20 47.5600000  0 23                     
G32  22040250.938   115822297.822       -2931.226          45.000    22040244.871    90251117.608       -2283.906          42.000  
G29  23076324.397   121266913.497        -605.010          42.000    23076316.122    94493668.551        -471.381          40.000  
G28  21260794.756   111726229.280       -1195.935          46.000    21260784.723    87059358.582        -932.054          47.000  
G26  20339672.099   106885696.645         670.724          48.000    20339664.528    83287537.197         522.635          46.000  
G31  20622187.989   108370327.937         145.746          47.000    20622177.586    84444370.388         113.308          45.000  
G04  24470627.480   128593989.482        3178.684          32.000    24470622.047   100203136.605        2477.101          34.000  
C33  22509181.599   117211210.217        -715.806          50.000                                                                  
C06  36574213.923   190451531.567        -159.397          45.000    36574196.679   147269134.230        -123.135          48.000  
C14  22686891.591   118136582.969       -2269.720          46.000    22686876.715    91350645.887       -1754.922          50.000  
C16  37002322.908   192680804.845        -189.778          48.000    37002311.426   148992973.140        -146.760          48.000  
C24  21848319.413   113769936.013        -869.164          50.000                                                                  
C26  24446232.395   127297947.083       -2563.611          44.000                                                                  
G03  22889384.580   120284517.763        -139.001          40.000    22889379.674    93728172.191        -108.413          41.000  
G16  22410164.983   117766225.951        2973.150          41.000                                                                  
C09  37725632.545   196447270.197        -148.572          43.000    37725618.329   151905432.994        -114.777          48.000  
C25  23638044.073   123089507.011        1568.109          45.000                                                                  
C13  38379868.818   199854041.605       -2266.279          41.000    38379862.595   154539800.928       -1752.474          43.000  
C08  39210824.279   204181042.368       -2461.592          35.000    39210812.310   157885687.476       -1903.603          42.000  
C10  40490602.111   210845187.811         933.923          34.000    40490602.937   163038866.555         721.990          38.000  
C35  25951348.496   135135485.241         375.182          38.000                                                                  
C07  39553390.816   205964857.272        1119.832          38.000    39553380.502   159265070.282         866.069          40.000  
C12  26440150.995   137680793.005        2309.536          36.000    26440149.489   106463551.265        1785.888          43.000  
G25  24422100.612   128339012.353       -3914.428          33.000    24422094.173   100004389.112       -3050.656          35.000  
> 2025 10 30 06 20 47.6000000  0 23                     
G32  22040273.245   115822415.067       -2931.180          45.000    22040267.159    90251208.973       -2284.059          42.000  
G29  23076328.973   121266937.684        -604.802          42.000    23076320.750    94493687.412        -471.517          40.000  
G28  21260803.863   111726277.115       -1195.928          46.000    21260793.823    87059395.858        -932.025          47.000  
G26  20339666.983   106885669.815         670.713          48.000    20339659.409    83287516.287         522.666          46.000  
G31  20622186.866   108370322.106         145.764          47.000    20622176.482    84444365.850         113.328          45.000  
G04  24470603.237   128593862.307        3179.214          32.000    24470597.845   100203037.515        2477.283          34.000  
C33  22509187.117   117211238.847        -715.835          50.000                                                                  
C06  36574215.136   190451537.921        -159.141          45.000    36574197.889   147269139.154        -123.136          48.000  
C14  22686909.039   118136673.748       -2269.615          46.000    22686894.163    91350716.083       -1754.915          50.000  
C16  37002324.337   192680812.430        -189.712          48.000    37002312.933   148992979.007        -146.741          48.000  
C24  21848326.121   113769970.771        -869.055          50.000                                                                  
C26  24446252.083   127298049.606       -2563.328          44.000                                                                  
G03  22889385.629   120284523.311        -138.890          40.000    22889380.732    93728176.504        -108.092          41.000  
G16  22410142.350   117766107.020        2973.164          41.000                                                                  
C09  37725633.664   196447276.135        -148.575          43.000    37725619.473   151905437.586        -114.825          48.000  
C25  23638032.017   123089444.284        1568.152          45.000                                                                  
C13  38379886.230   199854132.245       -2266.138          41.000    38379880.003   154539871.026       -1752.498          43.000  
C08  39210843.177   204181140.858       -2462.029          35.000    39210831.237   157885763.626       -1903.749          42.000  
C10  40490594.936   210845150.432         934.314          34.000    40490595.758   163038837.654         722.319          38.000  
C35  25951345.586   135135470.227         375.247          38.000                                                                  
C07  39553382.206   205964812.466        1119.961          38.000    39553371.899   159265035.639         866.094          40.000  
C12  26440133.262   137680700.631        2309.284          36.000    26440131.756   106463479.826        1785.925          43.000  
G25  24422130.419   128339168.991       -3915.454          33.000    24422123.975   100004511.128       -3050.586          35.000  
> 2025 10 30 06 20 47.6400000  0 23                     
G32  22040295.530   115822532.312       -2931.140          45.000    22040289.478    90251300.338       -2284.134          42.000  
G29  23076333.608   121266961.882        -604.884          42.000    23076325.362    94493706.261        -471.363          41.000  
G28  21260812.969   111726324.960       -1196.095          46.000    21260802.919    87059433.135        -932.018          47.000  
G26  20339661.875   106885642.985         670.695          48.000    20339654.296    83287495.383         522.573          46.000  
G31  20622185.765   108370316.275         145.770          47.000    20622175.364    84444361.302         113.544          45.000  
G04  24470579.001   128593735.165        3178.859          32.000    24470573.650   100202938.452        2476.879          34.000  
C33  22509192.659   117211267.478        -715.845          50.000                                                                  
C06  36574216.348   190451544.282        -159.110          45.000    36574199.118   147269144.074        -123.096          48.000  
C14  22686926.502   118136764.519       -2269.373          46.000    22686911.616    91350786.282       -1754.992          50.000  
C16  37002325.789   192680820.016        -189.687          48.000    37002314.401   148992984.875        -146.740          48.000  
C24  21848332.811   113770005.529        -869.008          50.000                                                                  
C26  24446271.773   127298152.140       -2563.346          44.000                                                                  
G03  22889386.683   120284528.864        -138.877          40.000    22889381.781    93728180.836        -108.231          41.000  
G16  22410119.716   117765988.093        2973.116          41.000                                                                  
C09  37725634.798   196447282.053        -148.193          43.000    37725620.630   151905442.168        -114.679          48.000  
C25  23638019.948   123089381.560        1568.102          45.000                                                                  
C13  38379903.620   199854222.893       -2266.193          41.000    38379897.417   154539941.120       -1752.417          43.000  
C08  39210862.072   204181239.341       -2462.140          35.000    39210850.167   157885839.766       -1903.630          42.000  
C10  40490587.792   210845113.065         934.237          34.000    40490588.555   163038808.750         722.498          38.000  
C35  25951342.696   135135455.203         375.538          38.000                                                                  
C07  39553373.602   205964767.671        1119.867          38.000    39553363.303   159265001.007         865.870          40.000  
C12  26440115.514   137680608.247        2309.347          36.000    26440114.012   106463408.392        1785.882          43.000  
G25  24422160.236   128339325.585       -3915.281          33.000    24422153.780   100004633.132       -3050.184          35.000  
> 2025 10 30 06 20 47.6800000  0 23                     
G32  22040317.866   115822649.567       -2931.316          45.000    22040311.820    90251391.709       -2284.281          42.000  
G29  23076338.239   121266986.081        -604.960          42.000    23076329.963    94493725.109        -471.269          40.000  
G28  21260822.110   111726372.810       -1196.253          46.000    21260812.035    87059470.420        -932.121          47.000  
G26  20339656.770   106885616.158         670.639          48.000    20339649.204    83287474.486         522.387          46.000  
G31  20622184.648   108370310.459         145.493          47.000    20622174.266    84444356.760         113.537          45.000  
G04  24470554.831   128593608.094        3177.506          32.000    24470549.465   100202839.386        2476.653          34.000  
C33  22509198.139   117211296.116        -715.950          50.000                                                                  
C06  36574217.538   190451550.647        -159.159          45.000    36574200.366   147269148.993        -123.014          48.000  
C14  22686943.940   118136855.310       -2269.629          46.000    22686929.047    91350856.491       -1755.219          50.000  
C16  37002327.230   192680827.614        -189.894          48.000    37002315.851   148992990.746        -146.797          48.000  
C24  21848339.474   113770040.296        -869.126          50.000                                                                  
C26  24446291.453   127298254.677       -2563.433          44.000                                                                  
G03  22889387.718   120284534.428        -139.077          40.000    22889382.849    93728185.176        -108.489          41.000  
G16  22410097.088   117765869.171        2973.070          41.000                                                                  
C09  37725635.919   196447287.987        -148.305          43.000    37725621.776   151905446.765        -114.857          48.000  
C25  23638007.890   123089318.852        1567.801          45.000                                                                  
C13  38379921.010   199854313.540       -2266.262          41.000    38379914.832   154540011.219       -1752.498          43.000  
C08  39210880.991   204181337.783       -2461.453          35.000    39210869.075   157885915.925       -1903.887          42.000  
C10  40490580.592   210845075.718         933.816          34.000    40490581.372   163038779.880         721.980          38.000  
C35  25951339.799   135135440.186         375.497          38.000                                                                  
C07  39553365.010   205964722.870        1120.000          38.000    39553354.708   159264966.385         865.580          40.000  
C12  26440097.769   137680515.863        2309.459          36.000    26440096.296   106463336.961        1785.814          43.000  
G25  24422190.022   128339482.158       -3914.833          33.000    24422183.604   100004755.179       -3050.825          35.000  
> 2025 10 30 06 20 47.7200000  0 23                     
G32  22040340.175   115822766.823       -2931.429          45.000    22040334.139    90251483.084       -2284.438          42.000  
G29  23076342.859   121267010.280        -605.048          42.000    23076334.571    94493743.995        -471.931          40.000  
G28  21260831.204   111726420.652       -1196.178          46.000    21260821.143    87059507.693        -931.972          47.000  
G26  20339651.666   106885589.333         670.577          48.000    20339644.096    83287453.585         522.414          46.000  
G31  20622183.563   108370304.638         145.444          47.000    20622173.157    84444352.219         113.531          45.000  
G04  24470530.647   128593480.952        3177.928          32.000    24470525.288   100202740.319        2476.676          34.000  
C33  22509203.621   117211324.755        -716.004          50.000                                                                  
C06  36574218.765   190451557.015        -159.200          45.000    36574201.595   147269153.916        -123.062          48.000  
C14  22686961.377   118136946.103       -2269.824          46.000    22686946.476    91350926.696       -1755.240          50.000  
C16  37002328.664   192680835.212        -189.973          48.000    37002317.331   148992996.620        -146.859          48.000  
C24  21848346.170   113770075.062        -869.189          50.000                                                                  
C26  24446311.128   127298357.220       -2563.582          44.000                                                                  
G03  22889388.765   120284539.998        -139.314          40.000    22889383.909    93728189.509        -108.460          41.000  
G16  22410074.453   117765750.248        2973.047          41.000                                                                  
C09  37725637.051   196447293.932        -148.533          43.000    37725622.907   151905451.354        -114.811          48.000  
C25  23637995.862   123089256.132        1567.882          45.000                                                                  
C13  38379938.409   199854404.216       -2266.797          41.000    38379932.234   154540081.325       -1752.621          43.000  
C08  39210899.907   204181436.296       -2462.304          35.000    39210887.983   157885992.085       -1904.034          42.000  
C10  40490573.445   210845038.346         934.023          34.000    40490574.224   163038751.026         721.423          38.000  
C35  25951336.932   135135425.181         375.244          38.000                                                                  
C07  39553356.416   205964678.103        1119.412          38.000    39553346.081   159264931.754         865.618          40.000  
C12  26440080.042   137680423.491        2309.305          36.000    26440078.528   106463265.527        1785.827          43.000  
G25  24422219.818   128339638.784       -3915.427          33.000    24422213.400   100004877.182       -3050.437          35.000  
> 2025 10 30 06 20 47.7600000  0 23                     
G32  22040362.477   115822884.073       -2931.380          45.000    22040356.431    90251574.434       -2284.052          42.000  
G29  23076347.465   121267034.483        -605.103          42.000    23076339.188    94493762.857        -471.837          40.000  
G28  21260840.299   111726468.492       -1196.068          46.000    21260830.233    87059544.969        -931.940          47.000  
G26  20339646.583   106885562.513         670.479          48.000    20339638.978    83287432.684         522.459          46.000  
G31  20622182.443   108370298.811         145.550          47.000    20622172.055    84444347.686         113.402          45.000  
G04  24470506.483   128593353.795        3178.580          32.000    24470501.108   100202641.289        2475.973          34.000  
C33  22509209.158   117211353.388        -715.926          50.000                                                                  
C06  36574219.987   190451563.380        -159.158          45.000    36574202.836   147269158.839        -123.082          48.000  
C14  22686978.825   118137036.892       -2269.826          46.000    22686963.898    91350996.895       -1755.098          50.000  
C16  37002330.139   192680842.802        -189.859          48.000    37002318.785   148993002.487        -146.767          48.000  
C24  21848352.863   113770109.828        -869.198          50.000                                                                  
C26  24446330.835   127298459.752       -2563.457          44.000                                                                  
G03  22889389.832   120284545.569        -139.371          40.000    22889384.975    93728193.842        -108.401          41.000  
G16  22410051.822   117765631.319        2973.150          41.000                                                                  
C09  37725638.171   196447299.867        -148.486          43.000    37725624.036   151905455.945        -114.804          48.000  
C25  23637983.830   123089193.406        1568.042          45.000                                                                  
C13  38379955.842   199854494.865       -2266.543          41.000    38379949.610   154540151.413       -1752.349          43.000  
C08  39210918.841   204181534.767       -2462.046          35.000    39210906.877   157886068.223       -1903.727          42.000  
C10  40490566.300   210845001.027         933.218          34.000    40490567.067   163038722.154         721.563          38.000  
C35  25951334.043   135135410.177         375.057          38.000                                                                  
C07  39553347.834   205964633.317        1119.497          38.000    39553337.481   159264897.107         865.958          40.000  
C12  26440062.299   137680331.102        2309.583          36.000    26440060.805   106463194.082        1786.074          43.000  
G25  24422249.620   128339795.347       -3914.550          33.000    24422243.193   100004999.191       -3050.247          35.000  
> 2025 10 30 06 20 47.8000000  0 23                     
G32  22040384.802   115823001.328       -2931.404          45.000    22040378.748    90251665.793       -2283.985          42.000  
G29  23076352.079   121267058.694        -605.276          42.000    23076343.789    94493781.704        -471.464          40.000  
G28  21260849.382   111726516.323       -1195.865          46.000    21260839.315    87059582.249        -931.973          47.000  
G26  20339641.464   106885535.688         670.549          48.000    20339633.879    83287411.773         522.671          46.000  
G31  20622181.320   108370292.981         145.679          47.000    20622170.955    84444343.143         113.532          45.000  
G04  24470482.303   128593226.662        3178.562          32.000    24470476.914   100202542.222        2476.334          34.000  
C33  22509214.700   117211382.020        -715.844          50.000                                                                  
C06  36574221.245   190451569.746        -159.152          45.000    36574204.061   147269163.762        -123.075          48.000  
C14  22686996.260   118137127.677       -2269.702          46.000    22686981.339    91351067.091       -1754.984          50.000  
C16  37002331.631   192680850.386        -189.692          48.000    37002320.244   148993008.355        -146.729          48.000  
C24  21848359.551   113770144.587        -869.066          50.000                                                                  
C26  24446350.534   127298562.283       -2563.340          44.000                                                                  
G03  22889390.874   120284551.119        -138.998          40.000    22889386.024    93728198.164        -108.168          41.000  
G16  22410029.188   117765512.374        2973.482          42.000                                                                  
C09  37725639.303   196447305.784        -148.117          43.000    37725625.159   151905460.530        -114.683          48.000  
C25  23637971.766   123089130.684        1568.029          45.000                                                                  
C13  38379973.243   199854585.507       -2266.178          41.000    38379966.992   154540221.494       -1752.078          43.000  
C08  39210937.749   204181633.213       -2461.411          35.000    39210925.783   157886144.361       -1903.515          42.000  
C10  40490559.150   210844963.657         933.717          34.000    40490559.871   163038693.231         722.594          38.000  
C35  25951331.170   135135395.175         374.992          38.000                                                                  
C07  39553339.236   205964588.489        1120.367          38.000    39553328.870   159264862.452         866.196          40.000  
C12  26440044.536   137680238.688        2310.156          36.000    26440043.070   106463122.649        1785.937          43.000  
G25  24422279.422   128339951.932       -3914.552          33.000    24422273.011   100005121.231       -3050.762          35.000  
> 2025 10 30 06 20 47.8400000  0 23                     
G32  22040407.118   115823118.569       -2931.177          45.000    22040401.045    90251757.153       -2283.956          42.000  
G29  23076356.691   121267082.893        -605.110          42.000    23076348.379    94493800.544        -471.114          40.000  
G28  21260858.490   111726564.155       -1195.807          46.000    21260848.404    87059619.524        -931.950          47.000  
G26  20339636.368   106885508.856         670.742          48.000    20339628.778    83287390.861         522.800          46.000  
G31  20622180.209   108370287.149         145.790          47.000    20622169.852    84444338.603         113.507          45.000  
G04  24470458.072   128593099.484        3179.169          32.000    24470452.719   100202443.127        2476.995          34.000  
C33  22509220.184   117211410.650        -715.756          50.000                                                                  
C06  36574222.462   190451576.102        -158.966          45.000    36574205.338   147269168.675        -122.924          48.000  
C14  22687013.672   118137218.456       -2269.531          46.000    22686998.776    91351137.288       -1754.916          50.000  
C16  37002333.121   192680857.963        -189.461          48.000    37002321.692   148993014.217        -146.593          48.000  
C24  21848366.237   113770179.342        -868.932          50.000                                                                  
C26  24446370.226   127298664.811       -2563.260          44.000                                                                  
G03  22889391.912   120284556.673        -138.843          40.000    22889387.093    93728202.492        -108.145          41.000  
G16  22410006.557   117765393.429        2973.647          42.000                                                                  
C09  37725640.455   196447311.713        -148.120          43.000    37725626.290   151905465.106        -114.476          48.000  
C25  23637959.743   123089067.960        1568.091          45.000                                                                  
C13  38379990.633   199854676.151       -2266.031          41.000    38379984.388   154540291.582       -1752.104          43.000  
C08  39210956.648   204181731.686       -2461.619          35.000    39210944.685   157886220.498       -1903.399          42.000  
C10  40490551.990   210844926.277         934.146          34.000    40490552.697   163038664.331         722.695          38.000  
C35  25951328.296   135135380.152         375.365          38.000                                                                  
C07  39553330.634   205964543.685        1120.372          38.000    39553320.249   159264827.813         866.055          40.000  
C12  26440026.786   137680146.314        2309.679          35.000    26440025.361   106463051.214        1785.881          43.000  
G25  24422309.222   128340108.501       -3914.328          33.000    24422302.798   100005243.240       -3050.476          35.000  
> 2025 10 30 06 20 47.8800000  0 23                     
G32  22040429.439   115823235.811       -2931.071          45.000    22040423.381    90251848.521       -2284.127          42.000  
G29  23076361.282   121267107.085        -604.884          42.000    23076352.962    94493819.387        -471.025          40.000  
G28  21260867.578   111726611.991       -1195.805          46.000    21260857.504    87059656.803        -931.983          47.000  
G26  20339631.269   106885482.027         670.772          48.000    20339623.687    83287369.962         522.593          46.000  
G31  20622179.080   108370281.316         145.869          47.000    20622168.737    84444334.063         113.531          45.000  
G04  24470433.847   128592972.322        3179.227          32.000    24470428.523   100202344.048        2477.019          34.000  
C33  22509225.708   117211439.276        -715.656          50.000                                                                  
C06  36574223.700   190451582.451        -158.777          45.000    36574206.553   147269173.588        -122.822          48.000  
C14  22687031.111   118137309.236       -2269.465          46.000    22687016.181    91351207.487       -1754.924          50.000  
C16  37002334.598   192680865.548        -189.515          48.000    37002323.125   148993020.081        -146.592          48.000  
C24  21848372.913   113770214.100        -868.923          50.000                                                                  
C26  24446389.929   127298767.334       -2563.146          44.000                                                                  
G03  22889392.956   120284562.218        -138.652          40.000    22889388.159    93728206.830        -108.342          41.000  
G16  22409983.915   117765274.507        2973.322          42.000                                                                  
C09  37725641.589   196447317.645        -148.213          43.000    37725627.427   151905469.692        -114.576          48.000  
C25  23637947.721   123089005.225        1568.325          45.000                                                                  
C13  38380008.044   199854766.787       -2265.891          41.000    38380001.766   154540361.687       -1752.488          43.000  
C08  39210975.555   204181830.179       -2462.117          35.000    39210963.571   157886296.649       -1903.607          42.000  
C10  40490544.813   210844888.898         934.511          34.000    40490545.485   163038635.412         722.983          38.000  
C35  25951325.418   135135365.128         375.550          38.000                                                                  
C07  39553322.016   205964498.884        1120.273          38.000    39553311.648   159264793.175         865.947          40.000  
C12  26440009.038   137680053.935        2309.519          35.000    26440007.613   106462979.772        1785.999          43.000  
G25  24422339.013   128340265.088       -3914.531          33.000    24422332.610   100005365.279       -3050.847          35.000  
> 2025 10 30 06 20 47.9200000  0 23                     
G32  22040451.731   115823353.049       -2930.933          45.000    22040445.671    90251939.876       -2283.977          42.000  
G29  23076365.869   121267131.281        -604.855          42.000    23076357.566    94493838.251        -471.380          40.000  
G28  21260876.682   111726659.828       -1195.863          46.000    21260866.601    87059694.073        -931.814          47.000  
G26  20339626.156   106885455.197         670.759          48.000    20339618.603    83287349.054         522.649          46.000  
G31  20622177.974   108370275.482         145.899          47.000    20622167.625    84444329.503         113.851          45.000  
G04  24470409.682   128592845.186        3178.826          32.000    24470404.345   100202244.992        2476.659          34.000  
C33  22509231.210   117211467.905        -715.678          50.000                                                                  
C06  36574224.933   190451588.808        -158.818          45.000    36574207.782   147269178.505        -122.839          48.000  
C14  22687048.516   118137400.014       -2269.410          46.000    22687033.611    91351277.687       -1754.963          50.000  
C16  37002336.067   192680873.132        -189.548          48.000    37002324.560   148993025.943        -146.562          48.000  
C24  21848379.526   113770248.862        -868.992          50.000                                                                  
C26  24446409.625   127298869.853       -2563.020          44.000                                                                  
G03  22889394.022   120284567.779        -138.856          40.000    22889389.236    93728211.165        -108.435          41.000  
G16  22409961.294   117765155.580        2973.162          42.000                                                                  
C09  37725642.721   196447323.575        -148.271          43.000    37725628.558   151905474.279        -114.665          48.000  
C25  23637935.709   123088942.498        1568.293          45.000                                                                  
C13  38380025.443   199854857.440       -2266.157          41.000    38380019.182   154540431.779       -1752.437          43.000  
C08  39210994.457   204181928.637       -2461.664          35.000    39210982.462   157886372.799       -1903.711          42.000  
C10  40490537.592   210844851.522         934.553          34.000    40490538.303   163038606.548         722.046          38.000  
C35  25951322.535   135135350.121         375.314          38.000                                                                  
C07  39553313.404   205964454.075        1120.313          38.000    39553303.046   159264758.541         865.840          40.000  
C12  26439991.306   137679961.552        2309.520          35.000    26439989.886   106462908.329        1786.091          43.000  
G25  24422368.826   128340421.731       -3915.621          33.000    24422362.412   100005487.304       -3050.799          35.000  
> 2025 10 30 06 20 47.9600000  0 23                     
G32  22040474.052   115823470.305       -2931.251          45.000    22040467.986    90252031.235       -2283.972          42.000  
G29  23076370.471   121267155.475        -604.826          42.000    23076362.165    94493857.107        -471.415          40.000  
G28  21260885.777   111726707.662       -1195.872          46.000    21260875.698    87059731.346        -931.800          47.000  
G26  20339621.042   106885428.368         670.746          48.000    20339613.507    83287328.153         522.550          46.000  
G31  20622176.866   108370269.650         145.825          47.000    20622166.522    84444324.958         113.745          45.000  
G04  24470385.486   128592718.076        3178.126          32.000    24470380.139   100202145.851        2477.950          34.000  
C33  22509236.680   117211496.533        -715.673          50.000                                                                  
C06  36574226.158   190451595.165        -158.883          45.000    36574208.978   147269183.417        -122.798          48.000  
C14  22687065.946   118137490.789       -2269.349          46.000    22687051.046    91351347.879       -1754.856          50.000  
C16  37002337.554   192680880.715        -189.558          48.000    37002326.010   148993031.808        -146.596          48.000  
C24  21848386.223   113770283.616        -868.913          50.000                                                                  
C26  24446429.321   127298972.390       -2563.284          44.000                                                                  
G03  22889395.051   120284573.329        -138.807          40.000    22889390.303    93728215.488        -108.194          41.000  
G16  22409938.687   117765036.650        2973.134          42.000                                                                  
C09  37725643.850   196447329.498        -148.136          43.000    37725629.713   151905478.860        -114.569          48.000  
C25  23637923.657   123088879.772        1568.231          45.000                                                                  
C13  38380042.865   199854948.088       -2266.194          41.000    38380036.601   154540501.878       -1752.517          43.000  
C08  39211013.382   204182027.089       -2461.442          35.000    39211001.374   157886448.938       -1903.575          42.000  
C10  40490530.420   210844814.164         934.166          34.000    40490531.134   163038577.667         721.923          38.000  
C35  25951319.672   135135335.103         375.391          38.000                                                                  
C07  39553304.785   205964409.278        1120.076          38.000    39553294.394   159264723.889         866.136          40.000  
C12  26439973.570   137679869.153        2309.735          35.000    26439972.125   106462836.880        1786.232          43.000  
G25  24422398.607   128340578.285       -3914.624          33.000    24422392.193   100005609.288       -3049.996          35.000  
> 2025 10 30 06 20 48.0000000  0 23                     
G32  22040496.367   115823587.552       -2931.255          45.000    22040490.292    90252122.595       -2284.021          42.000  
G29  23076375.105   121267179.679        -605.015          42.000    23076366.770    94493875.973        -471.602          40.000  
G28  21260894.882   111726755.494       -1195.840          46.000    21260884.794    87059768.610        -931.636          47.000  
G26  20339615.933   106885401.534         670.801          48.000    20339608.388    83287307.244         522.637          46.000  
G31  20622175.753   108370263.817         145.812          47.000    20622165.423    84444320.417         113.585          45.000  
G04  24470361.267   128592590.936        3178.250          32.000    24470355.927   100202046.783        2477.211          34.000  
C33  22509242.149   117211525.165        -715.775          50.000                                                                  
C06  36574227.376   190451601.523        -158.964          45.000    36574210.183   147269188.337        -122.919          48.000  
C14  22687083.371   118137581.566       -2269.377          46.000    22687068.469    91351418.077       -1754.915          50.000  
C16  37002339.005   192680888.295        -189.526          48.000    37002327.495   148993037.669        -146.552          48.000  
C24  21848392.914   113770318.369        -868.844          50.000                                                                  
C26  24446449.003   127299074.922       -2563.339          44.000                                                                  
G03  22889396.117   120284578.892        -139.041          40.000    22889391.359    93728219.801        -107.901          41.000  
G16  22409916.048   117764917.709        2973.374          42.000                                                                  
C09  37725644.951   196447335.416        -148.026          43.000    37725630.851   151905483.436        -114.429          48.000  
C25  23637911.622   123088817.042        1568.231          45.000                                                                  
C13  38380060.282   199855038.713       -2265.824          41.000    38380054.005   154540571.968       -1752.356          43.000  
C08  39211032.281   204182125.553       -2461.455          35.000    39211020.311   157886525.072       -1903.448          42.000  
C10  40490523.258   210844776.796         934.176          34.000    40490523.958   163038548.764         722.311          38.000  
C35  25951316.791   135135320.076         375.552          38.000                                                                  
C07  39553296.185   205964364.488        1119.774          38.000    39553285.798   159264689.222         866.558          40.000  
C12  26439955.834   137679776.760        2309.746          35.000    26439954.358   106462765.444        1786.003          43.000  
G25  24422428.393   128340734.835       -3913.927          33.000    24422421.968   100005731.303       -3050.171          35.000  
> 2025 10 30 06 20 48.0400000  0 23                     
G32  22040518.664   115823704.799       -2931.252          45.000    22040512.622    90252213.962       -2284.134          42.000  
G29  23076379.710   121267203.880        -605.052          42.000    23076371.381    94493894.842        -471.821          40.000  
G28  21260904.005   111726803.334       -1195.973          46.000    21260893.906    87059805.888        -931.811          47.000  
G26  20339610.851   106885374.709         670.676          48.000    20339603.266    83287286.339         522.612          46.000  
G31  20622174.614   108370257.988         145.714          47.000    20622164.329    84444315.885         113.308          45.000  
G04  24470337.077   128592463.784        3178.578          32.000    24470331.755   100201947.756        2476.055          34.000  
C33  22509247.612   117211553.802        -715.927          50.000                                                                  
C06  36574228.616   190451607.881        -159.010          45.000    36574211.407   147269193.248        -122.825          48.000  
C14  22687100.805   118137672.350       -2269.564          46.000    22687085.913    91351488.275       -1754.947          50.000  
C16  37002340.464   192680895.881        -189.604          48.000    37002328.959   148993043.534        -146.617          48.000  
C24  21848399.586   113770353.123        -868.834          50.000                                                                  
C26  24446468.691   127299177.450       -2563.295          44.000                                                                  
G03  22889397.174   120284584.458        -139.182          40.000    22889392.444    93728224.134        -108.145          41.000  
G16  22409893.412   117764798.775        2973.364          42.000                                                                  
C09  37725646.040   196447341.348        -148.232          43.000    37725631.980   151905488.018        -114.509          48.000  
C25  23637899.551   123088754.316        1568.176          45.000                                                                  
C13  38380077.694   199855129.359       -2266.029          41.000    38380071.420   154540642.051       -1752.171          43.000  
C08  39211051.189   204182224.042       -2461.967          35.000    39211039.221   157886601.213       -1903.479          42.000  
C10  40490516.090   210844739.428         934.158          34.000    40490516.788   163038519.872         722.303          38.000  
C35  25951313.905   135135305.075         375.186          38.000                                                                  
C07  39553287.605   205964319.689        1119.846          38.000    39553277.206   159264654.594         866.041          40.000  
C12  26439938.086   137679684.362        2309.813          35.000    26439936.639   106462694.007        1785.942          43.000  
G25  24422458.189   128340891.428       -3914.404          33.000    24422451.750   100005853.297       -3049.971          35.000  
> 2025 10 30 06 20 48.0800000  0 23                     
G32  22040541.002   115823822.055       -2931.425          45.000    22040534.928    90252305.332       -2284.247          42.000  
G29  23076384.294   121267228.067        -604.844          42.000    23076375.978    94493913.693        -471.528          41.000  
G28  21260913.131   111726851.177       -1196.099          46.000    21260903.030    87059843.170        -932.012          47.000  
G26  20339605.731   106885347.880         670.670          48.000    20339598.145    83287265.429         522.699          46.000  
G31  20622173.479   108370252.159         145.683          47.000    20622163.230    84444311.349         113.278          45.000  
G04  24470312.874   128592336.634        3178.740          32.000    24470307.583   100201848.711        2475.819          34.000  
C33  22509253.117   117211582.436        -715.938          50.000                                                                  
C06  36574229.844   190451614.233        -158.914          45.000    36574212.585   147269198.161        -122.814          48.000  
C14  22687118.240   118137763.142       -2269.744          46.000    22687103.334    91351558.477       -1755.067          50.000  
C16  37002341.935   192680903.460        -189.554          48.000    37002330.454   148993049.396        -146.577          48.000  
C24  21848406.231   113770387.880        -868.894          50.000                                                                  
C26  24446488.383   127299279.980       -2563.292          44.000                                                                  
G03  22889398.242   120284590.017        -139.122          40.000    22889393.503    93728228.485        -108.691          41.000  
G16  22409870.783   117764679.838        2973.387          42.000                                                                  
C09  37725647.192   196447347.269        -148.174          43.000    37725633.117   151905492.600        -114.534          48.000  
C25  23637887.508   123088691.596        1568.040          45.000                                                                  
C13  38380095.119   199855219.996       -2265.973          41.000    38380088.802   154540712.135       -1752.048          43.000  
C08  39211070.109   204182322.511       -2461.852          35.000    39211058.143   157886677.352       -1903.503          42.000  
C10  40490508.913   210844702.069         934.045          34.000    40490509.595   163038490.958         722.694          38.000  
C35  25951311.025   135135290.072         375.052          38.000                                                                  
C07  39553279.001   205964274.863        1120.356          38.000    39553268.617   159264619.952         865.974          40.000  
C12  26439920.346   137679591.969        2309.733          35.000    26439918.888   106462622.559        1786.096          43.000  
G25  24422488.019   128341048.034       -3914.995          33.000    24422481.568   100005975.319       -3050.335          35.000  
> 2025 10 30 06 20 48.1200000  0 23                     
G32  22040563.321   115823939.310       -2931.452          45.000    22040557.259    90252396.692       -2284.120          42.000  
G29  23076388.885   121267252.283        -605.235          42.000    23076380.579    94493932.544        -471.365          40.000  
G28  21260922.194   111726899.010       -1195.958          46.000    21260912.135    87059880.440        -931.911          47.000  
G26  20339600.627   106885321.060         670.484          48.000    20339593.049    83287244.527         522.581          46.000  
G31  20622172.376   108370246.337         145.554          47.000    20622162.110    84444306.809         113.403          45.000  
G04  24470288.704   128592209.466        3179.216          32.000    24470283.401   100201749.637        2476.353          34.000  
C33  22509258.596   117211611.076        -716.018          50.000                                                                  
C06  36574231.072   190451620.589        -158.921          45.000    36574213.807   147269203.083        -122.966          48.000  
C14  22687135.676   118137853.932       -2269.816          46.000    22687120.773    91351628.683       -1755.160          50.000  
C16  37002343.394   192680911.043        -189.593          48.000    37002331.927   148993055.260        -146.611          48.000  
C24  21848412.869   113770422.642        -869.017          50.000                                                                  
C26  24446508.046   127299382.506       -2563.228          44.000                                                                  
G03  22889399.290   120284595.587        -139.247          40.000    22889394.567    93728232.834        -108.873          41.000  
G16  22409848.161   117764560.910        2973.185          42.000                                                                  
C09  37725648.314   196447353.199        -148.248          43.000    37725634.292   151905497.187        -114.661          48.000  
C25  23637875.445   123088628.874        1568.010          45.000                                                                  
C13  38380112.527   199855310.633       -2265.942          41.000    38380106.202   154540782.228       -1752.216          43.000  
C08  39211089.024   204182421.006       -2462.208          35.000    39211077.067   157886753.499       -1903.657          42.000  
C10  40490501.737   210844664.707         933.982          34.000    40490502.431   163038462.073         722.339          38.000  
C35  25951308.136   135135275.060         375.129          38.000                                                                  
C07  39553270.386   205964230.075        1119.984          38.000    39553259.998   159264585.320         865.774          40.000  
C12  26439902.595   137679499.585        2309.536          35.000    26439901.144   106462551.115        1786.139          43.000  
G25  24422517.820   128341204.631       -3915.139          33.000    24422511.371   100006097.340       -3050.526          35.000  
> 2025 10 30 06 20 48.1600000  0 23                     
G32  22040585.631   115824056.550       -2931.198          45.000    22040579.573    90252488.047       -2283.953          42.000  
G29  23076393.493   121267276.487        -605.232          42.000    23076385.170    94493951.399        -471.336          40.000  
G28  21260931.292   111726946.837       -1195.779          46.000    21260921.263    87059917.720        -931.996          47.000  
G26  20339595.530   106885294.234         670.542          48.000    20339587.947    83287223.622         522.600          46.000  
G31  20622171.254   108370240.506         145.647          47.000    20622161.010    84444302.263         113.575          45.000  
G04  24470264.528   128592082.311        3179.091          32.000    24470259.217   100201650.525        2477.389          34.000  
C33  22509264.147   117211639.710        -715.972          50.000                                                                  
C06  36574232.289   190451626.955        -159.033          45.000    36574215.006   147269207.997        -122.931          48.000  
C14  22687153.143   118137944.714       -2269.674          46.000    22687138.201    91351698.884       -1755.126          50.000  
C16  37002344.855   192680918.624        -189.606          48.000    37002333.388   148993061.118        -146.520          48.000  
C24  21848419.540   113770457.406        -869.124          50.000                                                                  
C26  24446527.779   127299485.030       -2563.164          44.000                                                                  
G03  22889400.338   120284601.146        -139.145          40.000    22889395.629    93728237.174        -108.710          41.000  
G16  22409825.543   117764441.982        2973.160          42.000                                                                  
C09  37725649.443   196447359.126        -148.215          43.000    37725635.445   151905501.770        -114.661          48.000  
C25  23637863.417   123088566.141        1568.176          45.000                                                                  
C13  38380129.944   199855401.288       -2266.294          41.000    38380123.611   154540852.326       -1752.413          43.000  
C08  39211107.918   204182519.444       -2461.393          35.000    39211095.969   157886829.639       -1903.620          42.000  
C10  40490494.577   210844627.340         934.053          34.000    40490495.254   163038433.161         722.685          38.000  
C35  25951305.273   135135260.042         375.305          38.000                                                                  
C07  39553261.786   205964185.279        1119.882          38.000    39553251.394   159264550.675         865.972          40.000  
C12  26439884.847   137679407.193        2309.617          35.000    26439883.402   106462479.668        1786.170          43.000  
G25  24422547.609   128341361.211       -3914.857          33.000    24422541.151   100006219.338       -3050.217          35.000  
> 2025 10 30 06 20 48.2000000  0 23                     
G32  22040607.932   115824173.789       -2931.025          45.000    22040601.880    90252579.406       -2283.965          42.000  
G29  23076398.117   121267300.693        -605.236          42.000    23076389.789    94493970.279        -471.808          40.000  
G28  21260940.408   111726994.672       -1195.818          46.000    21260930.364    87059954.990        -931.859          47.000  
G26  20339590.415   106885267.409         670.567          48.000    20339582.837    83287202.720         522.550          46.000  
G31  20622170.133   108370234.676         145.697          47.000    20622159.893    84444297.708         113.821          45.000  
G04  24470240.341   128591955.200        3178.132          32.000    24470235.014   100201551.448        2477.209          34.000  
C33  22509269.683   117211668.346        -715.946          50.000                                                                  
C06  36574233.518   190451633.306        -158.818          45.000    36574216.240   147269212.909        -122.858          48.000  
C14  22687170.587   118138035.504       -2269.737          46.000    22687155.612    91351769.082       -1755.017          50.000  
C16  37002346.287   192680926.202        -189.494          48.000    37002334.833   148993066.976        -146.430          48.000  
C24  21848426.222   113770492.167        -869.081          50.000                                                                  
C26  24446547.456   127299587.551       -2563.103          44.000                                                                  
G03  22889401.392   120284606.704        -139.019          40.000    22889396.690    93728241.497        -108.333          41.000  
G16  22409802.889   117764323.051        2973.167          42.000                                                                  
C09  37725650.587   196447365.051        -148.196          43.000    37725636.582   151905506.346        -114.494          48.000  
C25  23637851.375   123088503.409        1568.244          45.000                                                                  
C13  38380147.344   199855491.930       -2266.188          41.000    38380141.029   154540922.415       -1752.302          43.000  
C08  39211126.807   204182617.912       -2461.522          35.000    39211114.869   157886905.793       -1903.808          42.000  
C10  40490487.406   210844589.970         934.196          34.000    40490488.072   163038404.276         722.344          38.000  
C35  25951302.393   135135245.025         375.354          38.000                                                                  
C07  39553253.187   205964140.477        1120.017          38.000    39553242.805   159264516.014         866.338          40.000  
C12  26439867.092   137679314.792        2309.845          35.000    26439865.649   106462408.233        1785.904          43.000  
G25  24422577.405   128341517.802       -3914.891          33.000    24422570.962   100006341.351       -3050.277          35.000  
> 2025 10 30 06 20 48.2400000  0 23                     
G32  22040630.237   115824291.038       -2931.128          45.000    22040624.198    90252670.775       -2284.175          42.000  
G29  23076402.722   121267324.893        -605.038          42.000    23076394.391    94493989.130        -471.528          41.000  
G28  21260949.521   111727042.517       -1196.019          46.000    21260939.451    87059992.260        -931.782          47.000  
G26  20339585.296   106885240.581         670.623          48.000    20339577.735    83287181.819         522.501          46.000  
G31  20622169.003   108370228.841         145.826          47.000    20622158.764    84444293.158         113.857          45.000  
G04  24470216.131   128591828.068        3178.131          32.000    24470210.817   100201452.385        2476.765          34.000  
C33  22509275.211   117211696.976        -715.811          50.000                                                                  
C06  36574234.737   190451639.646        -158.563          45.000    36574217.451   147269217.816        -122.728          48.000  
C14  22687188.047   118138126.287       -2269.641          46.000    22687173.052    91351839.282       -1755.012          50.000  
C16  37002347.740   192680933.782        -189.496          48.000    37002336.296   148993072.835        -146.446          48.000  
C24  21848432.923   113770526.922        -868.975          50.000                                                                  
C26  24446567.154   127299690.075       -2563.092          44.000                                                                  
G03  22889402.439   120284612.263        -139.027          40.000    22889397.750    93728245.814        -107.996          41.000  
G16  22409780.265   117764204.119        2973.193          42.000                                                                  
C09  37725651.711   196447370.973        -148.081          43.000    37725637.730   151905510.926        -114.489          48.000  
C25  23637839.311   123088440.688        1568.089          45.000                                                                  
C13  38380164.744   199855582.575       -2266.156          41.000    38380158.446   154540992.504       -1752.265          43.000  
C08  39211145.708   204182716.370       -2461.435          35.000    39211133.782   157886981.931       -1903.613          42.000  
C10  40490480.241   210844552.578         934.689          34.000    40490480.871   163038375.367         722.534          38.000  
C35  25951299.511   135135229.999         375.612          38.000                                                                  
C07  39553244.574   205964095.684        1119.834          38.000    39553234.191   159264481.372         866.250          40.000  
C12  26439849.346   137679222.393        2309.975          35.000    26439847.917   106462336.784        1786.102          43.000  
G25  24422607.183   128341674.341       -3913.983          33.000    24422600.766   100006463.393       -3050.895          35.000  
> 2025 10 30 06 20 48.2800000  0 23                     
G32  22040652.556   115824408.289       -2931.246          45.000    22040646.513    90252762.131       -2284.048          42.000  
G29  23076407.326   121267349.098        -605.072          42.000    23076398.976    94494007.982        -471.385          40.000  
G28  21260958.619   111727090.344       -1195.835          46.000    21260948.545    87060029.530        -931.747          47.000  
G26  20339580.182   106885213.750         670.735          48.000    20339572.625    83287160.913         522.551          46.000  
G31  20622167.875   108370223.003         145.943          47.000    20622157.656    84444288.602         113.917          45.000  
G04  24470191.943   128591700.916        3178.516          32.000    24470186.620   100201353.295        2476.956          34.000  
C33  22509280.723   117211725.604        -715.712          50.000                                                                  
C06  36574235.926   190451645.999        -158.673          45.000    36574218.667   147269222.731        -122.811          48.000  
C14  22687205.488   118138217.061       -2269.427          46.000    22687190.512    91351909.481       -1755.013          50.000  
C16  37002349.188   192680941.354        -189.361          48.000    37002337.763   148993078.691        -146.410          48.000  
C24  21848439.626   113770561.667        -868.736          50.000                                                                  
C26  24446586.846   127299792.599       -2563.086          44.000                                                                  
G03  22889403.488   120284617.824        -139.098          40.000    22889398.805    93728250.136        -107.970          41.000  
G16  22409757.631   117764085.181        2973.368          42.000                                                                  
C09  37725652.859   196447376.880        -147.733          43.000    37725638.880   151905515.502        -114.440          48.000  
C25  23637827.290   123088377.954        1568.256          45.000                                                                  
C13  38380182.166   199855673.208       -2265.879          41.000    38380175.841   154541062.586       -1752.154          43.000  
C08  39211164.626   204182814.824       -2461.332          35.000    39211152.681   157887058.052       -1903.212          42.000  
C10  40490473.060   210844515.220         934.215          34.000    40490473.695   163038346.485         722.152          38.000  
C35  25951296.604   135135214.994         375.307          38.000                                                                  
C07  39553235.977   205964050.857        1120.332          38.000    39553225.571   159264446.716         866.362          40.000  
C12  26439831.602   137679129.970        2310.492          35.000    26439830.145   106462265.338        1786.158          43.000  
G25  24422636.984   128341830.902       -3913.859          32.000    24422630.543   100006585.377       -3050.104          35.000  
> 2025 10 30 06 20 48.3200000  0 23                     
G32  22040674.861   115824525.533       -2931.166          45.000    22040668.824    90252853.492       -2284.069          42.000  
G29  23076411.940   121267373.286        -604.802          42.000    23076403.592    94494026.836        -471.381          40.000  
G28  21260967.704   111727138.170       -1195.698          46.000    21260957.647    87060066.793        -931.617          47.000  
G26  20339575.084   106885186.912         670.901          48.000    20339567.511    83287140.001         522.675          46.000  
G31  20622166.793   108370217.163         146.016          47.000    20622156.557    84444284.064         113.621          45.000  
G04  24470167.777   128591573.746        3179.093          32.000    24470162.437   100201254.217        2476.819          34.000  
C33  22509286.228   117211754.230        -715.645          50.000                                                                  
C06  36574237.130   190451652.346        -158.629          45.000    36574219.918   147269227.634        -122.668          48.000  
C14  22687222.927   118138307.836       -2269.381          46.000    22687207.939    91351979.673       -1754.860          50.000  
C16  37002350.636   192680948.923        -189.208          48.000    37002339.191   148993084.551        -146.476          48.000  
C24  21848446.310   113770596.416        -868.671          50.000                                                                  
C26  24446606.542   127299895.121       -2563.063          44.000                                                                  
G03  22889404.554   120284623.381        -139.035          40.000    22889399.880    93728254.466        -108.137          41.000  
G16  22409734.992   117763966.238        2973.518          42.000                                                                  
C09  37725654.007   196447382.787        -147.594          43.000    37725640.013   151905520.070        -114.250          48.000  
C25  23637815.245   123088315.217        1568.379          45.000                                                                  
C13  38380199.563   199855763.839       -2265.782          41.000    38380193.253   154541132.676       -1752.191          43.000  
C08  39211183.561   204182913.301       -2461.601          35.000    39211171.569   157887134.182       -1903.137          42.000  
C10  40490465.907   210844477.841         934.410          34.000    40490466.517   163038317.588         722.272          38.000  
C35  25951293.713   135135199.990         375.126          38.000                                                                  
C07  39553227.380   205964006.045        1120.361          38.000    39553216.959   159264412.058         866.420          40.000  
C12  26439813.872   137679037.589        2309.829          35.000    26439812.391   106462193.885        1786.318          43.000  
G25  24422666.781   128341987.530       -3915.024          33.000    24422660.328   100006707.384       -3050.010          35.000  
> 2025 10 30 06 20 48.3600000  0 23                     
G32  22040697.176   115824642.777       -2931.136          45.000    22040691.148    90252944.846       -2283.911          42.000  
G29  23076416.535   121267397.481        -604.806          42.000    23076408.206    94494045.693        -471.439          40.000  
G28  21260976.809   111727185.996       -1195.624          46.000    21260966.750    87060104.069        -931.813          47.000  
G26  20339569.974   106885160.079         670.844          48.000    20339562.411    83287119.092         522.743          46.000  
G31  20622165.690   108370211.325         145.990          47.000    20622155.442    84444279.520         113.560          45.000  
G04  24470143.591   128591446.602        3178.932          32.000    24470138.251   100201155.152        2476.460          34.000  
C33  22509291.703   117211782.862        -715.743          50.000                                                                  
C06  36574238.343   190451658.697        -158.713          45.000    36574221.131   147269232.539        -122.634          48.000  
C14  22687240.350   118138398.616       -2269.414          46.000    22687225.399    91352049.867       -1754.838          50.000  
C16  37002352.103   192680956.490        -189.138          48.000    37002340.628   148993090.406        -146.417          48.000  
C24  21848452.955   113770631.167        -868.703          50.000                                                                  
C26  24446626.245   127299997.641       -2563.031          44.000                                                                  
G03  22889405.611   120284628.935        -138.909          40.000    22889400.942    93728258.809        -108.438          41.000  
G16  22409712.370   117763847.295        2973.591          42.000                                                                  
C09  37725655.136   196447388.700        -147.715          43.000    37725641.136   151905524.638        -114.197          48.000  
C25  23637803.180   123088252.486        1568.341          45.000                                                                  
C13  38380216.946   199855854.470       -2265.771          41.000    38380210.671   154541202.768       -1752.309          43.000  
C08  39211202.450   204183011.774       -2461.736          35.000    39211190.485   157887210.323       -1903.361          42.000  
C10  40490458.714   210844440.456         934.592          34.000    40490459.317   163038288.668         722.767          38.000  
C35  25951290.827   135135184.975         375.248          38.000                                                                  
C07  39553218.779   205963961.236        1120.310          38.000    39553208.346   159264377.416         866.128          40.000  
C12  26439796.115   137678945.201        2309.652          36.000    26439794.630   106462122.432        1786.366          43.000  
G25  24422696.580   128342144.085       -3914.406          33.000    24422690.136   100006829.400       -3050.164          35.000  
> 2025 10 30 06 20 48.4000000  0 23                     
G32  22040719.468   115824760.018       -2931.112          45.000    22040713.474    90253036.204       -2283.929          42.000  
G29  23076421.146   121267421.676        -604.859          42.000    23076412.815    94494064.547        -471.394          41.000  
G28  21260985.908   111727233.829       -1195.723          46.000    21260975.865    87060141.340        -931.839          47.000  
G26  20339564.882   106885133.253         670.700          48.000    20339557.294    83287098.195         522.511          46.000  
G31  20622164.600   108370205.487         145.971          47.000    20622154.334    84444274.976         113.548          45.000  
G04  24470119.378   128591319.436        3179.031          32.000    24470114.049   100201056.071        2476.704          34.000  
C33  22509297.139   117211811.499        -715.916          50.000                                                                  
C06  36574239.567   190451665.041        -158.655          45.000    36574222.382   147269237.451        -122.728          48.000  
C14  22687257.780   118138489.401       -2269.580          46.000    22687242.828    91352120.062       -1754.872          50.000  
C16  37002353.574   192680964.058        -189.129          48.000    37002342.065   148993096.257        -146.329          48.000  
C24  21848459.617   113770665.920        -868.786          50.000                                                                  
C26  24446645.939   127300100.151       -2562.858          44.000                                                                  
G03  22889406.673   120284634.492        -138.890          40.000    22889401.995    93728263.155        -108.680          41.000  
G16  22409689.718   117763728.351        2973.632          42.000                                                                  
C09  37725656.261   196447394.621        -147.913          43.000    37725642.233   151905529.215        -114.321          48.000  
C25  23637791.123   123088189.750        1568.409          45.000                                                                  
C13  38380234.328   199855945.107       -2265.820          41.000    38380228.086   154541272.846       -1752.105          43.000  
C08  39211221.369   204183110.238       -2461.674          35.000    39211209.380   157887286.451       -1903.264          42.000  
C10  40490451.523   210844403.086         934.371          34.000    40490452.135   163038259.765         722.664          38.000  
C35  25951287.935   135135169.949         375.473          38.000                                                                  
C07  39553210.183   205963916.408        1120.660          38.000    39553199.761   159264342.762         866.185          40.000  
C12  26439778.370   137678852.800        2309.801          36.000    26439776.856   106462050.979        1786.322          43.000  
G25  24422726.384   128342300.671       -3914.487          32.000    24422719.919   100006951.405       -3050.172          35.000  
> 2025 10 30 06 20 48.4400000  0 23                     
G32  22040741.793   115824877.263       -2931.160          45.000    22040735.787    90253127.564       -2283.982          42.000  
G29  23076425.754   121267445.879        -605.010          42.000    23076417.412    94494083.409        -471.507          41.000  
G28  21260995.008   111727281.658       -1195.751          46.000    21260984.946    87060178.613        -931.889          47.000  
G26  20339559.781   106885106.432         670.545          48.000    20339552.181    83287077.290         522.538          46.000  
G31  20622163.492   108370199.655         145.836          47.000    20622153.208    84444270.430         113.585          45.000  
G04  24470095.180   128591192.225        3179.890          32.000    24470089.846   100200956.981        2477.090          34.000  
C33  22509302.636   117211840.133        -715.919          50.000                                                                  
C06  36574240.787   190451671.394        -158.782          45.000    36574223.639   147269242.356        -122.668          48.000  
C14  22687275.216   118138580.188       -2269.687          46.000    22687260.272    91352190.261       -1754.968          50.000  
C16  37002355.005   192680971.637        -189.366          48.000    37002343.509   148993102.112        -146.344          48.000  
C24  21848466.272   113770700.671        -868.812          50.000                                                                  
C26  24446665.630   127300202.662       -2562.791          44.000                                                                  
G03  22889407.735   120284640.061        -139.117          40.000    22889403.072    93728267.492        -108.594          41.000  
G16  22409667.085   117763609.416        2973.422          42.000                                                                  
C09  37725657.392   196447400.545        -148.108          43.000    37725643.372   151905533.786        -114.302          48.000  
C25  23637779.053   123088127.015        1568.402          45.000                                                                  
C13  38380251.730   199856035.740       -2265.839          41.000    38380245.486   154541342.928       -1752.063          43.000  
C08  39211240.273   204183208.681       -2461.268          35.000    39211228.287   157887362.590       -1903.435          42.000  
C10  40490444.352   210844365.699         934.595          34.000    40490444.948   163038230.891         722.054          38.000  
C35  25951285.044   135135154.925         375.603          38.000                                                                  
C07  39553201.544   205963871.597        1120.448          38.000    39553191.179   159264308.113         866.177          40.000  
C12  26439760.654   137678760.392        2309.991          35.000    26439759.125   106461979.534        1786.192          43.000  
G25  24422756.193   128342457.267       -3914.758          32.000    24422749.722   100007073.417       -3050.209          35.000  
> 2025 10 30 06 20 48.4800000  0 23                     
G32  22040764.118   115824994.509       -2931.171          45.000    22040758.095    90253218.927       -2284.051          42.000  
G29  23076430.370   121267470.082        -605.071          42.000    23076422.020    94494102.272        -471.601          41.000  
G28  21261004.114   111727329.481       -1195.653          46.000    21260994.033    87060215.876        -931.728          47.000  
G26  20339554.664   106885079.603         670.603          48.000    20339547.063    83287056.383         522.619          46.000  
G31  20622162.386   108370193.821         145.824          47.000    20622152.104    84444265.873         113.845          45.000  
G04  24470071.005   128591065.130        3178.192          32.000    24470065.626   100200857.907        2477.002          34.000  
C33  22509308.157   117211868.764        -715.847          50.000                                                                  
C06  36574242.008   190451677.735        -158.628          45.000    36574224.867   147269247.262        -122.657          48.000  
C14  22687292.661   118138670.965       -2269.545          46.000    22687277.692    91352260.460       -1755.004          50.000  
C16  37002356.489   192680979.215        -189.466          48.000    37002344.934   148993107.974        -146.500          48.000  
C24  21848472.929   113770735.428        -868.907          50.000                                                                  
C26  24446685.321   127300305.186       -2562.944          44.000                                                                  
G03  22889408.810   120284645.626        -139.191          40.000    22889404.107    93728271.813        -108.222          41.000  
G16  22409644.461   117763490.478        2973.366          42.000                                                                  
C09  37725658.533   196447406.459        -147.976          43.000    37725644.484   151905538.369        -114.524          48.000  
C25  23637767.037   123088064.277        1568.451          45.000                                                                  
C13  38380269.137   199856126.382       -2266.018          41.000    38380262.881   154541413.006       -1751.977          43.000  
C08  39211259.179   204183307.131       -2461.226          35.000    39211247.205   157887438.718       -1903.316          42.000  
C10  40490437.178   210844328.335         934.335          34.000    40490437.765   163038201.985         722.347          38.000  
C35  25951282.144   135135139.910         375.501          38.000                                                                  
C07  39553192.941   205963826.793        1120.216          38.000    39553182.578   159264273.461         866.245          40.000  
C12  26439742.907   137678667.971        2310.373          35.000    26439741.387   106461908.092        1786.063          43.000  
G25  24422785.998   128342613.829       -3914.413          32.000    24422779.523   100007195.404       -3049.885          35.000  
> 2025 10 30 06 20 48.5200000  0 23                     
G32  22040786.416   115825111.749       -2931.052          45.000    22040780.411    90253310.278       -2283.911          42.000  
G29  23076434.981   121267494.285        -605.152          42.000    23076426.616    94494121.116        -471.298          41.000  
G28  21261013.209   111727377.306       -1195.635          46.000    21261003.123    87060253.138        -931.603          47.000  
G26  20339549.533   106885052.771         670.722          48.000    20339541.959    83287035.476         522.631          46.000  
G31  20622161.279   108370187.985         145.849          47.000    20622150.988    84444261.323         113.819          45.000  
G04  24470046.775   128590937.960        3178.611          32.000    24470041.424   100200758.816        2477.178          34.000  
C33  22509313.660   117211897.394        -715.783          50.000                                                                  
C06  36574243.220   190451684.073        -158.485          45.000    36574226.082   147269252.167        -122.651          48.000  
C14  22687310.091   118138761.734       -2269.343          46.000    22687295.131    91352330.654       -1754.921          50.000  
C16  37002357.953   192680986.783        -189.334          48.000    37002346.397   148993113.827        -146.392          48.000  
C24  21848479.628   113770770.177        -868.821          50.000                                                                  
C26  24446704.986   127300407.706       -2563.002          44.000                                                                  
G03  22889409.864   120284651.182        -139.077          40.000    22889405.175    93728276.138        -108.099          41.000  
G16  22409621.825   117763371.540        2973.369          42.000                                                                  
C09  37725659.668   196447412.368        -147.799          43.000    37725645.610   151905542.946        -114.501          48.000  
C25  23637754.962   123088001.540        1568.420          45.000                                                                  
C13  38380286.524   199856217.010       -2265.783          41.000    38380280.276   154541483.092       -1752.119          43.000  
C08  39211278.084   204183405.587       -2461.337          35.000    39211266.126   157887514.851       -1903.314          42.000  
C10  40490430.008   210844290.960         934.283          34.000    40490430.553   163038173.068         722.793          38.000  
C35  25951279.240   135135124.892         375.443          38.000                                                                  
C07  39553184.314   205963781.975        1120.355          38.000    39553173.974   159264238.805         866.393          40.000  
C12  26439725.161   137678575.563        2310.310          35.000    26439723.641   106461836.634        1786.323          43.000  
G25  24422815.797   128342770.361       -3913.571          32.000    24422809.314   100007317.389       -3049.564          35.000  
> 2025 10 30 06 20 48.5600000  0 23                     
G32  22040808.745   115825228.990       -2931.008          45.000    22040802.719    90253401.637       -2283.958          42.000  
G29  23076439.564   121267518.487        -605.144          42.000    23076431.215    94494139.973        -471.324          41.000  
G28  21261022.316   111727425.139       -1195.757          46.000    21261012.258    87060290.405        -931.639          47.000  
G26  20339544.385   106885025.936         670.827          48.000    20339536.851    83287014.577         522.469          46.000  
G31  20622160.177   108370182.154         145.750          47.000    20622149.857    84444256.772         113.806          45.000  
G04  24470022.567   128590810.801        3178.804          32.000    24470017.237   100200659.697        2477.776          34.000  
C33  22509319.144   117211926.027        -715.803          50.000                                                                  
C06  36574244.445   190451690.417        -158.566          45.000    36574227.297   147269257.069        -122.601          48.000  
C14  22687327.527   118138852.509       -2269.353          46.000    22687312.575    91352400.852       -1754.979          50.000  
C16  37002359.404   192680994.349        -189.239          48.000    37002347.881   148993119.674        -146.245          48.000  
C24  21848486.335   113770804.924        -868.722          50.000                                                                  
C26  24446724.667   127300510.219       -2562.882          44.000                                                                  
G03  22889410.907   120284656.738        -138.990          40.000    22889406.230    93728280.469        -108.216          41.000  
G16  22409599.178   117763252.604        2973.337          42.000                                                                  
C09  37725660.815   196447418.282        -147.833          43.000    37725646.732   151905547.514        -114.329          48.000  
C25  23637742.909   123087938.807        1568.340          45.000                                                                  
C13  38380303.932   199856307.633       -2265.561          41.000    38380297.693   154541553.180       -1752.187          43.000  
C08  39211296.988   204183504.045       -2461.446          35.000    39211285.053   157887590.984       -1903.292          42.000  
C10  40490422.833   210844253.579         934.464          34.000    40490423.364   163038144.153         722.965          38.000  
C35  25951276.358   135135109.885         375.211          38.000                                                                  
C07  39553175.721   205963737.152        1120.504          38.000    39553165.374   159264204.149         866.434          40.000  
C12  26439707.417   137678483.167        2310.020          35.000    26439705.866   106461765.173        1786.489          43.000  
G25  24422845.597   128342926.936       -3913.879          33.000    24422839.113   100007439.426       -3050.466          35.000  
> 2025 10 30 06 20 48.6000000  0 23                     
G32  22040831.048   115825346.230       -2930.978          45.000    22040825.036    90253492.998       -2284.035          42.000  
G29  23076444.145   121267542.692        -605.181          42.000    23076435.802    94494158.843        -471.594          41.000  
G28  21261031.385   111727472.968       -1195.774          46.000    21261021.378    87060327.681        -931.837          47.000  
G26  20339539.305   106884999.112         670.695          48.000    20339531.736    83286993.673         522.507          46.000  
G31  20622159.052   108370176.317         145.812          47.000    20622148.760    84444252.230         113.652          45.000  
G04  24469998.367                        3178.376          32.000    24469993.043   100200560.627        2477.181          34.000  
C33  22509324.600   117211954.665        -715.937          50.000                                                                  
C06  36574245.677   190451696.771        -158.805          45.000    36574228.529   147269261.975        -122.622          48.000  
C14  22687344.962   118138943.296       -2269.563          46.000    22687330.013    91352471.055       -1755.060          50.000  
C16  37002360.848   192681001.911        -189.105          48.000    37002349.371   148993125.527        -146.295          48.000  
C24  21848493.001   113770839.676        -868.779          50.000                                                                  
C26  24446744.351   127300612.735       -2562.905          44.000                                                                  
G03  22889411.976   120284662.290        -138.878          40.000    22889407.311    93728284.814        -108.531          41.000  
G16  22409576.551   117763133.664        2973.396          42.000                                                                  
C09  37725661.954   196447424.191        -147.739          43.000    37725647.868   151905552.090        -114.375          48.000  
C25  23637730.861   123087876.079        1568.211          45.000                                                                  
C13  38380321.340   199856398.266       -2265.692          41.000    38380315.095   154541623.262       -1752.125          43.000  
C08  39211315.911   204183602.504       -2461.493          35.000    39211303.938   157887667.119       -1903.371          42.000  
C10  40490415.616   210844216.187         934.689          34.000    40490416.172   163038115.233         723.098          38.000  
C35  25951273.497   135135094.867         375.333          38.000                                                                  
C07  39553167.135   205963692.341        1120.389          38.000    39553156.796   159264169.516         866.007          40.000  
C12  26439689.674   137678390.753        2310.255          35.000    26439688.127   106461693.721        1786.389          43.000  
G25  24422875.404   128343083.547       -3914.841          32.000    24422868.909   100007561.447       -3050.575          35.000  
> 2025 10 30 06 20 48.6400000  0 23                     
G32  22040853.376   115825463.489       -2931.336          45.000    22040847.332    90253584.360       -2284.092          42.000  
G29  23076448.768   121267566.898        -605.212          42.000    23076440.414    94494177.696        -471.423          41.000  
G28  21261040.469   111727520.806       -1195.946          46.000    21261030.482    87060364.952        -931.851          47.000  
G26  20339534.201   106884972.290         670.546          48.000    20339526.630    83286972.769         522.545          46.000  
G31  20622157.912   108370170.480         145.855          47.000    20622147.655    84444247.692         113.455          45.000  
G04  24469974.162                        3178.287          32.000    24469968.848   100200461.564        2476.652          34.000  
C33  22509330.102   117211983.304        -715.992          50.000                                                                  
C06  36574246.915   190451703.114        -158.713          45.000    36574229.725   147269266.883        -122.716          48.000  
C14  22687362.411   118139034.088       -2269.796          46.000    22687347.459    91352541.254       -1755.052          50.000  
C16  37002362.263   192681009.487        -189.304          48.000    37002350.861   148993131.380        -146.295          48.000  
C24  21848499.665   113770874.430        -868.856          50.000                                                                  
C26  24446764.023   127300715.260       -2563.077          44.000                                                                  
G03  22889413.042   120284667.863        -139.206          40.000    22889408.360    93728289.143        -108.389          41.000  
G16  22409553.925   117763014.730        2973.341          42.000                                                                  
C09  37725663.101   196447430.107        -147.842          43.000    37725649.019   151905556.658        -114.275          48.000  
C25  23637718.828   123087813.346        1568.261          45.000                                                                  
C13  38380338.736   199856488.906       -2265.927          41.000    38380332.497   154541693.352       -1752.254          43.000  
C08  39211334.829   204183700.975       -2461.744          35.000    39211322.856   157887743.267       -1903.621          42.000  
C10  40490408.457   210844178.786         934.982          34.000    40490408.998   163038086.335         722.731          38.000  
C35  25951270.590   135135079.844         375.561          38.000                                                                  
C07  39553158.541   205963647.552        1119.858          38.000    39553148.219   159264134.878         865.913          40.000  
C12  26439671.934   137678298.342        2310.329          35.000    26439670.375   106461622.269        1786.290          43.000  
G25  24422905.208   128343240.147       -3915.118          32.000    24422898.705   100007683.446       -3050.226          35.000  
> 2025 10 30 06 20 48.6800000  0 23                     
G32  22040875.705   115825580.743       -2931.421          45.000    22040869.654    90253675.739       -2284.385          42.000  
G29  23076453.366   121267591.112        -605.354          42.000    23076445.005    94494196.569        -471.725          41.000  
G28  21261049.574   111727568.640       -1195.931          46.000    21261039.581    87060402.224        -931.874          47.000  
G26  20339529.114   106884945.473         670.379          48.000    20339521.536    83286951.860         522.657          46.000  
G31  20622156.797   108370164.644         145.886          47.000    20622146.560    84444243.151         113.438          45.000  
G04  24469949.960                        3179.095          32.000    24469944.677   100200362.510        2476.390          34.000  
C33  22509335.618   117212011.944        -716.054          50.000                                                                  
C06  36574248.122   190451709.450        -158.499          45.000    36574230.927   147269271.791        -122.748          48.000  
C14  22687379.855   118139124.882       -2269.924          46.000    22687364.912    91352611.460       -1755.146          50.000  
C16  37002363.716   192681017.057        -189.328          48.000    37002352.316   148993137.231        -146.297          48.000  
C24  21848506.298   113770909.188        -868.945          50.000                                                                  
C26  24446783.709   127300817.783       -2563.125          44.000                                                                  
G03  22889414.103   120284673.434        -139.335          40.000    22889409.414    93728293.480        -108.432          41.000  
G16  22409531.284   117762895.809        2973.099          42.000                                                                  
C09  37725664.237   196447436.027        -147.962          43.000    37725650.130   151905561.227        -114.265          48.000  
C25  23637706.803   123087750.612        1568.310          45.000                                                                  
C13  38380356.128   199856579.557       -2266.252          41.000    38380349.886   154541763.439       -1752.216          43.000  
C08  39211353.721   204183799.441       -2461.789          35.000    39211341.791   157887819.399       -1903.465          42.000  
C10  40490401.285   210844141.387         935.110          34.000    40490401.805   163038057.449         722.361          38.000  
C35  25951267.703   135135064.850         375.107          38.000                                                                  
C07  39553149.937   205963602.742        1120.000          38.000    39553139.592   159264100.208         866.440          40.000  
C12  26439654.168   137678205.946        2310.032          35.000    26439652.610   106461550.823        1786.136          43.000  
G25  24422935.011   128343396.682       -3914.111          32.000    24422928.510   100007805.455       -3050.176          35.000  
> 2025 10 30 06 20 48.7200000  0 23                     
G32  22040897.992   115825697.991       -2931.344          45.000    22040891.963    90253767.099       -2284.164          42.000  
G29  23076457.947   121267615.313        -605.209          42.000    23076449.626    94494215.427        -471.609          41.000  
G28  21261058.665   111727616.465       -1195.739          46.000    21261048.673    87060439.492        -931.785          47.000  
G26  20339524.002   106884918.653         670.387          48.000    20339516.431    83286930.958         522.569          46.000  
G31  20622155.697   108370158.809         145.867          47.000    20622145.442    84444238.598         113.654          45.000  
G04  24469925.764                        3178.724          32.000    24469920.486   100200263.410        2477.067          35.000  
C33  22509341.140   117212040.582        -716.013          50.000                                                                  
C06  36574249.329   190451715.785        -158.385          45.000    36574232.135   147269276.696        -122.726          48.000  
C14  22687397.294   118139215.660       -2269.653          46.000    22687382.356    91352681.659       -1755.088          50.000  
C16  37002365.181   192681024.628        -189.312          48.000    37002353.814   148993143.084        -146.309          48.000  
C24  21848512.987   113770943.945        -868.988          50.000                                                                  
C26  24446803.365   127300920.296       -2562.998          44.000                                                                  
G03  22889415.167   120284679.007        -139.375          40.000    22889410.484    93728297.821        -108.493          41.000  
G16  22409508.638   117762776.878        2973.162          42.000                                                                  
C09  37725665.376   196447441.940        -147.864          43.000    37725651.268   151905565.794        -114.215          48.000  
C25  23637694.753   123087687.887        1568.181          45.000                                                                  
C13  38380373.560   199856670.195       -2266.127          41.000    38380367.269   154541833.520       -1752.062          43.000  
C08  39211372.639   204183897.892       -2461.479          35.000    39211360.696   157887895.538       -1903.498          42.000  
C10  40490394.132   210844104.061         933.747          34.000    40490394.625   163038028.543         722.513          38.000  
C35  25951264.819   135135049.826         375.406          38.000                                                                  
C07  39553141.327   205963557.926        1120.181          38.000    39553130.972   159264065.542         866.617          40.000  
C12  26439636.423   137678113.529        2310.210          35.000    26439634.899   106461479.371        1786.224          43.000  
G25  24422964.796   128343553.238       -3913.811          32.000    24422958.305   100007927.448       -3049.976          35.000  
> 2025 10 30 06 20 48.7600000  0 23                     
G32  22040920.305   115825815.229       -2931.075          45.000    22040914.274    90253858.441       -2283.751          42.000  
G29  23076462.536   121267639.517        -605.120          42.000    23076454.221    94494234.287        -471.546          41.000  
G28  21261067.748   111727664.283       -1195.516          46.000    21261057.766    87060476.757        -931.679          47.000  
G26  20339518.885   106884891.816         670.712          48.000    20339511.327    83286910.051         522.638          46.000  
G31  20622154.566   108370152.969         145.966          47.000    20622144.331    84444234.043         113.832          45.000  
G04  24469901.531   128590175.039        3179.131          32.000    24469896.271   100200164.306        2477.481          35.000  
C33  22509346.653   117212069.213        -715.853          50.000                                                                  
C06  36574250.558   190451722.129        -158.490          45.000    36574233.365   147269281.599        -122.659          48.000  
C14  22687414.752   118139306.436       -2269.463          46.000    22687399.773    91352751.852       -1754.890          50.000  
C16  37002366.635   192681032.184        -189.067          48.000    37002355.257   148993148.931        -146.204          48.000  
C24  21848519.651   113770978.687        -868.723          50.000                                                                  
C26  24446823.048   127301022.806       -2562.813          44.000                                                                  
G03  22889416.238   120284684.560        -139.060          40.000    22889411.529    93728302.153        -108.379          41.000  
G16  22409485.994   117762657.934        2973.405          42.000                                                                  
C09  37725666.502   196447447.840        -147.604          43.000    37725652.364   151905570.361        -114.204          48.000  
C25  23637682.694   123087625.145        1568.459          45.000                                                                  
C13  38380390.960   199856760.822       -2265.819          41.000    38380384.663   154541903.595       -1751.896          43.000  
C08  39211391.535   204183996.315       -2460.865          35.000    39211379.593   157887971.663       -1903.280          42.000  
C10  40490386.935   210844066.706         933.578          34.000    40490387.451   163037999.642         722.507          38.000  
C35  25951261.959   135135034.817         375.271          38.000                                                                  
C07  39553132.726   205963513.093        1120.583          38.000    39553122.340   159264030.891         866.394          40.000  
C12  26439618.671   137678021.127        2310.006          35.000    26439617.160   106461407.920        1786.242          43.000  
G25  24422994.601   128343709.805       -3913.892          32.000    24422988.107   100008049.435       -3049.783          35.000  
> 2025 10 30 06 20 48.8000000  0 23                     
G32  22040942.620   115825932.466       -2930.925          45.000    22040936.594    90253949.795       -2283.769          42.000  
G29  23076467.141   121267663.706        -604.807          42.000    23076458.820    94494253.141        -471.415          41.000  
G28  21261076.833   111727712.098       -1195.355          46.000    21261066.873    87060514.017        -931.556          47.000  
G26  20339513.799   106884864.974         670.990          48.000    20339506.228    83286889.142         522.687          46.000  
G31  20622153.439   108370147.121         146.132          47.000    20622143.204    84444229.488         113.918          45.000  
G04  24469877.348                        3179.579          32.000    24469872.071   100200065.233        2477.241          35.000  
C33  22509352.164   117212097.841        -715.742          50.000                                                                  
C06  36574251.784   190451728.465        -158.419          45.000    36574234.592   147269286.490        -122.384          48.000  
C14  22687432.208   118139397.208       -2269.282          46.000    22687417.228    91352822.043       -1754.785          50.000  
C16  37002368.054   192681039.749        -189.044          48.000    37002356.704   148993154.778        -146.162          48.000  
C24  21848526.325   113771013.423        -868.475          50.000                                                                  
C26  24446842.751   127301125.313       -2562.638          44.000                                                                  
G03  22889417.296   120284690.113        -138.932          40.000    22889412.580    93728306.482        -108.287          41.000  
G16  22409463.367   117762538.978        2973.799          42.000                                                                  
C09  37725667.646   196447453.744        -147.526          43.000    37725653.508   151905574.928        -114.212          48.000  
C25  23637670.650   123087562.402        1568.593          45.000                                                                  
C13  38380408.373   199856851.435       -2265.425          41.000    38380402.067   154541973.668       -1751.780          43.000  
C08  39211410.419   204184094.758       -2460.856          35.000    39211398.498   157888047.783       -1903.075          42.000  
C10  40490379.740   210844029.303         934.611          34.000    40490380.268   163037970.733         722.745          38.000  
C35  25951259.086   135135019.778         375.730          38.000                                                                  
C07  39553124.105   205963468.246        1121.038          38.000    39553113.730   159263996.225         866.525          40.000  
C12  26439600.907   137677928.700        2310.477          35.000    26439599.398   106461336.456        1786.520          43.000  
G25  24423024.386   128343866.403       -3914.496          32.000    24423017.917   100008171.453       -3050.220          35.000  
> 2025 10 30 06 20 48.8400000  0 23                     
G32  22040964.943   115826049.703       -2930.867          45.000    22040958.930    90254041.162       -2284.009          42.000  
G29  23076471.740   121267687.913        -605.045          42.000    23076463.425    94494271.984        -471.146          41.000  
G28  21261085.961   111727759.924       -1195.507          46.000    21261075.986    87060551.285        -931.609          47.000  
G26  20339508.693   106884838.140         670.969          48.000    20339501.118    83286868.232         522.705          46.000  
G31  20622152.335   108370141.284         146.014          47.000    20622142.111    84444224.932         113.929          45.000  
G04  24469853.165                        3179.265          32.000    24469847.869   100199966.140        2477.368          35.000  
C33  22509357.661   117212126.473        -715.758          50.000                                                                  
C06  36574252.978   190451734.799        -158.336          45.000    36574235.803   147269291.385        -122.346          48.000  
C14  22687449.629   118139487.982       -2269.282          46.000    22687434.674    91352892.240       -1754.853          50.000  
C16  37002369.545   192681047.310        -188.995          48.000    37002358.142   148993160.624        -146.133          48.000  
C24  21848532.972   113771048.165        -868.499          50.000                                                                  
C26  24446862.447   127301227.816       -2562.544          44.000                                                                  
G03  22889418.353   120284695.670        -138.876          40.000    22889413.639    93728310.821        -108.407          41.000  
G16  22409440.732   117762420.040        2973.610          42.000                                                                  
C09  37725668.773   196447459.640        -147.391          43.000    37725654.647   151905579.500        -114.320          48.000  
C25  23637658.588   123087499.664        1568.549          45.000                                                                  
C13  38380425.765   199856942.057       -2265.434          41.000    38380419.463   154542043.736       -1751.664          43.000  
C08  39211429.299   204184193.198       -2460.814          35.000    39211417.393   157888123.911       -1903.169          42.000  
C10  40490372.548   210843991.902         935.044          34.000    40490373.073   163037941.830         722.684          38.000  
C35  25951256.182   135135004.769         375.417          38.000                                                                  
C07  39553115.469   205963423.416        1120.946          38.000    39553105.126   159263961.581         866.240          40.000  
C12  26439583.154   137677836.258        2310.949          35.000    26439581.633   106461264.987        1786.691          43.000  
G25  24423054.188   128344022.963       -3914.253          32.000    24423047.713   100008293.448       -3050.052          35.000  
> 2025 10 30 06 20 48.8800000  0 23                     
G32  22040987.267   115826166.943       -2930.938          45.000    22040981.257    90254132.530       -2284.182          42.000  
G29  23076476.338   121267712.100        -604.806          42.000    23076468.029    94494290.859        -471.635          41.000  
G28  21261095.061   111727807.753       -1195.640          46.000    21261085.070    87060588.550        -931.624          47.000  
G26  20339503.581   106884811.312         670.805          48.000    20339496.034    83286847.329         522.612          46.000  
G31  20622151.228   108370135.448         145.915          47.000    20622141.013    84444220.388         113.688          45.000  
G04  24469828.944                        3179.625          32.000    24469823.671   100199867.066        2476.958          35.000  
C33  22509363.120   117212155.108        -715.861          50.000                                                                  
C06  36574254.189   190451741.131        -158.289          45.000    36574237.042   147269296.283        -122.385          48.000  
C14  22687467.066   118139578.768       -2269.500          46.000    22687452.089    91352962.439       -1754.962          50.000  
C16  37002370.989   192681054.871        -188.998          48.000    37002359.572   148993166.474        -146.226          48.000  
C24  21848539.572   113771082.916        -868.679          50.000                                                                  
C26  24446882.116   127301330.323       -2562.605          44.000                                                                  
G03  22889419.424   120284701.249        -139.305          40.000    22889414.693    93728315.167        -108.607          41.000  
G16  22409418.095   117762301.092        2973.679          42.000                                                                  
C09  37725669.885   196447465.546        -147.535          43.000    37725655.776   151905584.064        -114.204          48.000  
C25  23637646.554   123087436.923        1568.536          45.000                                                                  
C13  38380443.168   199857032.675       -2265.417          41.000    38380436.919   154542113.822       -1751.992          43.000  
C08  39211448.193   204184291.673       -2461.553          36.000    39211436.293   157888200.045       -1903.281          42.000  
C10  40490365.395   210843954.493         935.303          34.000    40490365.898   163037912.906         723.005          38.000  
C35  25951253.310   135134989.757         375.344          38.000                                                                  
C07  39553106.878   205963378.609        1120.437          38.000    39553096.533   159263926.922         866.394          40.000  
C12  26439565.418   137677743.874        2310.003          35.000    26439563.875   106461193.525        1786.646          43.000  
G25  24423083.995   128344179.515       -3913.997          32.000    24423077.516   100008415.451       -3050.122          35.000  
> 2025 10 30 06 20 48.9200000  0 23                     
G32  22041009.577   115826284.193       -2931.138          45.000    22041003.552    90254223.892       -2284.145          42.000  
G29  23076480.956   121267736.305        -605.009          42.000    23076472.634    94494309.720        -471.605          41.000  
G28  21261104.147   111727855.569       -1195.469          46.000    21261094.164    87060625.813        -931.620          47.000  
G26  20339498.475   106884784.490         670.569          48.000    20339490.935    83286826.427         522.543          46.000  
G31  20622150.105   108370129.606         145.952          47.000    20622139.917    84444215.841         113.615          45.000  
G04  24469804.716   128589666.378        3178.719          32.000    24469799.481   100199767.971        2477.178          35.000  
C33  22509368.627   117212183.738        -715.776          50.000                                                                  
C06  36574255.390   190451747.474        -158.478          45.000    36574238.268   147269301.184        -122.487          48.000  
C14  22687484.469   118139669.553       -2269.652          46.000    22687469.498    91353032.635       -1754.967          50.000  
C16  37002372.441   192681062.425        -188.849          48.000    37002361.011   148993172.322        -146.207          48.000  
C24  21848546.225   113771117.666        -868.769          50.000                                                                  
C26  24446901.806   127301432.839       -2562.793          43.000                                                                  
G03  22889420.509   120284706.819        -139.346          40.000    22889415.766    93728319.494        -108.348          41.000  
G16  22409395.489   117762182.161        2973.415          42.000                                                                  
C09  37725671.007   196447471.449        -147.587          43.000    37725656.916   151905588.631        -114.185          48.000  
C25  23637634.501   123087374.185        1568.481          45.000                                                                  
C13  38380460.576   199857123.306       -2265.688          41.000    38380454.334   154542183.900       -1751.997          43.000  
C08  39211467.105   204184390.135       -2461.717          36.000    39211455.158   157888276.159       -1903.014          42.000  
C10  40490358.238   210843917.111         934.860          34.000    40490358.717   163037883.983         723.079          38.000  
C35  25951250.427   135134974.750         375.162          38.000                                                                  
C07  39553098.246   205963333.793        1120.321          38.000    39553087.911   159263892.251         866.620          40.000  
C12  26439547.667   137677651.476        2309.796          35.000    26439546.124   106461122.061        1786.608          43.000  
G25  24423113.794   128344336.061       -3913.784          32.000    24423107.322   100008537.436       -3049.858          35.000  
> 2025 10 30 06 20 48.9600000  0 23                     
G32  22041031.901   115826401.435       -2931.101          45.000    22041025.856    90254315.237       -2283.807          42.000  
G29  23076485.557   121267760.518        -605.259          42.000    23076477.248    94494328.584        -471.635          41.000  
G28  21261113.245   111727903.393       -1195.534          46.000    21261103.260    87060663.080        -931.681          47.000  
G26  20339493.386   106884757.669         670.452          48.000    20339485.807    83286805.517         522.669          46.000  
G31  20622149.007   108370123.764         146.002          47.000    20622138.799    84444211.290         113.658          45.000  
G04  24469780.526                        3178.131          32.000    24469775.275   100199668.896        2476.989          35.000  
C33  22509374.119   117212212.374        -715.847          50.000                                                                  
C06  36574256.594   190451753.809        -158.484          45.000    36574239.487   147269306.082        -122.485          48.000  
C14  22687501.919   118139760.339       -2269.705          46.000    22687486.917    91353102.830       -1754.934          50.000  
C16  37002373.899   192681069.984        -188.908          48.000    37002362.443   148993178.162        -146.077          48.000  
C24  21848552.915   113771152.418        -868.836          50.000                                                                  
C26  24446921.474   127301535.340       -2562.623          43.000                                                                  
G03  22889421.557   120284712.382        -139.217          40.000    22889416.826    93728323.826        -108.286          41.000  
G16  22409372.839   117762063.222        2973.405          42.000                                                                  
C09  37725672.129   196447477.357        -147.655          43.000    37725658.027   151905593.194        -114.110          48.000  
C25  23637622.458   123087311.444        1568.481          45.000                                                                  
C13  38380477.988   199857213.940       -2265.867          41.000    38380471.773   154542253.978       -1751.991          43.000  
C08  39211486.025   204184488.592       -2461.647          36.000    39211474.060   157888352.290       -1903.151          42.000  
C10  40490351.079   210843879.726         934.552          34.000    40490351.562   163037855.084         722.656          38.000  
C35  25951247.524   135134959.735         375.285          38.000                                                                  
C07  39553089.645   205963288.988        1120.122          38.000    39553079.291   159263857.580         866.749          40.000  
C12  26439529.909   137677559.053        2310.167          35.000    26439528.380   106461050.603        1786.510          43.000  
G25  24423143.605   128344492.634       -3914.071          32.000    24423137.107   100008659.426       -3049.778          35.000  
