     3.04           OBSERVATION DATA    M: Mixed            RINEX VERSION / TYPE
RTKCONV 2.4.3 b34                       20251030 063734 UTC PGM / RUN BY / DATE 
format: u-blox UBX                                          COMMENT             
log: D:\GPdata\10_30\fingure_200_10_30_4.ubx                COMMENT             
                                                            MARKER NAME         
                                                            MARKER NUMBER       
                                                            MARKER TYPE         
                                                            OBSERVER / AGENCY   
                                                            REC # / TYPE / VERS 
                                                            ANT # / TYPE        
        0.0000        0.0000        0.0000                  APPROX POSITION XYZ 
        0.0000        0.0000        0.0000                  ANTENNA: DELTA H/E/N
G    8 C1C L1C D1C S1C C2L L2L D2L S2L                      SYS / # / OBS TYPES 
C    8 C2I L2I D2I S2I C7I L7I D7I S7I                      SYS / # / OBS TYPES 
  2025    10    30    06    18   02.2000000     GPS         TIME OF FIRST OBS   
  2025    10    30    06    18   23.7600000     GPS         TIME OF LAST OBS    
G L1C                                                       SYS / PHASE SHIFT   
G L2L  0.00000                                              SYS / PHASE SHIFT   
C L2I                                                       SYS / PHASE SHIFT   
C L7I                                                       SYS / PHASE SHIFT   
  0                                                         GLONASS SLOT / FRQ #
 C1C    0.000 C1P    0.000 C2C    0.000 C2P    0.000        GLONASS COD/PHS/BIS 
                                                            END OF HEADER       
> 2025 10 30 06 18 02.2000000  0 22                     
G32  21949116.598   115343383.9351      -2862.137          45.000    21949110.028    89877933.2851      -2230.265          42.000  
G29  23058937.768   121175549.4861       -501.355          43.000    23058928.970    94422470.7471       -390.517          40.000  
G28  21223753.219   111531577.0481      -1159.478          47.000    21223743.523    86907681.4451       -903.443          47.000  
G26  20362195.704   107004058.9701        759.674          49.000    20362188.373    83379767.2581        592.030          46.000  
G31  20627494.968   108398213.9601        190.417          49.000    20627484.131    84466099.6601        148.444          46.000  
G04  24570820.482   129120514.3351       3188.097          35.000    24570818.326   100613404.4591       2484.229          38.000  
C33  22487980.412   117100811.3491       -620.560          51.000                                                                  
C06  36569065.294   190424722.1321       -166.294          46.000    36569048.728   147248403.3801       -128.448          49.000  
C14  22616050.917   117767696.5351      -2192.838          46.000    22616036.438    91065399.7021      -1695.704          51.000  
C16  36996176.252   192648796.0671       -198.587          49.000    36996164.562   148968221.8631       -153.517          49.000  
C24  21821346.569   113629481.4001       -830.726          50.000                                                                  
C26  24364951.534   126874689.8381      -2556.692          45.000                                                                  
G03  22886758.994   120270729.6941        -29.094          40.000    22886753.533    93717431.2541        -22.532          40.000  
G16  22504629.244   118262633.5261       3029.238          43.000                                                                  
C09  37720816.224   196422189.4441       -156.252          43.000    37720801.579   151886038.7631       -120.603          48.000  
C25  23688366.975   123351547.8731       1600.189          44.000                                                                  
C13  38308170.757   199480691.3741      -2250.577          43.000    38308164.932   154251103.1861      -1740.200          44.000  
C08  39132807.004   203774781.8251      -2452.629          38.000    39132795.430   157571525.7671      -1896.508          44.000  
C10  40520222.339   210999426.8461        930.329          36.000    40520223.496   163158208.2221        719.703          39.000  
C35  25964450.234   135203727.8081        448.332          38.000                                                                  
C07  39588968.115   206150145.7071       1119.795          39.000    39588957.360   159408328.1383        865.743          41.000  
G25  24298998.646   127692094.6941      -3910.093          35.000    24298992.651    99500308.4571      -3047.189          36.000  
> 2025 10 30 06 18 02.2400000  0 22                     
G32  21949138.368   115343498.412       -2861.987          45.000    21949131.824    89878022.494       -2230.310          42.000  
G29  23058941.580   121175569.538        -501.312          42.000    23058932.794    94422486.378        -390.696          40.000  
G28  21223762.018   111531623.419       -1159.327          47.000    21223752.338    86907717.572        -903.248          47.000  
G26  20362189.910   107004028.571         759.904          49.000    20362182.590    83379743.568         592.254          46.000  
G31  20627493.489   108398206.337         190.510          49.000    20627482.681    84466093.721         148.462          46.000  
G04  24570796.188   129120386.797        3188.347          35.000    24570794.051   100613305.081        2484.408          38.000  
C33  22487985.212   117100836.163        -620.404          51.000                                                                  
C06  36569066.558   190424728.782        -166.289          46.000    36569050.029   147248408.514        -128.350          49.000  
C14  22616067.768   117767784.248       -2192.821          46.000    22616053.302    91065467.524       -1695.596          51.000  
C16  36996177.804   192648804.003        -198.471          49.000    36996166.100   148968227.998        -153.435          49.000  
C24  21821352.973   113629514.627        -830.701          50.000                                                                  
C26  24364971.160   126874792.108       -2556.740          45.000                                                                  
G03  22886759.192   120270730.837         -28.731          40.000    22886753.753    93717432.157         -22.624          40.000  
G16  22504606.185   118262512.359        3029.198          43.000                                                                  
C09  37720817.444   196422195.672        -155.845          43.000    37720802.808   151886043.589        -120.649          48.000  
C25  23688354.668   123351483.858        1600.317          44.000                                                                  
C13  38308188.077   199480781.381       -2250.302          43.000    38308182.231   154251172.794       -1740.237          44.000  
C08  39132825.851   203774879.932       -2452.597          38.000    39132814.254   157571601.617       -1896.298          44.000  
C10  40520215.199   210999389.634         930.381          36.000    40520216.344   163158179.450         719.543          39.000  
C35  25964446.780   135203709.857         448.633          38.000                                                                  
C07  39588959.501   206150100.921        1119.797          39.000    39588948.753   159408293.5052        865.809          41.000  
G25  24299028.379   127692251.123       -3910.561          35.000    24299022.420    99500430.337       -3047.159          36.000  
> 2025 10 30 06 18 02.2800000  0 22                     
G32  21949160.144   115343612.893       -2861.971          45.000    21949153.611    89878111.708       -2230.418          42.000  
G29  23058945.430   121175589.584        -501.174          42.000    23058936.610    94422501.998        -390.576          40.000  
G28  21223770.843   111531669.790       -1159.253          47.000    21223761.190    86907753.710        -903.351          47.000  
G26  20362184.137   107003998.174         759.951          49.000    20362176.807    83379719.890         592.102          46.000  
G31  20627492.041   108398198.717         190.509          49.000    20627481.234    84466087.780         148.517          46.000  
G04  24570771.933   129120259.280        3188.036          35.000    24570769.770   100613205.691        2484.633          38.000  
C33  22487989.956   117100860.982        -620.433          51.000                                                                  
C06  36569067.846   190424735.424        -166.108          46.000    36569051.308   147248413.655        -128.435          49.000  
C14  22616084.622   117767871.955       -2192.722          46.000    22616070.146    91065535.347       -1695.560          51.000  
C16  36996179.317   192648811.932        -198.313          49.000    36996167.637   148968234.132        -153.345          49.000  
C24  21821359.369   113629547.844        -830.499          50.000                                                                  
C26  24364990.776   126874894.370       -2556.608          45.000                                                                  
G03  22886759.422   120270731.991         -28.716          40.000    22886753.998    93717433.064         -22.692          40.000  
G16  22504583.117   118262391.181        3029.388          43.000                                                                  
C09  37720818.642   196422201.896        -155.605          43.000    37720803.996   151886048.411        -120.587          48.000  
C25  23688342.368   123351419.845        1600.330          44.000                                                                  
C13  38308205.338   199480871.393       -2250.241          43.000    38308199.506   154251242.399       -1740.187          44.000  
C08  39132844.687   203774978.014       -2452.189          38.000    39132833.109   157571677.471       -1896.290          44.000  
C10  40520208.053   210999352.425         930.369          36.000    40520209.203   163158150.685         719.314          39.000  
C35  25964443.349   135203691.902         448.817          38.000                                                                  
C07  39588950.892   206150056.130        1119.815          39.000    39588940.143   159408258.8802        865.720          41.000  
G25  24299058.123   127692407.533       -3910.442          35.000    24299052.184    99500552.195       -3046.687          36.000  
> 2025 10 30 06 18 02.3200000  0 22                     
G32  21949181.912   115343727.368       -2861.870          45.000    21949175.414    89878200.908       -2230.193          42.000  
G29  23058949.262   121175609.639        -501.282          42.000    23058940.434    94422517.618        -390.546          40.000  
G28  21223779.673   111531716.163       -1159.287          47.000    21223770.033    86907789.852        -903.492          47.000  
G26  20362178.347   107003967.776         759.987          49.000    20362171.013    83379696.205         592.102          46.000  
G31  20627490.593   108398191.095         190.546          49.000    20627479.804    84466081.843         148.437          46.000  
G04  24570747.672   129120131.762        3187.876          35.000    24570745.501   100613106.320        2484.427          38.000  
C33  22487994.684   117100885.805        -620.530          51.000                                                                  
C06  36569069.126   190424742.066        -166.042          46.000    36569052.587   147248418.795        -128.490          49.000  
C14  22616101.464   117767959.677       -2192.926          46.000    22616086.956    91065603.174       -1695.612          51.000  
C16  36996180.810   192648819.866        -198.319          49.000    36996169.183   148968240.264        -153.283          49.000  
C24  21821365.756   113629581.070        -830.578          50.000                                                                  
C26  24365010.414   126874996.642       -2556.719          45.000                                                                  
G03  22886759.651   120270733.175         -29.349          40.000    22886754.227    93717433.984         -22.980          39.000  
G16  22504560.089   118262270.004        3029.474          43.000                                                                  
C09  37720819.816   196422208.141        -155.917          43.000    37720805.221   151886053.239        -120.676          48.000  
C25  23688330.070   123351355.829        1600.397          44.000                                                                  
C13  38308222.620   199480961.404       -2250.217          43.000    38308216.805   154251311.999       -1740.094          44.000  
C08  39132863.523   203775076.136       -2452.664          38.000    39132851.962   157571753.345       -1896.677          44.000  
C10  40520200.925   210999315.222         930.229          36.000    40520202.079   163158121.918         719.208          39.000  
C35  25964439.926   135203673.967         448.485          38.000                                                                  
C07  39588942.294   206150011.352        1119.518          39.000    39588931.512   159408224.2382        865.942          41.000  
G25  24299087.878   127692563.941       -3910.339          35.000    24299081.948    99500674.056       -3046.537          36.000  
> 2025 10 30 06 18 02.3600000  0 22                     
G32  21949203.702   115343841.844       -2861.894          45.000    21949197.201    89878290.105       -2230.007          42.000  
G29  23058953.060   121175629.691        -501.289          42.000    23058944.244    94422533.248        -390.671          40.000  
G28  21223788.497   111531762.541       -1159.375          47.000    21223778.842    86907825.990        -903.486          47.000  
G26  20362172.579   107003937.390         759.762          49.000    20362165.229    83379672.520         592.101          46.000  
G31  20627489.175   108398183.476         190.496          49.000    20627478.357    84466075.910         148.313          46.000  
G04  24570723.403   129120004.246        3187.798          35.000    24570721.234   100613006.962        2483.998          38.000  
C33  22487999.414   117100910.633        -620.688          51.000                                                                  
C06  36569070.413   190424748.703        -165.923          46.000    36569053.814   147248423.933        -128.484          49.000  
C14  22616118.296   117768047.398       -2193.045          46.000    22616103.790    91065671.002       -1695.676          51.000  
C16  36996182.306   192648827.801        -198.361          49.000    36996170.678   148968246.403        -153.377          49.000  
C24  21821372.106   113629614.296        -830.619          50.000                                                                  
C26  24365030.037   126875098.915       -2556.796          45.000                                                                  
G03  22886759.889   120270734.340         -29.299          40.000    22886754.442    93717434.883         -22.725          39.000  
G16  22504537.026   118262148.843        3029.179          43.000                                                                  
C09  37720821.021   196422214.390        -156.145          44.000    37720806.410   151886058.067        -120.746          48.000  
C25  23688317.759   123351291.822        1600.244          44.000                                                                  
C13  38308239.887   199481051.416       -2250.269          43.000    38308234.095   154251381.603       -1740.120          44.000  
C08  39132882.367   203775174.230       -2452.516          38.000    39132870.812   157571829.205       -1896.628          44.000  
C10  40520193.752   210999278.016         930.173          36.000    40520194.923   163158093.133         719.535          39.000  
C35  25964436.474   135203656.021         448.563          38.000                                                                  
C07  39588933.713   206149966.555        1119.760          39.000    39588922.915   159408189.5992        865.974          41.000  
G25  24299117.626   127692720.327       -3909.944          36.000    24299111.711    99500795.923       -3046.509          36.000  
> 2025 10 30 06 18 02.4000000  0 22                     
G32  21949225.485   115343956.330       -2862.071          45.000    21949219.002    89878379.310       -2230.038          42.000  
G29  23058956.887   121175649.754        -501.542          42.000    23058948.072    94422548.886        -390.916          40.000  
G28  21223797.366   111531808.922       -1159.493          47.000    21223787.649    86907862.128        -903.493          47.000  
G26  20362166.787   107003907.002         759.689          49.000    20362159.449    83379648.841         591.989          46.000  
G31  20627487.727   108398175.863         190.367          49.000    20627476.897    84466069.978         148.277          46.000  
G04  24570699.131   129119876.699        3188.223          35.000    24570696.976   100612907.599        2483.915          38.000  
C33  22488004.220   117100935.455        -620.642          51.000                                                                  
C06  36569071.694   190424755.349        -166.034          46.000    36569055.081   147248429.076        -128.577          49.000  
C14  22616135.148   117768135.100       -2192.732          46.000    22616120.636    91065738.832       -1695.758          51.000  
C16  36996183.815   192648835.738        -198.420          49.000    36996172.206   148968252.542        -153.455          49.000  
C24  21821378.500   113629647.522        -830.651          50.000                                                                  
C26  24365049.711   126875201.184       -2556.774          45.000                                                                  
G03  22886760.124   120270735.490         -28.996          40.000    22886754.657    93717435.777         -22.455          39.000  
G16  22504513.981   118262027.671        3029.186          43.000                                                                  
C09  37720822.216   196422220.632        -156.134          44.000    37720807.597   151886062.893        -120.687          48.000  
C25  23688305.457   123351227.812        1600.238          44.000                                                                  
C13  38308257.171   199481141.429       -2250.325          43.000    38308251.393   154251451.208       -1740.151          44.000  
C08  39132901.188   203775272.355       -2452.998          38.000    39132889.664   157571905.070       -1896.677          44.000  
C10  40520186.610   210999240.792         930.484          36.000    40520187.751   163158064.382         718.983          39.000  
C35  25964433.045   135203638.098         448.155          38.000                                                                  
C07  39588925.115   206149921.782        1119.465          39.000    39588914.305   159408154.9722        865.774          41.000  
G25  24299147.395   127692876.720       -3909.901          36.000    24299141.481    99500917.809       -3046.926          36.000  
> 2025 10 30 06 18 02.4400000  0 22                     
G32  21949247.285   115344070.816       -2862.177          45.000    21949240.776    89878468.522       -2230.263          42.000  
G29  23058960.705   121175669.818        -501.677          42.000    23058951.878    94422564.511        -390.767          40.000  
G28  21223806.194   111531855.301       -1159.501          47.000    21223796.485    86907898.264        -903.451          47.000  
G26  20362160.974   107003876.615         759.634          49.000    20362153.667    83379625.168         591.840          46.000  
G31  20627486.270   108398168.241         190.460          49.000    20627475.454    84466064.041         148.345          46.000  
G04  24570674.845   129119749.126        3188.903          35.000    24570672.693   100612808.212        2484.340          38.000  
C33  22488008.936   117100960.284        -620.735          51.000                                                                  
C06  36569072.987   190424762.003        -166.222          46.000    36569056.317   147248434.217        -128.567          49.000  
C14  22616151.965   117768222.818       -2192.861          46.000    22616137.490    91065806.660       -1695.743          51.000  
C16  36996185.315   192648843.673        -198.412          49.000    36996173.731   148968258.678        -153.454          49.000  
C24  21821384.861   113629680.751        -830.721          50.000                                                                  
C26  24365069.365   126875303.450       -2556.700          45.000                                                                  
G03  22886760.348   120270736.647         -28.928          40.000    22886754.882    93717436.678         -22.458          39.000  
G16  22504490.913   118261906.493        3029.328          43.000                                                                  
C09  37720823.415   196422226.872        -156.063          44.000    37720808.790   151886067.711        -120.548          48.000  
C25  23688293.152   123351163.809        1600.104          44.000                                                                  
C13  38308274.454   199481231.441       -2250.338          43.000    38308268.675   154251520.805       -1739.995          44.000  
C08  39132920.031   203775370.452       -2452.717          38.000    39132908.519   157571980.919       -1896.414          44.000  
C10  40520179.456   210999203.587         930.361          36.000    40520180.595   163158035.608         719.180          39.000  
C35  25964429.605   135203620.171         448.105          38.000                                                                  
C07  39588916.529   206149876.997        1119.517          39.000    39588905.698   159408120.3572        865.494          41.000  
G25  24299177.140   127693033.142       -3910.417          36.000    24299171.250    99501039.677       -3046.797          36.000  
> 2025 10 30 06 18 02.4800000  0 22                     
G32  21949269.053   115344185.301       -2862.186          45.000    21949262.561    89878557.726       -2230.215          42.000  
G29  23058964.504   121175689.864        -501.378          42.000    23058955.686    94422580.137        -390.672          40.000  
G28  21223814.991   111531901.677       -1159.481          47.000    21223805.300    86907934.401        -903.432          47.000  
G26  20362155.174   107003846.224         759.722          49.000    20362147.878    83379601.489         591.867          46.000  
G31  20627484.842   108398160.624         190.423          49.000    20627473.992    84466058.097         148.524          46.000  
G04  24570650.583   129119621.614        3188.318          35.000    24570648.426   100612708.828        2484.596          38.000  
C33  22488013.715   117100985.105        -620.638          51.000                                                                  
C06  36569074.261   190424768.644        -166.078          46.000    36569057.557   147248439.354        -128.485          49.000  
C14  22616168.805   117768310.538       -2192.995          46.000    22616154.330    91065874.483       -1695.654          51.000  
C16  36996186.852   192648851.607        -198.377          49.000    36996175.220   148968264.814        -153.420          49.000  
C24  21821391.268   113629713.976        -830.694          50.000                                                                  
C26  24365089.009   126875405.716       -2556.664          45.000                                                                  
G03  22886760.565   120270737.823         -29.288          40.000    22886755.098    93717437.584         -22.599          39.000  
G16  22504467.855   118261785.325        3029.252          43.000                                                                  
C09  37720824.619   196422233.107        -155.936          44.000    37720809.986   151886072.540        -120.651          48.000  
C25  23688280.847   123351099.803        1600.092          44.000                                                                  
C13  38308291.744   199481321.460       -2250.468          43.000    38308285.970   154251590.409       -1740.102          44.000  
C08  39132938.882   203775468.541       -2452.413          38.000    39132927.329   157572056.772       -1896.318          44.000  
C10  40520172.306   210999166.383         930.110          36.000    40520173.397   163158006.828         719.396          39.000  
C35  25964426.156   135203602.235         448.245          38.000                                                                  
C07  39588907.916   206149832.222        1119.375          39.000    39588897.080   159408085.7252        865.707          41.000  
G25  24299206.902   127693189.560       -3910.573          36.000    24299201.011    99501161.566       -3047.150          36.000  
> 2025 10 30 06 18 02.5200000  0 22                     
G32  21949290.819   115344299.785       -2862.164          45.000    21949284.345    89878646.934       -2230.266          42.000  
G29  23058968.317   121175709.927        -501.511          42.000    23058959.491    94422595.758        -390.580          40.000  
G28  21223823.826   111531948.052       -1159.434          47.000    21223814.129    86907970.540        -903.451          47.000  
G26  20362149.402   107003815.839         759.628          49.000    20362142.071    83379577.813         591.849          46.000  
G31  20627483.402   108398152.998         190.552          49.000    20627472.546    84466052.158         148.499          46.000  
G04  24570626.308   129119494.094        3188.067          35.000    24570624.141   100612609.456        2484.438          38.000  
C33  22488018.491   117101009.931        -620.664          51.000                                                                  
C06  36569075.519   190424775.291        -166.134          46.000    36569058.783   147248444.487        -128.361          49.000  
C14  22616185.676   117768398.253       -2192.967          46.000    22616171.145    91065942.315       -1695.763          51.000  
C16  36996188.388   192648859.541        -198.359          49.000    36996176.710   148968270.951        -153.440          49.000  
C24  21821397.652   113629747.204        -830.712          50.000                                                                  
C26  24365108.627   126875507.981       -2556.647          45.000                                                                  
G03  22886760.776   120270738.985         -29.217          40.000    22886755.340    93717438.499         -22.785          39.000  
G16  22504444.797   118261664.154        3029.265          43.000                                                                  
C09  37720825.809   196422239.338        -155.845          44.000    37720811.171   151886077.365        -120.690          48.000  
C25  23688268.563   123351035.790        1600.244          44.000                                                                  
C13  38308309.022   199481411.471       -2250.386          43.000    38308303.230   154251660.010       -1740.052          44.000  
C08  39132957.730   203775566.638       -2452.359          38.000    39132946.166   157572132.632       -1896.398          44.000  
C10  40520165.163   210999129.173         930.112          36.000    40520166.237   163157978.042         719.622          39.000  
C35  25964422.698   135203584.284         448.597          38.000                                                                  
C07  39588899.330   206149787.432        1119.566          39.000    39588888.490   159408051.0862        865.929          41.000  
G25  24299236.658   127693345.945       -3910.035          36.000    24299230.777    99501283.441       -3047.083          36.000  
> 2025 10 30 06 18 02.5600000  0 22                     
G32  21949312.603   115344414.272       -2862.202          45.000    21949306.121    89878736.149       -2230.400          42.000  
G29  23058972.138   121175729.985        -501.492          42.000    23058963.320    94422611.402        -390.978          40.000  
G28  21223832.676   111531994.436       -1159.582          47.000    21223822.951    86908006.679        -903.472          47.000  
G26  20362143.614   107003785.456         759.555          49.000    20362136.265    83379554.136         591.888          46.000  
G31  20627481.958   108398145.385         190.391          49.000    20627471.097    84466046.226         148.375          46.000  
G04  24570602.065   129119366.577        3187.928          35.000    24570599.879   100612510.111        2483.920          38.000  
C33  22488023.233   117101034.761        -620.753          51.000                                                                  
C06  36569076.809   190424781.938        -166.224          46.000    36569060.038   147248449.631        -128.519          49.000  
C14  22616202.492   117768485.974       -2193.037          46.000    22616187.989    91066010.145       -1695.794          51.000  
C16  36996189.924   192648867.482        -198.482          49.000    36996178.183   148968277.088        -153.453          49.000  
C24  21821404.043   113629780.437        -830.816          50.000                                                                  
C26  24365128.255   126875610.258       -2556.853          45.000                                                                  
G03  22886760.985   120270740.167         -29.479          40.000    22886755.587    93717439.425         -23.084          39.000  
G16  22504421.747   118261542.990        3029.164          43.000                                                                  
C09  37720826.985   196422245.582        -156.038          44.000    37720812.382   151886082.192        -120.708          48.000  
C25  23688256.246   123350971.784        1600.208          44.000                                                                  
C13  38308326.288   199481501.487       -2250.449          43.000    38308320.502   154251729.625       -1740.281          44.000  
C08  39132976.566   203775664.751       -2452.689          38.000    39132965.018   157572208.499       -1896.600          44.000  
C10  40520158.021   210999091.954         930.358          36.000    40520159.107   163157949.274         719.369          39.000  
C35  25964419.304   135203566.340         448.676          38.000                                                                  
C07  39588890.722   206149742.658        1119.360          39.000    39588879.903   159408016.4622        865.779          41.000  
G25  24299266.433   127693502.350       -3910.105          36.000    24299260.536    99501405.323       -3047.158          37.000  
> 2025 10 30 06 18 02.6000000  0 22                     
G32  21949334.377   115344528.758       -2862.208          45.000    21949327.904    89878825.358       -2230.356          42.000  
G29  23058975.934   121175750.047        -501.548          42.000    23058967.153    94422627.041        -391.043          40.000  
G28  21223841.508   111532040.813       -1159.497          47.000    21223831.786    86908042.817        -903.472          47.000  
G26  20362137.833   107003755.072         759.587          49.000    20362130.492    83379530.461         591.888          46.000  
G31  20627480.502   108398137.768         190.380          49.000    20627469.644    84466040.294         148.295          46.000  
G04  24570577.790   129119239.061        3187.787          35.000    24570575.598   100612410.744        2483.940          38.000  
C33  22488027.982   117101059.592        -620.808          51.000                                                                  
C06  36569078.082   190424788.593        -166.365          46.000    36569061.298   147248454.769        -128.517          49.000  
C14  22616219.337   117768573.703       -2193.231          46.000    22616204.842    91066077.978       -1695.856          51.000  
C16  36996191.475   192648875.418        -198.460          49.000    36996179.723   148968283.223        -153.413          49.000  
C24  21821410.444   113629813.665        -830.773          50.000                                                                  
C26  24365147.905   126875712.528       -2556.836          45.000                                                                  
G03  22886761.216   120270741.333         -29.331          40.000    22886755.821    93717440.334         -22.948          40.000  
G16  22504398.678   118261421.829        3029.046          43.000                                                                  
C09  37720828.190   196422251.822        -156.074          44.000    37720813.581   151886087.021        -120.745          48.000  
C25  23688243.949   123350907.778        1600.134          44.000                                                                  
C13  38308343.561   199481591.505       -2250.479          43.000    38308337.791   154251799.227       -1740.168          44.000  
C08  39132995.400   203775762.863       -2452.894          38.000    39132983.841   157572284.375       -1896.873          44.000  
C10  40520150.868   210999054.755         930.128          36.000    40520151.922   163157920.496         719.382          39.000  
C35  25964415.852   135203548.407         448.472          38.000                                                                  
C07  39588882.106   206149697.866        1119.587          39.000    39588871.315   159407981.8442        865.584          41.000  
G25  24299296.221   127693658.766       -3910.328          36.000    24299290.303    99501527.209       -3047.281          37.000  
> 2025 10 30 06 18 02.6400000  0 22                     
G32  21949356.150   115344643.249       -2862.297          45.000    21949349.719    89878914.571       -2230.359          42.000  
G29  23058979.747   121175770.110        -501.616          42.000    23058970.973    94422642.665        -390.763          40.000  
G28  21223850.327   111532087.179       -1159.277          47.000    21223840.598    86908078.953        -903.417          47.000  
G26  20362132.047   107003724.689         759.569          49.000    20362124.716    83379506.783         591.925          46.000  
G31  20627479.059   108398130.151         190.405          49.000    20627468.195    84466034.365         148.210          46.000  
G04  24570553.536   129119111.563        3187.419          35.000    24570551.310   100612311.348        2484.518          38.000  
C33  22488032.745   117101084.425        -620.875          51.000                                                                  
C06  36569079.368   190424795.238        -166.270          46.000    36569062.566   147248459.911        -128.547          49.000  
C14  22616236.200   117768661.420       -2193.069          46.000    22616221.679    91066145.809       -1695.816          51.000  
C16  36996193.032   192648883.352        -198.402          49.000    36996181.232   148968289.356        -153.355          49.000  
C24  21821416.832   113629846.891        -830.715          50.000                                                                  
C26  24365167.587   126875814.795       -2556.740          45.000                                                                  
G03  22886761.433   120270742.500         -29.190          40.000    22886756.052    93717441.250         -22.992          40.000  
G16  22504375.625   118261300.659        3029.142          43.000                                                                  
C09  37720829.398   196422258.067        -156.181          44.000    37720814.770   151886091.839        -120.554          48.000  
C25  23688231.644   123350843.768        1600.165          44.000                                                                  
C13  38308360.839   199481681.516       -2250.328          43.000    38308355.073   154251868.823       -1739.995          44.000  
C08  39133014.239   203775860.974       -2452.959          38.000    39133002.668   157572360.231       -1896.622          44.000  
C10  40520143.694   210999017.532         930.414          36.000    40520144.799   163157891.736         719.064          39.000  
C35  25964412.386   135203530.476         448.271          38.000                                                                  
C07  39588873.510   206149653.070        1119.854          39.000    39588862.703   159407947.1992        865.876          41.000  
G25  24299325.989   127693815.162       -3910.186          36.000    24299320.062    99501649.042       -3046.368          37.000  
> 2025 10 30 06 18 02.6800000  0 22                     
G32  21949377.922   115344757.731       -2862.150          45.000    21949371.507    89879003.772       -2230.124          42.000  
G29  23058983.564   121175790.161        -501.395          42.000    23058974.800    94422658.299        -390.860          40.000  
G28  21223859.148   111532133.564       -1159.510          47.000    21223849.424    86908115.092        -903.487          47.000  
G26  20362126.236   107003694.296         759.756          49.000    20362118.936    83379483.101         592.037          46.000  
G31  20627477.590   108398122.530         190.491          49.000    20627466.711    84466028.423         148.420          46.000  
G04  24570529.245   129118983.991        3188.510          35.000    24570527.064   100612211.973        2484.509          38.000  
C33  22488037.541   117101109.250        -620.747          51.000                                                                  
C06  36569080.636   190424801.871        -166.013          46.000    36569063.838   147248465.043        -128.416          49.000  
C14  22616253.078   117768749.131       -2192.885          46.000    22616238.539    91066213.635       -1695.721          51.000  
C16  36996194.576   192648891.283        -198.312          49.000    36996182.759   148968295.487        -153.292          49.000  
C24  21821423.223   113629880.112        -830.599          50.000                                                                  
C26  24365187.247   126875917.059       -2556.649          45.000                                                                  
G03  22886761.676   120270743.660         -29.042          40.000    22886756.265    93717442.158         -22.821          40.000  
G16  22504352.565   118261179.485        3029.275          43.000                                                                  
C09  37720830.590   196422264.297        -155.917          44.000    37720815.953   151886096.657        -120.454          48.000  
C25  23688219.362   123350779.763        1600.122          44.000                                                                  
C13  38308378.106   199481771.527       -2250.279          43.000    38308372.342   154251938.423       -1740.002          44.000  
C08  39133033.073   203775959.082       -2452.903          38.000    39133021.535   157572436.083       -1896.416          44.000  
C10  40520136.533   210998980.319         930.445          36.000    40520137.640   163157862.959         719.248          39.000  
C35  25964408.918   135203512.528         448.531          38.000                                                                  
C07  39588864.915   206149608.285        1119.719          39.000    39588854.098   159407912.5582        866.009          41.000  
G25  24299355.751   127693971.554       -3909.996          36.000    24299349.830    99501770.905       -3046.416          37.000  
> 2025 10 30 06 18 02.7200000  0 22                     
G32  21949399.673   115344872.211       -2862.030          45.000    21949393.297    89879092.982       -2230.214          42.000  
G29  23058987.379   121175810.220        -501.454          42.000    23058978.624    94422673.922        -390.652          40.000  
G28  21223867.988   111532179.943       -1159.520          47.000    21223858.282    86908151.225        -903.419          47.000  
G26  20362120.453   107003663.911         759.686          49.000    20362113.171    83379459.426         591.936          46.000  
G31  20627476.140   108398114.913         190.448          49.000    20627465.240    84466022.484         148.481          46.000  
G04  24570504.976   129118856.465        3188.296          35.000    24570502.804   100612112.600        2484.376          38.000  
C33  22488042.339   117101134.076        -620.684          51.000                                                                  
C06  36569081.873   190424808.508        -165.947          46.000    36569065.135   147248470.177        -128.352          49.000  
C14  22616269.924   117768836.846       -2192.869          46.000    22616255.393    91066281.462       -1695.670          51.000  
C16  36996196.101   192648899.208        -198.186          49.000    36996184.310   148968301.623        -153.394          49.000  
C24  21821429.609   113629913.335        -830.590          50.000                                                                  
C26  24365206.876   126876019.320       -2556.560          45.000                                                                  
G03  22886761.868   120270744.833         -29.181          40.000    22886756.467    93717443.053         -22.482          39.000  
G16  22504329.506   118261058.316        3029.280          43.000                                                                  
C09  37720831.795   196422270.532        -155.882          44.000    37720817.133   151886101.474        -120.400          48.000  
C25  23688207.057   123350715.755        1600.086          44.000                                                                  
C13  38308395.368   199481861.531       -2250.112          43.000    38308389.627   154252008.034       -1740.208          44.000  
C08  39133051.934   203776057.184       -2452.761          38.000    39133040.356   157572511.928       -1896.164          44.000  
C10  40520129.366   210998943.101         930.538          36.000    40520130.495   163157834.187         719.267          39.000  
C35  25964405.515   135203494.589         448.446          38.000                                                                  
C07  39588856.294   206149563.489        1119.753          39.000    39588845.527   159407877.9202        866.023          41.000  
G25  24299385.524   127694127.949       -3909.927          36.000    24299379.606    99501892.777       -3046.665          37.000  
> 2025 10 30 06 18 02.7600000  0 22                     
G32  21949421.479   115344986.697       -2862.098          45.000    21949415.103    89879182.190       -2230.256          42.000  
G29  23058991.206   121175830.283        -501.568          42.000    23058982.431    94422689.557        -390.837          40.000  
G28  21223876.815   111532226.310       -1159.283          47.000    21223867.130    86908187.366        -903.487          47.000  
G26  20362114.687   107003633.526         759.624          49.000    20362107.388    83379435.752         591.843          46.000  
G31  20627474.692   108398107.293         190.466          49.000    20627463.783    84466016.540         148.585          46.000  
G04  24570480.690   129118728.946        3188.029          35.000    24570478.532   100612013.233        2484.254          38.000  
C33  22488047.097   117101158.899        -620.617          51.000                                                                  
C06  36569083.153   190424815.154        -166.075          46.000    36569066.404   147248475.315        -128.408          49.000  
C14  22616286.751   117768924.566       -2192.972          46.000    22616272.253    91066349.291       -1695.704          51.000  
C16  36996197.610   192648907.141        -198.227          49.000    36996185.842   148968307.759        -153.431          49.000  
C24  21821435.968   113629946.561        -830.631          50.000                                                                  
C26  24365226.509   126876121.582       -2556.511          45.000                                                                  
G03  22886762.105   120270745.998         -29.183          40.000    22886756.677    93717443.955         -22.513          39.000  
G16  22504306.450   118260937.150        3029.209          43.000                                                                  
C09  37720833.002   196422276.767        -155.870          44.000    37720818.340   151886106.293        -120.415          48.000  
C25  23688194.778   123350651.738        1600.293          44.000                                                                  
C13  38308412.681   199481951.538       -2250.134          43.000    38308406.951   154252077.632       -1740.095          44.000  
C08  39133070.793   203776155.258       -2452.128          38.000    39133059.179   157572587.787       -1896.302          44.000  
C10  40520122.230   210998905.910         930.014          36.000    40520123.360   163157805.406         719.417          39.000  
C35  25964402.084   135203476.667         448.152          38.000                                                                  
C07  39588847.705   206149518.705        1119.630          39.000    39588836.938   159407843.3032        865.573          41.000  
G25  24299415.311   127694284.351       -3910.023          36.000    24299409.371    99502014.642       -3046.616          37.000  
> 2025 10 30 06 18 02.8000000  0 22                     
G32  21949443.265   115345101.178       -2862.026          45.000    21949436.901    89879271.394       -2230.137          42.000  
G29  23058995.043   121175850.347        -501.603          42.000    23058986.252    94422705.185        -390.761          40.000  
G28  21223885.630   111532272.682       -1159.250          47.000    21223875.957    86908223.502        -903.480          47.000  
G26  20362108.895   107003603.141         759.644          49.000    20362101.601    83379412.071         591.937          46.000  
G31  20627473.236   108398099.671         190.509          49.000    20627462.327    84466010.601         148.541          46.000  
G04  24570456.430   129118601.385        3188.673          35.000    24570454.261   100611913.853        2484.424          38.000  
C33  22488051.836   117101183.727        -620.681          51.000                                                                  
C06  36569084.421   190424821.798        -166.122          46.000    36569067.699   147248480.447        -128.336          49.000  
C14  22616303.578   117769012.284       -2192.992          46.000    22616289.092    91066417.118       -1695.706          51.000  
C16  36996199.140   192648915.068        -198.191          49.000    36996187.407   148968313.889        -153.326          49.000  
C24  21821442.345   113629979.789        -830.696          50.000                                                                  
C26  24365246.136   126876223.846       -2556.541          45.000                                                                  
G03  22886762.317   120270747.166         -29.227          40.000    22886756.911    93717444.878         -22.943          39.000  
G16  22504283.403   118260815.981        3029.177          43.000                                                                  
C09  37720834.182   196422283.001        -155.847          44.000    37720819.563   151886111.118        -120.542          48.000  
C25  23688182.483   123350587.724        1600.330          44.000                                                                  
C13  38308429.961   199482041.550       -2250.259          43.000    38308424.236   154252147.241       -1740.214          44.000  
C08  39133089.619   203776253.362       -2452.346          38.000    39133078.010   157572663.646       -1896.425          44.000  
C10  40520115.053   210998868.668         930.705          36.000    40520116.213   163157776.614         719.706          39.000  
C35  25964398.640   135203458.725         448.357          38.000                                                                  
C07  39588839.093   206149473.904        1119.916          39.000    39588828.339   159407808.6742        865.533          41.000  
G25  24299445.069   127694440.751       -3910.035          36.000    24299439.162    99502136.549       -3047.297          37.000  
> 2025 10 30 06 18 02.8400000  0 22                     
G32  21949465.032   115345215.655       -2861.946          45.000    21949458.672    89879360.598       -2230.100          42.000  
G29  23058998.851   121175870.397        -501.369          42.000    23058990.072    94422720.824        -390.898          40.000  
G28  21223894.455   111532319.054       -1159.246          47.000    21223884.783    86908259.633        -903.368          47.000  
G26  20362103.097   107003572.757         759.631          49.000    20362095.813    83379388.398         591.837          46.000  
G31  20627471.784   108398092.045         190.614          49.000    20627460.862    84466004.666         148.393          46.000  
G04  24570432.156   129118473.880        3188.136          35.000    24570430.004   100611814.496        2484.121          38.000  
C33  22488056.630   117101208.555        -620.700          51.000                                                                  
C06  36569085.721   190424828.432        -165.934          46.000    36569069.019   147248485.585        -128.433          49.000  
C14  22616320.391   117769099.998       -2192.941          46.000    22616305.951    91066484.950       -1695.807          51.000  
C16  36996200.680   192648922.995        -198.166          49.000    36996188.934   148968320.018        -153.256          49.000  
C24  21821448.736   113630013.009        -830.597          50.000                                                                  
C26  24365265.759   126876326.107       -2556.543          45.000                                                                  
G03  22886762.543   120270748.339         -29.333          40.000    22886757.147    93717445.799         -23.103          39.000  
G16  22504260.332   118260694.794        3029.534          43.000                                                                  
C09  37720835.355   196422289.229        -155.714          44.000    37720820.789   151886115.936        -120.491          48.000  
C25  23688170.188   123350523.708        1600.415          44.000                                                                  
C13  38308447.261   199482131.566       -2250.376          43.000    38308441.525   154252216.836       -1740.039          44.000  
C08  39133108.434   203776351.477       -2452.712          38.000    39133096.843   157572739.505       -1896.485          44.000  
C10  40520107.905   210998831.434         930.939          36.000    40520109.064   163157747.839         719.498          39.000  
C35  25964395.216   135203440.786         448.451          38.000                                                                  
C07  39588830.458   206149429.116        1119.763          39.000    39588819.740   159407774.0512        865.462          41.000  
G25  24299474.828   127694597.158       -3910.116          36.000    24299468.919    99502258.427       -3047.241          37.000  
> 2025 10 30 06 18 02.8800000  0 22                     
G32  21949486.815   115345330.131       -2861.903          45.000    21949480.449    89879449.812       -2230.277          42.000  
G29  23059002.675   121175890.455        -501.397          42.000    23058993.884    94422736.431        -390.407          40.000  
G28  21223903.276   111532365.423       -1159.238          47.000    21223893.597    86908295.761        -903.238          47.000  
G26  20362097.305   107003542.365         759.774          49.000    20362090.020    83379364.715         591.987          46.000  
G31  20627470.334   108398084.418         190.693          49.000    20627459.419    84465998.731         148.338          46.000  
G04  24570407.888   129118346.329        3188.561          35.000    24570405.719   100611715.108        2484.458          38.000  
C33  22488061.431   117101233.379        -620.662          51.000                                                                  
C06  36569087.029   190424835.073        -165.951          46.000    36569070.308   147248490.712        -128.265          49.000  
C14  22616337.242   117769187.708       -2192.814          46.000    22616322.795    91066552.775       -1695.704          51.000  
C16  36996202.184   192648930.923        -198.161          49.000    36996190.422   148968326.143        -153.156          49.000  
C24  21821455.139   113630046.227        -830.495          50.000                                                                  
C26  24365285.382   126876428.370       -2556.564          45.000                                                                  
G03  22886762.755   120270749.517         -29.444          40.000    22886757.378    93717446.710         -22.979          39.000  
G16  22504237.269   118260573.619        3029.478          43.000                                                                  
C09  37720836.556   196422295.451        -155.598          44.000    37720822.009   151886120.752        -120.428          48.000  
C25  23688157.873   123350459.689        1600.464          44.000                                                                  
C13  38308464.541   199482221.578       -2250.394          43.000    38308458.807   154252286.434       -1739.971          44.000  
C08  39133127.255   203776449.561       -2452.288          38.000    39133115.684   157572815.362       -1896.473          44.000  
C10  40520100.758   210998794.228         930.455          36.000    40520101.905   163157719.055         719.516          39.000  
C35  25964391.762   135203422.830         448.770          38.000                                                                  
C07  39588821.867   206149384.327        1119.718          39.000    39588811.159   159407739.3902        866.154          41.000  
G25  24299504.607   127694753.556       -3909.957          36.000    24299498.670    99502380.251       -3046.135          37.000  
> 2025 10 30 06 18 02.9200000  0 22                     
G32  21949508.610   115345444.614       -2862.002          45.000    21949502.206    89879539.015       -2230.171          42.000  
G29  23059006.498   121175910.513        -501.468          42.000    23058997.688    94422752.066        -390.649          40.000  
G28  21223912.090   111532411.794       -1159.241          47.000    21223902.418    86908331.892        -903.249          47.000  
G26  20362091.530   107003511.974         759.797          49.000    20362084.230    83379341.035         591.999          46.000  
G31  20627468.886   108398076.794         190.649          49.000    20627457.955    84465992.787         148.492          46.000  
G04  24570383.614   129118218.771        3188.906          35.000    24570381.456   100611615.711        2484.806          38.000  
C33  22488066.188   117101258.202        -620.605          51.000                                                                  
C06  36569088.325   190424841.697        -165.720          46.000    36569071.566   147248495.835        -128.120          49.000  
C14  22616354.093   117769275.422       -2192.842          46.000    22616339.621    91066620.598       -1695.629          51.000  
C16  36996203.725   192648938.846        -198.098          49.000    36996191.935   148968332.270        -153.153          49.000  
C24  21821461.549   113630079.444        -830.433          50.000                                                                  
C26  24365305.031   126876530.637       -2556.643          45.000                                                                  
G03  22886762.946   120270750.679         -29.190          40.000    22886757.601    93717447.604         -22.589          39.000  
G16  22504214.217   118260452.454        3029.254          43.000                                                                  
C09  37720837.759   196422301.678        -155.620          44.000    37720823.211   151886125.568        -120.429          48.000  
C25  23688145.554   123350395.674        1600.403          44.000                                                                  
C13  38308481.842   199482311.574       -2250.076          43.000    38308476.121   154252356.025       -1739.829          44.000  
C08  39133146.099   203776547.639       -2452.049          38.000    39133134.526   157572891.199       -1896.122          44.000  
C10  40520093.609   210998757.003         930.573          36.000    40520094.767   163157690.272         719.562          39.000  
C35  25964388.300   135203404.876         448.865          38.000                                                                  
C07  39588813.267   206149339.516        1120.085          39.000    39588802.550   159407704.7382        866.321          41.000  
G25  24299534.351   127694909.953       -3909.904          36.000    24299528.426    99502502.125       -3046.444          37.000  
> 2025 10 30 06 18 02.9600000  0 22                     
G32  21949530.385   115345559.097       -2862.068          45.000    21949523.989    89879628.218       -2230.114          42.000  
G29  23059010.331   121175930.574        -501.556          42.000    23059001.508    94422767.709        -390.912          40.000  
G28  21223920.891   111532458.164       -1159.256          47.000    21223911.262    86908368.021        -903.220          47.000  
G26  20362085.758   107003481.589         759.666          49.000    20362078.446    83379317.359         591.911          46.000  
G31  20627467.446   108398069.174         190.513          49.000    20627456.494    84465986.844         148.554          46.000  
G04  24570359.298   129118091.230        3188.624          35.000    24570357.184   100611516.344        2484.415          38.000  
C33  22488070.927   117101283.029        -620.644          51.000                                                                  
C06  36569089.606   190424848.325        -165.676          46.000    36569072.845   147248500.966        -128.214          49.000  
C14  22616370.923   117769363.139       -2192.906          46.000    22616356.458    91066688.423       -1695.631          51.000  
C16  36996205.254   192648946.771        -198.101          49.000    36996193.451   148968338.400        -153.206          49.000  
C24  21821467.900   113630112.668        -830.534          50.000                                                                  
C26  24365324.696   126876632.881       -2556.300          45.000                                                                  
G03  22886763.168   120270751.848         -29.198          40.000    22886757.829    93717448.525         -22.920          40.000  
G16  22504191.140   118260331.277        3029.351          43.000                                                                  
C09  37720838.955   196422307.904        -155.614          44.000    37720824.400   151886130.386        -120.455          48.000  
C25  23688133.243   123350331.666        1600.232          44.000                                                                  
C13  38308499.112   199482401.569       -2249.904          43.000    38308493.392   154252425.622       -1739.848          44.000  
C08  39133164.928   203776645.723       -2452.028          38.000    39133153.361   157572967.049       -1896.166          44.000  
C10  40520086.462   210998719.784         930.448          36.000    40520087.625   163157661.505         719.255          39.000  
C35  25964384.867   135203386.954         448.271          38.000                                                                  
C07  39588804.672   206149294.714        1120.032          39.000    39588793.955   159407670.1012        866.106          41.000  
G25  24299564.117   127695066.348       -3909.897          36.000    24299558.171    99502623.976       -3046.338          37.000  
> 2025 10 30 06 18 03.0000000  0 22                     
G32  21949552.184   115345673.590       -2862.313          45.000    21949545.782    89879717.433       -2230.358          42.000  
G29  23059014.120   121175950.634        -501.605          42.000    23059005.327    94422783.350        -391.062          40.000  
G28  21223929.722   111532504.537       -1159.294          47.000    21223920.103    86908404.164        -903.462          47.000  
G26  20362079.998   107003451.212         759.461          49.000    20362072.659    83379293.680         591.917          46.000  
G31  20627466.003   108398061.553         190.496          49.000    20627455.062    84465980.906         148.473          46.000  
G04  24570335.019   129117963.702        3188.246          35.000    24570332.911   100611416.967        2484.353          38.000  
C33  22488075.682   117101307.862        -620.777          51.000                                                                  
C06  36569090.887   190424854.965        -165.894          46.000    36569074.130   147248506.099        -128.314          49.000  
C14  22616387.758   117769450.862       -2193.044          46.000    22616373.293    91066756.257       -1695.776          51.000  
C16  36996206.804   192648954.692        -198.051          49.000    36996194.968   148968344.528        -153.227          49.000  
C24  21821474.277   113630145.893        -830.619          50.000                                                                  
C26  24365344.332   126876735.142       -2556.415          45.000                                                                  
G03  22886763.379   120270753.014         -29.181          40.000    22886758.068    93717449.438         -22.950          40.000  
G16  22504168.099   118260210.110        3029.211          43.000                                                                  
C09  37720840.139   196422314.138        -155.747          44.000    37720825.585   151886135.203        -120.482          48.000  
C25  23688120.964   123350267.653        1600.256          44.000                                                                  
C13  38308516.382   199482491.575       -2250.024          43.000    38308510.684   154252495.224       -1739.961          44.000  
C08  39133183.738   203776743.830       -2452.470          38.000    39133172.194   157573042.905       -1896.323          44.000  
C10  40520079.316   210998682.563         930.292          36.000    40520080.482   163157632.729         719.292          39.000  
C35  25964381.426   135203369.028         448.120          38.000                                                                  
C07  39588796.076   206149249.930        1119.724          39.000    39588785.377   159407635.4662        865.907          41.000  
G25  24299593.879   127695222.739       -3909.772          36.000    24299587.934    99502745.866       -3046.921          37.000  
> 2025 10 30 06 18 03.0400000  0 22                     
G32  21949573.953   115345788.076       -2862.301          45.000    21949567.566    89879806.642       -2230.320          42.000  
G29  23059017.965   121175970.704        -501.761          42.000    23059009.147    94422798.985        -390.969          40.000  
G28  21223938.573   111532550.915       -1159.434          47.000    21223928.933    86908440.303        -903.536          47.000  
G26  20362074.227   107003420.827         759.506          49.000    20362066.887    83379270.009         591.774          46.000  
G31  20627464.557   108398053.933         190.477          49.000    20627453.640    84465974.971         148.375          46.000  
G04  24570310.747   129117836.165        3188.229          35.000    24570308.632   100611317.585        2484.443          38.000  
C33  22488080.452   117101332.694        -620.852          51.000                                                                  
C06  36569092.142   190424861.604        -166.011          46.000    36569075.371   147248511.233        -128.390          49.000  
C14  22616404.592   117769538.579       -2192.996          46.000    22616390.143    91066824.087       -1695.800          51.000  
C16  36996208.354   192648962.619        -198.131          49.000    36996196.466   148968350.658        -153.279          49.000  
C24  21821480.665   113630179.117        -830.656          50.000                                                                  
C26  24365363.962   126876837.409       -2556.614          45.000                                                                  
G03  22886763.600   120270754.179         -29.150          40.000    22886758.275    93717450.342         -22.747          40.000  
G16  22504145.033   118260088.941        3029.161          43.000                                                                  
C09  37720841.325   196422320.371        -155.816          44.000    37720826.788   151886140.018        -120.437          48.000  
C25  23688108.662   123350203.635        1600.372          44.000                                                                  
C13  38308533.658   199482581.578       -2250.100          43.000    38308527.969   154252564.827       -1740.048          44.000  
C08  39133202.587   203776841.951       -2452.937          38.000    39133191.079   157573118.766       -1896.499          44.000  
C10  40520072.163   210998645.350         930.296          36.000    40520073.323   163157603.955         719.281          39.000  
C35  25964377.965   135203351.097         448.131          38.000                                                                  
C07  39588787.468   206149205.133        1119.826          39.000    39588776.771   159407600.8342        865.762          41.000  
G25  24299623.645   127695379.119       -3909.520          36.000    24299617.690    99502867.741       -3047.031          37.000  
> 2025 10 30 06 18 03.0800000  0 22                     
G32  21949595.710   115345902.556       -2862.149          45.000    21949589.354    89879895.843       -2230.135          42.000  
G29  23059021.791   121175990.768        -501.727          42.000    23059012.970    94422814.611        -390.795          40.000  
G28  21223947.398   111532597.285       -1159.379          47.000    21223937.750    86908476.438        -903.475          47.000  
G26  20362068.431   107003390.443         759.538          49.000    20362061.094    83379246.333         591.800          46.000  
G31  20627463.086   108398046.311         190.509          49.000    20627452.205    84465969.037         148.307          46.000  
G04  24570286.428   129117708.615        3188.544          35.000    24570284.360   100611218.208        2484.347          38.000  
C33  22488085.251   117101357.525        -620.850          51.000                                                                  
C06  36569093.412   190424868.241        -166.046          46.000    36569076.606   147248516.363        -128.318          49.000  
C14  22616421.424   117769626.304       -2193.110          46.000    22616406.985    91066891.916       -1695.786          51.000  
C16  36996209.857   192648970.545        -198.182          49.000    36996197.971   148968356.790        -153.350          49.000  
C24  21821487.053   113630212.341        -830.640          50.000                                                                  
C26  24365383.613   126876939.669       -2556.555          45.000                                                                  
G03  22886763.831   120270755.348         -29.201          40.000    22886758.503    93717451.262         -22.975          40.000  
G16  22504121.978   118259967.763        3029.341          43.000                                                                  
C09  37720842.550   196422326.604        -155.859          44.000    37720827.976   151886144.838        -120.487          48.000  
C25  23688096.371   123350139.624        1600.317          44.000                                                                  
C13  38308550.953   199482671.596       -2250.379          43.000    38308545.283   154252634.425       -1740.036          44.000  
C08  39133221.419   203776940.046       -2452.727          38.000    39133209.919   157573194.625       -1896.533          44.000  
C10  40520065.017   210998608.149         930.058          36.000    40520066.209   163157575.164         719.593          39.000  
C35  25964374.521   135203333.159         448.348          38.000                                                                  
C07  39588778.857   206149160.351        1119.618          39.000    39588768.184   159407566.2052        865.630          41.000  
G25  24299653.385   127695535.518       -3909.806          36.000    24299647.464    99502989.608       -3046.867          37.000  
> 2025 10 30 06 18 03.1200000  0 22                     
G32  21949617.483   115346017.030       -2861.934          45.000    21949611.157    89879985.048       -2230.119          42.000  
G29  23059025.606   121176010.832        -501.675          42.000    23059016.768    94422830.231        -390.556          40.000  
G28  21223956.217   111532643.650       -1159.238          47.000    21223946.559    86908512.574        -903.439          47.000  
G26  20362062.657   107003360.059         759.563          49.000    20362055.319    83379222.661         591.757          46.000  
G31  20627461.622   108398038.689         190.533          49.000    20627450.753    84465963.094         148.456          46.000  
G04  24570262.139   129117581.098        3188.120          35.000    24570260.097   100611118.824        2484.420          38.000  
C33  22488090.024   117101382.356        -620.842          51.000                                                                  
C06  36569094.683   190424874.876        -165.974          46.000    36569077.877   147248521.494        -128.292          49.000  
C14  22616438.271   117769714.022       -2193.045          46.000    22616423.844    91066959.745       -1695.786          51.000  
C16  36996211.385   192648978.472        -198.206          49.000    36996199.518   148968362.918        -153.274          49.000  
C24  21821493.425   113630245.564        -830.620          50.000                                                                  
C26  24365403.290   126877041.930       -2556.560          45.000                                                                  
G03  22886764.081   120270756.531         -29.528          40.000    22886758.729    93717452.186         -23.163          40.000  
G16  22504098.920   118259846.595        3029.245          43.000                                                                  
C09  37720843.760   196422332.837        -155.877          44.000    37720829.149   151886149.654        -120.448          48.000  
C25  23688084.054   123350075.615        1600.256          44.000                                                                  
C13  38308568.246   199482761.608       -2250.364          43.000    38308562.572   154252704.012       -1739.811          44.000  
C08  39133240.267   203777038.133       -2452.416          38.000    39133228.764   157573270.481       -1896.501          44.000  
C10  40520057.849   210998570.923         930.438          36.000    40520059.071   163157546.380         719.647          39.000  
C35  25964371.058   135203315.216         448.458          38.000                                                                  
C07  39588770.249   206149115.565        1119.543          39.000    39588759.572   159407531.5642        865.829          41.000  
G25  24299683.148   127695691.927       -3910.088          36.000    24299677.245    99503111.485       -3046.958          37.000  
> 2025 10 30 06 18 03.1600000  0 22                     
G32  21949639.285   115346131.517       -2862.055          45.000    21949632.939    89880074.258       -2230.199          42.000  
G29  23059029.431   121176030.891        -501.549          42.000    23059020.581    94422845.874        -390.880          40.000  
G28  21223965.049   111532690.022       -1159.281          47.000    21223955.384    86908548.706        -903.374          47.000  
G26  20362056.853   107003329.674         759.594          49.000    20362049.537    83379198.987         591.764          46.000  
G31  20627460.167   108398031.068         190.502          49.000    20627449.288    84465957.155         148.468          46.000  
G04  24570237.866   129117453.577        3187.878          35.000    24570235.809   100611019.451        2484.309          38.000  
C33  22488094.848   117101407.184        -620.758          51.000                                                                  
C06  36569095.972   190424881.505        -165.793          46.000    36569079.135   147248526.623        -128.246          49.000  
C14  22616455.143   117769801.733       -2192.873          46.000    22616440.677    91067027.579       -1695.836          51.000  
C16  36996212.949   192648986.395        -198.133          49.000    36996201.053   148968369.039        -153.093          49.000  
C24  21821499.808   113630278.786        -830.586          50.000                                                                  
C26  24365422.949   126877144.180       -2556.328          45.000                                                                  
G03  22886764.303   120270757.706         -29.486          40.000    22886758.968    93717453.102         -23.038          40.000  
G16  22504075.847   118259725.417        3029.359          43.000                                                                  
C09  37720844.982   196422339.059        -155.667          44.000    37720830.324   151886154.468        -120.391          48.000  
C25  23688071.736   123350011.604        1600.275          44.000                                                                  
C13  38308585.531   199482851.605       -2250.089          43.000    38308579.860   154252773.613       -1739.917          44.000  
C08  39133259.109   203777136.221       -2452.308          38.000    39133247.606   157573346.322       -1896.208          44.000  
C10  40520050.681   210998533.665         931.161          36.000    40520051.913   163157517.570         720.146          39.000  
C35  25964367.588   135203297.264         448.784          38.000                                                                  
C07  39588761.660   206149070.779        1119.520          39.000    39588750.992   159407496.9302        865.821          41.000  
G25  24299712.921   127695848.322       -3909.964          36.000    24299707.002    99503233.346       -3046.661          37.000  
> 2025 10 30 06 18 03.2000000  0 22                     
G32  21949661.066   115346246.006       -2862.185          45.000    21949654.727    89880163.479       -2230.477          42.000  
G29  23059033.236   121176050.959        -501.632          42.000    23059024.409    94422861.515        -391.055          40.000  
G28  21223973.874   111532736.406       -1159.501          47.000    21223964.205    86908584.837        -903.312          47.000  
G26  20362051.064   107003299.295         759.482          49.000    20362043.763    83379175.310         591.857          46.000  
G31  20627458.720   108398023.451         190.409          49.000    20627447.844    84465951.216         148.449          46.000  
G04  24570213.597   129117326.018        3188.559          35.000    24570211.540   100610920.066        2484.414          38.000  
C33  22488099.638   117101432.014        -620.765          51.000                                                                  
C06  36569097.255   190424888.137        -165.757          46.000    36569080.415   147248531.755        -128.281          49.000  
C14  22616471.955   117769889.457       -2193.009          46.000    22616457.517    91067095.409       -1695.816          51.000  
C16  36996214.483   192648994.318        -198.123          49.000    36996202.604   148968375.163        -153.065          49.000  
C24  21821506.183   113630312.008        -830.588          50.000                                                                  
C26  24365442.582   126877246.442       -2556.482          45.000                                                                  
G03  22886764.519   120270758.881         -29.472          40.000    22886759.180    93717454.000         -22.656          40.000  
G16  22504052.799   118259604.242        3029.363          43.000                                                                  
C09  37720846.188   196422345.292        -155.778          44.000    37720831.516   151886159.287        -120.443          48.000  
C25  23688059.438   123349947.585        1600.397          44.000                                                                  
C13  38308602.802   199482941.616       -2250.203          43.000    38308597.139   154252843.219       -1740.060          44.000  
C08  39133277.944   203777234.317       -2452.378          38.000    39133266.459   157573422.173       -1896.230          44.000  
C10  40520043.543   210998496.457         930.610          36.000    40520044.776   163157488.789         719.792          39.000  
C35  25964364.132   135203279.338         448.435          38.000                                                                  
C07  39588753.071   206149025.980        1119.738          39.000    39588742.392   159407462.2862        865.977          41.000  
G25  24299742.678   127696004.720       -3909.962          36.000    24299736.757    99503355.192       -3046.282          37.000  
> 2025 10 30 06 18 03.2400000  0 22                     
G32  21949682.869   115346360.509       -2862.520          45.000    21949676.508    89880252.692       -2230.458          42.000  
G29  23059037.049   121176071.029        -501.770          42.000    23059028.222    94422877.165        -391.214          40.000  
G28  21223982.708   111532782.789       -1159.648          47.000    21223973.058    86908620.981        -903.506          47.000  
G26  20362045.291   107003268.921         759.358          49.000    20362037.976    83379151.642         591.746          46.000  
G31  20627457.287   108398015.839         190.287          49.000    20627446.406    84465945.282         148.356          46.000  
G04  24570189.336   129117198.495        3188.287          35.000    24570187.274   100610820.682        2484.501          38.000  
C33  22488104.375   117101456.857        -621.000          51.000                                                                  
C06  36569098.510   190424894.775        -165.868          46.000    36569081.686   147248536.889        -128.369          49.000  
C14  22616488.818   117769977.192       -2193.293          46.000    22616474.367    91067163.245       -1695.905          51.000  
C16  36996215.974   192649002.252        -198.291          49.000    36996204.129   148968381.295        -153.217          49.000  
C24  21821512.547   113630345.240        -830.745          50.000                                                                  
C26  24365462.234   126877348.719       -2556.824          45.000                                                                  
G03  22886764.735   120270760.062         -29.508          40.000    22886759.394    93717454.912         -22.748          40.000  
G16  22504029.746   118259483.084        3029.039          43.000                                                                  
C09  37720847.391   196422351.517        -155.656          44.000    37720832.718   151886164.108        -120.505          48.000  
C25  23688047.136   123349883.577        1600.250          44.000                                                                  
C13  38308620.078   199483031.621       -2250.191          42.000    38308614.456   154252912.825       -1740.185          44.000  
C08  39133296.779   203777332.419       -2452.482          38.000    39133285.315   157573498.046       -1896.710          44.000  
C10  40520036.398   210998459.258         930.098          36.000    40520037.653   163157460.034         719.095          39.000  
C35  25964360.692   135203261.400         448.423          38.000                                                                  
C07  39588744.474   206148981.160        1120.214          39.000    39588733.786   159407427.6482        865.961          41.000  
G25  24299772.431   127696161.115       -3909.897          36.000    24299766.506    99503477.044       -3046.196          37.000  
> 2025 10 30 06 18 03.2800000  0 22                     
G32  21949704.658   115346475.009       -2862.594          45.000    21949698.300    89880341.904       -2230.429          42.000  
G29  23059040.869   121176091.105        -501.900          42.000    23059032.034    94422892.801        -391.074          40.000  
G28  21223991.527   111532829.170       -1159.645          46.000    21223981.898    86908657.126        -903.626          47.000  
G26  20362039.517   107003238.549         759.247          49.000    20362032.219    83379127.974         591.684          46.000  
G31  20627455.839   108398008.223         190.281          49.000    20627444.958    84465939.351         148.234          46.000  
G04  24570165.076   129117070.984        3187.922          35.000    24570163.001   100610721.322        2484.104          38.000  
C33  22488109.115   117101481.702        -621.149          51.000                                                                  
C06  36569099.787   190424901.428        -166.201          46.000    36569082.978   147248542.029        -128.490          49.000  
C14  22616505.663   117770064.926       -2193.422          46.000    22616491.187    91067231.085       -1696.044          51.000  
C16  36996217.462   192649010.188        -198.430          49.000    36996205.707   148968387.433        -153.421          49.000  
C24  21821518.928   113630378.474        -830.872          50.000                                                                  
C26  24365481.890   126877450.982       -2556.755          45.000                                                                  
G03  22886764.949   120270761.238         -29.463          40.000    22886759.627    93717455.843         -23.202          40.000  
G16  22504006.705   118259361.934        3028.719          43.000                                                                  
C09  37720848.561   196422357.748        -155.720          44.000    37720833.902   151886168.935        -120.651          48.000  
C25  23688034.852   123349819.583        1599.915          44.000                                                                  
C13  38308637.379   199483121.638       -2250.403          42.000    38308631.745   154252982.430       -1740.201          44.000  
C08  39133315.623   203777430.530       -2452.740          38.000    39133304.178   157573573.905       -1896.648          44.000  
C10  40520029.245   210998422.059         929.832          35.000    40520030.522   163157431.282         718.739          39.000  
C35  25964357.265   135203243.493         447.813          38.000                                                                  
C07  39588735.863   206148936.369        1119.982          39.000    39588725.183   159407393.0142        865.840          41.000  
G25  24299802.181   127696317.505       -3909.752          36.000    24299796.272    99503598.914       -3046.488          37.000  
> 2025 10 30 06 18 03.3200000  0 22                     
G32  21949726.443   115346589.496       -2862.374          45.000    21949720.105    89880431.124       -2230.517          42.000  
G29  23059044.717   121176111.186        -502.048          42.000    23059035.849    94422908.437        -390.973          40.000  
G28  21224000.366   111532875.547       -1159.531          46.000    21223990.718    86908693.264        -903.568          47.000  
G26  20362033.746   107003208.177         759.212          49.000    20362026.446    83379104.312         591.561          46.000  
G31  20627454.394   108398000.611         190.226          49.000    20627443.525    84465933.420         148.234          46.000  
G04  24570140.797   129116943.473        3187.771          35.000    24570138.743   100610621.967        2483.833          38.000  
C33  22488113.916   117101506.547        -621.208          51.000                                                                  
C06  36569101.058   190424908.071        -166.191          46.000    36569084.271   147248547.169        -128.557          49.000  
C14  22616522.539   117770152.656       -2193.386          46.000    22616508.043    91067298.931       -1696.199          51.000  
C16  36996218.983   192649018.121        -198.424          49.000    36996207.232   148968393.571        -153.481          49.000  
C24  21821525.278   113630411.715        -831.061          50.000                                                                  
C26  24365501.538   126877553.253       -2556.808          45.000                                                                  
G03  22886765.160   120270762.425         -29.633          40.000    22886759.864    93717456.775         -23.359          40.000  
G16  22503983.668   118259240.784        3028.600          43.000                                                                  
C09  37720849.737   196422363.997        -156.068          44.000    37720835.146   151886173.761        -120.745          48.000  
C25  23688022.576   123349755.576        1600.006          44.000                                                                  
C13  38308654.687   199483211.648       -2250.345          42.000    38308649.035   154253052.026       -1740.001          44.000  
C08  39133334.464   203777528.645       -2453.010          38.000    39133323.024   157573649.755       -1896.429          44.000  
C10  40520022.094   210998384.854         929.860          35.000    40520023.367   163157402.499         719.227          39.000  
C35  25964353.834   135203225.570         447.813          38.000                                                                  
C07  39588727.262   206148891.597        1119.465          39.000    39588716.586   159407358.3772        865.855          41.000  
G25  24299831.956   127696473.925       -3910.304          36.000    24299826.053    99503720.822       -3047.256          37.000  
> 2025 10 30 06 18 03.3600000  0 22                     
G32  21949748.242   115346703.992       -2862.406          45.000    21949741.897    89880520.336       -2230.432          42.000  
G29  23059048.540   121176131.254        -501.856          42.000    23059039.681    94422924.080        -391.036          40.000  
G28  21224009.173   111532921.914       -1159.249          46.000    21223999.534    86908729.405        -903.531          47.000  
G26  20362027.978   107003177.809         759.189          49.000    20362020.673    83379080.642         591.656          46.000  
G31  20627452.937   108397992.993         190.350          49.000    20627442.068    84465927.489         148.216          46.000  
G04  24570116.559   129116815.911        3188.627          35.000    24570114.476   100610522.592        2484.083          38.000  
C33  22488118.690   117101531.389        -621.167          51.000                                                                  
C06  36569102.343   190424914.712        -166.121          46.000    36569085.556   147248552.302        -128.447          49.000  
C14  22616539.392   117770240.377       -2193.175          46.000    22616524.881    91067366.768       -1696.093          51.000  
C16  36996220.476   192649026.042        -198.169          49.000    36996208.753   148968399.698        -153.308          49.000  
C24  21821531.678   113630444.938        -830.806          50.000                                                                  
C26  24365521.192   126877655.519       -2556.709          45.000                                                                  
G03  22886765.405   120270763.623         -29.920          40.000    22886760.102    93717457.708         -23.449          40.000  
G16  22503960.591   118259119.612        3029.008          43.000                                                                  
C09  37720850.950   196422370.230        -155.962          44.000    37720836.349   151886178.589        -120.773          48.000  
C25  23688010.299   123349691.569        1600.092          44.000                                                                  
C13  38308671.964   199483301.668       -2250.494          42.000    38308666.338   154253121.626       -1739.977          44.000  
C08  39133353.311   203777626.736       -2452.672          38.000    39133341.877   157573725.612       -1896.452          44.000  
C10  40520014.971   210998347.653         929.859          36.000    40520016.202   163157373.691         719.995          39.000  
C35  25964350.391   135203207.657         447.660          38.000                                                                  
C07  39588718.665   206148846.814        1119.433          39.000    39588708.013   159407323.2501        865.729          41.000  
G25  24299861.721   127696630.323       -3910.165          36.000    24299855.846    99503842.698       -3047.215          37.000  
> 2025 10 30 06 18 03.4000000  0 22                     
G32  21949770.033   115346818.481       -2862.316          45.000    21949763.684    89880609.557       -2230.474          42.000  
G29  23059052.367   121176151.339        -502.090          42.000    23059043.484    94422939.729        -391.186          40.000  
G28  21224017.992   111532968.301       -1159.471          46.000    21224008.339    86908765.538        -903.432          47.000  
G26  20362022.203   107003147.435         759.258          49.000    20362014.910    83379056.977         591.606          46.000  
G31  20627451.497   108397985.386         190.208          49.000    20627440.625    84465921.559         148.198          46.000  
G04  24570092.294   129116688.372        3188.632          35.000    24570090.181   100610423.200        2484.531          38.000  
C33  22488123.441   117101556.227        -621.064          51.000                                                                  
C06  36569103.597   190424921.349        -166.035          46.000    36569086.844   147248557.435        -128.387          49.000  
C14  22616556.218   117770328.115       -2193.373          46.000    22616541.742    91067434.605       -1696.016          51.000  
C16  36996221.958   192649033.968        -198.162          49.000    36996210.238   148968405.828        -153.298          49.000  
C24  21821538.133   113630478.167        -830.768          50.000                                                                  
C26  24365540.834   126877757.771       -2556.427          45.000                                                                  
G03  22886765.625   120270764.811         -29.852          40.000    22886760.322    93717458.638         -23.388          40.000  
G16  22503937.527   118258998.444        3029.169          43.000                                                                  
C09  37720852.139   196422376.470        -156.044          44.000    37720837.528   151886183.407        -120.626          48.000  
C25  23687998.026   123349627.558        1600.226          44.000                                                                  
C13  38308689.246   199483391.686       -2250.542          42.000    38308683.623   154253191.234       -1740.114          44.000  
C08  39133372.142   203777724.840       -2452.707          38.000    39133360.686   157573801.471       -1896.499          44.000  
C10  40520007.817   210998310.426         930.369          36.000    40520009.066   163157344.919         719.639          39.000  
C35  25964346.959   135203189.724         448.010          38.000                                                                  
C07  39588710.047   206148802.038        1119.339          39.000    39588699.424   159407288.622         865.675          41.000  
G25  24299891.487   127696786.745       -3910.454          36.000    24299885.620    99503964.576       -3047.166          37.000  
> 2025 10 30 06 18 03.4400000  0 22                     
G32  21949791.828   115346932.980       -2862.420          45.000    21949785.458    89880698.778       -2230.538          42.000  
G29  23059056.178   121176171.415        -502.037          42.000    23059047.290    94422955.376        -391.261          40.000  
G28  21224026.828   111533014.692       -1159.696          46.000    21224017.187    86908801.686        -903.645          47.000  
G26  20362016.442   107003117.067         759.189          49.000    20362009.122    83379033.315         591.525          46.000  
G31  20627450.067   108397977.775         190.227          49.000    20627439.186    84465915.630         148.186          46.000  
G04  24570068.043   129116560.847        3188.363          35.000    24570065.892   100610323.819        2484.586          38.000  
C33  22488128.197   117101581.075        -621.173          50.000                                                                  
C06  36569104.880   190424927.992        -166.069          46.000    36569088.124   147248562.567        -128.323          49.000  
C14  22616573.080   117770415.852       -2193.466          46.000    22616558.614    91067502.448       -1696.061          51.000  
C16  36996223.445   192649041.900        -198.282          49.000    36996211.751   148968411.964        -153.396          49.000  
C24  21821544.475   113630511.403        -830.867          50.000                                                                  
C26  24365560.482   126877860.053       -2556.802          45.000                                                                  
G03  22886765.847   120270765.999         -29.781          40.000    22886760.517    93717459.555         -23.033          40.000  
G16  22503914.481   118258877.287        3028.993          43.000                                                                  
C09  37720853.352   196422382.705        -155.966          44.000    37720838.740   151886188.231        -120.607          48.000  
C25  23687985.713   123349563.562        1599.963          44.000                                                                  
C13  38308706.518   199483481.699       -2250.441          42.000    38308700.874   154253260.833       -1740.064          44.000  
C08  39133391.000   203777822.937       -2452.520          38.000    39133379.549   157573877.335       -1896.599          44.000  
C10  40520000.658   210998273.204         930.514          36.000    40520001.921   163157316.155         719.275          39.000  
C35  25964343.504   135203171.783         448.361          38.000                                                                  
C07  39588701.425   206148757.241        1119.672          39.000    39588690.821   159407253.992         865.699          41.000  
G25  24299921.243   127696943.140       -3910.199          36.000    24299915.382    99504086.436       -3046.720          37.000  
> 2025 10 30 06 18 03.4800000  0 22                     
G32  21949813.614   115347047.483       -2862.521          45.000    21949807.259    89880788.004       -2230.644          42.000  
G29  23059060.024   121176191.501        -502.181          42.000    23059051.114    94422971.027        -391.354          40.000  
G28  21224035.655   111533061.083       -1159.807          46.000    21224026.027    86908837.839        -903.846          47.000  
G26  20362010.671   107003086.698         759.184          49.000    20362003.344    83379009.658         591.414          46.000  
G31  20627448.608   108397970.165         190.190          49.000    20627437.776    84465909.700         148.205          46.000  
G04  24570043.743   129116433.307        3188.450          35.000    24570041.632   100610224.465        2484.082          38.000  
C33  22488132.973   117101605.923        -621.254          50.000                                                                  
C06  36569106.143   190424934.638        -166.135          46.000    36569089.388   147248567.709        -128.499          49.000  
C14  22616589.919   117770503.594       -2193.597          46.000    22616575.454    91067570.295       -1696.188          51.000  
C16  36996224.972   192649049.836        -198.409          49.000    36996213.266   148968418.103        -153.471          49.000  
C24  21821550.841   113630544.641        -830.965          50.000                                                                  
C26  24365580.119   126877962.319       -2556.732          45.000                                                                  
G03  22886766.081   120270767.185         -29.758          40.000    22886760.732    93717460.478         -23.018          40.000  
G16  22503891.404   118258756.131        3028.886          43.000                                                                  
C09  37720854.554   196422388.941        -155.927          44.000    37720839.942   151886193.053        -120.582          48.000  
C25  23687973.441   123349499.569        1599.786          44.000                                                                  
C13  38308723.824   199483571.711       -2250.360          42.000    38308718.161   154253330.455       -1740.450          44.000  
C08  39133409.822   203777921.048       -2452.735          38.000    39133398.375   157573953.197       -1896.584          44.000  
C10  40519993.498   210998235.965         930.883          36.000    40519994.778   163157287.390         719.030          39.000  
C35  25964340.083   135203153.858         448.288          38.000                                                                  
C07  39588692.830   206148712.468        1119.418          39.000    39588682.226   159407219.349         865.960          41.000  
G25  24299950.969   127697099.549       -3910.222          36.000    24299945.125    99504208.300       -3046.587          37.000  
> 2025 10 30 06 18 03.5200000  0 22                     
G32  21949835.402   115347161.992       -2862.720          45.000    21949829.041    89880877.228       -2230.641          42.000  
G29  23059063.839   121176211.580        -502.097          42.000    23059054.944    94422986.687        -391.539          40.000  
G28  21224044.468   111533107.471       -1159.793          46.000    21224034.865    86908873.989        -903.863          47.000  
G26  20362004.919   107003056.345         758.898          49.000    20361997.568    83378985.998         591.403          46.000  
G31  20627447.166   108397962.564         190.012          49.000    20627436.339    84465903.778         148.063          46.000  
G04  24570019.483   129116305.781        3188.220          35.000    24570017.367   100610125.095        2484.114          38.000  
C33  22488137.726   117101630.784        -621.493          50.000                                                                  
C06  36569107.436   190424941.287        -166.273          46.000    36569090.668   147248572.846        -128.481          49.000  
C14  22616606.752   117770591.331       -2193.535          46.000    22616592.303    91067638.140       -1696.192          51.000  
C16  36996226.526   192649057.778        -198.560          49.000    36996214.794   148968424.244        -153.578          49.000  
C24  21821557.235   113630577.884        -831.097          50.000                                                                  
C26  24365599.759   126878064.592       -2556.837          45.000                                                                  
G03  22886766.302   120270768.395         -30.147          40.000    22886760.940    93717461.413         -23.286          40.000  
G16  22503868.371   118258634.987        3028.609          43.000                                                                  
C09  37720855.757   196422395.184        -156.055          44.000    37720841.128   151886197.875        -120.577          48.000  
C25  23687961.153   123349435.573        1599.805          44.000                                                                  
C13  38308741.119   199483661.731       -2250.466          42.000    38308735.453   154253400.060       -1740.349          44.000  
C08  39133428.690   203778019.141       -2452.506          38.000    39133417.220   157574029.063       -1896.662          44.000  
C10  40519986.340   210998198.766         930.278          36.000    40519987.643   163157258.624         719.012          39.000  
C35  25964336.629   135203135.941         448.054          38.000                                                                  
C07  39588684.232   206148667.684        1119.496          39.000    39588673.636   159407184.720         865.824          41.000  
G25  24299980.697   127697255.965       -3910.367          36.000    24299974.910    99504330.191       -3047.031          37.000  
> 2025 10 30 06 18 03.5600000  0 22                     
G32  21949857.190   115347276.505       -2862.895          45.000    21949850.808    89880966.441       -2230.452          42.000  
G29  23059067.665   121176231.676        -502.380          42.000    23059058.767    94423002.357        -391.761          40.000  
G28  21224053.302   111533153.861       -1159.831          46.000    21224043.696    86908910.140        -903.854          47.000  
G26  20361999.151   107003025.990         758.763          49.000    20361991.803    83378962.345         591.316          46.000  
G31  20627445.721   108397954.966         189.902          49.000    20627434.905    84465897.856         147.977          46.000  
G04  24569995.238   129116178.306        3187.200          35.000    24569993.110   100610025.732        2484.086          38.000  
C33  22488142.511   117101655.641        -621.533          50.000                                                                  
C06  36569108.756   190424947.939        -166.324          46.000    36569091.941   147248577.993        -128.657          49.000  
C14  22616623.593   117770679.071       -2193.553          46.000    22616609.160    91067705.990       -1696.285          51.000  
C16  36996228.073   192649065.724        -198.715          49.000    36996216.304   148968430.381        -153.516          49.000  
C24  21821563.610   113630611.129        -831.162          50.000                                                                  
C26  24365619.388   126878166.880       -2557.163          45.000                                                                  
G03  22886766.535   120270769.600         -30.236          40.000    22886761.174    93717462.352         -23.491          40.000  
G16  22503845.333   118258513.840        3028.571          43.000                                                                  
C09  37720856.959   196422401.429        -156.154          44.000    37720842.307   151886202.705        -120.729          48.000  
C25  23687948.862   123349371.578        1599.750          44.000                                                                  
C13  38308758.426   199483751.759       -2250.703          42.000    38308752.746   154253469.678       -1740.459          44.000  
C08  39133447.523   203778117.242       -2452.509          38.000    39133436.054   157574104.933       -1896.765          44.000  
C10  40519979.187   210998161.569         929.888          36.000    40519980.486   163157229.848         719.252          39.000  
C35  25964333.203   135203118.041         447.623          38.000                                                                  
C07  39588675.642   206148622.886        1119.811          39.000    39588665.041   159407150.100         865.603          41.000  
G25  24300010.431   127697412.348       -3909.886          36.000    24300004.656    99504452.066       -3046.968          37.000  
> 2025 10 30 06 18 03.6000000  0 22                     
G32  21949878.968   115347391.010       -2862.777          45.000    21949872.582    89881055.680       -2230.810          42.000  
G29  23059071.480   121176251.772        -502.483          42.000    23059062.584    94423018.016        -391.643          40.000  
G28  21224062.131   111533200.271       -1160.193          46.000    21224052.527    86908946.284        -903.725          47.000  
G26  20361993.378   107002995.635         758.753          49.000    20361986.017    83378938.693         591.249          46.000  
G31  20627444.278   108397947.370         189.829          49.000    20627433.472    84465891.937         147.929          46.000  
G04  24569970.997   129116050.779        3187.672          35.000    24569968.844   100609926.379        2483.854          38.000  
C33  22488147.291   117101680.501        -621.573          50.000                                                                  
C06  36569110.048   190424954.588        -166.293          46.000    36569093.237   147248583.139        -128.717          49.000  
C14  22616640.469   117770766.824       -2193.800          46.000    22616626.023    91067773.837       -1696.270          51.000  
C16  36996229.626   192649073.660        -198.592          49.000    36996217.841   148968436.521        -153.528          49.000  
C24  21821570.007   113630644.375        -831.202          50.000                                                                  
C26  24365639.019   126878269.160       -2557.166          45.000                                                                  
G03  22886766.763   120270770.802         -30.195          40.000    22886761.421    93717463.290         -23.525          40.000  
G16  22503822.284   118258392.697        3028.525          43.000                                                                  
C09  37720858.152   196422407.680        -156.265          44.000    37720843.517   151886207.538        -120.848          48.000  
C25  23687936.589   123349307.588        1599.695          44.000                                                                  
C13  38308775.713   199483841.781       -2250.676          42.000    38308770.054   154253539.291       -1740.433          44.000  
C08  39133466.376   203778215.384       -2453.232          38.000    39133454.902   157574180.801       -1896.780          44.000  
C10  40519972.040   210998124.372         929.723          36.000    40519973.340   163157201.088         719.041          39.000  
C35  25964329.752   135203100.132         447.526          38.000                                                                  
C07  39588667.053   206148578.106        1119.651          39.000    39588656.433   159407115.474         865.623          41.000  
G25  24300040.203   127697568.755       -3910.056          36.000    24300034.414    99504573.951       -3047.076          37.000  
> 2025 10 30 06 18 03.6400000  0 22                     
G32  21949900.755   115347505.513       -2862.684          45.000    21949894.371    89881144.906       -2230.773          42.000  
G29  23059075.301   121176271.869        -502.561          42.000    23059066.404    94423033.673        -391.535          39.000  
G28  21224070.949   111533246.667       -1160.126          46.000    21224061.386    86908982.435        -903.771          47.000  
G26  20361987.595   107002965.276         758.861          49.000    20361980.238    83378915.043         591.188          46.000  
G31  20627442.817   108397939.775         189.817          49.000    20627431.993    84465886.015         147.960          46.000  
G04  24569946.703   129115923.241        3188.171          35.000    24569944.586   100609827.027        2483.695          38.000  
C33  22488152.115   117101705.358        -621.532          50.000                                                                  
C06  36569111.318   190424961.237        -166.294          46.000    36569094.509   147248588.284        -128.698          49.000  
C14  22616657.304   117770854.578       -2193.923          46.000    22616642.872    91067841.690       -1696.358          51.000  
C16  36996231.148   192649081.597        -198.486          49.000    36996219.386   148968442.659        -153.508          49.000  
C24  21821576.400   113630677.620        -831.205          50.000                                                                  
C26  24365658.666   126878371.439       -2557.104          45.000                                                                  
G03  22886767.002   120270771.997         -29.978          39.000    22886761.631    93717464.227         -23.464          39.000  
G16  22503799.232   118258271.542        3028.724          43.000                                                                  
C09  37720859.350   196422413.927        -156.250          44.000    37720844.712   151886212.370        -120.902          48.000  
C25  23687924.310   123349243.589        1599.915          44.000                                                                  
C13  38308792.979   199483931.804       -2250.611          42.000    38308787.337   154253608.911       -1740.538          44.000  
C08  39133485.212   203778313.525       -2453.567          38.000    39133473.748   157574256.660       -1896.604          44.000  
C10  40519964.900   210998087.177         929.649          36.000    40519966.205   163157172.322         719.095          39.000  
C35  25964326.315   135203082.239         447.241          38.000                                                                  
C07  39588658.459   206148533.342        1119.212          39.000    39588647.834   159407080.854         865.501          41.000  
G25  24300069.988   127697725.182       -3910.553          36.000    24300064.186    99504695.826       -3047.032          37.000  
> 2025 10 30 06 18 03.6800000  0 22                     
G32  21949922.556   115347620.031       -2862.872          45.000    21949916.173    89881234.149       -2231.027          42.000  
G29  23059079.127   121176291.956        -502.344          42.000    23059070.217    94423049.313        -391.179          39.000  
G28  21224079.785   111533293.055       -1159.893          46.000    21224070.219    86909018.592        -903.891          47.000  
G26  20361981.814   107002934.919         758.886          49.000    20361974.465    83378891.381         591.414          46.000  
G31  20627441.347   108397932.174         189.935          49.000    20627430.566    84465880.097         147.898          46.000  
G04  24569922.442   129115795.692        3188.634          35.000    24569920.308   100609727.656        2484.010          38.000  
C33  22488156.902   117101730.218        -621.538          50.000                                                                  
C06  36569112.601   190424967.888        -166.317          46.000    36569095.768   147248593.422        -128.571          49.000  
C14  22616674.176   117770942.322       -2193.792          46.000    22616659.738    91067909.544       -1696.394          51.000  
C16  36996232.680   192649089.534        -198.430          49.000    36996220.946   148968448.796        -153.469          49.000  
C24  21821582.811   113630710.861        -831.111          50.000                                                                  
C26  24365678.321   126878473.714       -2556.975          45.000                                                                  
G03  22886767.219   120270773.209         -30.219          40.000    22886761.862    93717465.162         -23.426          39.000  
G16  22503776.169   118258150.394        3028.716          43.000                                                                  
C09  37720860.529   196422420.170        -156.186          44.000    37720845.911   151886217.198        -120.804          48.000  
C25  23687912.038   123349179.597        1599.823          44.000                                                                  
C13  38308810.253   199484021.830       -2250.623          42.000    38308804.603   154253678.514       -1740.244          44.000  
C08  39133504.044   203778411.627       -2452.914          38.000    39133492.581   157574332.527       -1896.625          44.000  
C10  40519957.756   210998049.971         929.858          35.000    40519959.052   163157143.537         719.396          39.000  
C35  25964322.857   135203064.322         447.606          38.000                                                                  
C07  39588649.847   206148488.569        1119.165          39.000    39588639.244   159407046.223         865.670          41.000  
G25  24300099.771   127697881.615       -3910.851          36.000    24300093.942    99504817.696       -3046.914          37.000  
> 2025 10 30 06 18 03.7200000  0 22                     
G32  21949944.351   115347734.544       -2862.902          45.000    21949937.973    89881323.367       -2230.704          42.000  
G29  23059082.943   121176312.056        -502.450          42.000    23059074.038    94423064.972        -391.307          39.000  
G28  21224088.597   111533339.441       -1159.709          46.000    21224079.026    86909054.737        -903.754          47.000  
G26  20361976.044   107002904.564         758.867          49.000    20361968.676    83378867.726         591.419          46.000  
G31  20627439.893   108397924.565         190.132          49.000    20627429.114    84465874.170         148.047          46.000  
G04  24569898.183   129115668.190        3188.074          35.000    24569896.048   100609628.291        2484.022          38.000  
C33  22488161.665   117101755.074        -621.453          50.000                                                                  
C06  36569113.887   190424974.536        -166.292          46.000    36569097.021   147248598.555        -128.408          49.000  
C14  22616691.028   117771030.053       -2193.428          46.000    22616676.586    91067977.393       -1696.335          51.000  
C16  36996234.195   192649097.466        -198.342          49.000    36996222.496   148968454.935        -153.475          49.000  
C24  21821589.188   113630744.104        -831.086          50.000                                                                  
C26  24365697.995   126878575.978       -2556.721          45.000                                                                  
G03  22886767.441   120270774.403         -30.003          40.000    22886762.096    93717466.113         -23.704          40.000  
G16  22503753.114   118258029.241        3028.818          43.000                                                                  
C09  37720861.724   196422426.409        -156.072          44.000    37720847.104   151886222.020        -120.632          48.000  
C25  23687899.731   123349115.599        1599.915          44.000                                                                  
C13  38308827.543   199484111.851       -2250.549          42.000    38308821.868   154253748.115       -1740.079          44.000  
C08  39133522.848   203778509.705       -2452.139          38.000    39133511.416   157574408.393       -1896.646          44.000  
C10  40519950.611   210998012.750         930.237          36.000    40519951.913   163157114.763         719.388          39.000  
C35  25964319.420   135203046.393         448.129          38.000                                                                  
C07  39588641.254   206148443.791        1119.256          39.000    39588630.641   159407011.593         865.747          41.000  
G25  24300129.511   127698038.036       -3910.762          36.000    24300123.698    99504939.565       -3046.754          37.000  
> 2025 10 30 06 18 03.7600000  0 22                     
G32  21949966.106   115347849.052       -2862.789          45.000    21949959.747    89881412.593       -2230.648          42.000  
G29  23059086.774   121176332.153        -502.483          42.000    23059077.858    94423080.634        -391.497          39.000  
G28  21224097.444   111533385.819       -1159.504          46.000    21224087.850    86909090.885        -903.710          47.000  
G26  20361970.292   107002874.207         758.879          49.000    20361962.896    83378844.076         591.288          46.000  
G31  20627438.433   108397916.957         190.174          49.000    20627427.679    84465868.245         148.096          46.000  
G04  24569873.911   129115540.705        3187.128          35.000    24569871.771   100609528.911        2484.274          38.000  
C33  22488166.483   117101779.929        -621.378          50.000                                                                  
C06  36569115.170   190424981.173        -166.055          46.000    36569098.290   147248603.695        -128.455          49.000  
C14  22616707.867   117771117.792       -2193.395          46.000    22616693.459    91068045.238       -1696.208          51.000  
C16  36996235.688   192649105.401        -198.345          49.000    36996224.016   148968461.069        -153.397          49.000  
C24  21821595.592   113630777.341        -830.997          50.000                                                                  
C26  24365717.628   126878678.248       -2556.699          45.000                                                                  
G03  22886767.692   120270775.603         -29.992          40.000    22886762.327    93717467.048         -23.537          40.000  
G16  22503730.067   118257908.090        3028.816          43.000                                                                  
C09  37720862.923   196422432.645        -155.940          44.000    37720848.265   151886226.840        -120.527          48.000  
C25  23687887.434   123349051.606        1599.866          44.000                                                                  
C13  38308844.845   199484201.874       -2250.600          42.000    38308839.162   154253817.721       -1740.086          44.000  
C08  39133541.702   203778607.798       -2452.081          38.000    39133530.264   157574484.257       -1896.634          44.000  
C10  40519943.462   210997975.544         930.183          36.000    40519944.765   163157085.998         719.228          39.000  
C35  25964315.971   135203028.480         447.996          38.000                                                                  
C07  39588632.657   206148398.993        1119.703          39.000    39588622.051   159406976.970         865.618          41.000  
G25  24300159.261   127698194.427       -3910.199          36.000    24300153.461    99505061.452       -3047.024          37.000  
> 2025 10 30 06 18 03.8000000  0 22                     
G32  21949987.913   115347963.570       -2862.910          45.000    21949981.548    89881501.828       -2230.813          42.000  
G29  23059090.593   121176352.242        -502.376          42.000    23059081.692    94423096.291        -391.535          39.000  
G28  21224106.291   111533432.219       -1159.780          46.000    21224096.667    86909127.033        -903.705          47.000  
G26  20361964.524   107002843.851         758.854          49.000    20361957.117    83378820.427         591.169          46.000  
G31  20627437.004   108397909.356         190.094          49.000    20627426.247    84465862.320         148.108          46.000  
G04  24569849.649   129115413.181        3187.458          34.000    24569847.505   100609429.543        2484.220          38.000  
C33  22488171.244   117101804.791        -621.474          50.000                                                                  
C06  36569116.433   190424987.818        -166.094          46.000    36569099.572   147248608.837        -128.528          49.000  
C14  22616724.712   117771205.539       -2193.557          46.000    22616710.315    91068113.087       -1696.222          51.000  
C16  36996237.194   192649113.342        -198.475          49.000    36996225.565   148968467.209        -153.464          49.000  
C24  21821601.937   113630810.588        -831.124          50.000                                                                  
C26  24365737.235   126878780.526       -2556.863          45.000                                                                  
G03  22886767.936   120270776.807         -30.082          39.000    22886762.580    93717467.986         -23.428          40.000  
G16  22503707.010   118257786.943        3028.687          43.000                                                                  
C09  37720864.119   196422438.884        -155.943          44.000    37720849.450   151886231.666        -120.606          48.000  
C25  23687875.180   123348987.616        1599.756          44.000                                                                  
C13  38308862.110   199484291.899       -2250.662          42.000    38308856.455   154253887.343       -1740.436          44.000  
C08  39133560.521   203778705.924       -2452.765          38.000    39133549.095   157574560.123       -1896.677          44.000  
C10  40519936.315   210997938.357         929.847          36.000    40519937.634   163157057.234         719.114          39.000  
C35  25964312.547   135203010.583         447.540          38.000                                                                  
C07  39588624.061   206148354.216        1119.543          39.000    39588613.456   159406942.351         865.476          41.000  
G25  24300189.030   127698350.822       -3909.977          36.000    24300183.256    99505183.328       -3046.945          37.000  
> 2025 10 30 06 18 03.8400000  0 22                     
G32  21950009.704   115348078.066       -2862.566          45.000    21950003.311    89881591.055       -2230.747          42.000  
G29  23059094.418   121176372.334        -502.345          42.000    23059085.512    94423111.938        -391.339          39.000  
G28  21224115.124   111533478.610       -1159.827          46.000    21224105.500    86909163.191        -903.879          47.000  
G26  20361958.751   107002813.493         758.904          49.000    20361951.332    83378796.775         591.208          46.000  
G31  20627435.557   108397901.758         189.976          49.000    20627424.806    84465856.395         148.101          46.000  
G04  24569825.389   129115285.661        3187.695          34.000    24569823.259   100609330.183        2483.998          38.000  
C33  22488176.020   117101829.651        -621.500          50.000                                                                  
C06  36569117.691   190424994.472        -166.251          46.000    36569100.866   147248613.981        -128.578          49.000  
C14  22616741.555   117771293.291       -2193.759          46.000    22616727.160    91068180.938       -1696.262          51.000  
C16  36996238.718   192649121.278        -198.440          49.000    36996227.065   148968473.347        -153.484          49.000  
C24  21821608.337   113630843.830        -831.096          50.000                                                                  
C26  24365756.883   126878882.797       -2556.841          45.000                                                                  
G03  22886768.177   120270778.024         -30.376          39.000    22886762.806    93717468.918         -23.324          39.000  
G16  22503683.965   118257665.802        3028.569          43.000                                                                  
C09  37720865.289   196422445.126        -156.001          44.000    37720850.649   151886236.490        -120.620          48.000  
C25  23687862.903   123348923.619        1599.841          44.000                                                                  
C13  38308879.384   199484381.916       -2250.506          42.000    38308873.733   154253956.966       -1740.602          44.000  
C08  39133579.365   203778804.054       -2453.198          38.000    39133567.952   157574635.993       -1896.776          44.000  
C10  40519929.143   210997901.139         930.211          36.000    40519930.489   163157028.470         719.014          39.000  
C35  25964309.103   135202992.668         447.598          38.000                                                                  
C07  39588615.458   206148309.434        1119.596          39.000    39588604.899   159406907.713         865.822          41.000  
G25  24300218.807   127698507.234       -3910.157          36.000    24300213.038    99505305.219       -3047.139          37.000  
> 2025 10 30 06 18 03.8800000  0 22                     
G32  21950031.485   115348192.568       -2862.508          45.000    21950025.087    89881680.267       -2230.464          42.000  
G29  23059098.257   121176392.425        -502.282          42.000    23059089.340    94423127.605        -391.624          39.000  
G28  21224123.961   111533525.011       -1160.003          46.000    21224114.330    86909199.338        -903.811          47.000  
G26  20361952.964   107002783.136         758.904          49.000    20361945.553    83378773.116         591.364          46.000  
G31  20627434.102   108397894.164         189.885          49.000    20627423.374    84465850.476         147.984          46.000  
G04  24569801.107   129115158.116        3188.224          34.000    24569799.003   100609230.817        2484.017          38.000  
C33  22488180.790   117101854.509        -621.479          50.000                                                                  
C06  36569118.947   190425001.119        -166.223          46.000    36569102.150   147248619.117        -128.479          49.000  
C14  22616758.401   117771381.038       -2193.763          46.000    22616743.998    91068248.789       -1696.300          51.000  
C16  36996240.215   192649129.215        -198.447          49.000    36996228.613   148968479.480        -153.413          49.000  
C24  21821614.746   113630877.075        -831.127          50.000                                                                  
C26  24365776.497   126878985.078       -2557.007          44.000                                                                  
G03  22886768.412   120270779.234         -30.385          39.000    22886763.029    93717469.855         -23.299          40.000  
G16  22503660.916   118257544.651        3028.666          43.000                                                                  
C09  37720866.501   196422451.364        -155.957          44.000    37720851.861   151886241.314        -120.626          48.000  
C25  23687850.636   123348859.615        1600.043          44.000                                                                  
C13  38308896.677   199484471.925       -2250.289          42.000    38308891.004   154254026.566       -1740.226          44.000  
C08  39133598.200   203778902.159       -2452.927          38.000    39133586.804   157574711.861       -1896.777          44.000  
C10  40519921.992   210997863.937         930.113          36.000    40519923.333   163156999.699         719.178          39.000  
C35  25964305.671   135202974.747         447.872          38.000                                                                  
C07  39588606.851   206148264.645        1119.691          39.000    39588596.313   159406873.094         865.648          41.000  
G25  24300248.556   127698663.654       -3910.436          36.000    24300242.803    99505427.092       -3046.986          37.000  
> 2025 10 30 06 18 03.9200000  0 22                     
G32  21950053.268   115348307.074       -2862.593          45.000    21950046.887    89881769.503       -2230.749          42.000  
G29  23059102.075   121176412.511        -502.188          42.000    23059093.159    94423143.250        -391.299          39.000  
G28  21224132.787   111533571.396       -1159.825          46.000    21224123.139    86909235.484        -903.723          47.000  
G26  20361947.214   107002752.785         758.798          49.000    20361939.770    83378749.465         591.282          46.000  
G31  20627432.640   108397886.559         190.008          49.000    20627421.904    84465844.552         148.040          46.000  
G04  24569776.879   129115030.606        3187.966          34.000    24569774.737   100609131.443        2484.171          38.000  
C33  22488185.554   117101879.369        -621.525          50.000                                                                  
C06  36569120.224   190425007.758        -166.072          46.000    36569103.444   147248624.251        -128.402          49.000  
C14  22616775.264   117771468.781       -2193.640          46.000    22616760.846    91068316.640       -1696.312          51.000  
C16  36996241.747   192649137.143        -198.293          49.000    36996230.127   148968485.612        -153.351          49.000  
C24  21821621.161   113630910.312        -831.003          50.000                                                                  
C26  24365796.145   126879087.346       -2556.830          44.000                                                                  
G03  22886768.651   120270780.436         -30.259          39.000    22886763.254    93717470.799         -23.484          40.000  
G16  22503637.828   118257423.494        3028.871          43.000                                                                  
C09  37720867.695   196422457.599        -155.907          44.000    37720853.061   151886246.135        -120.543          48.000  
C25  23687838.329   123348795.623        1599.890          44.000                                                                  
C13  38308913.932   199484561.945       -2250.403          42.000    38308908.282   154254096.170       -1740.096          44.000  
C08  39133617.017   203779000.257       -2452.593          38.000    39133605.653   157574787.720       -1896.595          44.000  
C10  40519914.836   210997826.692         930.848          36.000    40519916.179   163156970.912         719.551          39.000  
C35  25964302.217   135202956.840         447.797          38.000                                                                  
C07  39588598.232   206148219.854        1119.786          39.000    39588587.718   159406838.446         865.983          41.000  
G25  24300278.305   127698820.047       -3910.081          36.000    24300272.559    99505548.951       -3046.646          37.000  
> 2025 10 30 06 18 03.9600000  0 22                     
G32  21950075.062   115348421.584       -2862.765          45.000    21950068.697    89881858.731       -2230.778          42.000  
G29  23059105.894   121176432.602        -502.209          42.000    23059096.992    94423158.908        -391.395          39.000  
G28  21224141.599   111533617.779       -1159.658          46.000    21224131.938    86909271.627        -903.647          47.000  
G26  20361941.412   107002722.428         758.867          49.000    20361934.002    83378725.812         591.288          46.000  
G31  20627431.194   108397878.954         190.088          49.000    20627420.438    84465838.625         148.126          46.000  
G04  24569752.625   129114903.070        3188.296          34.000    24569750.469   100609032.055        2484.597          38.000  
C33  22488190.312   117101904.225        -621.447          50.000                                                                  
C06  36569121.505   190425014.395        -165.951          46.000    36569104.738   147248629.387        -128.406          49.000  
C14  22616792.119   117771556.525       -2193.609          46.000    22616777.685    91068384.488       -1696.254          51.000  
C16  36996243.291   192649145.071        -198.211          49.000    36996231.656   148968491.741        -153.255          49.000  
C24  21821627.567   113630943.548        -830.901          50.000                                                                  
C26  24365815.810   126879189.613       -2556.691          44.000                                                                  
G03  22886768.874   120270781.637         -30.088          39.000    22886763.479    93717471.744         -23.666          40.000  
G16  22503614.769   118257302.343        3028.835          43.000                                                                  
C09  37720868.883   196422463.832        -155.813          44.000    37720854.272   151886250.958        -120.557          48.000  
C25  23687826.047   123348731.626        1599.921          44.000                                                                  
C13  38308931.220   199484651.978       -2250.708          42.000    38308925.598   154254165.778       -1740.136          44.000  
C08  39133635.840   203779098.353       -2452.439          38.000    39133624.464   157574863.565       -1896.233          44.000  
C10  40519907.682   210997789.483         930.565          36.000    40519908.973   163156942.124         719.741          39.000  
C35  25964298.770   135202938.926         447.769          38.000                                                                  
C07  39588589.651   206148175.077        1119.594          39.000    39588579.111   159406803.822         865.766          41.000  
G25  24300308.072   127698976.431       -3909.718          37.000    24300302.286    99505670.811       -3046.472          37.000  
> 2025 10 30 06 18 04.0000000  0 22                     
G32  21950096.859   115348536.098       -2862.911          45.000    21950090.485    89881947.955       -2230.658          42.000  
G29  23059109.695   121176452.679        -501.982          42.000    23059100.832    94423174.573        -391.572          39.000  
G28  21224150.431   111533664.170       -1159.733          45.000    21224140.744    86909307.766        -903.510          47.000  
G26  20361935.618   107002692.072         758.880          49.000    20361928.208    83378702.150         591.444          46.000  
G31  20627429.721   108397871.348         190.143          49.000    20627418.987    84465832.702         148.070          46.000  
G04  24569728.358   129114775.527        3188.520          34.000    24569726.187   100608932.673        2484.647          38.000  
C33  22488195.064   117101929.086        -621.499          50.000                                                                  
C06  36569122.791   190425021.033        -165.939          46.000    36569106.030   147248634.521        -128.361          49.000  
C14  22616808.977   117771644.261       -2193.472          46.000    22616794.572    91068452.335       -1696.217          51.000  
C16  36996244.839   192649152.996        -198.132          49.000    36996233.187   148968497.873        -153.250          49.000  
C24  21821633.973   113630976.783        -830.874          50.000                                                                  
C26  24365835.456   126879291.875       -2556.586          44.000                                                                  
G03  22886769.102   120270782.832         -29.927          39.000    22886763.709    93717472.691         -23.784          40.000  
G16  22503591.724   118257181.184        3028.940          43.000                                                                  
C09  37720870.076   196422470.065        -155.835          44.000    37720855.445   151886255.775        -120.469          48.000  
C25  23687813.747   123348667.624        1599.982          44.000                                                                  
C13  38308948.515   199484741.995       -2250.525          42.000    38308942.882   154254235.379       -1740.075          44.000  
C08  39133654.679   203779196.462       -2452.552          38.000    39133643.295   157574939.423       -1896.330          44.000  
C10  40519900.550   210997752.271         930.397          36.000    40519901.827   163156913.352         719.494          39.000  
C35  25964295.326   135202921.001         447.989          38.000                                                                  
C07  39588581.024   206148130.288        1119.679          39.000    39588570.520   159406769.186         865.824          41.000  
G25  24300337.841   127699132.834       -3909.854          37.000    24300332.063    99505792.692       -3046.751          37.000  
> 2025 10 30 06 18 04.0400000  0 22                     
G32  21950118.637   115348650.613       -2862.976          45.000    21950112.261    89882037.179       -2230.620          42.000  
G29  23059113.533   121176472.795        -502.602          42.000    23059104.652    94423190.234        -391.601          39.000  
G28  21224159.269   111533710.563       -1159.848          45.000    21224149.581    86909343.918        -903.669          47.000  
G26  20361929.866   107002661.717         758.861          48.000    20361922.433    83378678.496         591.393          45.000  
G31  20627428.264   108397863.742         190.136          49.000    20627417.548    84465826.778         148.064          46.000  
G04  24569704.082   129114647.991        3188.502          34.000    24569701.938   100608833.334        2483.866          38.000  
C33  22488199.818   117101953.950        -621.588          50.000                                                                  
C06  36569124.060   190425027.686        -166.219          46.000    36569107.318   147248639.659        -128.401          49.000  
C14  22616825.811   117771732.007       -2193.588          46.000    22616811.442    91068520.185       -1696.243          50.000  
C16  36996246.370   192649160.924        -198.195          49.000    36996234.702   148968504.009        -153.349          49.000  
C24  21821640.320   113631010.031        -831.098          50.000                                                                  
C26  24365855.085   126879394.153       -2556.810          44.000                                                                  
G03  22886769.326   120270784.042         -30.162          39.000    22886763.914    93717473.622         -23.523          40.000  
G16  22503568.678   118257060.048        3028.557          43.000                                                                  
C09  37720871.267   196422476.301        -155.881          44.000    37720856.652   151886260.602        -120.604          48.000  
C25  23687801.472   123348603.630        1599.872          44.000                                                                  
C13  38308965.795   199484832.004       -2250.282          42.000    38308960.182   154254304.990       -1740.200          44.000  
C08  39133673.529   203779294.582       -2452.868          38.000    39133662.140   157575015.293       -1896.621          44.000  
C10  40519893.397   210997715.046         930.492          36.000    40519894.655   163156884.580         719.393          39.000  
C35  25964291.853   135202903.098         447.698          38.000                                                                  
C07  39588572.440   206148085.499        1119.682          39.000    39588561.944   159406734.553         865.782          41.000  
G25  24300367.623   127699289.273       -3910.614          37.000    24300361.838    99505914.581       -3047.076          37.000  
> 2025 10 30 06 18 04.0800000  0 22                     
G32  21950140.437   115348765.124       -2862.906          45.000    21950134.049    89882126.404       -2230.648          42.000  
G29  23059117.369   121176492.898        -502.697          42.000    23059108.480    94423205.887        -391.423          39.000  
G28  21224168.102   111533756.950       -1159.741          45.000    21224158.415    86909380.074        -903.867          47.000  
G26  20361924.084   107002631.362         758.848          48.000    20361916.647    83378654.851         591.182          45.000  
G31  20627426.823   108397856.138         190.105          49.000    20627416.097    84465820.858         148.003          46.000  
G04  24569679.833   129114520.511        3187.370          34.000    24569677.694   100608733.964        2483.986          38.000  
C33  22488204.579   117101978.805        -621.498          50.000                                                                  
C06  36569125.327   190425034.327        -166.147          46.000    36569108.623   147248644.797        -128.434          49.000  
C14  22616842.645   117771819.756       -2193.701          46.000    22616828.310    91068588.043       -1696.440          50.000  
C16  36996247.906   192649168.861        -198.358          49.000    36996236.228   148968510.142        -153.362          49.000  
C24  21821646.741   113631043.271        -831.082          50.000                                                                  
C26  24365874.750   126879496.427       -2556.915          44.000                                                                  
G03  22886769.534   120270785.244         -30.084          39.000    22886764.143    93717474.555         -23.412          40.000  
G16  22503545.617   118256938.898        3028.593          43.000                                                                  
C09  37720872.461   196422482.551        -156.165          44.000    37720857.859   151886265.428        -120.654          48.000  
C25  23687789.187   123348539.637        1599.829          44.000                                                                  
C13  38308983.085   199484922.026       -2250.434          42.000    38308977.482   154254374.600       -1740.313          44.000  
C08  39133692.365   203779392.687       -2452.797          38.000    39133680.941   157575091.164       -1896.815          44.000  
C10  40519886.272   210997677.852         930.142          36.000    40519887.504   163156855.818         719.161          39.000  
C35  25964288.431   135202885.201         447.404          38.000                                                                  
C07  39588563.835   206148040.714        1119.636          39.000    39588553.360   159406699.929         865.635          41.000  
G25  24300397.376   127699445.694       -3910.715          37.000    24300391.604    99506036.473       -3047.317          37.000  
> 2025 10 30 06 18 04.1200000  0 22                     
G32  21950162.219   115348879.635       -2862.832          45.000    21950155.847    89882215.638       -2230.811          42.000  
G29  23059121.206   121176512.989        -502.447          42.000    23059112.285    94423221.547        -391.449          39.000  
G28  21224176.941   111533803.345       -1159.822          45.000    21224167.257    86909416.227        -903.915          47.000  
G26  20361918.320   107002601.009         758.805          48.000    20361910.870    83378631.201         591.171          45.000  
G31  20627425.400   108397848.541         189.958          49.000    20627414.644    84465814.939         147.929          46.000  
G04  24569655.553   129114392.983        3187.675          34.000    24569653.418   100608634.595        2483.978          38.000  
C33  22488209.342   117102003.672        -621.632          50.000                                                                  
C06  36569126.624   190425040.971        -166.151          46.000    36569109.887   147248649.937        -128.494          49.000  
C14  22616859.490   117771907.510       -2193.845          46.000    22616845.185    91068655.896       -1696.411          51.000  
C16  36996249.451   192649176.795        -198.413          49.000    36996237.763   148968516.272        -153.297          49.000  
C24  21821653.136   113631076.517        -831.159          50.000                                                                  
C26  24365894.390   126879598.702       -2556.948          44.000                                                                  
G03  22886769.741   120270786.466         -30.430          39.000    22886764.353    93717475.501         -23.596          40.000  
G16  22503522.547   118256817.742        3028.727          43.000                                                                  
C09  37720873.635   196422488.790        -156.118          44.000    37720859.053   151886270.254        -120.703          48.000  
C25  23687776.899   123348475.642        1599.829          44.000                                                                  
C13  38309000.375   199485012.042       -2250.428          42.000    38308994.783   154254444.215       -1740.411          44.000  
C08  39133711.224   203779490.783       -2452.569          38.000    39133699.798   157575167.027       -1896.747          44.000  
C10  40519879.134   210997640.626         930.469          36.000    40519880.366   163156827.043         719.286          39.000  
C35  25964284.996   135202867.296         447.583          38.000                                                                  
C07  39588555.225   206147995.915        1119.865          39.000    39588544.762   159406665.302         865.614          41.000  
G25  24300427.157   127699602.085       -3910.144          37.000    24300421.356    99506158.329       -3046.759          37.000  
> 2025 10 30 06 18 04.1600000  0 22                     
G32  21950184.005   115348994.141       -2862.729          45.000    21950177.635    89882304.868       -2230.820          42.000  
G29  23059125.024   121176533.094        -502.502          42.000    23059116.107    94423237.211        -391.543          39.000  
G28  21224185.760   111533849.724       -1159.595          45.000    21224176.071    86909452.374        -903.780          47.000  
G26  20361912.564   107002570.664         758.612          48.000    20361905.070    83378607.549         591.215          45.000  
G31  20627423.973   108397840.944         189.884          49.000    20627413.195    84465809.012         148.090          46.000  
G04  24569631.323   129114265.454        3188.192          34.000    24569629.144   100608535.234        2483.856          38.000  
C33  22488214.098   117102028.541        -621.750          50.000                                                                  
C06  36569127.923   190425047.619        -166.210          46.000    36569111.157   147248655.070        -128.391          49.000  
C14  22616876.326   117771995.264       -2193.892          46.000    22616862.060    91068723.747       -1696.353          51.000  
C16  36996251.013   192649184.728        -198.409          49.000    36996239.318   148968522.415        -153.477          49.000  
C24  21821659.521   113631109.762        -831.203          50.000                                                                  
C26  24365914.044   126879700.970       -2556.799          44.000                                                                  
G03  22886769.984   120270787.679         -30.433          39.000    22886764.576    93717476.442         -23.568          40.000  
G16  22503499.495   118256696.593        3028.700          43.000                                                                  
C09  37720874.843   196422495.023        -155.970          44.000    37720860.237   151886275.076        -120.619          48.000  
C25  23687764.624   123348411.643        1599.927          44.000                                                                  
C13  38309017.676   199485102.062       -2250.522          42.000    38309012.066   154254513.819       -1740.279          44.000  
C08  39133730.038   203779588.900       -2452.769          38.000    39133718.663   157575242.891       -1896.703          44.000  
C10  40519871.982   210997603.423         930.278          36.000    40519873.223   163156798.260         719.501          39.000  
C35  25964281.567   135202849.390         447.691          38.000                                                                  
C07  39588546.606   206147951.131        1119.688          39.000    39588536.155   159406630.676         865.597          41.000  
G25  24300456.899   127699758.492       -3910.094          37.000    24300451.121    99506280.219       -3047.042          37.000  
> 2025 10 30 06 18 04.2000000  0 22                     
G32  21950205.800   115349108.649       -2862.727          45.000    21950199.427    89882394.105       -2230.953          42.000  
G29  23059128.838   121176553.208        -502.767          42.000    23059119.935    94423252.873        -391.561          39.000  
G28  21224194.584   111533896.114       -1159.682          45.000    21224184.894    86909488.532        -903.885          47.000  
G26  20361906.781   107002540.320         758.540          48.000    20361899.288    83378583.906         591.104          45.000  
G31  20627422.521   108397833.352         189.768          49.000    20627411.737    84465803.090         148.065          46.000  
G04  24569607.033   129114137.935        3188.209          34.000    24569604.885   100608435.851        2484.253          38.000  
C33  22488218.905   117102053.411        -621.798          50.000                                                                  
C06  36569129.204   190425054.260        -166.156          46.000    36569112.406   147248660.213        -128.505          49.000  
C14  22616893.199   117772083.016       -2193.865          46.000    22616878.917    91068791.601       -1696.391          51.000  
C16  36996252.525   192649192.667        -198.490          49.000    36996240.873   148968528.541        -153.266          49.000  
C24  21821665.924   113631143.003        -831.141          50.000                                                                  
C26  24365933.706   126879803.241       -2556.796          44.000                                                                  
G03  22886770.200   120270788.879         -30.141          39.000    22886764.792    93717477.391         -23.718          40.000  
G16  22503476.439   118256575.455        3028.466          43.000                                                                  
C09  37720876.049   196422501.263        -156.016          44.000    37720861.444   151886279.892        -120.480          48.000  
C25  23687752.335   123348347.654        1599.780          44.000                                                                  
C13  38309034.951   199485192.093       -2250.732          42.000    38309029.327   154254583.430       -1740.284          44.000  
C08  39133748.871   203779686.998       -2452.572          38.000    39133737.492   157575318.763       -1896.836          44.000  
C10  40519864.870   210997566.210         930.342          36.000    40519866.075   163156769.488         719.384          39.000  
C35  25964278.123   135202831.464         448.026          38.000                                                                  
C07  39588538.000   206147906.368        1119.229          39.000    39588527.551   159406596.052         865.540          41.000  
G25  24300486.671   127699914.895       -3910.042          37.000    24300480.884    99506402.099       -3047.048          37.000  
> 2025 10 30 06 18 04.2400000  0 22                     
G32  21950227.621   115349223.180       -2863.121          45.000    21950221.225    89882483.343       -2230.951          42.000  
G29  23059132.662   121176573.311        -502.676          42.000    23059123.764    94423268.543        -391.725          39.000  
G28  21224203.412   111533942.521       -1160.034          46.000    21224193.708    86909524.689        -903.943          47.000  
G26  20361900.971   107002509.977         758.497          48.000    20361893.504    83378560.262         591.074          45.000  
G31  20627421.043   108397825.758         189.781          49.000    20627410.294    84465797.177         147.880          46.000  
G04  24569582.749   129114010.379        3188.954          34.000    24569580.632   100608336.492        2484.072          38.000  
C33  22488223.711   117102078.281        -621.814          50.000                                                                  
C06  36569130.492   190425060.912        -166.281          46.000    36569113.664   147248665.357        -128.595          49.000  
C14  22616910.048   117772170.769       -2193.896          46.000    22616895.749    91068859.454       -1696.365          51.000  
C16  36996254.007   192649200.606        -198.534          49.000    36996242.395   148968534.680        -153.377          49.000  
C24  21821672.305   113631176.250        -831.171          50.000                                                                  
C26  24365953.378   126879905.513       -2556.790          44.000                                                                  
G03  22886770.439   120270790.094         -30.281          39.000    22886765.035    93717478.340         -23.747          40.000  
G16  22503453.395   118256454.329        3028.154          43.000                                                                  
C09  37720877.260   196422507.505        -156.047          44.000    37720862.679   151886284.710        -120.431          48.000  
C25  23687740.044   123348283.655        1599.896          44.000                                                                  
C13  38309052.227   199485282.122       -2250.792          42.000    38309046.638   154254653.041       -1740.272          44.000  
C08  39133767.713   203779785.123       -2452.981          38.000    39133756.305   157575394.621       -1896.630          44.000  
C10  40519857.737   210997529.006         930.210          36.000    40519858.940   163156740.711         719.415          39.000  
C35  25964274.692   135202813.573         447.583          38.000                                                                  
C07  39588529.402   206147861.597        1119.143          39.000    39588518.959   159406561.421         865.680          41.000  
G25  24300516.438   127700071.311       -3910.244          37.000    24300510.637    99506523.977       -3047.016          37.000  
> 2025 10 30 06 18 04.2800000  0 22                     
G32  21950249.394   115349337.699       -2863.106          45.000    21950243.025    89882572.586       -2231.053          42.000  
G29  23059136.490   121176593.411        -502.582          41.000    23059127.608    94423284.209        -391.767          39.000  
G28  21224212.242   111533988.916       -1160.033          46.000    21224202.530    86909560.837        -903.800          47.000  
G26  20361895.162   107002479.633         758.517          48.000    20361887.730    83378536.617         591.074          45.000  
G31  20627419.577   108397818.157         189.942          49.000    20627408.851    84465791.259         147.855          46.000  
G04  24569558.451   129113882.856        3188.472          34.000    24569556.363   100608237.111        2484.336          38.000  
C33  22488228.531   117102103.148        -621.736          50.000                                                                  
C06  36569131.803   190425067.564        -166.335          46.000    36569114.917   147248670.492        -128.501          49.000  
C14  22616926.906   117772258.521       -2193.870          46.000    22616912.588    91068927.317       -1696.523          51.000  
C16  36996255.525   192649208.539        -198.414          49.000    36996243.942   148968540.817        -153.431          49.000  
C24  21821678.688   113631209.494        -831.151          50.000                                                                  
C26  24365972.979   126880007.795       -2556.981          44.000                                                                  
G03  22886770.684   120270791.305         -30.255          39.000    22886765.269    93717479.292         -23.815          40.000  
G16  22503430.321   118256333.185        3028.384          43.000                                                                  
C09  37720878.482   196422513.745        -156.027          44.000    37720863.902   151886289.532        -120.497          48.000  
C25  23687727.763   123348219.657        1599.915          44.000                                                                  
C13  38309069.518   199485372.146       -2250.698          42.000    38309063.930   154254722.657       -1740.365          44.000  
C08  39133786.550   203779883.234       -2452.952          38.000    39133775.142   157575470.479       -1896.499          44.000  
C10  40519850.590   210997491.803         930.057          36.000    40519851.795   163156711.932         719.478          39.000  
C35  25964271.274   135202795.678         447.307          38.000                                                                  
C07  39588520.807   206147816.820        1119.251          39.000    39588510.355   159406526.801         865.506          41.000  
G25  24300546.218   127700227.741       -3910.638          37.000    24300540.413    99506645.845       -3046.855          37.000  
> 2025 10 30 06 18 04.3200000  0 22                     
G32  21950271.181   115349452.222       -2863.127          45.000    21950264.799    89882661.815       -2230.864          42.000  
G29  23059140.307   121176613.513        -502.545          41.000    23059131.420    94423299.861        -391.431          39.000  
G28  21224221.069   111534035.313       -1160.026          46.000    21224211.367    86909596.985        -903.759          47.000  
G26  20361889.373   107002449.286         758.581          48.000    20361881.948    83378512.970         591.106          45.000  
G31  20627418.128   108397810.557         189.972          49.000    20627407.416    84465785.338         147.943          46.000  
G04  24569534.203   129113755.335        3188.199          34.000    24569532.102   100608137.743        2484.258          38.000  
C33  22488233.290   117102128.019        -621.793          50.000                                                                  
C06  36569133.098   190425074.201        -166.101          46.000    36569116.186   147248675.632        -128.486          49.000  
C14  22616943.776   117772346.274       -2193.856          45.000    22616929.449    91068995.174       -1696.515          50.000  
C16  36996257.069   192649216.467        -198.260          49.000    36996245.470   148968546.951        -153.424          49.000  
C24  21821685.094   113631242.741        -831.197          50.000                                                                  
C26  24365992.622   126880110.064       -2556.871          44.000                                                                  
G03  22886770.922   120270792.520         -30.382          39.000    22886765.485    93717480.244         -23.845          40.000  
G16  22503407.261   118256212.040        3028.543          43.000                                                                  
C09  37720879.689   196422519.985        -156.000          44.000    37720865.118   151886294.357        -120.605          48.000  
C25  23687715.467   123348155.677        1599.628          45.000                                                                  
C13  38309086.807   199485462.173       -2250.716          42.000    38309081.187   154254792.271       -1740.383          44.000  
C08  39133805.382   203779981.332       -2452.639          38.000    39133793.974   157575546.343       -1896.588          44.000  
C10  40519843.457   210997454.564         930.754          36.000    40519844.659   163156683.159         719.382          39.000  
C35  25964267.835   135202777.775         447.387          38.000                                                                  
C07  39588512.222   206147772.035        1119.477          39.000    39588501.745   159406492.165         865.697          41.000  
G25  24300575.976   127700384.143       -3910.356          37.000    24300570.193    99506767.729       -3047.070          37.000  
> 2025 10 30 06 18 04.3600000  0 22                     
G32  21950292.959   115349566.735       -2862.951          45.000    21950286.619    89882751.040       -2230.686          42.000  
G29  23059144.128   121176633.615        -502.539          41.000    23059135.238    94423315.539        -391.825          39.000  
G28  21224229.903   111534081.702       -1159.832          46.000    21224220.204    86909633.136        -903.773          47.000  
G26  20361883.598   107002418.938         758.636          48.000    20361876.175    83378489.321         591.155          45.000  
G31  20627416.660   108397802.953         190.114          49.000    20627405.965    84465779.410         148.115          46.000  
G04  24569509.933   129113627.813        3188.053          34.000    24569507.835   100608038.364        2484.459          38.000  
C33  22488238.081   117102152.885        -621.691          50.000                                                                  
C06  36569134.357   190425080.833        -165.854          46.000    36569117.464   147248680.762        -128.342          49.000  
C14  22616960.641   117772434.026       -2193.818          45.000    22616946.310    91069063.027       -1696.418          50.000  
C16  36996258.573   192649224.396        -198.198          49.000    36996246.995   148968553.082        -153.359          49.000  
C24  21821691.475   113631275.983        -831.103          50.000                                                                  
C26  24366012.236   126880212.335       -2556.810          44.000                                                                  
G03  22886771.148   120270793.745         -30.613          39.000    22886765.717    93717481.188         -23.667          40.000  
G16  22503384.215   118256090.889        3028.711          43.000                                                                  
C09  37720880.888   196422526.213        -155.811          44.000    37720866.320   151886299.179        -120.591          48.000  
C25  23687703.188   123348091.678        1599.799          45.000                                                                  
C13  38309104.095   199485552.189       -2250.536          43.000    38309098.474   154254861.874       -1740.196          44.000  
C08  39133824.250   203780079.435       -2452.563          38.000    39133812.810   157575622.213       -1896.700          44.000  
C10  40519836.289   210997417.369         930.250          36.000    40519837.496   163156654.398         719.109          39.000  
C35  25964264.388   135202759.851         447.840          38.000                                                                  
C07  39588503.632   206147727.240        1119.785          39.000    39588493.148   159406457.531         865.794          41.000  
G25  24300605.695   127700540.530       -3909.825          37.000    24300599.962    99506889.584       -3046.595          37.000  
> 2025 10 30 06 18 04.4000000  0 22                     
G32  21950314.738   115349681.244       -2862.790          45.000    21950308.403    89882840.268       -2230.679          42.000  
G29  23059147.967   121176653.730        -502.810          41.000    23059139.046    94423331.193        -391.571          39.000  
G28  21224238.730   111534128.095       -1159.833          46.000    21224229.047    86909669.293        -903.875          47.000  
G26  20361877.814   107002388.586         758.735          48.000    20361870.371    83378465.667         591.298          45.000  
G31  20627415.188   108397795.350         190.119          49.000    20627404.501    84465773.487         148.102          46.000  
G04  24569485.660   129113500.308        3187.691          34.000    24569483.588   100607939.024        2483.840          38.000  
C33  22488242.872   117102177.749        -621.635          51.000                                                                  
C06  36569135.623   190425087.475        -165.931          46.000    36569118.739   147248685.900        -128.387          48.000  
C14  22616977.478   117772521.771       -2193.691          45.000    22616963.191    91069130.883       -1696.400          50.000  
C16  36996260.074   192649232.330        -198.307          49.000    36996248.503   148968559.217        -153.385          49.000  
C24  21821697.873   113631309.222        -830.995          50.000                                                                  
C26  24366031.877   126880314.603       -2556.715          44.000                                                                  
G03  22886771.401   120270794.969         -30.672          39.000    22886765.927    93717482.139         -23.750          40.000  
G16  22503361.169   118255969.741        3028.726          43.000                                                                  
C09  37720882.081   196422532.446        -155.795          44.000    37720867.502   151886304.003        -120.609          48.000  
C25  23687690.904   123348027.674        1600.024          45.000                                                                  
C13  38309121.394   199485642.207       -2250.449          43.000    38309115.777   154254931.484       -1740.223          44.000  
C08  39133843.082   203780177.555       -2452.878          38.000    39133831.628   157575698.072       -1896.604          44.000  
C10  40519829.136   210997380.166         930.035          36.000    40519830.367   163156625.624         719.255          39.000  
C35  25964260.936   135202741.946         447.775          38.000                                                                  
C07  39588495.042   206147682.448        1119.857          39.000    39588484.549   159406422.911         865.559          41.000  
G25  24300635.442   127700696.929       -3909.851          37.000    24300629.729    99507011.487       -3047.252          37.000  
> 2025 10 30 06 18 04.4400000  0 22                     
G32  21950336.527   115349795.756       -2862.762          45.000    21950330.196    89882929.508       -2230.935          41.000  
G29  23059151.796   121176673.842        -502.864          41.000    23059142.870    94423346.869        -391.817          39.000  
G28  21224247.615   111534174.496       -1160.002          46.000    21224237.885    86909705.448        -903.932          47.000  
G26  20361872.081   107002358.250         758.491          48.000    20361864.580    83378442.027         591.085          45.000  
G31  20627413.742   108397787.761         189.822          49.000    20627403.077    84465767.572         147.948          46.000  
G04  24569461.386   129113372.811        3187.241          34.000    24569459.328   100607839.644        2484.229          38.000  
C33  22488247.626   117102202.620        -621.726          51.000                                                                  
C06  36569136.880   190425094.124        -166.118          46.000    36569120.005   147248691.036        -128.424          48.000  
C14  22616994.323   117772609.529       -2193.865          45.000    22616980.032    91069198.738       -1696.414          50.000  
C16  36996261.614   192649240.263        -198.339          49.000    36996250.013   148968565.350        -153.353          49.000  
C24  21821704.273   113631342.473        -831.194          50.000                                                                  
C26  24366051.474   126880416.876       -2556.779          44.000                                                                  
G03  22886771.628   120270796.191         -30.632          39.000    22886766.174    93717483.080         -23.600          40.000  
G16  22503338.122   118255848.596        3028.673          43.000                                                                  
C09  37720883.270   196422538.692        -156.051          44.000    37720868.678   151886308.821        -120.520          48.000  
C25  23687678.610   123347963.685        1599.835          45.000                                                                  
C13  38309138.688   199485732.230       -2250.494          43.000    38309133.068   154255001.096       -1740.298          45.000  
C08  39133861.917   203780275.670       -2452.946          38.000    39133850.474   157575773.925       -1896.390          44.000  
C10  40519821.990   210997342.950         930.216          36.000    40519823.227   163156596.853         719.294          39.000  
C35  25964257.499   135202724.059         447.327          38.000                                                                  
C07  39588486.440   206147637.655        1119.891          39.000    39588475.949   159406388.273         865.767          41.000  
G25  24300665.200   127700853.366       -3910.479          37.000    24300659.496    99507133.362       -3047.037          37.000  
> 2025 10 30 06 18 04.4800000  0 22                     
G32  21950358.334   115349910.286       -2863.089          45.000    21950352.000    89883018.759       -2231.226          41.000  
G29  23059155.597   121176693.943        -502.660          41.000    23059146.686    94423362.541        -391.871          39.000  
G28  21224256.447   111534220.889       -1159.931          46.000    21224246.711    86909741.602        -903.908          47.000  
G26  20361866.327   107002327.909         758.430          48.000    20361858.813    83378418.390         590.950          45.000  
G31  20627412.313   108397780.169         189.731          49.000    20627401.625    84465761.648         148.034          46.000  
G04  24569437.120   129113245.296        3187.507          34.000    24569435.046   100607740.274        2484.214          38.000  
C33  22488252.357   117102227.494        -621.859          51.000                                                                  
C06  36569138.155   190425100.771        -166.210          46.000    36569121.295   147248696.174        -128.462          48.000  
C14  22617011.200   117772697.279       -2193.807          45.000    22616996.879    91069266.597       -1696.477          50.000  
C16  36996263.162   192649248.194        -198.319          49.000    36996251.531   148968571.479        -153.282          49.000  
C24  21821710.637   113631375.720        -831.230          50.000                                                                  
C26  24366071.114   126880519.149       -2556.816          45.000                                                                  
G03  22886771.866   120270797.401         -30.392          39.000    22886766.388    93717484.031         -23.734          40.000  
G16  22503315.084   118255727.470        3028.260          43.000                                                                  
C09  37720884.470   196422544.933        -156.120          44.000    37720869.905   151886313.639        -120.483          48.000  
C25  23687666.296   123347899.691        1599.811          45.000                                                                  
C13  38309155.973   199485822.252       -2250.538          43.000    38309150.357   154255070.710       -1740.334          45.000  
C08  39133880.741   203780373.743       -2452.268          38.000    39133869.329   157575849.794       -1896.604          44.000  
C10  40519814.860   210997305.732         930.322          36.000    40519816.078   163156568.085         719.216          39.000  
C35  25964254.052   135202706.166         447.172          38.000                                                                  
C07  39588477.845   206147592.877        1119.533          39.000    39588467.357   159406353.638         865.878          41.000  
G25  24300694.979   127701009.790       -3910.593          37.000    24300689.275    99507255.248       -3047.107          37.000  
> 2025 10 30 06 18 04.5200000  0 22                     
G32  21950380.124   115350024.809       -2863.140          45.000    21950373.796    89883108.002       -2231.237          41.000  
G29  23059159.413   121176714.048        -502.636          41.000    23059150.502    94423378.201        -391.623          39.000  
G28  21224265.283   111534267.289       -1160.011          47.000    21224255.552    86909777.753        -903.826          47.000  
G26  20361860.530   107002297.563         758.531          48.000    20361853.010    83378394.741         591.076          45.000  
G31  20627410.886   108397772.575         189.769          49.000    20627400.176    84465755.722         148.121          46.000  
G04  24569412.852   129113117.736        3188.529          34.000    24569410.775   100607640.905        2484.126          38.000  
C33  22488257.103   117102252.372        -621.971          51.000                                                                  
C06  36569139.417   190425107.402        -165.968          46.000    36569122.572   147248701.312        -128.489          48.000  
C14  22617028.056   117772785.036       -2193.901          45.000    22617013.752    91069334.457       -1696.546          50.000  
C16  36996264.710   192649256.122        -198.234          49.000    36996253.036   148968577.610        -153.259          49.000  
C24  21821717.041   113631408.962        -831.150          50.000                                                                  
C26  24366090.721   126880621.430       -2556.980          45.000                                                                  
G03  22886772.095   120270798.617         -30.395          39.000    22886766.633    93717484.978         -23.740          40.000  
G16  22503292.038   118255606.315        3028.661          43.000                                                                  
C09  37720885.679   196422551.162        -155.868          44.000    37720871.085   151886318.460        -120.542          48.000  
C25  23687654.007   123347835.694        1599.878          45.000                                                                  
C13  38309173.274   199485912.272       -2250.526          42.000    38309167.670   154255140.313       -1740.166          45.000  
C08  39133899.592   203780471.860       -2452.625          38.000    39133888.172   157575925.660       -1896.668          44.000  
C10  40519807.741   210997268.513         930.422          36.000    40519808.932   163156539.314         719.236          39.000  
C35  25964250.615   135202688.275         447.087          38.000                                                                  
C07  39588469.213   206147548.106        1119.239          39.000    39588458.732   159406319.015         865.690          41.000  
G25  24300724.728   127701166.186       -3910.150          37.000    24300719.051    99507377.124       -3046.981          37.000  
> 2025 10 30 06 18 04.5600000  0 22                     
G32  21950401.920   115350139.321       -2862.930          45.000    21950395.580    89883197.235       -2231.060          41.000  
G29  23059163.215   121176734.145        -502.487          41.000    23059154.321    94423393.859        -391.493          39.000  
G28  21224274.138   111534313.696       -1160.182          47.000    21224264.372    86909813.905        -903.801          47.000  
G26  20361854.752   107002267.210         758.750          48.000    20361847.231    83378371.085         591.325          45.000  
G31  20627409.437   108397764.972         189.985          49.000    20627398.731    84465749.805         148.003          46.000  
G04  24569388.544   129112990.179        3188.843          34.000    24569386.500   100607541.526        2484.308          38.000  
C33  22488261.907   117102277.240        -621.835          51.000                                                                  
C06  36569140.661   190425114.047        -166.042          46.000    36569123.854   147248706.443        -128.375          48.000  
C14  22617044.915   117772872.786       -2193.812          45.000    22617030.621    91069402.313       -1696.474          50.000  
C16  36996266.251   192649264.051        -198.215          48.000    36996254.552   148968583.740        -153.267          49.000  
C24  21821723.434   113631442.214        -831.261          50.000                                                                  
C26  24366110.356   126880723.701       -2556.868          45.000                                                                  
G03  22886772.342   120270799.841         -30.553          39.000    22886766.872    93717485.930         -23.827          40.000  
G16  22503268.960   118255485.160        3028.869          43.000                                                                  
C09  37720886.884   196422557.400        -155.915          44.000    37720872.277   151886323.283        -120.599          49.000  
C25  23687641.737   123347771.700        1599.854          45.000                                                                  
C13  38309190.558   199486002.302       -2250.693          42.000    38309185.006   154255209.929       -1740.329          45.000  
C08  39133918.432   203780569.959       -2452.517          38.000    39133907.024   157576001.520       -1896.555          44.000  
C10  40519800.625   210997231.290         930.541          36.000    40519801.801   163156510.536         719.461          39.000  
C35  25964247.183   135202670.374         447.293          38.000                                                                  
C07  39588460.614   206147503.311        1119.600          39.000    39588450.139   159406284.388         865.661          41.000  
G25  24300754.478   127701322.583       -3909.973          37.000    24300748.825    99507499.005       -3047.024          37.000  
> 2025 10 30 06 18 04.6000000  0 22                     
G32  21950423.693   115350253.836       -2862.861          45.000    21950417.394    89883286.466       -2230.857          41.000  
G29  23059167.017   121176754.250        -502.622          41.000    23059158.144    94423409.512        -391.333          39.000  
G28  21224282.989   111534360.102       -1160.212          47.000    21224273.178    86909850.039        -903.484          46.000  
G26  20361848.983   107002236.862         758.748          48.000    20361841.459    83378347.447         591.061          45.000  
G31  20627407.963   108397757.371         190.046          49.000    20627397.305    84465743.892         147.849          46.000  
G04  24569364.277   129112862.669        3188.224          34.000    24569362.218   100607442.155        2484.259          38.000  
C33  22488266.710   117102302.113        -621.873          51.000                                                                  
C06  36569141.942   190425120.680        -165.891          46.000    36569125.155   147248711.577        -128.350          49.000  
C14  22617061.808   117772960.532       -2193.705          45.000    22617047.469    91069470.167       -1696.391          50.000  
C16  36996267.802   192649271.980        -198.218          48.000    36996256.080   148968589.880        -153.422          49.000  
C24  21821729.787   113631475.473        -831.461          50.000                                                                  
C26  24366129.987   126880825.982       -2556.989          45.000                                                                  
G03  22886772.588   120270801.069         -30.702          40.000    22886767.121    93717486.896         -24.089          40.000  
G16  22503245.902   118255364.017        3028.711          43.000                                                                  
C09  37720888.078   196422563.642        -155.997          44.000    37720873.458   151886328.105        -120.598          49.000  
C25  23687629.458   123347707.709        1599.799          45.000                                                                  
C13  38309207.833   199486092.325       -2250.636          42.000    38309202.290   154255279.537       -1740.279          45.000  
C08  39133937.282   203780668.073       -2452.805          38.000    39133925.867   157576077.377       -1896.450          44.000  
C10  40519793.456   210997194.081         930.401          36.000    40519794.631   163156481.749         719.692          39.000  
C35  25964243.795   135202652.467         447.557          38.000                                                                  
C07  39588451.994   206147458.533        1119.494          39.000    39588441.540   159406249.759         865.704          41.000  
G25  24300784.218   127701478.968       -3909.685          36.000    24300778.581    99507620.854       -3046.439          37.000  
> 2025 10 30 06 18 04.6400000  0 22                     
G32  21950445.484   115350368.349       -2862.792          44.000    21950439.188    89883375.693       -2230.701          41.000  
G29  23059170.841   121176774.356        -502.652          41.000    23059161.969    94423425.186        -391.656          39.000  
G28  21224291.796   111534406.492       -1159.927          47.000    21224281.987    86909886.169        -903.243          46.000  
G26  20361843.177   107002206.512         758.791          48.000    20361835.688    83378323.798         591.175          45.000  
G31  20627406.522   108397749.768         190.064          49.000    20627395.856    84465737.966         148.022          46.000  
G04  24569340.014   129112735.167        3187.825          34.000    24569337.955   100607342.772        2484.463          38.000  
C33  22488271.454   117102326.986        -621.866          51.000                                                                  
C06  36569143.214   190425127.315        -165.850          46.000    36569126.446   147248716.707        -128.252          49.000  
C14  22617078.680   117773048.280       -2193.713          45.000    22617064.313    91069538.020       -1696.342          50.000  
C16  36996269.330   192649279.899        -198.031          48.000    36996257.604   148968596.011        -153.361          49.000  
C24  21821736.185   113631508.721        -831.343          50.000                                                                  
C26  24366149.647   126880928.245       -2556.735          45.000                                                                  
G03  22886772.815   120270802.289         -30.586          40.000    22886767.351    93717487.825         -23.469          40.000  
G16  22503222.854   118255242.875        3028.603          43.000                                                                  
C09  37720889.252   196422569.865        -155.686          44.000    37720874.655   151886332.924        -120.540          49.000  
C25  23687617.172   123347643.695        1600.171          45.000                                                                  
C13  38309225.127   199486182.326       -2250.169          42.000    38309219.581   154255349.146       -1740.234          45.000  
C08  39133956.094   203780766.185       -2452.854          38.000    39133944.691   157576153.233       -1896.403          43.000  
C10  40519786.314   210997156.833         931.004          36.000    40519787.515   163156452.969         719.635          39.000  
C35  25964240.341   135202634.571         447.511          37.000                                                                  
C07  39588443.386   206147413.739        1119.766          39.000    39588432.934   159406215.129         865.755          41.000  
G25  24300813.968   127701635.343       -3909.327          36.000    24300808.322    99507742.698       -3046.138          37.000  
> 2025 10 30 06 18 04.6800000  0 22                     
G32  21950467.241   115350482.848       -2862.544          44.000    21950460.974    89883464.896       -2230.183          40.000  
G29  23059174.666   121176794.464        -502.695          41.000    23059165.802    94423440.863        -391.912          41.000  
G28  21224300.624   111534452.871       -1159.595          47.000    21224290.807    86909922.301        -903.178          46.000  
G26  20361837.403   107002176.161         758.790          48.000    20361829.912    83378300.153         591.149          45.000  
G31  20627405.075   108397742.167         190.045          49.000    20627394.405    84465732.041         148.090          46.000  
G04  24569315.712   129112607.633        3187.954          34.000    24569313.708   100607243.409        2484.208          38.000  
C33  22488276.247   117102351.851        -621.713          51.000                                                                  
C06  36569144.466   190425133.943        -165.715          46.000    36569127.741   147248721.836        -128.217          49.000  
C14  22617095.546   117773136.031       -2193.771          45.000    22617081.168    91069605.871       -1696.286          50.000  
C16  36996270.851   192649287.816        -197.927          48.000    36996259.170   148968602.140        -153.284          49.000  
C24  21821742.586   113631541.961        -831.140          50.000                                                                  
C26  24366169.246   126881030.514       -2556.700          45.000                                                                  
G03  22886773.040   120270803.490         -30.171          40.000    22886767.572    93717488.766         -23.372          40.000  
G16  22503199.820   118255121.726        3028.673          43.000                                                                  
C09  37720890.462   196422576.078        -155.400          44.000    37720875.862   151886337.746        -120.573          49.000  
C25  23687604.903   123347579.689        1600.214          45.000                                                                  
C13  38309242.405   199486272.325       -2249.962          42.000    38309236.879   154255418.749       -1740.136          45.000  
C08  39133974.942   203780864.283       -2452.598          38.000    39133963.519   157576229.082       -1896.197          43.000  
C10  40519779.143   210997119.616         930.668          36.000    40519780.360   163156424.195         719.428          39.000  
C35  25964236.891   135202616.650         447.970          37.000                                                                  
C07  39588434.794   206147368.958        1119.606          39.000    39588424.341   159406180.478         866.139          41.000  
G25  24300843.731   127701791.727       -3909.376          34.000    24300838.088    99507864.572       -3046.541          37.000  
> 2025 10 30 06 18 04.7200000  0 22                     
G32  21950489.034   115350597.346       -2862.444          44.000    21950482.770    89883554.123       -2230.426          40.000  
G29  23059178.477   121176814.572        -502.739          41.000    23059169.628    94423456.529        -391.808          41.000  
G28  21224309.442   111534499.238       -1159.189          47.000    21224299.637    86909958.449        -903.468          46.000  
G26  20361831.635   107002145.808         758.832          48.000    20361824.106    83378276.501         591.274          45.000  
G31  20627403.636   108397734.561         190.131          49.000    20627392.956    84465726.117         148.108          46.000  
G04  24569291.448   129112480.081        3188.429          34.000    24569289.460   100607144.037        2484.240          38.000  
C33  22488281.035   117102376.717        -621.646          51.000                                                                  
C06  36569145.746   190425140.579        -165.822          46.000    36569128.993   147248726.969        -128.286          49.000  
C14  22617112.413   117773223.785       -2193.840          45.000    22617098.027    91069673.729       -1696.390          50.000  
C16  36996272.332   192649295.747        -198.145          49.000    36996260.710   148968608.263        -153.143          49.000  
C24  21821748.964   113631575.191        -830.844          50.000                                                                  
C26  24366188.899   126881132.778       -2556.592          45.000                                                                  
G03  22886773.268   120270804.702         -30.163          40.000    22886767.800    93717489.702         -23.275          40.000  
G16  22503176.757   118255000.571        3028.833          43.000                                                                  
C09  37720891.626   196422582.309        -155.623          44.000    37720877.079   151886342.568        -120.565          49.000  
C25  23687592.614   123347515.684        1600.177          45.000                                                                  
C13  38309259.694   199486362.336       -2250.146          42.000    38309254.170   154255488.353       -1740.124          45.000  
C08  39133993.775   203780962.375       -2452.392          38.000    39133982.389   157576304.942       -1896.361          43.000  
C10  40519772.025   210997082.416         930.306          36.000    40519773.185   163156395.406         719.666          39.000  
C35  25964233.482   135202598.727         448.146          37.000                                                                  
C07  39588426.177   206147324.144        1120.112          39.000    39588415.738   159406145.844         866.052          41.000  
G25  24300873.506   127701948.123       -3909.791          34.000    24300867.866    99507986.452       -3046.929          37.000  
> 2025 10 30 06 18 04.7600000  0 22                     
G32  21950510.831   115350711.860       -2862.730          44.000    21950504.559    89883643.347       -2230.506          40.000  
G29  23059182.272   121176834.681        -502.775          42.000    23059173.460    94423472.206        -391.913          41.000  
G28  21224318.279   111534545.614       -1159.189          46.000    21224308.461    86909994.594        -903.605          46.000  
G26  20361825.873   107002115.456         758.794          48.000    20361818.318    83378252.849         591.310          45.000  
G31  20627402.185   108397726.959         190.075          49.000    20627391.505    84465720.190         148.163          46.000  
G04  24569267.217   129112352.601        3187.512          34.000    24569265.183   100607044.653        2484.520          38.000  
C33  22488285.838   117102401.584        -621.648          51.000                                                                  
C06  36569147.012   190425147.218        -165.950          46.000    36569130.241   147248732.096        -128.201          49.000  
C14  22617129.275   117773311.533       -2193.776          45.000    22617114.894    91069741.581       -1696.345          50.000  
C16  36996273.817   192649303.670        -198.125          49.000    36996262.212   148968614.385        -153.058          49.000  
C24  21821755.351   113631608.417        -830.634          50.000                                                                  
C26  24366208.540   126881235.046       -2556.638          45.000                                                                  
G03  22886773.489   120270805.899         -29.940          40.000    22886768.031    93717490.632         -23.167          40.000  
G16  22503153.683   118254879.417        3028.880          43.000                                                                  
C09  37720892.814   196422588.532        -155.611          44.000    37720878.286   151886347.377        -120.331          49.000  
C25  23687580.308   123347451.688        1599.976          45.000                                                                  
C13  38309276.983   199486452.343       -2250.153          42.000    38309271.469   154255557.952       -1740.058          45.000  
C08  39134012.646   203781060.467       -2452.319          38.000    39134001.231   157576380.795       -1896.344          43.000  
C10  40519764.868   210997045.195         930.385          36.000    40519766.032   163156366.602         720.011          39.000  
C35  25964230.046   135202580.810         448.057          37.000                                                                  
C07  39588417.572   206147279.337        1120.224          39.000    39588407.137   159406111.215         865.823          42.000  
G25  24300903.295   127702104.519       -3910.004          34.000    24300897.627    99508108.326       -3046.967          37.000  
> 2025 10 30 06 18 04.8000000  0 22                     
G32  21950532.648   115350826.378       -2862.948          44.000    21950526.369    89883732.589       -2230.928          40.000  
G29  23059186.104   121176854.782        -502.610          42.000    23059177.268    94423487.869        -391.749          41.000  
G28  21224327.100   111534592.001       -1159.451          46.000    21224317.285    86910030.739        -903.659          46.000  
G26  20361820.099   107002085.105         758.763          48.000    20361812.545    83378229.197         591.303          45.000  
G31  20627400.712   108397719.351         190.180          49.000    20627390.054    84465714.267         148.089          46.000  
G04  24569242.945                        3188.932          34.000    24569240.915   100606945.271        2484.612          38.000  
C33  22488290.611   117102426.449        -621.611          51.000                                                                  
C06  36569148.332   190425153.844        -165.760          46.000    36569131.495   147248737.219        -128.098          49.000  
C14  22617146.131   117773399.284       -2193.769          45.000    22617131.748    91069809.428       -1696.237          50.000  
C16  36996275.332   192649311.590        -198.060          49.000    36996263.745   148968620.506        -153.017          49.000  
C24  21821761.711   113631641.645        -830.592          50.000                                                                  
C26  24366228.193   126881337.310       -2556.588          45.000                                                                  
G03  22886773.729   120270807.115         -30.202          40.000    22886768.253    93717491.592         -23.723          40.000  
G16  22503130.637   118254758.264        3028.877          43.000                                                                  
C09  37720894.015   196422594.754        -155.632          44.000    37720879.474   151886352.186        -120.220          49.000  
C25  23687568.008   123347387.692        1599.860          45.000                                                                  
C13  38309294.237   199486542.362       -2250.402          42.000    38309288.773   154255627.548       -1739.958          45.000  
C08  39134031.477   203781158.566       -2452.421          38.000    39134020.108   157576456.645       -1896.252          43.000  
C10  40519757.724   210997007.957         930.825          36.000    40519758.866   163156337.823         719.733          39.000  
C35  25964226.606   135202562.888         448.066          37.000                                                                  
C07  39588408.950   206147234.547        1119.994          39.000    39588398.525   159406076.577         865.856          42.000  
G25  24300933.048   127702260.905       -3909.808          34.000    24300927.380    99508230.195       -3046.895          37.000  
> 2025 10 30 06 18 04.8400000  0 22                     
G32  21950554.432   115350940.890       -2862.902          44.000    21950548.169    89883821.813       -2230.776          40.000  
G29  23059189.927   121176874.890        -502.649          42.000    23059181.078    94423503.523        -391.460          41.000  
G28  21224335.945   111534638.387       -1159.583          46.000    21224326.118    86910066.879        -903.595          46.000  
G26  20361814.344   107002054.759         758.676          48.000    20361806.758    83378205.552         591.197          45.000  
G31  20627399.275   108397711.750         190.075          49.000    20627388.604    84465708.340         148.132          46.000  
G04  24569218.692                        3188.803          34.000    24569216.648   100606845.908        2484.254          39.000  
C33  22488295.369   117102451.314        -621.632          51.000                                                                  
C06  36569149.627   190425160.477        -165.790          46.000    36569132.735   147248742.342        -128.077          49.000  
C14  22617162.983   117773487.034       -2193.770          45.000    22617148.593    91069877.282       -1696.277          50.000  
C16  36996276.839   192649319.508        -197.990          49.000    36996265.260   148968626.629        -153.047          49.000  
C24  21821768.044   113631674.879        -830.725          50.000                                                                  
C26  24366247.852   126881439.566       -2556.454          46.000                                                                  
G03  22886773.960   120270808.337         -30.486          40.000    22886768.505    93717492.553         -24.053          40.000  
G16  22503107.573   118254637.113        3028.793          43.000                                                                  
C09  37720895.209   196422600.972        -155.511          44.000    37720880.651   151886356.999        -120.249          49.000  
C25  23687555.729   123347323.686        1600.037          45.000                                                                  
C13  38309311.564   199486632.375       -2250.400          42.000    38309306.062   154255697.154       -1740.109          45.000  
C08  39134050.314   203781256.680       -2452.745          38.000    39134038.959   157576532.503       -1896.362          43.000  
C10  40519750.576   210996970.717         931.106          36.000    40519751.722   163156309.054         719.318          39.000  
C35  25964223.184   135202545.000         447.360          35.000                                                                  
C07  39588400.358   206147189.754        1119.800          39.000    39588389.926   159406041.933         866.021          42.000  
G25  24300962.808   127702417.311       -3910.000          34.000    24300957.146    99508352.043       -3046.381          37.000  
> 2025 10 30 06 18 04.8800000  0 22                     
G32  21950576.207   115351055.411       -2863.081          44.000    21950569.969    89883911.055       -2230.978          40.000  
G29  23059193.739   121176895.001        -502.763          42.000    23059184.914    94423519.192        -391.595          41.000  
G28  21224344.771   111534684.785       -1159.878          46.000    21224334.938    86910103.028        -903.679          46.000  
G26  20361808.583   107002024.413         758.627          48.000    20361800.962    83378181.910         591.041          45.000  
G31  20627397.860   108397704.147         190.051          49.000    20627387.149    84465702.419         148.052          46.000  
G04  24569194.411                        3189.094          34.000    24569192.372   100606746.531        2484.304          39.000  
C33  22488300.116   117102476.185        -621.748          51.000                                                                  
C06  36569150.919   190425167.111        -165.837          46.000    36569133.968   147248747.473        -128.193          49.000  
C14  22617179.818   117773574.792       -2193.897          45.000    22617165.443    91069945.140       -1696.417          50.000  
C16  36996278.377   192649327.428        -198.006          49.000    36996266.777   148968632.759        -153.223          49.000  
C24  21821774.402   113631708.117        -830.890          49.000                                                                  
C26  24366267.477   126881541.834       -2556.619          46.000                                                                  
G03  22886774.201   120270809.559         -30.626          40.000    22886768.730    93717493.500         -23.889          40.000  
G16  22503084.520   118254515.959        3028.813          43.000                                                                  
C09  37720896.390   196422607.198        -155.620          44.000    37720881.839   151886361.817        -120.391          49.000  
C25  23687543.470   123347259.689        1599.963          45.000                                                                  
C13  38309328.832   199486722.383       -2250.268          42.000    38309323.362   154255766.755       -1740.083          45.000  
C08  39134069.173   203781354.777       -2452.626          38.000    39134057.787   157576608.355       -1896.348          43.000  
C10  40519743.440   210996933.498         930.741          36.000    40519744.566   163156280.270         719.426          39.000  
C35  25964219.763   135202527.095         447.303          35.000                                                                  
C07  39588391.732   206147144.960        1119.808          39.000    39588381.284   159406007.289         866.054          42.000  
G25  24300992.561   127702573.722       -3910.297          34.000    24300986.906    99508473.914       -3046.586          37.000  
> 2025 10 30 06 18 04.9200000  0 22                     
G32  21950597.985   115351169.921       -2862.968          44.000    21950591.759    89884000.286       -2230.875          40.000  
G29  23059197.551   121176915.112        -502.838          42.000    23059188.750    94423534.862        -391.683          41.000  
G28  21224353.572   111534731.174       -1159.875          46.000    21224343.774    86910139.171        -903.658          47.000  
G26  20361802.813   107001994.078         758.392          48.000    20361795.179    83378158.261         591.079          45.000  
G31  20627396.425   108397696.549         189.971          49.000    20627385.700    84465696.500         147.947          46.000  
G04  24569170.141                        3188.036          34.000    24569168.120   100606647.183        2483.861          39.000  
C33  22488304.875   117102501.060        -621.892          51.000                                                                  
C06  36569152.192   190425173.748        -165.917          46.000    36569135.236   147248752.606        -128.318          49.000  
C14  22617196.657   117773662.550       -2193.977          45.000    22617182.294    91070012.999       -1696.492          50.000  
C16  36996279.888   192649335.351        -198.072          49.000    36996268.295   148968638.886        -153.239          49.000  
C24  21821780.766   113631741.366        -831.180          49.000                                                                  
C26  24366287.103   126881644.098       -2556.646          46.000                                                                  
G03  22886774.455   120270810.794         -30.885          40.000    22886768.966    93717494.451         -23.855          40.000  
G16  22503061.486   118254394.810        3028.723          43.000                                                                  
C09  37720897.599   196422613.434        -155.840          44.000    37720883.048   151886366.627        -120.313          49.000  
C25  23687531.192   123347195.683        1600.116          44.000                                                                  
C13  38309346.112   199486812.391       -2250.251          42.000    38309340.657   154255836.359       -1740.121          45.000  
C08  39134088.003   203781452.883       -2452.660          38.000    39134076.619   157576684.214       -1896.485          43.000  
C10  40519736.309   210996896.287         930.367          36.000    40519737.414   163156251.478         719.684          39.000  
C35  25964216.339   135202509.193         447.379          35.000                                                                  
C07  39588383.142   206147100.155        1119.993          39.000    39588372.701   159405972.641         866.136          42.000  
G25  24301022.308   127702730.147       -3910.794          34.000    24301016.679    99508595.792       -3046.867          37.000  
> 2025 10 30 06 18 04.9600000  0 22                     
G32  21950619.777   115351284.439       -2863.033          44.000    21950613.540    89884089.511       -2230.707          40.000  
G29  23059201.378   121176935.232        -502.980          42.000    23059192.570    94423550.543        -392.005          41.000  
G28  21224362.397   111534777.568       -1159.948          46.000    21224352.611    86910175.330        -903.902          47.000  
G26  20361797.034   107001963.739         758.356          48.000    20361789.395    83378134.626         590.881          45.000  
G31  20627394.989   108397688.956         189.817          49.000    20627384.258    84465690.580         147.923          46.000  
G04  24569145.873                        3187.882          34.000    24569143.829   100606547.780        2484.590          39.000  
C33  22488309.629   117102525.943        -622.097          51.000                                                                  
C06  36569153.487   190425180.383        -165.928          46.000    36569136.496   147248757.743        -128.458          49.000  
C14  22617213.521   117773750.307       -2193.988          45.000    22617199.120    91070080.861       -1696.585          50.000  
C16  36996281.402   192649343.281        -198.226          49.000    36996269.816   148968645.018        -153.320          49.000  
C24  21821787.147   113631774.613        -831.283          49.000                                                                  
C26  24366306.722   126881746.376       -2556.899          45.000                                                                  
G03  22886774.674   120270812.021         -30.824          40.000    22886769.204    93717495.412         -24.006          40.000  
G16  22503038.448   118254273.673        3028.472          43.000                                                                  
C09  37720898.788   196422619.673        -156.027          44.000    37720884.224   151886371.450        -120.511          48.000  
C25  23687518.902   123347131.687        1599.982          44.000                                                                  
C13  38309363.394   199486902.418       -2250.581          42.000    38309357.940   154255905.964       -1740.151          44.000  
C08  39134106.811   203781550.970       -2452.322          38.000    39134095.459   157576760.079       -1896.675          43.000  
C10  40519729.158   210996859.062         930.488          36.000    40519730.278   163156222.703         719.504          39.000  
C35  25964212.877   135202491.266         447.948          35.000                                                                  
C07  39588374.538   206147055.369        1119.726          39.000    39588364.125   159405938.019         865.715          42.000  
G25  24301052.088   127702886.546       -3910.471          34.000    24301046.464    99508717.676       -3047.018          37.000  
> 2025 10 30 06 18 05.0000000  0 22                     
G32  21950641.591   115351398.968       -2863.221          44.000    21950635.326    89884178.751       -2230.906          40.000  
G29  23059205.210   121176955.361        -503.262          42.000    23059196.402    94423566.216        -392.008          41.000  
G28  21224371.217   111534823.959       -1159.917          46.000    21224361.435    86910211.487        -903.993          47.000  
G26  20361791.259   107001933.405         758.283          48.000    20361783.638    83378110.996         590.702          46.000  
G31  20627393.540   108397681.365         189.738          49.000    20627382.818    84465684.663         147.886          46.000  
G04  24569121.600                        3187.689          34.000    24569119.565   100606448.420        2484.185          39.000  
C33  22488314.421   117102550.827        -622.181          51.000                                                                  
C06  36569154.752   190425187.029        -166.158          46.000    36569137.752   147248762.876        -128.433          49.000  
C14  22617230.359   117773838.075       -2194.202          45.000    22617215.992    91070148.729       -1696.728          50.000  
C16  36996282.943   192649351.211        -198.305          49.000    36996271.334   148968651.145        -153.258          49.000  
C24  21821793.549   113631807.857        -831.253          49.000                                                                  
C26  24366326.355   126881848.651       -2556.997          45.000                                                                  
G03  22886774.901   120270813.246         -30.753          40.000    22886769.452    93717496.375         -24.092          40.000  
G16  22503015.406   118254152.545        3028.185          43.000                                                                  
C09  37720900.008   196422625.902        -155.902          43.000    37720885.413   151886376.272        -120.597          48.000  
C25  23687506.608   123347067.697        1599.744          44.000                                                                  
C13  38309380.682   199486992.436       -2250.592          42.000    38309375.244   154255975.562       -1740.020          44.000  
C08  39134125.652   203781649.053       -2452.063          38.000    39134114.305   157576835.946       -1896.806          43.000  
C10  40519722.026   210996821.849         930.431          35.000    40519723.102   163156193.917         719.573          39.000  
C35  25964209.434   135202473.362         447.800          35.000                                                                  
C07  39588365.938   206147010.593        1119.406          39.000    39588355.553   159405903.395         865.534          42.000  
G25  24301081.848   127703042.920       -3909.841          34.000    24301076.225    99508839.541       -3046.786          37.000  
> 2025 10 30 06 18 05.0400000  0 22                     
G32  21950663.374   115351513.485       -2863.051          44.000    21950657.115    89884267.998       -2231.162          40.000  
G29  23059209.034   121176975.478        -503.118          42.000    23059200.237    94423581.898        -392.117          41.000  
G28  21224380.043   111534870.356       -1159.979          47.000    21224370.296    86910247.641        -903.980          47.000  
G26  20361785.468   107001903.062         758.447          48.000    20361777.851    83378087.354         590.880          45.000  
G31  20627392.083   108397673.773         189.713          49.000    20627381.352    84465678.743         147.949          46.000  
G04  24569097.311   129111459.825        3187.917          34.000    24569095.307   100606349.063        2483.927          39.000  
C33  22488319.210   117102575.703        -622.056          51.000                                                                  
C06  36569156.027   190425193.662        -166.012          46.000    36569139.043   147248768.013        -128.488          49.000  
C14  22617247.216   117773925.833       -2194.077          45.000    22617232.841    91070216.591       -1696.654          50.000  
C16  36996284.468   192649359.142        -198.347          49.000    36996272.823   148968657.278        -153.329          49.000  
C24  21821799.952   113631841.104        -831.241          49.000                                                                  
C26  24366345.993   126881950.920       -2556.904          45.000                                                                  
G03  22886775.120   120270814.476         -30.810          40.000    22886769.686    93717497.312         -23.636          40.000  
G16  22502992.354   118254031.404        3028.318          43.000                                                                  
C09  37720901.233   196422632.129        -155.760          43.000    37720886.610   151886381.090        -120.543          48.000  
C25  23687494.319   123347003.709        1599.622          44.000                                                                  
C13  38309397.986   199487082.451       -2250.496          42.000    38309392.529   154256045.175       -1740.232          44.000  
C08  39134144.495   203781747.175       -2452.651          38.000    39134133.126   157576911.809       -1896.713          43.000  
C10  40519714.854   210996784.625         930.563          35.000    40519715.964   163156165.129         719.694          39.000  
C35  25964205.998   135202455.466         447.483          35.000                                                                  
C07  39588357.346   206146965.807        1119.505          39.000    39588346.979   159405868.760         865.676          42.000  
G25  24301111.610   127703199.307       -3909.727          34.000    24301105.973    99508961.421       -3046.948          37.000  
> 2025 10 30 06 18 05.0800000  0 22                     
G32  21950685.156   115351628.007       -2863.072          43.000    21950678.899    89884357.227       -2230.893          40.000  
G29  23059212.853   121176995.584        -502.834          43.000    23059204.074    94423597.573        -392.020          41.000  
G28  21224388.871   111534916.752       -1159.993          47.000    21224379.126    86910283.788        -903.822          47.000  
G26  20361779.709   107001872.726         758.409          48.000    20361772.064    83378063.706         591.066          45.000  
G31  20627390.643   108397666.171         189.905          49.000    20627379.919    84465672.821         147.998          46.000  
G04  24569073.047   129111332.288        3188.121          34.000    24569071.021   100606249.674        2484.370          39.000  
C33  22488324.018   117102600.578        -621.954          51.000                                                                  
C06  36569157.305   190425200.291        -165.861          46.000    36569140.329   147248773.139        -128.292          49.000  
C14  22617264.049   117774013.591       -2193.987          45.000    22617249.674    91070284.451       -1696.564          50.000  
C16  36996286.021   192649367.062        -198.144          49.000    36996274.333   148968663.398        -153.126          49.000  
C24  21821806.344   113631874.343        -831.103          49.000                                                                  
C26  24366365.641   126882053.180       -2556.678          45.000                                                                  
G03  22886775.356   120270815.698         -30.625          40.000    22886769.919    93717498.274         -23.905          40.000  
G16  22502969.279   118253910.257        3028.563          43.000                                                                  
C09  37720902.430   196422638.356        -155.726          43.000    37720887.812   151886385.901        -120.384          48.000  
C25  23687482.055   123346939.712        1599.780          44.000                                                                  
C13  38309415.262   199487172.461       -2250.340          42.000    38309409.837   154256114.793       -1740.430          44.000  
C08  39134163.336   203781845.305       -2453.167          38.000    39134151.956   157576987.671       -1896.650          43.000  
C10  40519707.707   210996747.399         930.638          35.000    40519708.814   163156136.350         719.532          39.000  
C35  25964202.569   135202437.572         447.238          35.000                                                                  
C07  39588348.761   206146920.996        1120.048          39.000    39588338.348   159405834.115         865.965          42.000  
G25  24301141.365   127703355.714       -3910.002          34.000    24301135.727    99509083.282       -3046.740          37.000  
> 2025 10 30 06 18 05.1200000  0 22                     
G32  21950706.926   115351742.522       -2862.963          43.000    21950700.680    89884446.459       -2230.819          40.000  
G29  23059216.681   121177015.701        -502.894          42.000    23059207.917    94423613.238        -391.749          41.000  
G28  21224397.681   111534963.145       -1159.909          47.000    21224387.962    86910319.930        -903.645          47.000  
G26  20361773.959   107001842.387         758.415          48.000    20361766.293    83378040.060         591.165          45.000  
G31  20627389.171   108397658.573         189.954          49.000    20627378.471    84465666.902         147.986          46.000  
G04  24569048.774   129111204.731        3188.567          34.000    24569046.757   100606150.295        2484.480          39.000  
C33  22488328.815   117102625.452        -621.879          51.000                                                                  
C06  36569158.532   190425206.929        -165.909          46.000    36569141.617   147248778.269        -128.257          49.000  
C14  22617280.914   117774101.358       -2194.135          46.000    22617266.526    91070352.309       -1696.509          50.000  
C16  36996287.519   192649374.983        -198.075          49.000    36996275.843   148968669.526        -153.169          49.000  
C24  21821812.738   113631907.585        -831.059          49.000                                                                  
C26  24366385.316   126882155.443       -2556.584          45.000                                                                  
G03  22886775.593   120270816.917         -30.502          40.000    22886770.152    93717499.226         -23.815          39.000  
G16  22502946.233   118253789.112        3028.610          43.000                                                                  
C09  37720903.627   196422644.582        -155.676          43.000    37720888.997   151886390.715        -120.354          48.000  
C25  23687469.792   123346875.715        1599.902          44.000                                                                  
C13  38309432.548   199487262.481       -2250.441          42.000    38309427.114   154256184.406       -1740.409          44.000  
C08  39134182.187   203781943.412       -2452.957          38.000    39134170.769   157577063.526       -1896.505          43.000  
C10  40519700.568   210996710.194         930.247          35.000    40519701.655   163156107.560         719.647          39.000  
C35  25964199.136   135202419.685         447.035          35.000                                                                  
C07  39588340.136   206146876.210        1119.831          39.000    39588329.766   159405799.487         865.782          42.000  
G25  24301171.163   127703512.129       -3910.310          34.000    24301165.479    99509205.150       -3046.746          37.000  
> 2025 10 30 06 18 05.1600000  0 22                     
G32  21950728.729   115351857.057       -2863.275          43.000    21950722.474    89884535.712       -2231.205          40.000  
G29  23059220.505   121177035.816        -502.901          43.000    23059211.743    94423628.916        -391.832          41.000  
G28  21224406.494   111535009.542       -1159.945          47.000    21224396.777    86910356.074        -903.614          47.000  
G26  20361768.179   107001812.050         758.403          48.000    20361760.515    83378016.418         591.107          45.000  
G31  20627387.736   108397650.975         189.960          49.000    20627377.028    84465660.984         147.948          46.000  
G04  24569024.534   129111077.203        3188.318          34.000    24569022.484   100606050.927        2484.327          39.000  
C33  22488333.580   117102650.332        -621.982          50.000                                                                  
C06  36569159.793   190425213.567        -165.962          46.000    36569142.893   147248783.393        -128.141          49.000  
C14  22617297.761   117774189.118       -2194.069          46.000    22617283.368    91070420.171       -1696.555          50.000  
C16  36996289.027   192649382.906        -198.071          49.000    36996277.416   148968675.652        -153.171          49.000  
C24  21821819.088   113631940.830        -831.127          49.000                                                                  
C26  24366404.915   126882257.709       -2556.628          45.000                                                                  
G03  22886775.832   120270818.141         -30.567          40.000    22886770.381    93717500.186         -23.974          39.000  
G16  22502923.176   118253667.976        3028.475          43.000                                                                  
C09  37720904.822   196422650.817        -155.842          43.000    37720890.207   151886395.527        -120.311          48.000  
C25  23687457.533   123346811.715        1600.006          44.000                                                                  
C13  38309449.804   199487352.503       -2250.534          42.000    38309444.400   154256253.999       -1740.029          44.000  
C08  39134201.051   203782041.503       -2452.480          38.000    39134189.576   157577139.377       -1896.329          43.000  
C10  40519693.436   210996672.948         930.770          35.000    40519694.496   163156078.791         719.361          39.000  
C35  25964195.691   135202401.774         447.527          35.000                                                                  
C07  39588331.511   206146831.418        1119.768          39.000    39588321.176   159405764.853         865.811          42.000  
G25  24301200.907   127703668.551       -3910.554          35.000    24301195.243    99509327.027       -3046.925          37.000  
> 2025 10 30 06 18 05.2000000  0 22                     
G32  21950750.509   115351971.574       -2863.108          43.000    21950744.264    89884624.953       -2231.206          40.000  
G29  23059224.315   121177055.936        -503.021          43.000    23059215.567    94423644.592        -391.813          41.000  
G28  21224415.321   111535055.930       -1159.819          47.000    21224405.594    86910392.228        -903.777          47.000  
G26  20361762.405   107001781.711         758.409          48.000    20361754.763    83377992.786         590.895          45.000  
G31  20627386.323   108397643.379         189.916          49.000    20627375.593    84465655.064         147.930          46.000  
G04  24569000.268   129110949.683        3188.038          33.000    24568998.226   100605951.553        2484.329          39.000  
C33  22488338.343   117102675.214        -622.064          50.000                                                                  
C06  36569161.069   190425220.197        -165.836          46.000    36569144.191   147248788.523        -128.198          49.000  
C14  22617314.607   117774276.879       -2194.050          46.000    22617300.198    91070488.036       -1696.656          50.000  
C16  36996290.535   192649390.829        -198.092          49.000    36996278.965   148968681.772        -153.061          49.000  
C24  21821825.433   113631974.077        -831.194          50.000                                                                  
C26  24366424.548   126882359.970       -2556.566          45.000                                                                  
G03  22886776.072   120270819.377         -30.844          40.000    22886770.628    93717501.145         -24.023          39.000  
G16  22502900.109   118253546.825        3028.653          43.000                                                                  
C09  37720906.028   196422657.045        -155.777          43.000    37720891.401   151886400.350        -120.497          48.000  
C25  23687445.246   123346747.720        1599.939          44.000                                                                  
C13  38309467.077   199487442.518       -2250.510          42.000    38309461.683   154256323.605       -1740.068          44.000  
C08  39134219.909   203782139.589       -2452.152          38.000    39134208.434   157577215.239       -1896.479          43.000  
C10  40519686.272   210996635.737         930.429          35.000    40519687.341   163156050.006         719.479          39.000  
C35  25964192.260   135202383.886         447.310          35.000                                                                  
C07  39588322.891   206146786.626        1119.741          39.000    39588312.553   159405730.208         866.034          42.000  
G25  24301230.669   127703824.949       -3910.215          35.000    24301225.006    99509448.910       -3047.118          37.000  
> 2025 10 30 06 18 05.2400000  0 22                     
G32  21950772.285   115352086.086       -2862.866          43.000    21950766.056    89884714.188       -2231.019          40.000  
G29  23059228.134   121177076.053        -502.968          43.000    23059219.395    94423660.271        -391.947          41.000  
G28  21224424.142   111535102.319       -1159.777          47.000    21224414.431    86910428.389        -903.981          47.000  
G26  20361756.652   107001751.376         758.353          48.000    20361749.003    83377969.152         590.810          45.000  
G31  20627384.872   108397635.782         189.910          49.000    20627374.137    84465649.144         147.954          46.000  
G04  24568975.986   129110822.174        3187.699          33.000    24568973.961   100605852.181        2484.303          39.000  
C33  22488343.124   117102700.096        -622.068          50.000                                                                  
C06  36569162.353   190425226.826        -165.760          46.000    36569145.472   147248793.647        -128.126          49.000  
C14  22617331.453   117774364.634       -2193.923          46.000    22617317.047    91070555.900       -1696.648          50.000  
C16  36996292.003   192649398.749        -198.020          49.000    36996280.499   148968687.900        -153.168          49.000  
C24  21821831.815   113632007.324        -831.230          50.000                                                                  
C26  24366444.190   126882462.242       -2556.740          45.000                                                                  
G03  22886776.315   120270820.606         -30.848          40.000    22886770.871    93717502.112         -24.191          39.000  
G16  22502877.048   118253425.679        3028.670          43.000                                                                  
C09  37720907.225   196422663.267        -155.638          43.000    37720892.599   151886405.167        -120.463          48.000  
C25  23687432.970   123346683.723        1599.915          44.000                                                                  
C13  38309484.370   199487532.531       -2250.409          42.000    38309478.970   154256393.214       -1740.207          44.000  
C08  39134238.752   203782237.700       -2452.412          38.000    39134227.297   157577291.099       -1896.505          43.000  
C10  40519679.107   210996598.538         930.005          35.000    40519680.195   163156021.239         719.239          39.000  
C35  25964188.795   135202365.988         447.361          36.000                                                                  
C07  39588314.314   206146741.851        1119.473          39.000    39588303.935   159405695.573         865.929          42.000  
G25  24301260.434   127703981.352       -3910.200          35.000    24301254.777    99509570.774       -3046.830          37.000  
> 2025 10 30 06 18 05.2800000  0 22                     
G32  21950794.069   115352200.607       -2862.966          43.000    21950787.868    89884803.423       -2230.971          40.000  
G29  23059231.963   121177096.171        -502.994          42.000    23059223.209    94423675.943        -391.871          41.000  
G28  21224432.986   111535148.715       -1159.886          47.000    21224423.254    86910464.540        -903.921          47.000  
G26  20361750.870   107001721.044         758.266          48.000    20361743.225    83377945.515         590.867          45.000  
G31  20627383.401   108397628.182         189.978          49.000    20627372.688    84465643.225         147.948          46.000  
G04  24568951.732   129110694.644        3187.932          33.000    24568949.681   100605752.803        2484.366          39.000  
C33  22488347.925   117102724.979        -622.086          51.000                                                                  
C06  36569163.631   190425233.458        -165.785          46.000    36569146.746   147248798.782        -128.259          49.000  
C14  22617348.305   117774452.395       -2194.002          46.000    22617333.859    91070623.761       -1696.603          50.000  
C16  36996293.502   192649406.674        -198.080          49.000    36996282.022   148968694.029        -153.218          49.000  
C24  21821838.213   113632040.565        -831.116          50.000                                                                  
C26  24366463.821   126882564.509       -2556.750          45.000                                                                  
G03  22886776.553   120270821.846         -31.002          40.000    22886771.103    93717503.069         -24.023          39.000  
G16  22502853.998   118253304.542        3028.503          43.000                                                                  
C09  37720908.427   196422669.498        -155.728          43.000    37720893.811   151886409.981        -120.425          48.000  
C25  23687420.680   123346619.728        1599.811          44.000                                                                  
C13  38309501.644   199487622.547       -2250.422          42.000    38309496.280   154256462.817       -1740.144          44.000  
C08  39134257.596   203782335.799       -2452.440          38.000    39134246.124   157577366.954       -1896.479          43.000  
C10  40519671.956   210996561.327         930.019          35.000    40519673.028   163155992.456         719.328          39.000  
C35  25964185.347   135202348.082         447.524          36.000                                                                  
C07  39588305.713   206146697.061        1119.591          39.000    39588295.319   159405660.940         865.856          42.000  
G25  24301290.186   127704137.727       -3909.684          35.000    24301284.551    99509692.654       -3046.945          37.000  
> 2025 10 30 06 18 05.3200000  0 22                     
G32  21950815.879   115352315.143       -2863.296          43.000    21950809.671    89884892.655       -2230.904          40.000  
G29  23059235.804   121177116.295        -503.119          42.000    23059227.030    94423691.633        -392.095          41.000  
G28  21224441.804   111535195.113       -1159.950          47.000    21224432.075    86910500.693        -903.925          47.000  
G26  20361745.104   107001690.721         758.055          48.000    20361737.460    83377921.884         590.774          45.000  
G31  20627381.963   108397620.593         189.781          49.000    20627371.260    84465637.310         147.849          46.000  
G04  24568927.456   129110567.122        3188.043          33.000    24568925.414   100605653.433        2484.244          39.000  
C33  22488352.718   117102749.866        -622.180          51.000                                                                  
C06  36569164.905   190425240.094        -165.870          46.000    36569148.038   147248803.912        -128.306          49.000  
C14  22617365.139   117774540.158       -2194.092          46.000    22617350.702    91070691.625       -1696.641          50.000  
C16  36996295.021   192649414.595        -198.067          49.000    36996283.550   148968700.164        -153.372          49.000  
C24  21821844.542   113632073.817        -831.248          50.000                                                                  
C26  24366483.448   126882666.785       -2556.913          45.000                                                                  
G03  22886776.801   120270823.081         -30.936          40.000    22886771.336    93717504.032         -24.042          39.000  
G16  22502830.967   118253183.415        3028.226          43.000                                                                  
C09  37720909.616   196422675.723        -155.638          43.000    37720895.041   151886414.799        -120.457          48.000  
C25  23687408.381   123346555.741        1599.664          44.000                                                                  
C13  38309518.912   199487712.568       -2250.528          42.000    38309513.572   154256532.429       -1740.293          44.000  
C08  39134276.431   203782433.894       -2452.432          38.000    39134264.966   157577442.821       -1896.623          43.000  
C10  40519664.798   210996524.093         930.585          35.000    40519665.887   163155963.683         719.254          39.000  
C35  25964181.926   135202330.193         447.367          36.000                                                                  
C07  39588297.131   206146652.262        1119.804          39.000    39588286.714   159405626.307         865.820          42.000  
G25  24301319.952   127704294.138       -3910.004          35.000    24301314.312    99509814.528       -3046.974          36.000  
> 2025 10 30 06 18 05.3600000  0 22                     
G32  21950837.699   115352429.684       -2863.568          43.000    21950831.479    89884981.914       -2231.324          40.000  
G29  23059239.633   121177136.430        -503.375          43.000    23059230.870    94423707.318        -392.163          41.000  
G28  21224450.636   111535241.514       -1160.052          47.000    21224440.912    86910536.851        -903.984          47.000  
G26  20361739.324   107001660.399         757.952          48.000    20361731.695    83377898.251         590.743          45.000  
G31  20627380.549   108397613.010         189.584          49.000    20627369.801    84465631.396         147.794          46.000  
G04  24568903.211   129110439.618        3187.728          33.000    24568901.149   100605554.080        2483.899          39.000  
C33  22488357.478   117102774.761        -622.369          51.000                                                                  
C06  36569166.193   190425246.739        -166.058          46.000    36569149.308   147248809.053        -128.508          49.000  
C14  22617381.988   117774627.936       -2194.395          46.000    22617367.557    91070759.499       -1696.824          50.000  
C16  36996296.508   192649422.528        -198.282          49.000    36996285.058   148968706.290        -153.303          49.000  
C24  21821850.922   113632107.073        -831.416          50.000                                                                  
C26  24366503.085   126882769.052       -2556.849          45.000                                                                  
G03  22886777.054   120270824.319         -30.986          40.000    22886771.577    93717505.001         -24.175          39.000  
G16  22502807.907   118253062.283        3028.180          43.000                                                                  
C09  37720910.807   196422681.956        -155.825          43.000    37720896.254   151886419.616        -120.456          48.000  
C25  23687396.076   123346491.753        1599.615          44.000                                                                  
C13  38309536.187   199487802.603       -2250.826          42.000    38309530.864   154256602.047       -1740.454          44.000  
C08  39134295.260   203782532.012       -2452.856          38.000    39134283.812   157577518.681       -1896.550          43.000  
C10  40519657.622   210996486.845         931.052          35.000    40519658.721   163155934.886         719.601          39.000  
C35  25964178.479   135202312.295         447.320          36.000                                                                  
C07  39588288.511   206146607.463        1119.944          39.000    39588278.102   159405591.680         865.670          42.000  
G25  24301349.737   127704450.554       -3910.341          35.000    24301344.074    99509936.368       -3046.311          36.000  
> 2025 10 30 06 18 05.4000000  0 22                     
G32  21950859.505   115352544.222       -2863.623          43.000    21950853.270    89885071.161       -2231.342          40.000  
G29  23059243.465   121177156.570        -503.552          43.000    23059234.698    94423723.007        -392.242          41.000  
G28  21224459.474   111535287.932       -1160.385          47.000    21224449.752    86910573.013        -904.114          47.000  
G26  20361733.548   107001630.077         757.961          48.000    20361725.932    83377874.629         590.571          45.000  
G31  20627379.108   108397605.434         189.363          49.000    20627368.370    84465625.500         147.444          46.000  
G04  24568878.945   129110312.105        3187.772          33.000    24568876.896   100605454.723        2483.781          39.000  
C33  22488362.229   117102799.665        -622.625          51.000                                                                  
C06  36569167.470   190425253.395        -166.361          46.000    36569150.572   147248814.197        -128.660          49.000  
C14  22617398.858   117774715.727       -2194.750          46.000    22617384.425    91070827.376       -1696.974          50.000  
C16  36996298.004   192649430.468        -198.510          49.000    36996286.577   148968712.429        -153.444          49.000  
C24  21821857.281   113632140.334        -831.559          50.000                                                                  
C26  24366522.732   126882871.334       -2557.038          45.000                                                                  
G03  22886777.294   120270825.587         -31.524          40.000    22886771.803    93717505.972         -24.261          39.000  
G16  22502784.867   118252941.158        3028.083          43.000                                                                  
C09  37720912.012   196422688.193        -155.924          43.000    37720897.451   151886424.447        -120.715          48.000  
C25  23687383.791   123346427.777        1599.426          44.000                                                                  
C13  38309553.497   199487892.633       -2250.829          42.000    38309548.134   154256671.658       -1740.371          44.000  
C08  39134314.102   203782630.135       -2453.169          38.000    39134302.662   157577594.560       -1896.875          43.000  
C10  40519650.469   210996449.625         930.803          35.000    40519651.590   163155906.120         719.296          39.000  
C35  25964175.032   135202294.420         446.926          36.000                                                                  
C07  39588279.899   206146562.686        1119.564          39.000    39588269.502   159405557.052         865.635          42.000  
G25  24301379.510   127704606.973       -3910.611          35.000    24301373.823    99510058.256       -3046.830          36.000  
> 2025 10 30 06 18 05.4400000  0 22                     
G32  21950881.307   115352658.755       -2863.510          43.000    21950875.058    89885160.422       -2231.555          40.000  
G29  23059247.289   121177176.711        -503.656          43.000    23059238.537    94423738.701        -392.372          41.000  
G28  21224468.335   111535334.338       -1160.311          47.000    21224458.596    86910609.169        -904.020          47.000  
G26  20361727.758   107001599.756         757.950          48.000    20361720.166    83377851.011         590.417          45.000  
G31  20627377.651   108397597.848         189.488          49.000    20627366.915    84465619.594         147.470          46.000  
G04  24568854.662   129110184.541        3188.687          33.000    24568852.622   100605355.347        2484.135          39.000  
C33  22488367.034   117102824.563        -622.619          51.000                                                                  
C06  36569168.761   190425260.038        -166.263          46.000    36569151.835   147248819.336        -128.625          49.000  
C14  22617415.725   117774803.504       -2194.652          46.000    22617401.252    91070895.255       -1697.059          50.000  
C16  36996299.560   192649438.397        -198.392          49.000    36996288.092   148968718.564        -153.459          49.000  
C24  21821863.674   113632173.595        -831.623          50.000                                                                  
C26  24366542.361   126882973.619       -2557.209          45.000                                                                  
G03  22886777.527   120270826.844         -31.625          40.000    22886772.039    93717506.953         -24.517          39.000  
G16  22502761.821   118252820.030        3028.106          43.000                                                                  
C09  37720913.180   196422694.430        -155.984          43.000    37720898.628   151886429.276        -120.806          48.000  
C25  23687371.523   123346363.803        1599.280          44.000                                                                  
C13  38309570.774   199487982.663       -2250.859          42.000    38309565.449   154256741.281       -1740.557          44.000  
C08  39134332.933   203782728.249       -2453.088          38.000    39134321.489   157577670.434       -1896.951          43.000  
C10  40519643.330   210996412.433         930.010          35.000    40519644.439   163155877.359         719.066          38.000  
C35  25964171.601   135202276.563         446.385          36.000                                                                  
C07  39588271.294   206146517.916        1119.259          39.000    39588260.865   159405522.424         865.660          42.000  
G25  24301409.281   127704763.382       -3910.419          35.000    24301403.595    99510180.150       -3047.295          36.000  
> 2025 10 30 06 18 05.4800000  0 22                     
G32  21950903.091   115352773.303       -2863.667          43.000    21950896.846    89885249.676       -2231.535          40.000  
G29  23059251.129   121177196.853        -503.683          43.000    23059242.385    94423754.397        -392.439          41.000  
G28  21224477.168   111535380.754       -1160.452          47.000    21224467.434    86910645.339        -904.194          47.000  
G26  20361722.006   107001569.445         757.802          48.000    20361714.397    83377827.389         590.425          45.000  
G31  20627376.209   108397590.272         189.408          49.000    20627365.457    84465613.688         147.539          46.000  
G04  24568830.406   129110057.029        3188.250          33.000    24568828.352   100605255.985        2484.081          39.000  
C33  22488371.819   117102849.467        -622.653          51.000                                                                  
C06  36569170.018   190425266.689        -166.339          46.000    36569153.078   147248824.477        -128.640          49.000  
C14  22617432.599   117774891.281       -2194.554          46.000    22617418.094    91070963.131       -1697.003          50.000  
C16  36996301.125   192649446.336        -198.491          49.000    36996289.588   148968724.705        -153.553          49.000  
C24  21821870.077   113632206.858        -831.663          50.000                                                                  
C26  24366562.035   126883075.893       -2557.076          45.000                                                                  
G03  22886777.761   120270828.092         -31.438          40.000    22886772.287    93717507.930         -24.532          39.000  
G16  22502738.774   118252698.913        3027.910          43.000                                                                  
C09  37720914.387   196422700.683        -156.279          43.000    37720899.838   151886434.103        -120.771          48.000  
C25  23687359.230   123346299.823        1599.396          44.000                                                                  
C13  38309588.058   199488072.692       -2250.853          42.000    38309582.714   154256810.899       -1740.543          44.000  
C08  39134351.797   203782826.373       -2453.169          38.000    39134340.337   157577746.300       -1896.810          43.000  
C10  40519636.189   210996375.252         929.418          35.000    40519637.313   163155848.582         719.294          38.000  
C35  25964168.182   135202258.676         446.771          36.000                                                                  
C07  39588262.710   206146473.138        1119.270          39.000    39588252.253   159405487.792         865.733          42.000  
G25  24301439.040   127704919.804       -3910.560          35.000    24301433.371    99510302.042       -3047.469          36.000  
> 2025 10 30 06 18 05.5200000  0 22                     
G32  21950924.897   115352887.841       -2863.573          43.000    21950918.630    89885338.912       -2231.141          40.000  
G29  23059254.944   121177216.986        -503.511          43.000    23059246.217    94423770.097        -392.543          41.000  
G28  21224485.998   111535427.163       -1160.342          47.000    21224476.269    86910681.503        -904.174          47.000  
G26  20361716.238   107001539.129         757.803          48.000    20361708.629    83377803.766         590.457          45.000  
G31  20627374.776   108397582.696         189.366          49.000    20627364.008    84465607.776         147.699          46.000  
G04  24568806.155   129109929.521        3187.943          33.000    24568804.071   100605156.632        2483.860          39.000  
C33  22488376.617   117102874.366        -622.581          51.000                                                                  
C06  36569171.301   190425273.340        -166.346          46.000    36569154.339   147248829.615        -128.558          49.000  
C14  22617449.458   117774979.059       -2194.489          46.000    22617434.956    91071031.008       -1696.982          50.000  
C16  36996302.687   192649454.276        -198.527          49.000    36996291.119   148968730.838        -153.439          49.000  
C24  21821876.476   113632240.117        -831.580          50.000                                                                  
C26  24366581.673   126883178.171       -2557.012          45.000                                                                  
G03  22886777.990   120270829.326         -31.053          40.000    22886772.533    93717508.911         -24.611          39.000  
G16  22502715.700   118252577.788        3027.951          43.000                                                                  
C09  37720915.584   196422706.932        -156.336          43.000    37720901.052   151886438.926        -120.668          48.000  
C25  23687346.930   123346235.840        1599.512          44.000                                                                  
C13  38309605.354   199488162.722       -2250.826          42.000    38309600.026   154256880.514       -1740.455          44.000  
C08  39134370.636   203782924.480       -2452.875          38.000    39134359.178   157577822.163       -1896.719          43.000  
C10  40519629.052   210996338.036         929.911          35.000    40519630.185   163155819.818         719.167          38.000  
C35  25964164.759   135202240.779         447.200          36.000                                                                  
C07  39588254.122   206146428.363        1119.210          39.000    39588243.614   159405453.170         865.596          42.000  
G25  24301468.781   127705076.210       -3910.382          35.000    24301463.144    99510423.917       -3047.140          36.000  
> 2025 10 30 06 18 05.5600000  0 22                     
G32  21950946.697   115353002.384       -2863.600          43.000    21950940.412    89885428.159       -2231.088          40.000  
G29  23059258.756   121177237.113        -503.286          43.000    23059250.050    94423785.787        -392.383          41.000  
G28  21224494.834   111535473.567       -1160.216          47.000    21224485.085    86910717.660        -904.038          47.000  
G26  20361710.433   107001508.812         757.841          48.000    20361702.856    83377780.137         590.619          45.000  
G31  20627373.338   108397575.113         189.471          49.000    20627362.540    84465601.864         147.767          46.000  
G04  24568781.885   129109802.004        3187.966          33.000    24568779.812   100605057.252        2484.270          39.000  
C33  22488381.444   117102899.264        -622.504          51.000                                                                  
C06  36569172.585   190425279.976        -166.088          46.000    36569155.604   147248834.751        -128.466          49.000  
C14  22617466.328   117775066.834       -2194.414          46.000    22617451.811    91071098.885       -1696.963          50.000  
C16  36996304.223   192649462.204        -198.349          49.000    36996292.617   148968736.970        -153.353          49.000  
C24  21821882.888   113632273.376        -831.534          50.000                                                                  
C26  24366601.310   126883280.454       -2557.104          45.000                                                                  
G03  22886778.214   120270830.560         -30.856          40.000    22886772.757    93717509.869         -24.233          39.000  
G16  22502692.670   118252456.665        3028.005          43.000                                                                  
C09  37720916.811   196422713.169        -156.149          43.000    37720902.258   151886443.746        -120.548          48.000  
C25  23687334.632   123346171.863        1599.432          44.000                                                                  
C13  38309622.658   199488252.751       -2250.770          42.000    38309617.307   154256950.131       -1740.405          44.000  
C08  39134389.452   203783022.590       -2452.723          38.000    39134378.029   157577898.034       -1896.794          43.000  
C10  40519621.935   210996300.818         930.295          35.000    40519623.047   163155791.039         719.351          38.000  
C35  25964161.328   135202222.903         447.033          36.000                                                                  
C07  39588245.532   206146383.568        1119.566          39.000    39588235.031   159405418.555         865.417          42.000  
G25  24301498.571   127705232.633       -3910.646          35.000    24301492.900    99510545.785       -3046.867          36.000  
> 2025 10 30 06 18 05.6000000  0 22                     
G32  21950968.468   115353116.920       -2863.508          43.000    21950962.208    89885517.411       -2231.215          40.000  
G29  23059262.596   121177257.259        -503.565          42.000    23059253.882    94423801.473        -392.214          41.000  
G28  21224503.644   111535519.969       -1160.099          47.000    21224493.918    86910753.820        -903.979          47.000  
G26  20361704.659   107001478.488         758.041          48.000    20361697.098    83377756.513         590.594          45.000  
G31  20627371.908   108397567.529         189.582          49.000    20627361.095    84465595.951         147.840          46.000  
G04  24568757.610   129109674.499        3187.626          33.000    24568755.551   100604957.898        2484.048          39.000  
C33  22488386.240   117102924.161        -622.441          51.000                                                                  
C06  36569173.832   190425286.613        -165.956          46.000    36569156.899   147248839.882        -128.344          49.000  
C14  22617483.168   117775154.611       -2194.428          46.000    22617468.686    91071166.758       -1696.875          50.000  
C16  36996305.763   192649470.132        -198.217          49.000    36996294.130   148968743.097        -153.201          49.000  
C24  21821889.301   113632306.624        -831.305          50.000                                                                  
C26  24366620.953   126883382.719       -2556.821          45.000                                                                  
G03  22886778.473   120270831.819         -31.231          40.000    22886773.014    93717510.849         -24.406          39.000  
G16  22502669.610   118252335.536        3028.139          43.000                                                                  
C09  37720917.997   196422719.395        -155.813          43.000    37720903.432   151886448.563        -120.441          48.000  
C25  23687322.310   123346107.872        1599.664          44.000                                                                  
C13  38309639.965   199488342.773       -2250.640          42.000    38309634.595   154257019.743       -1740.312          44.000  
C08  39134408.287   203783120.708       -2452.861          38.000    39134396.877   157577973.900       -1896.712          43.000  
C10  40519614.813   210996263.597         930.466          35.000    40519615.904   163155762.257         719.474          38.000  
C35  25964157.888   135202205.032         446.824          36.000                                                                  
C07  39588236.923   206146338.790        1119.505          39.000    39588226.420   159405383.923         865.605          42.000  
G25  24301528.326   127705389.030       -3910.261          35.000    24301522.696    99510667.678       -3047.142          36.000  
> 2025 10 30 06 18 05.6400000  0 22                     
G32  21950990.273   115353231.452       -2863.345          43.000    21950984.004    89885606.669       -2231.473          40.000  
G29  23059266.441   121177277.398        -503.557          42.000    23059257.703    94423817.173        -392.392          41.000  
G28  21224512.470   111535566.372       -1160.058          47.000    21224502.749    86910789.990        -904.163          47.000  
G26  20361698.903   107001448.170         758.002          48.000    20361691.315    83377732.881         590.692          45.000  
G31  20627370.456   108397559.942         189.674          48.000    20627359.675    84465590.046         147.698          46.000  
G04  24568733.344   129109546.984        3187.608          33.000    24568731.296   100604858.529        2484.193          39.000  
C33  22488390.983   117102949.063        -622.525          51.000                                                                  
C06  36569175.116   190425293.248        -165.876          46.000    36569158.176   147248845.021        -128.408          49.000  
C14  22617500.031   117775242.385       -2194.365          46.000    22617485.579    91071234.631       -1696.837          50.000  
C16  36996307.275   192649478.066        -198.299          49.000    36996295.670   148968749.225        -153.176          49.000  
C24  21821895.658   113632339.879        -831.318          50.000                                                                  
C26  24366640.590   126883484.986       -2556.696          45.000                                                                  
G03  22886778.704   120270833.086         -31.632          40.000    22886773.243    93717511.809         -24.219          39.000  
G16  22502646.564   118252214.404        3028.284          43.000                                                                  
C09  37720919.178   196422725.624        -155.645          43.000    37720904.628   151886453.389        -120.572          48.000  
C25  23687310.036   123346043.894        1599.518          44.000                                                                  
C13  38309657.237   199488432.800       -2250.666          42.000    38309651.891   154257089.362       -1740.418          44.000  
C08  39134427.132   203783218.813       -2452.672          38.000    39134415.690   157578049.765       -1896.624          43.000  
C10  40519607.647   210996226.390         930.283          35.000    40519608.701   163155733.488         719.280          38.000  
C35  25964154.446   135202187.136         447.191          36.000                                                                  
C07  39588228.329   206146294.007        1119.571          39.000    39588217.819   159405349.285         865.857          42.000  
G25  24301558.081   127705545.425       -3910.012          35.000    24301552.463    99510789.554       -3047.043          36.000  
> 2025 10 30 06 18 05.6800000  0 22                     
G32  21951012.068   115353345.994       -2863.487          43.000    21951005.827    89885695.924       -2231.491          40.000  
G29  23059270.294   121177297.536        -503.544          42.000    23059261.532    94423832.852        -392.122          41.000  
G28  21224521.360   111535612.788       -1160.281          47.000    21224511.605    86910826.150        -904.094          47.000  
G26  20361693.118   107001417.852         757.964          48.000    20361685.562    83377709.265         590.474          45.000  
G31  20627369.017   108397552.361         189.574          48.000    20627358.241    84465584.143         147.556          46.000  
G04  24568709.065   129109419.482        3187.448          33.000    24568707.048   100604759.161        2484.237          39.000  
C33  22488395.753   117102973.966        -622.595          51.000                                                                  
C06  36569176.360   190425299.895        -166.039          46.000    36569159.450   147248850.160        -128.474          49.000  
C14  22617516.883   117775330.168       -2194.486          46.000    22617502.456    91071302.503       -1696.807          50.000  
C16  36996308.822   192649485.994        -198.241          49.000    36996297.211   148968755.361        -153.342          49.000  
C24  21821901.981   113632373.141        -831.464          50.000                                                                  
C26  24366660.223   126883587.263       -2556.848          45.000                                                                  
G03  22886778.937   120270834.349         -31.631          40.000    22886773.487    93717512.782         -24.289          39.000  
G16  22502623.513   118252093.283        3028.121          43.000                                                                  
C09  37720920.383   196422731.855        -155.650          43.000    37720905.825   151886458.214        -120.622          48.000  
C25  23687297.739   123345979.908        1599.603          44.000                                                                  
C13  38309674.493   199488522.824       -2250.635          42.000    38309669.132   154257158.981       -1740.474          44.000  
C08  39134445.973   203783316.933       -2452.908          38.000    39134434.549   157578125.641       -1896.801          43.000  
C10  40519600.504   210996189.204         929.834          35.000    40519601.558   163155704.709         719.351          38.000  
C35  25964151.022   135202169.285         446.528          36.000                                                                  
C07  39588219.721   206146249.212        1119.817          39.000    39588209.208   159405314.665         865.650          42.000  
G25  24301587.826   127705701.825       -3909.899          35.000    24301582.230    99510911.431       -3046.963          36.000  
> 2025 10 30 06 18 05.7200000  0 22                     
G32  21951033.882   115353460.548       -2863.792          43.000    21951027.618    89885785.188       -2231.670          40.000  
G29  23059274.111   121177317.674        -503.518          42.000    23059265.379    94423848.560        -392.533          41.000  
G28  21224530.184   111535659.198       -1160.309          47.000    21224520.429    86910862.314        -904.107          47.000  
G26  20361687.342   107001387.543         757.771          48.000    20361679.786    83377685.644         590.470          45.000  
G31  20627367.587   108397544.780         189.507          48.000    20627356.807    84465578.241         147.514          46.000  
G04  24568684.809   129109291.921        3188.558          33.000    24568682.792   100604659.810        2483.931          39.000  
C33  22488400.531   117102998.871        -622.664          51.000                                                                  
C06  36569177.621   190425306.541        -166.151          46.000    36569160.714   147248855.292        -128.403          49.000  
C14  22617533.727   117775417.952       -2194.573          46.000    22617519.307    91071370.387       -1697.010          50.000  
C16  36996310.321   192649493.926        -198.275          49.000    36996298.736   148968761.500        -153.468          49.000  
C24  21821908.336   113632406.405        -831.601          50.000                                                                  
C26  24366679.834   126883689.544       -2556.998          45.000                                                                  
G03  22886779.145   120270835.605         -31.579          40.000    22886773.718    93717513.778         -24.772          39.000  
G16  22502600.459   118251972.158        3028.097          43.000                                                                  
C09  37720921.557   196422738.090        -155.769          43.000    37720907.056   151886463.034        -120.564          48.000  
C25  23687285.434   123345915.920        1599.671          44.000                                                                  
C13  38309691.792   199488612.871       -2251.027          42.000    38309686.402   154257228.596       -1740.431          44.000  
C08  39134464.788   203783415.062       -2453.184          38.000    39134453.389   157578201.504       -1896.693          43.000  
C10  40519593.343   210996151.972         930.436          35.000    40519594.392   163155675.946         719.064          38.000  
C35  25964147.610   135202151.405         446.793          36.000                                                                  
C07  39588211.112   206146204.435        1119.600          39.000    39588200.620   159405280.033         865.743          42.000  
G25  24301617.589   127705858.243       -3910.199          35.000    24301612.000    99511033.310       -3046.981          36.000  
> 2025 10 30 06 18 05.7600000  0 22                     
G32  21951055.661   115353575.087       -2863.648          43.000    21951049.414    89885874.434       -2231.411          40.000  
G29  23059277.945   121177337.818        -503.606          42.000    23059269.201    94423864.259        -392.568          41.000  
G28  21224539.020   111535705.605       -1160.240          47.000    21224529.240    86910898.467        -903.956          47.000  
G26  20361681.592   107001357.236         757.636          48.000    20361674.035    83377662.029         590.352          45.000  
G31  20627366.146   108397537.202         189.408          48.000    20627355.359    84465572.333         147.595          46.000  
G04  24568660.507   129109164.373        3188.839          33.000    24568658.533   100604560.449        2483.986          39.000  
C33  22488405.333   117103023.776        -622.661          51.000                                                                  
C06  36569178.923   190425313.185        -166.146          46.000    36569161.990   147248860.428        -128.430          49.000  
C14  22617550.610   117775505.734       -2194.604          46.000    22617536.158    91071438.266       -1697.034          50.000  
C16  36996311.858   192649501.858        -198.315          49.000    36996300.269   148968767.632        -153.405          49.000  
C24  21821914.720   113632439.672        -831.694          50.000                                                                  
C26  24366699.495   126883791.823       -2557.019          45.000                                                                  
G03  22886779.390   120270836.851         -31.288          40.000    22886773.963    93717514.762         -24.765          39.000  
G16  22502577.407   118251851.042        3027.913          43.000                                                                  
C09  37720922.760   196422744.336        -156.053          43.000    37720908.259   151886467.852        -120.476          48.000  
C25  23687273.131   123345851.942        1599.530          44.000                                                                  
C13  38309709.074   199488702.907       -2250.999          42.000    38309703.679   154257298.209       -1740.394          44.000  
C08  39134483.651   203783513.166       -2452.911          38.000    39134472.212   157578277.368       -1896.673          43.000  
C10  40519586.192   210996114.769         930.202          35.000    40519587.223   163155647.174         719.139          38.000  
C35  25964144.168   135202133.517         447.018          36.000                                                                  
C07  39588202.516   206146159.649        1119.557          39.000    39588192.033   159405245.401         865.821          42.000  
G25  24301647.355   127706014.677       -3910.650          35.000    24301641.778    99511155.188       -3046.990          36.000  
> 2025 10 30 06 18 05.8000000  0 22                     
G32  21951077.441   115353689.627       -2863.548          43.000    21951071.182    89885963.678       -2231.205          40.000  
G29  23059281.786   121177357.968        -503.781          42.000    23059273.017    94423879.954        -392.490          41.000  
G28  21224547.854   111535752.012       -1160.220          47.000    21224538.087    86910934.630        -904.020          47.000  
G26  20361675.800   107001326.922         757.731          48.000    20361668.264    83377638.409         590.416          45.000  
G31  20627364.673   108397529.624         189.403          48.000    20627353.929    84465566.432         147.521          46.000  
G04  24568636.254   129109036.884        3187.804          33.000    24568634.265   100604461.067        2484.403          39.000  
C33  22488410.164   117103048.682        -622.692          51.000                                                                  
C06  36569180.204   190425319.833        -166.196          46.000    36569163.296   147248865.567        -128.477          49.000  
C14  22617567.445   117775593.524       -2194.749          46.000    22617553.027    91071506.147       -1697.090          50.000  
C16  36996313.334   192649509.792        -198.379          49.000    36996301.811   148968773.764        -153.339          49.000  
C24  21821921.135   113632472.936        -831.695          50.000                                                                  
C26  24366719.116   126883894.107       -2557.108          45.000                                                                  
G03  22886779.631   120270838.102         -31.253          40.000    22886774.200    93717515.743         -24.669          39.000  
G16  22502554.353   118251729.920        3027.948          43.000                                                                  
C09  37720923.948   196422750.573        -156.057          43.000    37720909.463   151886472.671        -120.484          48.000  
C25  23687260.838   123345787.962        1599.469          44.000                                                                  
C13  38309726.375   199488792.924       -2250.625          42.000    38309720.946   154257367.821       -1740.332          44.000  
C08  39134502.499   203783611.265       -2452.596          38.000    39134491.053   157578353.240       -1896.800          43.000  
C10  40519579.040   210996077.549         930.387          35.000    40519580.067   163155618.403         719.179          38.000  
C35  25964140.730   135202115.644         446.807          36.000                                                                  
C07  39588193.904   206146114.886        1119.197          39.000    39588183.416   159405210.767         865.878          42.000  
G25  24301677.106   127706171.108       -3910.946          35.000    24301671.545    99511277.083       -3047.295          36.000  
> 2025 10 30 06 18 05.8400000  0 22                     
G32  21951099.256   115353804.173       -2863.628          43.000    21951092.993    89886052.934       -2231.347          40.000  
G29  23059285.624   121177378.114        -503.753          42.000    23059276.845    94423895.640        -392.269          41.000  
G28  21224556.692   111535798.422       -1160.240          47.000    21224546.939    86910970.792        -904.075          47.000  
G26  20361669.995   107001296.606         757.824          48.000    20361662.514    83377614.785         590.541          45.000  
G31  20627363.231   108397522.048         189.385          48.000    20627352.477    84465560.522         147.638          46.000  
G04  24568612.012   129108909.421        3186.865          33.000    24568610.010   100604361.705        2484.241          39.000  
C33  22488414.970   117103073.590        -622.722          51.000                                                                  
C06  36569181.501   190425326.478        -166.167          46.000    36569164.596   147248870.712        -128.613          49.000  
C14  22617584.351   117775681.310       -2194.746          46.000    22617569.870    91071574.031       -1697.126          50.000  
C16  36996314.866   192649517.728        -198.428          49.000    36996303.349   148968779.898        -153.367          49.000  
C24  21821927.531   113632506.196        -831.607          50.000                                                                  
C26  24366738.758   126883996.383       -2557.053          45.000                                                                  
G03  22886779.885   120270839.368         -31.583          40.000    22886774.445    93717516.730         -24.660          39.000  
G16  22502531.298   118251608.802        3027.905          43.000                                                                  
C09  37720925.168   196422756.819        -156.176          43.000    37720910.643   151886477.500        -120.662          48.000  
C25  23687248.547   123345723.994        1599.225          44.000                                                                  
C13  38309743.668   199488882.947       -2250.539          42.000    38309738.248   154257437.451       -1740.662          44.000  
C08  39134521.339   203783709.396       -2452.981          38.000    39134509.877   157578429.106       -1896.742          43.000  
C10  40519571.898   210996040.341         930.225          35.000    40519572.885   163155589.627         719.293          38.000  
C35  25964137.308   135202097.764         446.820          36.000                                                                  
C07  39588185.299   206146070.098        1119.440          39.000    39588174.817   159405176.151         865.524          42.000  
G25  24301706.875   127706327.510       -3910.411          35.000    24301701.334    99511398.959       -3047.178          36.000  
> 2025 10 30 06 18 05.8800000  0 22                     
G32  21951121.032   115353918.718       -2863.633          43.000    21951114.774    89886142.185       -2231.389          40.000  
G29  23059289.473   121177398.272        -503.972          42.000    23059280.661    94423911.344        -392.518          41.000  
G28  21224565.507   111535844.833       -1160.272          47.000    21224555.779    86911006.968        -904.346          47.000  
G26  20361664.241   107001266.298         757.725          48.000    20361656.736    83377591.163         590.584          45.000  
G31  20627361.775   108397514.470         189.410          48.000    20627351.049    84465554.618         147.601          46.000  
G04  24568587.730   129108781.874        3187.896          33.000    24568585.762   100604262.345        2484.070          39.000  
C33  22488419.794   117103098.496        -622.701          51.000                                                                  
C06  36569182.779   190425333.121        -166.127          46.000    36569165.855   147248875.849        -128.569          49.000  
C14  22617601.219   117775769.085       -2194.536          46.000    22617586.698    91071641.910       -1697.087          50.000  
C16  36996316.422   192649525.659        -198.355          49.000    36996304.860   148968786.037        -153.463          49.000  
C24  21821933.890   113632539.459        -831.615          50.000                                                                  
C26  24366758.410   126884098.656       -2556.913          45.000                                                                  
G03  22886780.124   120270840.624         -31.550          40.000    22886774.678    93717517.715         -24.641          39.000  
G16  22502508.253   118251487.681        3027.886          43.000                                                                  
C09  37720926.382   196422763.056        -156.078          43.000    37720911.836   151886482.331        -120.787          48.000  
C25  23687236.275   123345660.021        1599.182          44.000                                                                  
C13  38309760.951   199488972.976       -2250.616          42.000    38309755.546   154257507.075       -1740.723          44.000  
C08  39134540.149   203783807.511       -2452.965          38.000    39134528.697   157578504.975       -1896.782          43.000  
C10  40519564.765   210996003.121         930.365          35.000    40519565.753   163155560.851         719.349          38.000  
C35  25964133.872   135202079.890         446.809          36.000                                                                  
C07  39588176.717   206146025.309        1119.644          39.000    39588166.203   159405141.531         865.434          42.000  
G25  24301736.638   127706483.901       -3909.978          35.000    24301731.105    99511520.833       -3047.052          36.000  
> 2025 10 30 06 18 05.9200000  0 22                     
G32  21951142.808   115354033.251       -2863.454          43.000    21951136.570    89886231.449       -2231.524          40.000  
G29  23059293.294   121177418.416        -503.767          42.000    23059284.494    94423927.045        -392.559          41.000  
G28  21224574.329   111535891.248       -1160.364          47.000    21224564.603    86911043.137        -904.349          47.000  
G26  20361658.485   107001235.990         757.688          48.000    20361650.952    83377567.545         590.470          45.000  
G31  20627360.331   108397506.894         189.385          48.000    20627349.609    84465548.714         147.570          46.000  
G04  24568563.446                        3188.281          33.000    24568561.500   100604162.978        2484.099          39.000  
C33  22488424.571   117103123.407        -622.778          51.000                                                                  
C06  36569184.064   190425339.760        -166.023          46.000    36569167.117   147248880.983        -128.450          49.000  
C14  22617618.068   117775856.876       -2194.708          46.000    22617603.542    91071709.795       -1697.150          50.000  
C16  36996317.959   192649533.591        -198.343          49.000    36996306.345   148968792.172        -153.455          49.000  
C24  21821940.263   113632572.729        -831.732          50.000                                                                  
C26  24366778.044   126884200.937       -2556.995          45.000                                                                  
G03  22886780.378   120270841.884         -31.515          40.000    22886774.924    93717518.689         -24.415          39.000  
G16  22502485.211   118251366.554        3028.079          43.000                                                                  
C09  37720927.564   196422769.294        -156.027          43.000    37720913.079   151886487.160        -120.815          48.000  
C25  23687224.000   123345596.044        1599.298          44.000                                                                  
C13  38309778.250   199489063.013       -2250.872          42.000    38309772.826   154257576.690       -1740.560          44.000  
C08  39134559.004   203783905.623       -2452.876          38.000    39134547.532   157578580.852       -1896.935          43.000  
C10  40519557.618   210995965.936         929.725          35.000    40519558.629   163155532.080         719.284          38.000  
C35  25964130.439   135202062.029         446.566          36.000                                                                  
C07  39588168.116   206145980.538        1119.411          39.000    39588157.613   159405106.906         865.485          42.000  
G25  24301766.397   127706640.311       -3910.079          35.000    24301760.875    99511642.708       -3046.940          36.000  
> 2025 10 30 06 18 05.9600000  0 22                     
G32  21951164.613   115354147.818       -2863.941          43.000    21951158.363    89886320.714       -2231.657          40.000  
G29  23059297.104   121177438.561        -503.673          42.000    23059288.337    94423942.749        -392.659          41.000  
G28  21224583.180   111535937.666       -1160.460          47.000    21224573.437    86911079.308        -904.370          47.000  
G26  20361652.723   107001205.689         757.508          48.000    20361645.177    83377543.943         590.141          45.000  
G31  20627358.899   108397499.327         189.194          48.000    20627348.198    84465542.815         147.490          46.000  
G04  24568539.168   129108526.867        3187.333          33.000    24568537.243   100604063.628        2483.845          40.000  
C33  22488429.318   117103148.331        -623.036          51.000                                                                  
C06  36569185.338   190425346.411        -166.218          46.000    36569168.358   147248886.127        -128.584          49.000  
C14  22617634.897   117775944.672       -2194.871          46.000    22617620.416    91071777.684       -1697.244          50.000  
C16  36996319.525   192649541.530        -198.460          49.000    36996307.856   148968798.308        -153.421          49.000  
C24  21821946.664   113632605.996        -831.749          50.000                                                                  
C26  24366797.667   126884303.227       -2557.177          45.000                                                                  
G03  22886780.629   120270843.169         -31.998          40.000    22886775.174    93717519.680         -24.573          39.000  
G16  22502462.151   118251245.453        3027.691          43.000                                                                  
C09  37720928.769   196422775.532        -155.995          43.000    37720914.301   151886491.988        -120.787          48.000  
C25  23687211.704   123345532.073        1599.237          44.000                                                                  
C13  38309795.519   199489153.063       -2251.219          42.000    38309790.149   154257646.304       -1740.429          44.000  
C08  39134577.865   203784003.748       -2452.938          38.000    39134566.330   157578656.723       -1896.887          43.000  
C10  40519550.464   210995928.717         930.112          35.000    40519551.457   163155503.322         718.984          38.000  
C35  25964127.014   135202044.170         446.425          36.000                                                                  
C07  39588159.510   206145935.744        1119.673          39.000    39588149.013   159405072.277         865.654          42.000  
G25  24301796.167   127706796.755       -3910.809          35.000    24301790.633    99511764.581       -3046.893          36.000  
> 2025 10 30 06 18 06.0000000  0 22                     
G32  21951186.415   115354262.382       -2864.164          43.000    21951180.163    89886409.992       -2231.949          40.000  
G29  23059300.941   121177458.723        -503.931          42.000    23059292.180    94423958.466        -392.933          41.000  
G28  21224591.994   111535984.081       -1160.439          47.000    21224582.275    86911115.472        -904.248          47.000  
G26  20361646.939   107001175.393         757.360          48.000    20361639.409    83377520.339         590.007          45.000  
G31  20627357.459   108397491.760         189.115          48.000    20627346.767    84465536.925         147.281          46.000  
G04  24568514.909                        3187.816          33.000    24568512.984   100603964.266        2483.876          40.000  
C33  22488434.102   117103173.251        -623.095          51.000                                                                  
C06  36569186.637   190425353.063        -166.320          46.000    36569169.644   147248891.269        -128.586          49.000  
C14  22617651.781   117776032.472       -2195.013          46.000    22617637.280    91071845.570       -1697.229          50.000  
C16  36996321.052   192649549.466        -198.443          49.000    36996309.391   148968804.448        -153.479          49.000  
C24  21821953.059   113632639.273        -831.937          50.000                                                                  
C26  24366817.310   126884405.518       -2557.289          45.000                                                                  
G03  22886780.875   120270844.432         -31.829          40.000    22886775.425    93717520.675         -24.748          39.000  
G16  22502439.138   118251124.339        3027.740          43.000                                                                  
C09  37720929.976   196422781.779        -156.161          43.000    37720915.493   151886496.820        -120.784          48.000  
C25  23687199.429   123345468.106        1599.152          44.000                                                                  
C13  38309812.829   199489243.100       -2251.147          42.000    38309807.484   154257715.928       -1740.554          44.000  
C08  39134596.697   203784101.876       -2453.158          38.000    39134585.171   157578732.598       -1896.918          43.000  
C10  40519543.315   210995891.534         929.660          35.000    40519544.340   163155474.558         718.957          38.000  
C35  25964123.589   135202026.293         446.763          36.000                                                                  
C07  39588150.894   206145890.977        1119.315          40.000    39588140.376   159405037.649         865.689          42.000  
G25  24301825.925   127706953.161       -3910.538          35.000    24301820.409    99511886.474       -3047.211          36.000  
> 2025 10 30 06 18 06.0400000  0 22                     
G32  21951208.214   115354376.935       -2864.017          43.000    21951201.956    89886499.257       -2231.872          40.000  
G29  23059304.782   121177478.882        -504.004          42.000    23059296.017    94423974.166        -392.689          41.000  
G28  21224600.861   111536030.504       -1160.563          47.000    21224591.086    86911151.644        -904.293          47.000  
G26  20361641.177   107001145.093         757.388          48.000    20361633.627    83377496.729         590.091          45.000  
G31  20627356.018   108397484.190         189.159          48.000    20627345.347    84465531.025         147.393          46.000  
G04  24568490.654                        3187.855          33.000    24568488.718   100603864.910        2483.809          40.000  
C33  22488438.889   117103198.170        -623.065          51.000                                                                  
C06  36569187.948   190425359.715        -166.339          46.000    36569170.911   147248896.413        -128.644          49.000  
C14  22617668.659   117776120.265       -2194.919          46.000    22617654.126    91071913.459       -1697.252          50.000  
C16  36996322.580   192649557.408        -198.538          49.000    36996310.874   148968810.594        -153.626          49.000  
C24  21821959.457   113632672.547        -831.957          50.000                                                                  
C26  24366836.953   126884507.804       -2557.257          45.000                                                                  
G03  22886781.124   120270845.711         -31.952          40.000    22886775.661    93717521.654         -24.564          39.000  
G16  22502416.114   118251003.225        3027.786          43.000                                                                  
C09  37720931.177   196422788.025        -156.217          43.000    37720916.691   151886501.644        -120.676          48.000  
C25  23687187.134   123345404.137        1599.182          44.000                                                                  
C13  38309830.123   199489333.131       -2250.946          42.000    38309824.788   154257785.551       -1740.578          44.000  
C08  39134615.551   203784199.997       -2453.176          38.000    39134603.996   157578808.473       -1896.938          43.000  
C10  40519536.171   210995854.333         929.794          35.000    40519537.187   163155445.790         719.017          38.000  
C35  25964120.165   135202008.429         446.712          36.000                                                                  
C07  39588142.311   206145846.216        1119.057          39.000    39588131.787   159405003.024         865.618          42.000  
G25  24301855.684   127707109.617       -3911.246          35.000    24301850.171    99512008.378       -3047.550          36.000  
> 2025 10 30 06 18 06.0800000  0 22                     
G32  21951229.983   115354491.481       -2863.810          43.000    21951223.763    89886588.515       -2231.635          40.000  
G29  23059308.616   121177499.032        -503.889          43.000    23059299.851    94423989.866        -392.570          41.000  
G28  21224609.677   111536076.923       -1160.525          47.000    21224599.902    86911187.817        -904.330          47.000  
G26  20361635.399   107001114.793         757.426          48.000    20361627.843    83377473.116         590.216          45.000  
G31  20627354.580   108397476.616         189.270          48.000    20627343.909    84465525.123         147.486          46.000  
G04  24568466.383                        3187.416          33.000    24568464.451   100603765.548        2483.939          40.000  
C33  22488443.708   117103223.088        -623.033          51.000                                                                  
C06  36569189.226   190425366.354        -166.132          46.000    36569172.131   147248901.550        -128.528          49.000  
C14  22617685.525   117776208.055       -2194.811          46.000    22617670.961    91071981.345       -1697.207          50.000  
C16  36996324.124   192649565.343        -198.465          49.000    36996312.386   148968816.736        -153.622          49.000  
C24  21821965.865   113632705.821        -831.979          50.000                                                                  
C26  24366856.597   126884610.086       -2557.155          45.000                                                                  
G03  22886781.368   120270846.973         -31.725          40.000    22886775.920    93717522.652         -24.843          39.000  
G16  22502393.081   118250882.121        3027.628          43.000                                                                  
C09  37720932.387   196422794.269        -156.169          43.000    37720917.911   151886506.468        -120.609          48.000  
C25  23687174.858   123345340.162        1599.323          44.000                                                                  
C13  38309847.397   199489423.160       -2250.810          42.000    38309842.070   154257855.176       -1740.615          44.000  
C08  39134634.406   203784298.117       -2453.146          37.000    39134622.836   157578884.346       -1896.929          43.000  
C10  40519529.041   210995817.117         930.236          35.000    40519530.038   163155417.026         719.097          38.000  
C35  25964116.746   135201990.571         446.521          36.000                                                                  
C07  39588133.723   206145801.434        1119.293          40.000    39588123.221   159404968.410         865.398          42.000  
G25  24301885.448   127707266.010       -3910.406          35.000    24301879.924    99512130.253       -3047.114          36.000  
> 2025 10 30 06 18 06.1200000  0 22                     
G32  21951251.787   115354606.034       -2863.853          43.000    21951245.560    89886677.772       -2231.508          40.000  
G29  23059312.454   121177519.189        -503.927          42.000    23059303.661    94424005.576        -392.672          41.000  
G28  21224618.511   111536123.345       -1160.564          47.000    21224608.725    86911223.991        -904.397          47.000  
G26  20361629.642   107001084.502         757.290          48.000    20361622.040    83377449.508         590.178          45.000  
G31  20627353.148   108397469.048         189.227          48.000    20627342.471    84465519.224         147.491          46.000  
G04  24568442.102   129108016.821        3187.370          32.000    24568440.174   100603666.191        2483.925          40.000  
C33  22488448.506   117103248.009        -623.083          51.000                                                                  
C06  36569190.506   190425373.003        -166.204          46.000    36569173.400   147248906.694        -128.577          49.000  
C14  22617702.378   117776295.856       -2194.978          46.000    22617687.800    91072049.239       -1697.354          50.000  
C16  36996325.636   192649573.282        -198.492          49.000    36996313.918   148968822.875        -153.574          49.000  
C24  21821972.271   113632739.091        -831.850          50.000                                                                  
C26  24366876.209   126884712.366       -2557.098          45.000                                                                  
G03  22886781.617   120270848.245         -31.770          40.000    22886776.160    93717523.654         -25.092          39.000  
G16  22502370.034   118250761.011        3027.656          43.000                                                                  
C09  37720933.587   196422800.512        -156.143          43.000    37720919.113   151886511.299        -120.712          48.000  
C25  23687162.560   123345276.192        1599.268          44.000                                                                  
C13  38309864.654   199489513.199       -2250.898          42.000    38309859.339   154257924.792       -1740.509          44.000  
C08  39134653.265   203784396.247       -2453.248          37.000    39134641.670   157578960.223       -1896.959          43.000  
C10  40519521.897   210995779.905         930.318          35.000    40519522.885   163155388.263         719.059          38.000  
C35  25964113.323   135201972.707         446.523          36.000                                                                  
C07  39588125.124   206145756.661        1119.281          40.000    39588114.612   159404933.780         865.609          42.000  
G25  24301915.193   127707422.414       -3910.195          35.000    24301909.679    99512252.125       -3046.927          36.000  
> 2025 10 30 06 18 06.1600000  0 22                     
G32  21951273.585   115354720.596       -2863.993          43.000    21951267.370    89886767.043       -2231.720          40.000  
G29  23059316.292   121177539.347        -503.964          42.000    23059307.506    94424021.294        -392.924          41.000  
G28  21224627.336   111536169.768       -1160.616          47.000    21224617.577    86911260.165        -904.393          47.000  
G26  20361623.868   107001054.208         757.304          48.000    20361616.289    83377425.902         590.141          45.000  
G31  20627351.741   108397461.483         189.134          48.000    20627341.039    84465513.328         147.448          46.000  
G04  24568417.872   129107889.325        3187.232          32.000    24568415.909   100603566.836        2483.872          40.000  
C33  22488453.263   117103272.929        -623.037          51.000                                                                  
C06  36569191.785   190425379.656        -166.300          46.000    36569174.669   147248911.840        -128.655          49.000  
C14  22617719.241   117776383.653       -2194.976          46.000    22617704.646    91072117.133       -1697.415          50.000  
C16  36996327.136   192649581.223        -198.542          49.000    36996315.466   148968829.011        -153.464          49.000  
C24  21821978.664   113632772.365        -831.863          50.000                                                                  
C26  24366895.878   126884814.646       -2557.014          45.000                                                                  
G03  22886781.855   120270849.518         -31.729          40.000    22886776.410    93717524.642         -24.847          39.000  
G16  22502346.992   118250639.909        3027.504          43.000                                                                  
C09  37720934.807   196422806.749        -156.003          43.000    37720920.318   151886516.127        -120.724          48.000  
C25  23687150.280   123345212.228        1599.127          44.000                                                                  
C13  38309881.951   199489603.236       -2250.917          42.000    38309876.626   154257994.419       -1740.621          44.000  
C08  39134672.129   203784494.373       -2453.243          37.000    39134660.511   157579036.096       -1896.876          43.000  
C10  40519514.758   210995742.694         930.340          35.000    40519515.719   163155359.485         719.318          38.000  
C35  25964109.915   135201954.864         446.224          36.000                                                                  
C07  39588116.542   206145711.884        1119.451          39.000    39588106.027   159404899.157         865.585          42.000  
G25  24301944.959   127707578.851       -3910.602          35.000    24301939.445    99512374.019       -3047.200          36.000  
