     3.04           OBSERVATION DATA    M: Mixed            RINEX VERSION / TYPE
RTKCONV 2.4.3 b34                       20251030 063713 UTC PGM / RUN BY / DATE 
format: u-blox UBX                                          COMMENT             
log: D:\GPdata\10_30\fingure_200_10_30_2.ubx                COMMENT             
                                                            MARKER NAME         
                                                            MARKER NUMBER       
                                                            MARKER TYPE         
                                                            OBSERVER / AGENCY   
                                                            REC # / TYPE / VERS 
                                                            ANT # / TYPE        
        0.0000        0.0000        0.0000                  APPROX POSITION XYZ 
        0.0000        0.0000        0.0000                  ANTENNA: DELTA H/E/N
G    8 C1C L1C D1C S1C C2L L2L D2L S2L                      SYS / # / OBS TYPES 
C    8 C2I L2I D2I S2I C7I L7I D7I S7I                      SYS / # / OBS TYPES 
  2025    10    30    06    16   45.0000000     GPS         TIME OF FIRST OBS   
  2025    10    30    06    17   05.8000000     GPS         TIME OF LAST OBS    
G L1C                                                       SYS / PHASE SHIFT   
G L2L  0.00000                                              SYS / PHASE SHIFT   
C L2I                                                       SYS / PHASE SHIFT   
C L7I                                                       SYS / PHASE SHIFT   
  0                                                         GLONASS SLOT / FRQ #
 C1C    0.000 C1P    0.000 C2C    0.000 C2P    0.000        GLONASS COD/PHS/BIS 
                                                            END OF HEADER       
> 2025 10 30 06 16 45.0000000  0 21                     
G32  21907311.737   115123699.1811      -2828.473          46.000    21907305.200    89706750.4681      -2203.871          42.000  
G29  23051927.308   121138712.2671       -452.193          41.000    23051919.059    94393766.2181       -352.605          41.000  
G28  21206846.641   111442729.2651      -1141.641          46.000    21206835.762    86838449.4051       -889.636          47.000  
G26  20373662.998   107064320.3611        802.096          47.000    20373656.245    83426723.9841        625.097          46.000  
G31  20630446.625   108413726.1321        212.096          46.000    20630436.220    84478187.0011        165.190          45.000  
G04  24617685.229   129366802.3431       3192.433          33.000    24617683.351   100805308.1121       2487.606          39.000  
C33  22479110.662   117054624.3241       -575.208          49.000                                                                  
C06  36566577.445   190411765.8971       -168.712          44.000    36566560.477   147238384.7531       -130.414          47.000  
C14  22583809.408   117599809.4831      -2155.828          46.000    22583794.706    90935578.8751      -1666.986          50.000  
C16  36993204.692   192633321.0801       -201.526          47.000    36993192.750   148956255.6041       -156.025          47.000  
C24  21809166.954   113566058.3261       -811.520          49.000                                                                  
C26  24327070.956   126677437.0011      -2552.898          43.000                                                                  
G03  22886709.699   120270473.1231         23.278          39.000    22886704.244    93717231.3501         18.093          36.000  
G16  22549320.737   118497482.7011       3055.754          42.000                                                                  
C09  37718476.601   196410007.5031       -158.644          44.000    37718462.463   151876618.7791       -122.712          47.000  
C25  23712202.620   123475666.9821       1616.199          45.000                                                                  
C13  38274864.551   199307260.3131      -2241.768          42.000    38274859.021   154116995.5021      -1733.608          43.000  
C08  39096479.102   203585616.9451      -2447.393          38.000    39096467.639   157425251.7861      -1892.279          44.000  
C10  40534000.352   211071177.8751        929.426          34.000    40534001.731   163213681.7081        718.149          38.000  
C35  25971350.642   135239655.3451        482.794          38.000                                                                  
G25  24241578.210   127390339.9601      -3906.648          35.000    24241570.185    99265174.9381      -3043.990          36.000  
> 2025 10 30 06 16 45.0400000  0 21                     
G32  21907333.249   115123812.317       -2828.473          46.000    21907326.730    89706838.643       -2204.240          42.000  
G29  23051930.731   121138730.353        -452.142          41.000    23051922.507    94393780.314        -352.545          41.000  
G28  21206855.346   111442774.938       -1141.810          46.000    21206844.446    86838484.992        -889.721          46.000  
G26  20373656.895   107064288.269         802.216          47.000    20373650.150    83426698.981         625.034          46.000  
G31  20630445.004   108413717.642         212.201          46.000    20630434.605    84478180.387         165.308          45.000  
G04  24617660.943   129366674.639        3192.521          33.000    24617659.061   100805208.588        2487.927          39.000  
C33  22479115.072   117054647.336        -575.260          49.000                                                                  
C06  36566578.768   190411772.653        -168.870          44.000    36566561.779   147238389.970        -130.466          47.000  
C14  22583825.975   117599895.714       -2155.848          46.000    22583811.254    90935645.551       -1666.946          50.000  
C16  36993206.232   192633329.150        -201.645          47.000    36993194.279   148956261.841        -155.985          47.000  
C24  21809173.151   113566090.791        -811.581          49.000                                                                  
C26  24327090.581   126677539.108       -2552.817          43.000                                                                  
G03  22886709.532   120270472.188          23.328          39.000    22886704.065    93717230.630          18.015          36.000  
G16  22549297.461   118497360.478        3055.624          42.000                                                                  
C09  37718477.809   196410013.850        -158.647          44.000    37718463.674   151876623.699        -122.954          47.000  
C25  23712190.190   123475602.348        1615.924          45.000                                                                  
C13  38274881.777   199307350.000       -2242.110          42.000    38274876.247   154117064.844       -1733.570          43.000  
C08  39096497.893   203585714.842       -2447.542          38.000    39096486.459   157425327.483       -1892.403          44.000  
C10  40533993.222   211071140.706         929.412          34.000    40533994.588   163213652.976         718.199          38.000  
C35  25971346.952   135239636.037         482.557          38.000                                                                  
G25  24241607.912   127390496.238       -3906.933          35.000    24241599.937    99265296.697       -3043.957          36.000  
> 2025 10 30 06 16 45.0800000  0 21                     
G32  21907354.797   115123925.459       -2828.576          45.000    21907348.269    89706926.804       -2204.174          42.000  
G29  23051934.136   121138748.444        -452.256          41.000    23051925.948    94393794.405        -352.405          41.000  
G28  21206864.031   111442820.588       -1141.503          46.000    21206853.115    86838520.568        -889.577          46.000  
G26  20373650.806   107064256.183         802.146          47.000    20373644.034    83426673.980         624.991          46.000  
G31  20630443.399   108413709.155         212.176          46.000    20630432.998    84478173.777         165.289          45.000  
G04  24617636.636   129366546.885        3193.450          33.000    24617634.723   100805109.071        2487.994          39.000  
C33  22479119.523   117054670.339        -575.144          49.000                                                                  
C06  36566580.069   190411779.403        -168.823          44.000    36566563.053   147238395.187        -130.449          47.000  
C14  22583842.543   117599981.947       -2155.859          46.000    22583827.813    90935712.228       -1666.959          50.000  
C16  36993207.767   192633337.223        -201.794          47.000    36993195.816   148956268.083        -156.057          47.000  
C24  21809179.369   113566123.254        -811.594          49.000                                                                  
C26  24327110.202   126677641.211       -2552.648          44.000                                                                  
G03  22886709.348   120270471.272          23.019          39.000    22886703.883    93717229.893          18.279          36.000  
G16  22549274.212   118497238.265        3055.377          42.000                                                                  
C09  37718479.046   196410020.204        -158.782          44.000    37718464.922   151876628.618        -123.033          47.000  
C25  23712177.779   123475537.713        1615.826          45.000                                                                  
C13  38274898.986   199307439.682       -2242.151          42.000    38274893.432   154117134.185       -1733.526          43.000  
C08  39096516.695   203585812.752       -2447.823          38.000    39096505.237   157425403.182       -1892.521          44.000  
C10  40533986.094   211071103.553         929.052          34.000    40533987.460   163213624.246         718.136          38.000  
C35  25971343.250   135239616.719         482.708          38.000                                                                  
G25  24241637.640   127390652.495       -3906.766          35.000    24241629.675    99265418.440       -3043.647          36.000  
> 2025 10 30 06 16 45.1200000  0 21                     
G32  21907376.331   115124038.606       -2828.696          45.000    21907369.786    89707014.964       -2204.099          42.000  
G29  23051937.571   121138766.533        -452.287          41.000    23051929.374    94393808.514        -352.645          41.000  
G28  21206872.712   111442866.254       -1141.587          46.000    21206861.820    86838556.144        -889.438          46.000  
G26  20373644.677   107064224.099         802.110          47.000    20373637.936    83426648.981         624.923          46.000  
G31  20630441.787   108413700.672         212.077          46.000    20630431.425    84478167.167         165.258          45.000  
G04  24617612.332   129366419.189        3192.878          33.000    24617610.440   100805009.567        2487.670          39.000  
C33  22479123.922   117054693.356        -575.345          49.000                                                                  
C06  36566581.371   190411786.150        -168.759          44.000    36566564.338   147238400.413        -130.579          47.000  
C14  22583859.111   117600068.172       -2155.711          46.000    22583844.389    90935778.908       -1667.015          50.000  
C16  36993209.340   192633345.296        -201.861          47.000    36993197.352   148956274.321        -156.058          47.000  
C24  21809185.624   113566155.726        -811.737          49.000                                                                  
C26  24327129.821   126677743.311       -2552.527          44.000                                                                  
G03  22886709.165   120270470.345          23.074          39.000    22886703.711    93717229.197          17.642          36.000  
G16  22549250.946   118497116.040        3055.469          42.000                                                                  
C09  37718480.265   196410026.562        -158.972          44.000    37718466.138   151876633.528        -122.890          47.000  
C25  23712165.373   123475473.069        1616.003          45.000                                                                  
C13  38274916.192   199307529.352       -2241.899          42.000    38274910.631   154117203.532       -1733.595          43.000  
C08  39096535.463   203585910.629       -2447.341          38.000    39096524.032   157425478.880       -1892.526          44.000  
C10  40533978.953   211071066.415         928.560          34.000    40533980.343   163213595.504         718.373          38.000  
C35  25971339.557   135239597.403         482.811          38.000                                                                  
G25  24241667.369   127390808.780       -3907.097          35.000    24241659.404    99265540.194       -3043.780          36.000  
> 2025 10 30 06 16 45.1600000  0 21                     
G32  21907397.870   115124151.752       -2828.709          45.000    21907391.331    89707103.115       -2203.886          42.000  
G29  23051941.028   121138784.627        -452.438          41.000    23051932.804    94393822.606        -352.479          41.000  
G28  21206881.379   111442911.918       -1141.587          46.000    21206870.516    86838591.730        -889.555          46.000  
G26  20373638.577   107064192.022         801.955          47.000    20373631.852    83426623.977         625.017          46.000  
G31  20630440.184   108413692.188         212.065          46.000    20630429.802    84478160.554         165.308          45.000  
G04  24617588.013   129366291.461        3192.912          33.000    24617586.125   100804910.044        2487.863          39.000  
C33  22479128.347   117054716.369        -575.361          49.000                                                                  
C06  36566582.651   190411792.899        -168.733          44.000    36566565.640   147238405.638        -130.656          47.000  
C14  22583875.646   117600154.401       -2155.705          46.000    22583860.949    90935845.583       -1666.958          50.000  
C16  36993210.900   192633353.361        -201.755          47.000    36993198.910   148956280.560        -156.042          47.000  
C24  21809191.884   113566188.196        -811.793          49.000                                                                  
C26  24327149.417   126677845.413       -2552.528          44.000                                                                  
G03  22886708.999   120270469.425          23.012          39.000    22886703.547    93717228.516          17.018          36.000  
G16  22549227.659   118496993.820        3055.458          42.000                                                                  
C09  37718481.488   196410032.917        -158.961          44.000    37718467.318   151876638.433        -122.694          47.000  
C25  23712152.963   123475408.425        1616.064          45.000                                                                  
C13  38274933.400   199307619.030       -2241.894          42.000    38274927.845   154117272.881       -1733.713          43.000  
C08  39096554.268   203586008.504       -2447.021          38.000    39096542.830   157425554.577       -1892.537          44.000  
C10  40533971.801   211071029.232         929.117          34.000    40533973.207   163213566.746         718.802          38.000  
C35  25971335.836   135239578.094         482.736          38.000                                                                  
G25  24241697.082   127390965.023       -3906.455          34.000    24241689.164    99265661.969       -3044.231          36.000  
> 2025 10 30 06 16 45.2000000  0 21                     
G32  21907419.391   115124264.884       -2828.453          46.000    21907412.863    89707191.269       -2203.867          42.000  
G29  23051944.484   121138802.731        -452.618          41.000    23051936.235    94393836.693        -352.279          41.000  
G28  21206890.081   111442957.585       -1141.660          46.000    21206879.207    86838627.312        -889.569          46.000  
G26  20373632.453   107064159.935         802.062          47.000    20373625.767    83426598.985         624.849          46.000  
G31  20630438.552   108413683.703         212.109          46.000    20630428.187    84478153.943         165.276          45.000  
G04  24617563.714   129366163.753        3192.663          33.000    24617561.812   100804810.528        2487.875          39.000  
C33  22479132.754   117054739.385        -575.430          49.000                                                                  
C06  36566583.957   190411799.644        -168.661          44.000    36566566.926   147238410.850        -130.461          47.000  
C14  22583892.222   117600240.625       -2155.618          46.000    22583877.491    90935912.259       -1666.926          50.000  
C16  36993212.467   192633361.423        -201.639          47.000    36993200.461   148956286.800        -156.034          47.000  
C24  21809198.130   113566220.659        -811.684          49.000                                                                  
C26  24327169.010   126677947.517       -2552.585          44.000                                                                  
G03  22886708.817   120270468.505          22.989          39.000    22886703.359    93717227.787          17.559          36.000  
G16  22549204.379   118496871.584        3055.776          42.000                                                                  
C09  37718482.717   196410039.265        -158.787          44.000    37718468.541   151876643.342        -122.722          47.000  
C25  23712140.599   123475343.771        1616.266          45.000                                                                  
C13  38274950.633   199307708.698       -2241.809          42.000    38274945.108   154117342.217       -1733.538          43.000  
C08  39096573.061   203586106.370       -2446.688          38.000    39096561.638   157425630.270       -1892.385          44.000  
C10  40533964.634   211070992.047         929.449          34.000    40533966.065   163213538.003         718.705          38.000  
C35  25971332.156   135239558.783         482.769          38.000                                                                  
G25  24241726.821   127391121.280       -3906.253          34.000    24241718.911    99265783.734       -3044.248          36.000  
> 2025 10 30 06 16 45.2400000  0 21                     
G32  21907440.910   115124378.024       -2828.497          46.000    21907434.395    89707279.436       -2204.068          42.000  
G29  23051947.905   121138820.826        -452.558          41.000    23051939.672    94393850.796        -352.489          41.000  
G28  21206898.767   111443003.242       -1141.547          46.000    21206887.896    86838662.902        -889.729          46.000  
G26  20373626.347   107064127.854         802.044          47.000    20373619.661    83426573.981         624.987          45.000  
G31  20630436.938   108413675.221         212.072          46.000    20630426.574    84478147.331         165.270          45.000  
G04  24617539.403   129366036.059        3192.259          33.000    24617537.503   100804711.016        2487.797          39.000  
C33  22479137.192   117054762.398        -575.415          49.000                                                                  
C06  36566585.270   190411806.391        -168.687          44.000    36566568.192   147238416.065        -130.392          47.000  
C14  22583908.786   117600326.860       -2155.811          46.000    22583894.042    90935978.944       -1667.080          50.000  
C16  36993214.040   192633369.488        -201.649          47.000    36993201.975   148956293.032        -155.913          47.000  
C24  21809204.379   113566253.126        -811.704          49.000                                                                  
C26  24327188.638   126678049.615       -2552.507          44.000                                                                  
G03  22886708.629   120270467.565          23.348          39.000    22886703.164    93717227.027          18.534          36.000  
G16  22549181.117   118496749.354        3055.783          42.000                                                                  
C09  37718483.940   196410045.620        -158.878          44.000    37718469.759   151876648.251        -122.744          47.000  
C25  23712128.167   123475279.128        1616.156          45.000                                                                  
C13  38274967.877   199307798.372       -2241.847          42.000    38274962.332   154117411.560       -1733.564          43.000  
C08  39096591.841   203586204.258       -2447.010          38.000    39096580.415   157425705.961       -1892.310          44.000  
C10  40533957.502   211070954.869         929.606          34.000    40533958.908   163213509.269         718.409          38.000  
C35  25971328.449   135239539.475         482.602          38.000                                                                  
G25  24241756.578   127391277.517       -3905.890          35.000    24241748.644    99265905.474       -3043.763          36.000  
> 2025 10 30 06 16 45.2800000  0 21                     
G32  21907462.448   115124491.164       -2828.526          46.000    21907455.920    89707367.597       -2204.086          42.000  
G29  23051951.329   121138838.912        -452.298          41.000    23051943.096    94393864.884        -352.356          41.000  
G28  21206907.452   111443048.907       -1141.616          46.000    21206896.592    86838698.485        -889.670          46.000  
G26  20373620.253   107064095.772         802.038          47.000    20373613.559    83426548.986         624.894          45.000  
G31  20630435.313   108413666.734         212.134          46.000    20630424.960    84478140.719         165.295          45.000  
G04  24617515.105   129365908.263        3194.021          33.000    24617513.195   100804611.510        2487.710          39.000  
C33  22479141.633   117054785.415        -575.459          49.000                                                                  
C06  36566586.555   190411813.148        -168.872          44.000    36566569.477   147238421.277        -130.323          47.000  
C14  22583925.370   117600413.095       -2155.879          46.000    22583910.607    90936045.621       -1667.033          50.000  
C16  36993215.594   192633377.556        -201.676          47.000    36993203.560   148956299.272        -155.953          47.000  
C24  21809210.583   113566285.598        -811.781          49.000                                                                  
C26  24327208.236   126678151.717       -2552.544          44.000                                                                  
G03  22886708.463   120270466.647          23.150          39.000    22886702.979    93717226.341          17.773          36.000  
G16  22549157.869   118496627.142        3055.439          42.000                                                                  
C09  37718485.181   196410051.970        -158.775          44.000    37718471.020   151876653.160        -122.705          47.000  
C25  23712115.741   123475214.491        1615.967          45.000                                                                  
C13  38274985.112   199307888.049       -2241.934          42.000    38274979.552   154117480.901       -1733.584          43.000  
C08  39096610.641   203586302.153       -2447.324          38.000    39096599.222   157425781.645       -1892.186          44.000  
C10  40533950.356   211070917.708         929.276          34.000    40533951.792   163213480.533         718.265          38.000  
C35  25971324.742   135239520.165         482.623          38.000                                                                  
G25  24241786.330   127391433.808       -3906.656          35.000    24241778.389    99266027.234       -3043.889          36.000  
> 2025 10 30 06 16 45.3200000  0 21                     
G32  21907483.986   115124604.312       -2828.654          46.000    21907477.434    89707455.759       -2204.144          43.000  
G29  23051954.771   121138857.012        -452.426          41.000    23051946.562    94393878.989        -352.564          41.000  
G28  21206916.156   111443094.570       -1141.609          46.000    21206905.265    86838734.061        -889.516          46.000  
G26  20373614.158   107064063.685         802.137          47.000    20373607.467    83426523.978         625.093          45.000  
G31  20630433.684   108413658.252         212.084          46.000    20630423.347    84478134.114         165.122          45.000  
G04  24617490.822   129365780.629        3191.969          33.000    24617488.881   100804512.003        2487.620          39.000  
C33  22479146.069   117054808.426        -575.368          49.000                                                                  
C06  36566587.847   190411819.897        -168.827          44.000    36566570.817   147238426.495        -130.405          47.000  
C14  22583941.952   117600499.328       -2155.870          46.000    22583927.187    90936112.301       -1667.026          50.000  
C16  36993217.128   192633385.620        -201.650          47.000    36993205.146   148956305.509        -155.947          47.000  
C24  21809216.812   113566318.063        -811.702          49.000                                                                  
C26  24327227.842   126678253.821       -2552.589          44.000                                                                  
G03  22886708.268   120270465.731          22.981          39.000    22886702.816    93717225.636          17.651          36.000  
G16  22549134.642   118496504.923        3055.398          42.000                                                                  
C09  37718486.423   196410058.314        -158.637          44.000    37718472.246   151876658.073        -122.800          47.000  
C25  23712103.307   123475149.852        1615.894          45.000                                                                  
C13  38275002.349   199307977.731       -2242.039          42.000    38274996.762   154117550.243       -1733.596          43.000  
C08  39096629.433   203586400.046       -2447.346          38.000    39096618.011   157425857.345       -1892.410          44.000  
C10  40533943.215   211070880.559         928.971          34.000    40533944.670   163213451.795         718.282          38.000  
C35  25971321.054   135239500.844         482.889          38.000                                                                  
G25  24241816.082   127391590.057       -3906.412          34.000    24241808.131    99266148.994       -3044.058          36.000  
> 2025 10 30 06 16 45.3600000  0 21                     
G32  21907505.488   115124717.450       -2828.521          46.000    21907498.955    89707543.930       -2204.283          43.000  
G29  23051958.217   121138875.101        -452.306          41.000    23051949.992    94393893.088        -352.524          42.000  
G28  21206924.822   111443140.223       -1141.433          46.000    21206913.951    86838769.642        -889.483          46.000  
G26  20373608.035   107064031.597         802.217          47.000    20373601.359    83426498.977         625.061          45.000  
G31  20630432.055   108413649.764         212.165          46.000    20630421.725    84478127.497         165.264          45.000  
G04  24617466.528                        3191.398          33.000    24617464.580   100804412.497        2487.550          39.000  
C33  22479150.491   117054831.435        -575.266          49.000                                                                  
C06  36566589.137   190411826.630        -168.536          44.000    36566572.111   147238431.709        -130.393          47.000  
C14  22583958.508   117600585.560       -2155.837          46.000    22583943.734    90936178.980       -1667.000          50.000  
C16  36993218.671   192633393.680        -201.527          47.000    36993206.683   148956311.741        -155.816          47.000  
C24  21809223.056   113566350.532        -811.715          49.000                                                                  
C26  24327247.477   126678355.920       -2552.556          44.000                                                                  
G03  22886708.101   120270464.806          23.058          39.000    22886702.636    93717224.913          17.956          36.000  
G16  22549111.351   118496382.690        3055.674          42.000                                                                  
C09  37718487.663   196410064.660        -158.602          44.000    37718473.466   151876662.977        -122.653          47.000  
C25  23712090.889   123475085.210        1615.967          45.000                                                                  
C13  38275019.584   199308067.400       -2241.851          42.000    38275013.966   154117619.588       -1733.601          43.000  
C08  39096648.238   203586497.935       -2447.277          38.000    39096636.805   157425933.038       -1892.386          44.000  
C10  40533936.099   211070843.383         929.259          34.000    40533937.488   163213423.049         718.449          38.000  
C35  25971317.346   135239481.533         482.779          38.000                                                                  
G25  24241845.792   127391746.303       -3906.251          35.000    24241837.864    99266270.742       -3043.820          36.000  
> 2025 10 30 06 16 45.4000000  0 21                     
G32  21907527.013   115124830.592       -2828.555          46.000    21907520.476    89707632.071       -2203.813          43.000  
G29  23051961.653   121138893.178        -451.980          41.000    23051953.441    94393907.197        -352.699          42.000  
G28  21206933.491   111443185.881       -1141.413          46.000    21206922.650    86838805.214        -889.336          46.000  
G26  20373601.907   107063999.501         802.372          47.000    20373595.243    83426473.968         625.179          45.000  
G31  20630430.423   108413641.274         212.244          46.000    20630420.087    84478120.878         165.412          45.000  
G04  24617442.197                        3192.561          32.000    24617440.257   100804312.983        2487.721          39.000  
C33  22479154.921   117054854.437        -575.108          49.000                                                                  
C06  36566590.422   190411833.360        -168.295          44.000    36566573.443   147238436.922        -130.360          47.000  
C14  22583975.076   117600671.783       -2155.666          46.000    22583960.305    90936245.655       -1666.885          50.000  
C16  36993220.174   192633401.741        -201.511          47.000    36993208.252   148956317.969        -155.697          47.000  
C24  21809229.297   113566382.985        -811.443          49.000                                                                  
C26  24327267.107   126678458.019       -2552.510          44.000                                                                  
G03  22886707.921   120270463.887          22.995          39.000    22886702.471    93717224.185          18.237          36.000  
G16  22549088.107   118496260.473        3055.533          42.000                                                                  
C09  37718488.894   196410071.001        -158.535          44.000    37718474.669   151876667.878        -122.554          47.000  
C25  23712078.476   123475020.554        1616.302          45.000                                                                  
C13  38275036.803   199308157.060       -2241.578          42.000    38275031.185   154117688.930       -1733.551          43.000  
C08  39096667.031   203586595.809       -2446.969          38.000    39096655.604   157426008.722       -1892.204          44.000  
C10  40533928.976   211070806.206         929.415          34.000    40533930.352   163213394.298         718.676          38.000  
C35  25971313.658   135239462.226         482.659          38.000                                                                  
G25  24241875.505   127391902.554       -3906.244          35.000    24241867.587    99266392.480       -3043.584          36.000  
> 2025 10 30 06 16 45.4400000  0 21                     
G32  21907548.523   115124943.720       -2828.309          46.000    21907542.008    89707720.228       -2203.874          44.000  
G29  23051965.079   121138911.267        -452.053          41.000    23051956.865    94393921.284        -352.441          42.000  
G28  21206942.172   111443231.538       -1141.425          46.000    21206931.343    86838840.796        -889.483          46.000  
G26  20373595.819   107063967.413         802.277          47.000    20373589.119    83426448.969         625.053          45.000  
G31  20630428.801   108413632.781         212.305          46.000    20630418.457    84478114.269         165.282          45.000  
G04  24617417.944                        3192.633          28.000    24617415.948   100804213.444        2488.287          39.000  
C33  22479159.346   117054877.447        -575.163          49.000                                                                  
C06  36566591.673   190411840.103        -168.430          44.000    36566574.762   147238442.130        -130.256          47.000  
C14  22583991.637   117600758.009       -2155.631          46.000    22583976.857    90936312.327       -1666.817          50.000  
C16  36993221.692   192633409.804        -201.539          47.000    36993209.805   148956324.206        -155.831          47.000  
C24  21809235.496   113566415.445        -811.444          49.000                                                                  
C26  24327286.701   126678560.109       -2552.360          45.000                                                                  
G03  22886707.737   120270462.961          23.019          39.000    22886702.296    93717223.464          18.156          36.000  
G16  22549064.831   118496138.245        3055.623          42.000                                                                  
C09  37718490.123   196410077.337        -158.430          44.000    37718475.875   151876672.779        -122.532          47.000  
C25  23712066.089   123474955.897        1616.425          45.000                                                                  
C13  38275054.009   199308246.724       -2241.537          42.000    38275048.381   154117758.256       -1733.285          43.000  
C08  39096685.819   203586693.691       -2446.943          38.000    39096674.392   157426084.409       -1892.184          44.000  
C10  40533921.828   211070769.035         929.419          34.000    40533923.226   163213365.565         718.406          38.000  
C35  25971309.953   135239442.904         482.861          38.000                                                                  
G25  24241905.248   127392058.807       -3906.324          35.000    24241897.348    99266514.208       -3043.218          36.000  
> 2025 10 30 06 16 45.4800000  0 21                     
G32  21907570.078   115125056.857       -2828.360          46.000    21907563.553    89707808.390       -2203.999          44.000  
G29  23051968.526   121138929.361        -452.243          41.000    23051960.306    94393935.379        -352.443          42.000  
G28  21206950.858   111443277.201       -1141.554          45.000    21206940.026    86838876.378        -889.550          46.000  
G26  20373589.745   107063935.331         802.089          47.000    20373583.029    83426423.968         625.016          45.000  
G31  20630427.203   108413624.292         212.212          46.000    20630416.852    84478107.654         165.307          45.000  
G04  24617393.583                        3194.975          28.000    24617391.640   100804113.924        2488.191          39.000  
C33  22479163.715   117054900.467        -575.428          49.000                                                                  
C06  36566592.958   190411846.851        -168.645          44.000    36566576.085   147238447.341        -130.303          47.000  
C14  22584008.188   117600844.234       -2155.601          46.000    22583993.438    90936379.007       -1666.927          50.000  
C16  36993223.232   192633417.864        -201.507          47.000    36993211.363   148956330.440        -155.871          47.000  
C24  21809241.728   113566447.901        -811.390          49.000                                                                  
C26  24327306.298   126678662.200       -2552.260          45.000                                                                  
G03  22886707.580   120270462.048          22.843          39.000    22886702.100    93717222.764          17.585          36.000  
G16  22549041.571   118496016.009        3055.843          42.000                                                                  
C09  37718491.330   196410083.682        -158.547          44.000    37718477.086   151876677.687        -122.655          47.000  
C25  23712053.653   123474891.246        1616.376          44.000                                                                  
C13  38275071.223   199308336.399       -2241.808          42.000    38275065.601   154117827.595       -1733.330          43.000  
C08  39096704.626   203586791.565       -2446.803          38.000    39096693.166   157426160.099       -1892.192          44.000  
C10  40533914.670   211070731.860         929.428          34.000    40533916.097   163213336.837         718.193          38.000  
C35  25971306.260   135239423.577         483.113          38.000                                                                  
G25  24241934.945   127392215.037       -3905.962          35.000    24241927.095    99266636.004       -3044.336          36.000  
> 2025 10 30 06 16 45.5200000  0 21                     
G32  21907591.619   115125170.003       -2828.570          46.000    21907585.082    89707896.546       -2203.958          44.000  
G29  23051971.974   121138947.458        -452.386          42.000    23051963.770    94393949.472        -352.407          42.000  
G28  21206959.556   111443322.862       -1141.570          45.000    21206948.711    86838911.965        -889.681          46.000  
G26  20373583.667   107063903.254         801.897          47.000    20373576.946    83426398.966         625.004          45.000  
G31  20630425.618   108413615.820         211.867          46.000    20630415.237    84478101.041         165.288          45.000  
G04  24617369.305                        3195.638          28.000    24617367.343   100804014.415        2487.910          39.000  
C33  22479168.116   117054923.486        -575.527          49.000                                                                  
C06  36566594.227   190411853.600        -168.778          44.000    36566577.398   147238452.554        -130.336          47.000  
C14  22584024.738   117600930.471       -2155.850          46.000    22584010.013    90936445.692       -1667.093          50.000  
C16  36993224.776   192633425.930        -201.626          47.000    36993212.893   148956336.676        -155.909          47.000  
C24  21809247.918   113566480.377        -811.731          49.000                                                                  
C26  24327325.885   126678764.308       -2552.543          45.000                                                                  
G03  22886707.403   120270461.115          23.142          39.000    22886701.916    93717222.045          17.781          36.000  
G16  22549018.322   118495893.781        3055.756          42.000                                                                  
C09  37718492.545   196410090.033        -158.718          44.000    37718478.304   151876682.594        -122.704          47.000  
C25  23712041.214   123474826.607        1616.046          44.000                                                                  
C13  38275088.450   199308426.080       -2242.011          42.000    38275082.842   154117896.932       -1733.362          43.000  
C08  39096723.423   203586889.458       -2447.164          38.000    39096711.962   157426235.791       -1892.274          44.000  
C10  40533907.535   211070694.670         929.653          34.000    40533908.975   163213308.096         718.376          38.000  
C35  25971302.546   135239404.258         483.033          38.000                                                                  
G25  24241964.663   127392371.316       -3906.649          35.000    24241956.848    99266757.769       -3044.401          36.000  
> 2025 10 30 06 16 45.5600000  0 21                     
G32  21907613.163   115125283.147       -2828.643          46.000    21907606.633    89707984.714       -2204.146          44.000  
G29  23051975.432   121138965.564        -452.630          42.000    23051967.234    94393963.583        -352.670          42.000  
G28  21206968.238   111443368.525       -1141.578          45.000    21206957.401    86838947.561        -889.907          46.000  
G26  20373577.560   107063871.180         801.794          47.000    20373570.851    83426373.971         624.893          45.000  
G31  20630423.997   108413607.340         211.850          46.000    20630413.619    84478094.434         165.202          45.000  
G04  24617345.062                3       3192.513          28.000    24617343.051   100803914.905        2487.779          39.000  
C33  22479172.560   117054946.511        -575.643          49.000                                                                  
C06  36566595.532   190411860.347        -168.772          44.000    36566578.705   147238457.771        -130.435          47.000  
C14  22584041.290   117601016.711       -2156.019          46.000    22584026.572    90936512.376       -1667.172          50.000  
C16  36993226.321   192633433.993        -201.617          46.000    36993214.415   148956342.918        -156.043          47.000  
C24  21809254.137   113566512.846        -811.777          49.000                                                                  
C26  24327345.491   126678866.416       -2552.710          45.000                                                                  
G03  22886707.245   120270460.202          22.932          39.000    22886701.718    93717221.323          18.030          36.000  
G16  22548995.048   118495771.565        3055.494          42.000                                                                  
C09  37718493.763   196410096.382        -158.806          44.000    37718479.523   151876687.505        -122.778          47.000  
C25  23712028.789   123474761.976        1615.771          44.000                                                                  
C13  38275105.649   199308515.771       -2242.302          42.000    38275100.056   154117966.284       -1733.686          43.000  
C08  39096742.189   203586987.324       -2446.807          38.000    39096730.767   157426311.490       -1892.425          44.000  
C10  40533900.388   211070657.503         929.332          34.000    40533901.817   163213279.351         718.567          38.000  
C35  25971298.830   135239384.938         483.008          38.000                                                                  
G25  24241994.388   127392527.576       -3906.623          35.000    24241986.582    99266879.518       -3044.070          37.000  
> 2025 10 30 06 16 45.6000000  0 21                     
G32  21907634.722   115125396.295       -2828.737          46.000    21907628.162    89708072.874       -2204.090          44.000  
G29  23051978.886   121138983.663        -452.594          42.000    23051970.687    94393977.680        -352.541          42.000  
G28  21206976.938   111443414.192       -1141.664          45.000    21206966.093    86838983.136        -889.612          46.000  
G26  20373571.434   107063839.103         801.834          47.000    20373564.741    83426348.983         624.726          45.000  
G31  20630422.370   108413598.850         212.097          46.000    20630412.012    84478087.824         165.197          45.000  
G04  24617320.735                3       3196.380          27.000    24617318.730   100803815.388        2487.822          39.000  
C33  22479176.986   117054969.525        -575.504          49.000                                                                  
C06  36566596.862   190411867.089        -168.667          44.000    36566579.993   147238462.991        -130.521          47.000  
C14  22584057.861   117601102.944       -2155.931          46.000    22584043.134    90936579.060       -1667.183          50.000  
C16  36993227.897   192633442.061        -201.700          46.000    36993215.967   148956349.150        -155.916          47.000  
C24  21809260.376   113566545.315        -811.791          49.000                                                                  
C26  24327365.104   126678968.516       -2552.671          45.000                                                                  
G03  22886707.066   120270459.281          22.991          39.000    22886701.537    93717220.611          17.921          36.000  
G16  22548971.794   118495649.348        3055.397          42.000                                                                  
C09  37718495.004   196410102.735        -158.898          44.000    37718480.727   151876692.413        -122.764          47.000  
C25  23712016.388   123474697.340        1615.741          44.000                                                                  
C13  38275122.866   199308605.441       -2242.031          42.000    38275117.275   154118035.637       -1733.845          43.000  
C08  39096761.010   203587085.222       -2447.208          38.000    39096749.556   157426387.176       -1892.252          44.000  
C10  40533893.242   211070620.354         928.879          34.000    40533894.690   163213250.605         718.672          38.000  
C35  25971295.109   135239365.621         482.970          38.000                                                                  
G25  24242024.122   127392683.841       -3906.672          35.000    24242016.303    99267001.251       -3043.556          37.000  
> 2025 10 30 06 16 45.6400000  0 21                     
G32  21907656.227   115125509.438       -2828.668          46.000    21907649.698    89708161.040       -2204.166          44.000  
G29  23051982.332   121139001.758        -452.466          42.000    23051974.151    94393991.788        -352.653          41.000  
G28  21206985.653   111443459.862       -1141.752          45.000    21206974.771    86839018.712        -889.488          46.000  
G26  20373565.336   107063807.018         802.022          47.000    20373558.607    83426323.992         624.697          45.000  
G31  20630420.733   108413590.363         212.146          46.000    20630410.396    84478081.212         165.271          45.000  
G04  24617296.436                3       3196.209          27.000    24617294.415   100803715.883        2487.674          39.000  
C33  22479181.405   117054992.542        -575.453          49.000                                                                  
C06  36566598.194   190411873.820        -168.419          44.000    36566581.284   147238468.202        -130.398          47.000  
C14  22584074.398   117601189.181       -2155.981          46.000    22584059.698    90936645.739       -1667.067          50.000  
C16  36993229.448   192633450.126        -201.671          46.000    36993217.492   148956355.383        -155.865          47.000  
C24  21809266.631   113566577.775        -811.625          49.000                                                                  
C26  24327384.729   126679070.613       -2552.527          45.000                                                                  
G03  22886706.886   120270458.376          22.688          39.000    22886701.364    93717219.910          17.618          36.000  
G16  22548948.522   118495527.131        3055.362          42.000                                                                  
C09  37718496.217   196410109.070        -158.617          44.000    37718481.938   151876697.324        -122.821          47.000  
C25  23712003.984   123474632.691        1616.003          44.000                                                                  
C13  38275140.102   199308695.105       -2241.713          42.000    38275134.496   154118104.971       -1733.556          43.000  
C08  39096779.827   203587183.123       -2447.448          38.000    39096768.339   157426462.864       -1892.236          44.000  
C10  40533886.105   211070583.159         929.410          34.000    40533887.553   163213221.857         718.771          38.000  
C35  25971291.408   135239346.315         482.680          38.000                                                                  
G25  24242053.844   127392840.089       -3906.395          35.000    24242046.039    99267122.980       -3043.293          37.000  
> 2025 10 30 06 16 45.6800000  0 21                     
G32  21907677.764   115125622.571       -2828.433          46.000    21907671.233    89708249.202       -2204.117          44.000  
G29  23051985.770   121139019.857        -452.453          42.000    23051977.599    94394005.895        -352.683          41.000  
G28  21206994.323   111443505.525       -1141.689          45.000    21206983.459    86839054.285        -889.370          46.000  
G26  20373559.225   107063774.928         802.220          47.000    20373552.492    83426298.982         625.027          45.000  
G31  20630419.117   108413581.873         212.232          46.000    20630408.767    84478074.595         165.406          45.000  
G04  24617272.164                3       3198.973          27.000    24617270.117   100803616.362        2487.868          38.000  
C33  22479185.858   117055015.557        -575.401          49.000                                                                  
C06  36566599.508   190411880.550        -168.248          45.000    36566582.574   147238473.405        -130.181          47.000  
C14  22584090.961   117601275.408       -2155.789          46.000    22584076.237    90936712.415       -1666.960          50.000  
C16  36993230.999   192633458.182        -201.510          46.000    36993219.036   148956361.613        -155.762          47.000  
C24  21809272.886   113566610.233        -811.497          49.000                                                                  
C26  24327404.331   126679172.713       -2552.516          45.000                                                                  
G03  22886706.692   120270457.464          22.680          39.000    22886701.170    93717219.182          18.024          36.000  
G16  22548925.262   118495404.904        3055.530          42.000                                                                  
C09  37718497.422   196410115.412        -158.535          44.000    37718483.162   151876702.224        -122.617          47.000  
C25  23711991.574   123474568.045        1616.125          44.000                                                                  
C13  38275157.331   199308784.759       -2241.373          42.000    38275151.714   154118174.302       -1733.301          43.000  
C08  39096798.613   203587281.010       -2447.345          38.000    39096787.127   157426538.548       -1892.125          44.000  
C10  40533878.966   211070546.013         928.896          34.000    40533880.408   163213193.096         718.981          38.000  
C35  25971287.686   135239327.000         482.746          38.000                                                                  
G25  24242083.583   127392996.325       -3906.034          35.000    24242075.784    99267244.759       -3044.025          37.000  
> 2025 10 30 06 16 45.7200000  0 21                     
G32  21907699.278   115125735.711       -2828.438          46.000    21907692.775    89708337.357       -2203.962          44.000  
G29  23051989.182   121139037.937        -452.128          42.000    23051981.035    94394019.994        -352.550          41.000  
G28  21207002.982   111443551.176       -1141.450          45.000    21206992.153    86839089.870        -889.550          46.000  
G26  20373553.122   107063742.841         802.237          47.000    20373546.395    83426273.982         625.031          45.000  
G31  20630417.498   108413573.382         212.287          46.000    20630407.173    84478067.986         165.282          45.000  
C33  22479190.298   117055038.571        -575.352          49.000                                                                  
C06  36566600.801   190411887.282        -168.241          45.000    36566583.828   147238478.617        -130.214          47.000  
C14  22584107.522   117601361.636       -2155.715          46.000    22584092.805    90936779.092       -1666.943          50.000  
C16  36993232.551   192633466.232        -201.327          46.000    36993220.583   148956367.840        -155.688          47.000  
C24  21809279.111   113566642.698        -811.567          49.000                                                                  
C26  24327423.955   126679274.799       -2552.296          45.000                                                                  
G03  22886706.498   120270456.549          22.776          39.000    22886700.995    93717218.452          18.183          36.000  
G16  22548902.008   118495282.671        3055.751          42.000                                                                  
C09  37718498.622   196410121.746        -158.360          44.000    37718484.387   151876707.129        -122.612          47.000  
C25  23711979.131   123474503.395        1616.241          44.000                                                                  
C13  38275174.534   199308874.431       -2241.550          42.000    38275168.936   154118243.639       -1733.297          43.000  
C08  39096817.423   203587378.901       -2447.299          38.000    39096805.934   157426614.241       -1892.256          44.000  
C10  40533871.844   211070508.825         929.397          34.000    40533873.263   163213164.363         718.563          38.000  
C35  25971284.005   135239307.682         482.880          38.000                                                                  
G25  24242113.297   127393152.557       -3905.777          35.000    24242105.520    99267366.509       -3043.948          37.000  
G04                                                                  24617245.823   100803516.825        2488.292          38.000  
> 2025 10 30 06 16 45.7600000  0 21                     
G32  21907720.823   115125848.858       -2828.589          46.000    21907714.331    89708425.519       -2203.991          44.000  
G29  23051992.617   121139056.040        -452.357          42.000    23051984.461    94394034.097        -352.525          41.000  
G28  21207011.678   111443596.834       -1141.418          45.000    21207000.843    86839125.453        -889.580          46.000  
G26  20373547.026   107063710.768         801.968          47.000    20373540.312    83426248.986         624.925          45.000  
G31  20630415.884   108413564.893         212.256          46.000    20630405.561    84478061.368         165.406          45.000  
C33  22479194.688   117055061.590        -575.437          49.000                                                                  
C06  36566602.124   190411894.029        -168.535          45.000    36566585.104   147238483.831        -130.310          47.000  
C14  22584124.075   117601447.871       -2155.813          46.000    22584109.376    90936845.776       -1667.052          50.000  
C16  36993234.094   192633474.288        -201.351          46.000    36993222.156   148956374.070        -155.725          47.000  
C24  21809285.335   113566675.158        -811.536          49.000                                                                  
C26  24327443.554   126679376.898       -2552.438          45.000                                                                  
G03  22886706.321   120270455.629          22.927          39.000    22886700.817    93717217.761          17.629          36.000  
G16  22548878.742   118495160.445        3055.715          42.000                                                                  
C09  37718499.858   196410128.088        -158.452          44.000    37718485.610   151876712.031        -122.570          47.000  
C25  23711966.745   123474438.743        1616.284          44.000                                                                  
C13  38275191.744   199308964.102       -2241.714          42.000    38275186.153   154118312.975       -1733.368          43.000  
C08  39096836.215   203587476.752       -2446.552          38.000    39096824.725   157426689.931       -1892.281          44.000  
C10  40533864.711   211070471.647         929.401          34.000    40533866.162   163213135.619         718.495          38.000  
C35  25971280.278   135239288.368         482.874          38.000                                                                  
G25  24242143.032   127393308.817       -3906.221          35.000    24242135.254    99267488.268       -3043.996          37.000  
G04                                                                  24617221.527   100803417.333        2487.651          38.000  
> 2025 10 30 06 16 45.8000000  0 21                     
G32  21907742.372   115125962.004       -2828.686          46.000    21907735.855    89708513.689       -2204.174          44.000  
G29  23051996.067   121139074.152        -452.677          42.000    23051987.910    94394048.191        -352.356          41.000  
G28  21207020.391   111443642.496       -1141.508          45.000    21207009.539    86839161.031        -889.553          46.000  
G26  20373540.937   107063678.696         801.807          47.000    20373534.205    83426223.995         624.781          45.000  
G31  20630414.255   108413556.415         212.021          46.000    20630403.937    84478054.761         165.239          45.000  
C33  22479199.080   117055084.610        -575.513          49.000                                                                  
C06  36566603.423   190411900.771        -168.611          45.000    36566586.345   147238489.042        -130.323          47.000  
C14  22584140.645   117601534.110       -2155.966          46.000    22584125.937    90936912.459       -1667.114          50.000  
C16  36993235.623   192633482.346        -201.419          46.000    36993223.723   148956380.303        -155.804          47.000  
C24  21809291.546   113566707.627        -811.688          49.000                                                                  
C26  24327463.144   126679479.006       -2552.660          45.000                                                                  
G03  22886706.145   120270454.719          22.729          39.000    22886700.636    93717217.050          17.645          36.000  
G16  22548855.482   118495038.231        3055.473          42.000                                                                  
C09  37718501.089   196410134.436        -158.638          44.000    37718486.812   151876716.922        -122.368          47.000  
C25  23711954.308   123474374.102        1616.083          44.000                                                                  
C13  38275208.948   199309053.789       -2242.049          41.000    38275203.375   154118382.319       -1733.536          43.000  
C08  39096855.026   203587574.632       -2446.722          38.000    39096843.537   157426765.614       -1892.174          44.000  
C10  40533857.583   211070434.490         929.019          34.000    40533859.024   163213106.876         718.459          38.000  
C35  25971276.558   135239269.055         482.809          38.000                                                                  
G25  24242172.742   127393465.074       -3906.344          35.000    24242164.991    99267610.014       -3043.852          37.000  
G04                                                                  24617197.236   100803317.797        2488.119          38.000  
> 2025 10 30 06 16 45.8400000  0 21                     
G32  21907763.868   115126075.145       -2828.626          46.000    21907757.370    89708601.850       -2204.117          44.000  
G29  23051999.518   121139092.264        -452.831          42.000    23051991.360    94394062.298        -352.547          41.000  
G28  21207029.084   111443688.165       -1141.659          45.000    21207018.216    86839196.614        -889.642          46.000  
G26  20373534.799   107063646.620         801.809          47.000    20373528.105    83426199.002         624.733          45.000  
G31  20630412.627   108413547.931         212.047          46.000    20630402.309    84478048.149         165.239          45.000  
C33  22479203.466   117055107.635        -575.594          49.000                                                                  
C06  36566604.707   190411907.515        -168.662          45.000    36566587.616   147238494.250        -130.283          47.000  
C14  22584157.206   117601620.345       -2155.924          46.000    22584142.495    90936979.143       -1667.119          50.000  
C16  36993237.141   192633490.412        -201.594          46.000    36993225.310   148956386.536        -155.842          47.000  
C24  21809297.790   113566740.094        -811.711          49.000                                                                  
C26  24327482.763   126679581.113       -2552.772          45.000                                                                  
G03  22886705.968   120270453.816          22.548          39.000    22886700.485    93717216.349          17.534          36.000  
G16  22548832.228   118494916.010        3055.475          42.000                                                                  
C09  37718502.353   196410140.777        -158.611          44.000    37718488.021   151876721.834        -122.658          47.000  
C25  23711941.872   123474309.464        1615.912          44.000                                                                  
C13  38275226.185   199309143.462       -2241.997          41.000    38275220.607   154118451.669       -1733.759          43.000  
C08  39096873.825   203587672.516       -2446.943          38.000    39096862.351   157426841.311       -1892.369          44.000  
C10  40533850.480   211070397.324         929.057          34.000    40533851.896   163213078.138         718.340          38.000  
C35  25971272.845   135239249.730         483.018          39.000                                                                  
G25  24242202.494   127393621.330       -3906.406          35.000    24242194.736    99267731.788       -3044.225          37.000  
G04                                                                  24617172.931   100803218.260        2488.414          38.000  
> 2025 10 30 06 16 45.8800000  0 21                     
G32  21907785.410   115126188.296       -2828.746          46.000    21907778.894    89708690.014       -2204.117          44.000  
G29  23052002.932   121139110.367        -452.745          42.000    23051994.814    94394076.415        -352.874          41.000  
G28  21207037.773   111443733.830       -1141.667          45.000    21207026.922    86839232.196        -889.624          46.000  
G26  20373528.698   107063614.549         801.741          47.000    20373522.017    83426174.007         624.759          45.000  
G31  20630411.027   108413539.455         211.887          46.000    20630400.707    84478041.544         165.116          45.000  
C33  22479207.894   117055130.658        -575.624          49.000                                                                  
C06  36566606.006   190411914.250        -168.506          45.000    36566588.924   147238499.460        -130.298          47.000  
C14  22584173.763   117601706.583       -2155.941          46.000    22584159.056    90937045.832       -1667.238          50.000  
C16  36993238.667   192633498.470        -201.545          46.000    36993226.846   148956392.768        -155.854          47.000  
C24  21809304.020   113566772.565        -811.793          48.000                                                                  
C26  24327502.371   126679683.210       -2552.600          45.000                                                                  
G03  22886705.804   120270452.903          22.678          39.000    22886700.303    93717215.645          17.512          36.000  
G16  22548808.956   118494793.784        3055.558          42.000                                                                  
C09  37718503.583   196410147.129        -158.774          44.000    37718489.244   151876726.752        -122.935          47.000  
C25  23711929.442   123474244.826        1615.851          44.000                                                                  
C13  38275243.405   199309233.139       -2242.021          41.000    38275237.825   154118521.001       -1733.495          43.000  
C08  39096892.631   203587770.400       -2447.054          38.000    39096881.145   157426917.006       -1892.403          44.000  
C10  40533843.331   211070360.154         929.135          34.000    40533844.751   163213049.392         718.523          38.000  
C35  25971269.153   135239230.421         482.814          39.000                                                                  
G25  24242232.204   127393777.595       -3906.666          35.000    24242224.489    99267853.566       -3044.506          37.000  
G04                                                                  24617148.618   100803118.737        2488.249          38.000  
> 2025 10 30 06 16 45.9200000  0 21                     
G32  21907806.939   115126301.450       -2828.892          46.000    21907800.415    89708778.190       -2204.309          44.000  
G29  23052006.361   121139128.477        -452.775          42.000    23051998.250    94394090.528        -352.940          41.000  
G28  21207046.461   111443779.498       -1141.716          45.000    21207035.628    86839267.793        -889.867          46.000  
G26  20373522.590   107063582.479         801.686          47.000    20373515.909    83426149.021         624.616          45.000  
G31  20630409.408   108413530.981         211.795          46.000    20630399.081    84478034.928         165.258          45.000  
C33  22479212.333   117055153.686        -575.710          49.000                                                                  
C06  36566607.324   190411920.996        -168.625          45.000    36566590.231   147238504.674        -130.371          47.000  
C14  22584190.317   117601792.830       -2156.105          46.000    22584175.623    90937112.519       -1667.249          50.000  
C16  36993240.186   192633506.535        -201.654          46.000    36993228.385   148956398.999        -155.833          47.000  
C24  21809310.260   113566805.038        -811.867          48.000                                                                  
C26  24327521.985   126679785.309       -2552.512          45.000                                                                  
G03  22886705.633   120270451.997          22.563          39.000    22886700.117    93717214.914          18.054          36.000  
G16  22548785.721   118494671.569        3055.433          42.000                                                                  
C09  37718504.810   196410153.480        -158.861          44.000    37718490.466   151876731.668        -123.018          47.000  
C25  23711917.065   123474180.184        1615.912          43.000                                                                  
C13  38275260.626   199309322.816       -2241.957          41.000    38275255.037   154118590.351       -1733.632          42.000  
C08  39096911.435   203587868.302       -2447.468          38.000    39096899.948   157426992.697       -1892.368          43.000  
C10  40533836.188   211070322.959         929.615          34.000    40533837.607   163213020.660         718.351          38.000  
C35  25971265.450   135239211.118         482.595          39.000                                                                  
G25  24242261.961   127393933.854       -3906.662          35.000    24242254.243    99267975.319       -3044.222          37.000  
G04                                                                  24617124.324   100803019.225        2487.905          38.000  
> 2025 10 30 06 16 45.9600000  0 21                     
G32  21907828.475   115126414.603       -2828.906          47.000    21907821.946    89708866.358       -2204.286          44.000  
G29  23052009.812   121139146.596        -452.956          42.000    23052001.699    94394104.650        -353.106          41.000  
G28  21207055.171   111443825.171       -1141.813          45.000    21207044.318    86839303.377        -889.771          46.000  
G26  20373516.493   107063550.417         801.539          47.000    20373509.807    83426124.035         624.593          45.000  
G31  20630407.790   108413522.500         211.876          46.000    20630397.473    84478028.320         165.221          45.000  
C33  22479216.754   117055176.721        -575.881          49.000                                                                  
C06  36566608.600   190411927.737        -168.578          45.000    36566591.544   147238509.898        -130.586          47.000  
C14  22584206.879   117601879.076       -2156.212          46.000    22584192.180    90937179.207       -1667.247          50.000  
C16  36993241.716   192633514.599        -201.677          46.000    36993229.955   148956405.236        -155.923          47.000  
C24  21809316.534   113566837.505        -811.790          48.000                                                                  
C26  24327541.596   126679887.414       -2552.629          45.000                                                                  
G03  22886705.448   120270451.102          22.339          39.000    22886699.959    93717214.214          17.748          36.000  
G16  22548762.461   118494549.372        3055.022          42.000                                                                  
C09  37718506.046   196410159.820        -158.674          44.000    37718491.696   151876736.574        -122.856          47.000  
C25  23711904.649   123474115.544        1615.961          43.000                                                                  
C13  38275277.861   199309412.489       -2241.901          41.000    38275272.271   154118659.698       -1733.682          43.000  
C08  39096930.234   203587966.195       -2447.466          38.000    39096918.751   157427068.395       -1892.467          43.000  
C10  40533829.034   211070285.779         929.557          34.000    40533830.471   163212991.917         718.416          38.000  
C35  25971261.770   135239191.815         482.498          39.000                                                                  
G25  24242291.688   127394090.103       -3906.412          35.000    24242284.002    99268097.081       -3044.116          37.000  
G04                                                                  24617100.045   100802919.734        2487.385          38.000  
> 2025 10 30 06 16 46.0000000  0 21                     
G32  21907850.024   115126527.760       -2828.954          47.000    21907843.482    89708954.537       -2204.418          44.000  
G29  23052013.247   121139164.708        -452.903          42.000    23052005.154    94394118.765        -353.020          41.000  
G28  21207063.828   111443870.833       -1141.684          45.000    21207052.980    86839338.956        -889.602          46.000  
G26  20373510.382   107063518.351         801.546          47.000    20373503.711    83426099.051         624.520          45.000  
G31  20630406.173   108413514.014         212.018          46.000    20630395.879    84478021.714         165.166          45.000  
C33  22479221.169   117055199.752        -575.850          49.000                                                                  
C06  36566609.892   190411934.474        -168.472          45.000    36566592.862   147238515.110        -130.487          47.000  
C14  22584223.445   117601965.322       -2156.219          46.000    22584208.737    90937245.901       -1667.354          50.000  
C16  36993243.252   192633522.669        -201.792          46.000    36993231.501   148956411.472        -155.959          47.000  
C24  21809322.754   113566869.979        -811.835          48.000                                                                  
C26  24327561.214   126679989.524       -2552.766          45.000                                                                  
G03  22886705.275   120270450.199          22.451          39.000    22886699.799    93717213.521          17.473          36.000  
G16  22548739.207   118494427.165        3055.042          42.000                                                                  
C09  37718507.264   196410166.164        -158.624          44.000    37718492.910   151876741.479        -122.709          47.000  
C25  23711892.267   123474050.901        1616.022          43.000                                                                  
C13  38275295.086   199309502.170       -2241.982          41.000    38275289.496   154118729.038       -1733.582          43.000  
C08  39096949.024   203588064.097       -2447.613          38.000    39096937.536   157427144.088       -1892.443          43.000  
C10  40533821.909   211070248.656         928.469          34.000    40533823.338   163212963.183         718.308          38.000  
C35  25971258.084   135239172.522         482.307          39.000                                                                  
G25  24242321.428   127394246.378       -3906.776          35.000    24242313.733    99268218.839       -3044.087          37.000  
G04                                                                  24617075.756   100802820.223        2487.531          38.000  
> 2025 10 30 06 16 46.0400000  0 21                     
G32  21907871.544   115126640.913       -2828.919          47.000    21907865.033    89709042.708       -2204.363          44.000  
G29  23052016.702   121139182.818        -452.795          42.000    23052008.597    94394132.878        -352.899          41.000  
G28  21207072.506   111443916.502       -1141.744          45.000    21207061.650    86839374.537        -889.539          46.000  
G26  20373504.288   107063486.275         801.740          47.000    20373497.595    83426074.059         624.689          45.000  
G31  20630404.582   108413505.539         211.907          46.000    20630394.272    84478015.114         165.031          45.000  
C33  22479225.614   117055222.776        -575.688          49.000                                                                  
C06  36566611.182   190411941.212        -168.463          45.000    36566594.175   147238520.322        -130.419          47.000  
C14  22584240.014   117602051.563       -2156.091          46.000    22584225.294    90937312.590       -1667.294          50.000  
C16  36993244.821   192633530.731        -201.691          46.000    36993233.039   148956417.703        -155.847          47.000  
C24  21809328.960   113566902.451        -811.835          48.000                                                                  
C26  24327580.801   126680091.622       -2552.653          45.000                                                                  
G03  22886705.105   120270449.294          22.533          39.000    22886699.617    93717212.830          17.242          36.000  
G16  22548715.937   118494304.944        3055.365          42.000                                                                  
C09  37718508.462   196410172.508        -158.566          44.000    37718494.154   151876746.380        -122.591          47.000  
C25  23711879.847   123473986.266        1615.918          43.000                                                                  
C13  38275312.302   199309591.851       -2242.082          41.000    38275306.703   154118798.381       -1733.570          43.000  
C08  39096967.843   203588161.969       -2447.112          38.000    39096956.329   157427219.778       -1892.372          43.000  
C10  40533814.780   211070211.493         928.589          34.000    40533816.202   163212934.427         718.724          38.000  
C35  25971254.393   135239153.220         482.360          39.000                                                                  
G25  24242351.152   127394402.644       -3906.743          35.000    24242343.475    99268340.584       -3043.838          37.000  
G04                                                                  24617051.446   100802720.703        2487.718          38.000  
> 2025 10 30 06 16 46.0800000  0 21                     
G32  21907893.087   115126754.069       -2828.944          47.000    21907886.549    89709130.877       -2204.299          44.000  
G29  23052020.159   121139200.934        -452.870          42.000    23052012.034    94394146.987        -352.761          41.000  
G28  21207081.207   111443962.182       -1141.920          45.000    21207070.338    86839410.124        -889.637          46.000  
G26  20373498.174   107063454.213         801.596          47.000    20373491.497    83426049.077         624.583          45.000  
G31  20630402.992   108413497.071         211.716          46.000    20630392.682    84478008.516         164.977          45.000  
C33  22479230.045   117055245.812        -575.836          48.000                                                                  
C06  36566612.437   190411947.967        -168.767          45.000    36566595.490   147238525.540        -130.465          47.000  
C14  22584256.569   117602137.814       -2156.218          46.000    22584241.837    90937379.286       -1667.395          50.000  
C16  36993246.395   192633538.790        -201.574          46.000    36993234.556   148956423.945        -156.003          47.000  
C24  21809335.203   113566934.931        -811.977          48.000                                                                  
C26  24327600.369   126680193.733       -2552.804          45.000                                                                  
G03  22886704.940   120270448.381          22.754          39.000    22886699.437    93717212.108          17.639          36.000  
G16  22548692.677   118494182.725        3055.475          42.000                                                                  
C09  37718509.666   196410178.860        -158.687          44.000    37718495.383   151876751.289        -122.670          47.000  
C25  23711867.422   123473921.629        1615.888          43.000                                                                  
C13  38275329.530   199309681.526       -2241.987          41.000    38275323.910   154118867.728       -1733.657          42.000  
C08  39096986.636   203588259.860       -2447.182          38.000    39096975.103   157427295.471       -1892.393          44.000  
C10  40533807.634   211070174.329         928.807          34.000    40533809.034   163212905.697         718.459          38.000  
C35  25971250.671   135239133.934         482.155          39.000                                                                  
G25  24242380.905   127394558.896       -3906.450          35.000    24242373.210    99268462.360       -3044.274          37.000  
G04                                                                  24617027.131   100802621.175        2488.033          38.000  
> 2025 10 30 06 16 46.1200000  0 21                     
G32  21907914.633   115126867.227       -2829.001          47.000    21907908.096    89709219.056       -2204.442          44.000  
G29  23052023.629   121139219.060        -453.109          42.000    23052015.474    94394161.104        -352.909          41.000  
G28  21207089.898   111444007.859       -1141.974          45.000    21207079.019    86839445.725        -889.928          46.000  
G26  20373492.083   107063422.153         801.491          47.000    20373485.398    83426024.086         624.676          45.000  
G31  20630401.381   108413488.597         211.729          46.000    20630391.067    84478001.918         164.934          45.000  
C33  22479234.455   117055268.854        -576.033          48.000                                                                  
C06  36566613.737   190411954.718        -168.838          45.000    36566596.796   147238530.758        -130.491          47.000  
C14  22584273.109   117602224.066       -2156.338          46.000    22584258.390    90937445.984       -1667.489          50.000  
C16  36993247.959   192633546.855        -201.594          46.000    36993236.097   148956430.183        -156.015          47.000  
C24  21809341.446   113566967.408        -811.992          48.000                                                                  
C26  24327619.977   126680295.843       -2552.817          45.000                                                                  
G03  22886704.771   120270447.490          22.437          39.000    22886699.264    93717211.418          17.369          36.000  
G16  22548669.425   118494060.505        3055.523          42.000                                                                  
C09  37718510.865   196410185.216        -158.852          44.000    37718496.599   151876756.203        -122.783          47.000  
C25  23711855.000   123473857.000        1615.753          44.000                                                                  
C13  38275346.769   199309771.222       -2242.273          41.000    38275341.115   154118937.080       -1733.781          42.000  
C08  39097005.435   203588357.766       -2447.503          38.000    39096993.903   157427371.178       -1892.630          44.000  
C10  40533800.487   211070137.158         929.054          34.000    40533801.892   163212876.971         718.246          38.000  
C35  25971246.957   135239114.631         482.398          39.000                                                                  
G25  24242410.657   127394715.165       -3906.682          35.000    24242402.940    99268584.133       -3044.479          37.000  
G04                                                                  24617002.843   100802521.660        2487.961          38.000  
> 2025 10 30 06 16 46.1600000  0 21                     
G32  21907936.165   115126980.390       -2829.088          47.000    21907929.646    89709307.246       -2204.710          44.000  
G29  23052027.083   121139237.186        -453.175          42.000    23052018.912    94394175.222        -352.952          41.000  
G28  21207098.594   111444053.532       -1141.906          45.000    21207087.707    86839481.314        -889.871          46.000  
G26  20373485.980   107063390.095         801.412          47.000    20373479.308    83425999.103         624.627          45.000  
G31  20630399.773   108413480.122         211.804          46.000    20630389.429    84477995.315         165.027          45.000  
C33  22479238.859   117055291.893        -576.054          48.000                                                                  
C06  36566615.061   190411961.471        -168.883          45.000    36566598.108   147238535.973        -130.457          47.000  
C14  22584289.674   117602310.322       -2156.423          46.000    22584274.943    90937512.679       -1667.461          50.000  
C16  36993249.527   192633554.919        -201.600          46.000    36993237.623   148956436.415        -155.915          47.000  
C24  21809347.700   113566999.884        -811.949          48.000                                                                  
C26  24327639.581   126680397.953       -2552.826          45.000                                                                  
G03  22886704.622   120270446.604          22.161          39.000    22886699.090    93717210.727          17.188          36.000  
G16  22548646.173   118493938.307        3055.153          42.000                                                                  
C09  37718512.089   196410191.569        -158.901          44.000    37718497.808   151876761.118        -122.877          47.000  
C25  23711842.585   123473792.377        1615.564          44.000                                                                  
C13  38275363.989   199309860.895       -2241.978          41.000    38275358.352   154119006.433       -1733.854          42.000  
C08  39097024.254   203588455.653       -2447.351          38.000    39097012.711   157427446.871       -1892.474          43.000  
C10  40533793.335   211070099.975         929.486          34.000    40533794.727   163212848.230         718.414          38.000  
C35  25971243.252   135239095.311         482.836          39.000                                                                  
G25  24242440.401   127394871.406       -3906.215          35.000    24242432.672    99268705.910       -3044.598          37.000  
G04                                                                  24616978.543   100802422.141        2488.042          38.000  
> 2025 10 30 06 16 46.2000000  0 21                     
G32  21907957.665   115127093.545       -2828.995          47.000    21907951.182    89709395.414       -2204.458          44.000  
G29  23052030.512   121139255.301        -452.983          42.000    23052022.365    94394189.345        -353.070          41.000  
G28  21207107.273   111444099.204       -1141.874          45.000    21207096.412    86839516.916        -890.033          46.000  
G26  20373479.850   107063358.034         801.425          47.000    20373473.221    83425974.128         624.421          45.000  
G31  20630398.154   108413471.651         211.766          46.000    20630387.800    84477988.709         165.107          45.000  
C33  22479243.301   117055314.930        -575.992          48.000                                                                  
C06  36566616.344   190411968.209        -168.622          45.000    36566599.400   147238541.192        -130.490          47.000  
C14  22584306.248   117602396.580       -2156.490          46.000    22584291.475    90937579.373       -1667.396          50.000  
C16  36993251.062   192633562.997        -201.867          46.000    36993239.168   148956442.648        -155.858          47.000  
C24  21809353.962   113567032.359        -811.917          48.000                                                                  
C26  24327659.210   126680500.055       -2552.657          45.000                                                                  
G03  22886704.464   120270445.718          22.059          38.000    22886698.942    93717210.041          17.040          36.000  
G16  22548622.939   118493816.110        3054.936          42.000                                                                  
C09  37718513.296   196410197.917        -158.803          44.000    37718499.016   151876766.023        -122.775          47.000  
C25  23711830.190   123473727.743        1615.711          43.000                                                                  
C13  38275381.230   199309950.586       -2242.140          41.000    38275375.546   154119075.774       -1733.698          42.000  
C08  39097043.047   203588553.557       -2447.607          38.000    39097031.490   157427522.567       -1892.456          44.000  
C10  40533786.197   211070062.815         929.210          34.000    40533787.572   163212819.487         718.514          38.000  
C35  25971239.511   135239076.019         482.484          39.000                                                                  
G25  24242470.132   127395027.664       -3906.291          35.000    24242462.396    99268827.657       -3044.059          37.000  
G04                                                                  24616954.238   100802322.635        2487.829          38.000  
> 2025 10 30 06 16 46.2400000  0 21                     
G32  21907979.214   115127206.713       -2829.142          47.000    21907972.682    89709483.575       -2204.168          44.000  
G29  23052033.964   121139273.423        -453.023          42.000    23052025.801    94394203.479        -353.332          41.000  
G28  21207115.978   111444144.886       -1142.015          45.000    21207105.105    86839552.509        -889.929          46.000  
G26  20373473.748   107063325.976         801.394          47.000    20373467.122    83425949.155         624.248          45.000  
G31  20630396.570   108413463.185         211.637          46.000    20630386.188    84477982.104         165.106          45.000  
C33  22479247.747   117055337.970        -576.017          48.000                                                                  
C06  36566617.670   190411974.957        -168.665          45.000    36566600.700   147238546.415        -130.566          47.000  
C14  22584322.816   117602482.832       -2156.412          46.000    22584308.048    90937646.069       -1667.403          50.000  
C16  36993252.598   192633571.071        -201.933          46.000    36993240.709   148956448.894        -156.053          47.000  
C24  21809360.182   113567064.840        -812.022          48.000                                                                  
C26  24327678.816   126680602.162       -2552.688          45.000                                                                  
G03  22886704.301   120270444.841          21.907          38.000    22886698.781    93717209.350          17.120          36.000  
G16  22548599.686   118493693.911        3054.883          42.000                                                                  
C09  37718514.523   196410204.270        -158.868          44.000    37718500.257   151876770.942        -122.940          47.000  
C25  23711817.776   123473663.118        1615.643          43.000                                                                  
C13  38275398.460   199310040.271       -2242.127          41.000    38275392.780   154119145.129       -1733.861          42.000  
C08  39097061.854   203588651.439       -2447.351          38.000    39097050.295   157427598.266       -1892.483          43.000  
C10  40533779.076   211070025.647         929.205          34.000    40533780.415   163212790.745         718.531          38.000  
C35  25971235.795   135239056.720         482.416          39.000                                                                  
G25  24242499.838   127395183.950       -3906.808          35.000    24242492.129    99268949.413       -3043.877          37.000  
G04                                                                  24616929.933   100802223.133        2487.567          38.000  
> 2025 10 30 06 16 46.2800000  0 21                     
G32  21908000.724   115127319.872       -2829.095          47.000    21907994.229    89709571.757       -2204.414          44.000  
G29  23052037.419   121139291.531        -452.797          42.000    23052029.262    94394217.599        -353.145          41.000  
G28  21207124.661   111444190.562       -1141.991          45.000    21207113.764    86839588.097        -889.767          46.000  
G26  20373467.635   107063293.916         801.438          46.000    20373460.997    83425924.174         624.331          45.000  
G31  20630394.960   108413454.720         211.576          45.000    20630384.590    84477975.502         165.050          45.000  
C33  22479252.182   117055361.010        -576.043          48.000                                                                  
C06  36566618.967   190411981.704        -168.657          45.000    36566601.978   147238551.631        -130.504          47.000  
C14  22584339.371   117602569.085       -2156.361          45.000    22584324.626    90937712.773       -1667.568          50.000  
C16  36993254.167   192633579.143        -201.907          46.000    36993242.269   148956455.137        -156.136          47.000  
C24  21809366.406   113567097.316        -811.967          48.000                                                                  
C26  24327698.411   126680704.277       -2552.833          45.000                                                                  
G03  22886704.141   120270443.945          22.122          38.000    22886698.597    93717208.646          17.456          36.000  
G16  22548576.424   118493571.703        3055.039          42.000                                                                  
C09  37718515.722   196410210.621        -158.834          44.000    37718501.495   151876775.854        -122.886          47.000  
C25  23711805.348   123473598.479        1615.820          43.000                                                                  
C13  38275415.679   199310129.956       -2242.121          41.000    38275409.988   154119214.479       -1733.816          42.000  
C08  39097080.680   203588749.350       -2447.598          38.000    39097069.082   157427673.964       -1892.517          43.000  
C10  40533771.937   211069988.538         928.128          34.000    40533773.277   163212762.013         718.345          38.000  
C35  25971232.106   135239037.428         482.306          39.000                                                                  
G25  24242529.569   127395340.211       -3906.745          35.000    24242521.889    99269071.184       -3043.985          37.000  
G04                                                                  24616905.646   100802123.626        2487.508          38.000  
> 2025 10 30 06 16 46.3200000  0 21                     
G32  21908022.275   115127433.045       -2829.289          47.000    21908015.759    89709659.950       -2204.742          44.000  
G29  23052040.861   121139309.665        -453.177          42.000    23052032.695    94394231.717        -353.000          41.000  
G28  21207133.370   111444236.250       -1142.197          44.000    21207122.445    86839623.690        -889.821          46.000  
G26  20373461.536   107063261.863         801.289          46.000    20373454.884    83425899.192         624.437          45.000  
G31  20630393.335   108413446.252         211.632          45.000    20630382.973    84477968.913         164.804          45.000  
C33  22479256.592   117055384.062        -576.273          48.000                                                                  
C06  36566620.253   190411988.455        -168.761          45.000    36566603.244   147238556.854        -130.571          47.000  
C14  22584355.947   117602655.352       -2156.628          45.000    22584341.176    90937779.475       -1667.630          50.000  
C16  36993255.705   192633587.203        -201.653          46.000    36993243.816   148956461.383        -156.217          47.000  
C24  21809372.644   113567129.804        -812.150          48.000                                                                  
C26  24327718.027   126680806.390       -2552.855          44.000                                                                  
G03  22886703.973   120270443.052          22.241          38.000    22886698.419    93717207.955          17.320          36.000  
G16  22548553.182   118493449.491        3055.197          42.000                                                                  
C09  37718516.938   196410216.982        -158.993          44.000    37718502.706   151876780.767        -122.872          47.000  
C25  23711792.937   123473533.855        1615.650          43.000                                                                  
C13  38275432.871   199310219.639       -2242.122          41.000    38275427.215   154119283.837       -1733.965          42.000  
C08  39097099.491   203588847.260       -2447.714          38.000    39097087.895   157427749.669       -1892.633          43.000  
C10  40533764.817   211069951.374         928.586          34.000    40533766.123   163212733.306         717.828          38.000  
C35  25971228.403   135239018.149         482.064          39.000                                                                  
G25  24242559.299   127395496.499       -3907.199          35.000    24242551.613    99269192.952       -3044.027          37.000  
G04                                                                  24616881.350   100802024.127        2487.454          38.000  
> 2025 10 30 06 16 46.3600000  0 21                     
G32  21908043.822   115127546.216       -2829.354          47.000    21908037.305    89709748.142       -2204.874          44.000  
G29  23052044.319   121139327.806        -453.506          42.000    23052036.136    94394245.846        -353.140          41.000  
G28  21207142.053   111444281.930       -1142.176          44.000    21207131.147    86839659.292        -889.968          46.000  
G26  20373455.466   107063229.814         801.204          46.000    20373448.797    83425874.218         624.344          45.000  
G31  20630391.720   108413437.791         211.547          45.000    20630381.339    84477962.316         164.842          45.000  
C33  22479261.025   117055407.113        -576.364          48.000                                                                  
C06  36566621.582   190411995.208        -168.835          45.000    36566604.527   147238562.075        -130.594          47.000  
C14  22584372.528   117602741.614       -2156.644          45.000    22584357.732    90937846.177       -1667.608          50.000  
C16  36993257.216   192633595.280        -201.838          46.000    36993245.376   148956467.624        -156.154          47.000  
C24  21809378.868   113567162.297        -812.326          48.000                                                                  
C26  24327737.658   126680908.505       -2552.914          44.000                                                                  
G03  22886703.785   120270442.168          22.147          38.000    22886698.235    93717207.260          17.248          36.000  
G16  22548529.942   118493327.299        3054.961          42.000                                                                  
C09  37718518.154   196410223.339        -158.997          44.000    37718503.936   151876785.678        -122.815          47.000  
C25  23711780.545   123473469.231        1615.540          43.000                                                                  
C13  38275450.091   199310309.321       -2242.109          41.000    38275444.437   154119353.194       -1733.988          42.000  
C08  39097118.287   203588945.128       -2447.058          38.000    39097106.707   157427825.379       -1892.774          43.000  
C10  40533757.682   211069914.171         929.622          34.000    40533758.993   163212704.580         717.906          38.000  
C35  25971224.689   135238998.861         482.118          39.000                                                                  
G25  24242589.012   127395652.746       -3906.655          35.000    24242581.343    99269314.709       -3043.867          37.000  
G04                                                                  24616857.056   100801924.626        2487.451          38.000  
> 2025 10 30 06 16 46.4000000  0 21                     
G32  21908065.350   115127659.377       -2829.162          47.000    21908058.835    89709836.319       -2204.620          44.000  
G29  23052047.745   121139345.929        -453.300          42.000    23052039.591    94394259.967        -353.058          41.000  
G28  21207150.742   111444327.615       -1142.162          44.000    21207139.848    86839694.880        -889.823          46.000  
G26  20373449.374   107063197.761         801.211          46.000    20373442.691    83425849.247         624.201          45.000  
G31  20630390.097   108413429.321         211.676          45.000    20630379.730    84477955.722         164.818          45.000  
C33  22479265.467   117055430.161        -576.307          48.000                                                                  
C06  36566622.860   190412001.962        -168.905          45.000    36566605.800   147238567.292        -130.500          47.000  
C14  22584389.086   117602827.870       -2156.488          45.000    22584374.282    90937912.878       -1667.594          50.000  
C16  36993258.769   192633603.348        -201.773          46.000    36993246.926   148956473.862        -156.022          47.000  
C24  21809385.103   113567194.782        -812.233          48.000                                                                  
C26  24327757.284   126681010.616       -2552.863          44.000                                                                  
G03  22886703.620   120270441.288          22.022          38.000    22886698.061    93717206.585          16.891          36.000  
G16  22548506.699   118493205.100        3054.951          42.000                                                                  
C09  37718519.425   196410229.687        -158.831          44.000    37718505.162   151876790.591        -122.802          47.000  
C25  23711768.142   123473404.603        1615.594          43.000                                                                  
C13  38275467.306   199310399.011       -2242.221          41.000    38275461.633   154119422.544       -1733.825          42.000  
C08  39097137.114   203589043.026       -2447.131          38.000    39097125.510   157427901.083       -1892.726          43.000  
C10  40533750.541   211069876.991         929.782          34.000    40533751.854   163212675.832         718.433          38.000  
C35  25971220.974   135238979.571         482.163          39.000                                                                  
G25  24242618.749   127395809.010       -3906.619          35.000    24242611.086    99269436.472       -3043.972          37.000  
G04                                                                  24616832.749   100801825.108        2487.817          38.000  
> 2025 10 30 06 16 46.4400000  0 21                     
G32  21908086.892   115127772.544       -2829.183          47.000    21908080.376    89709924.496       -2204.500          44.000  
G29  23052051.221   121139364.063        -453.394          42.000    23052043.031    94394274.101        -353.330          41.000  
G28  21207159.429   111444373.296       -1142.106          44.000    21207148.541    86839730.480        -889.968          46.000  
G26  20373443.269   107063165.712         801.175          46.000    20373436.595    83425824.272         624.258          45.000  
G31  20630388.485   108413420.862         211.516          46.000    20630378.121    84477949.125         164.867          45.000  
C33  22479269.905   117055453.204        -576.172          48.000                                                                  
C06  36566624.176   190412008.715        -168.873          45.000    36566607.083   147238572.516        -130.587          47.000  
C14  22584405.650   117602914.134       -2156.571          45.000    22584390.842    90937979.586       -1667.702          50.000  
C16  36993260.327   192633611.411        -201.656          46.000    36993248.470   148956480.102        -156.005          47.000  
C24  21809391.349   113567227.262        -812.115          48.000                                                                  
C26  24327776.901   126681112.729       -2552.855          44.000                                                                  
G03  22886703.465   120270440.418          21.759          38.000    22886697.907    93717205.902          16.838          36.000  
G16  22548483.451   118493082.902        3054.882          42.000                                                                  
C09  37718520.646   196410236.044        -158.889          44.000    37718506.381   151876795.506        -122.861          47.000  
C25  23711755.721   123473339.977        1615.558          43.000                                                                  
C13  38275484.519   199310488.707       -2242.420          41.000    38275478.820   154119491.884       -1733.577          42.000  
C08  39097155.887   203589140.919       -2447.261          38.000    39097144.320   157427976.784       -1892.616          43.000  
C10  40533743.386   211069839.840         929.108          34.000    40533744.694   163212647.077         718.799          38.000  
C35  25971217.260   135238960.275         482.288          39.000                                                                  
G25  24242648.455   127395965.286       -3906.903          35.000    24242640.845    99269558.265       -3044.608          37.000  
G04                                                                  24616808.439   100801725.577        2488.221          38.000  
> 2025 10 30 06 16 46.4800000  0 21                     
G32  21908108.436   115127885.717       -2829.286          47.000    21908101.896    89710012.673       -2204.459          44.000  
G29  23052054.694   121139382.204        -453.556          42.000    23052046.470    94394288.230        -353.346          41.000  
G28  21207168.106   111444418.975       -1142.021          44.000    21207157.253    86839766.084        -890.110          46.000  
G26  20373437.184   107063133.667         801.113          46.000    20373430.501    83425799.300         624.234          45.000  
G31  20630386.918   108413412.406         211.386          46.000    20630376.529    84477942.532         164.831          45.000  
C33  22479274.325   117055476.260        -576.345          48.000                                                                  
C06  36566625.493   190412015.473        -168.921          45.000    36566608.391   147238577.737        -130.585          47.000  
C14  22584422.197   117603000.394       -2156.532          45.000    22584407.393    90938046.293       -1667.757          50.000  
C16  36993261.860   192633619.495        -201.963          46.000    36993249.996   148956486.346        -156.058          47.000  
C24  21809397.563   113567259.751        -812.223          48.000                                                                  
C26  24327796.512   126681214.846       -2552.935          44.000                                                                  
G03  22886703.301   120270439.537          21.883          38.000    22886697.734    93717205.235          16.513          36.000  
G16  22548460.208   118492960.708        3054.820          42.000                                                                  
C09  37718521.863   196410242.402        -158.940          43.000    37718507.619   151876800.425        -122.968          47.000  
C25  23711743.307   123473275.353        1615.527          43.000                                                                  
C13  38275501.730   199310578.408       -2242.586          41.000    38275496.044   154119561.237       -1733.697          42.000  
C08  39097174.701   203589238.829       -2447.689          38.000    39097163.127   157428052.489       -1892.595          43.000  
C10  40533736.262   211069802.702         928.628          34.000    40533737.560   163212618.364         718.163          38.000  
C35  25971213.539   135238940.991         482.116          39.000                                                                  
G25  24242678.181   127396121.548       -3906.790          35.000    24242670.595    99269680.049       -3044.800          37.000  
G04                                                                  24616784.137   100801626.079        2487.870          38.000  
> 2025 10 30 06 16 46.5200000  0 21                     
G32  21908129.977   115127998.894       -2829.400          47.000    21908123.435    89710100.861       -2204.624          44.000  
G29  23052058.144   121139400.336        -453.453          42.000    23052049.930    94394302.360        -353.357          41.000  
G28  21207176.826   111444464.665       -1142.190          44.000    21207165.950    86839801.688        -890.178          46.000  
G26  20373431.103   107063101.629         800.966          46.000    20373424.413    83425774.337         624.054          45.000  
G31  20630385.318   108413403.952         211.270          46.000    20630374.906    84477935.953         164.541          45.000  
C33  22479278.749   117055499.321        -576.509          48.000                                                                  
C06  36566626.789   190412022.237        -169.064          45.000    36566609.690   147238582.968        -130.756          47.000  
C14  22584438.758   117603086.668       -2156.766          45.000    22584423.927    90938113.005       -1667.850          50.000  
C16  36993263.385   192633627.582        -202.185          46.000    36993251.529   148956492.598        -156.252          47.000  
C24  21809403.753   113567292.248        -812.417          48.000                                                                  
C26  24327816.160   126681316.966       -2552.982          44.000                                                                  
G03  22886703.170   120270438.672          21.652          38.000    22886697.574    93717204.572          16.389          36.000  
G16  22548436.946   118492838.517        3054.707          42.000                                                                  
C09  37718523.091   196410248.768        -159.076          43.000    37718508.814   151876805.352        -123.157          47.000  
C25  23711730.905   123473210.747        1615.143          43.000                                                                  
C13  38275518.968   199310668.096       -2242.409          41.000    38275513.249   154119630.609       -1734.120          42.000  
C08  39097193.504   203589336.746       -2447.983          38.000    39097181.912   157428128.193       -1892.626          43.000  
C10  40533729.139   211069765.543         928.790          34.000    40533730.395   163212589.634         718.141          38.000  
C35  25971209.855   135238921.720         481.772          39.000                                                                  
G25  24242707.897   127396277.815       -3906.746          35.000    24242700.334    99269801.818       -3044.599          37.000  
G04                                                                  24616759.823   100801526.595        2487.312          38.000  
> 2025 10 30 06 16 46.5600000  0 21                     
G32  21908151.515   115128112.074       -2829.519          47.000    21908144.970    89710189.056       -2204.834          44.000  
G29  23052061.600   121139418.483        -453.607          42.000    23052053.392    94394316.512        -353.725          41.000  
G28  21207185.550   111444510.368       -1142.527          44.000    21207174.659    86839837.297        -890.286          46.000  
G26  20373425.027   107063069.597         800.774          46.000    20373418.317    83425749.378         623.907          45.000  
G31  20630383.696   108413395.507         211.086          46.000    20630373.295    84477929.370         164.543          45.000  
C33  22479283.149   117055522.392        -576.754          48.000                                                                  
C06  36566628.088   190412028.997        -169.103          45.000    36566610.998   147238588.201        -130.856          47.000  
C14  22584455.327   117603172.947       -2156.959          45.000    22584440.492    90938179.715       -1667.835          50.000  
C16  36993264.946   192633635.672        -202.318          46.000    36993253.033   148956498.851        -156.391          47.000  
C24  21809409.980   113567324.751        -812.585          48.000                                                                  
C26  24327835.788   126681419.094       -2553.170          44.000                                                                  
G03  22886703.023   120270437.818          21.367          38.000    22886697.412    93717203.894          16.685          36.000  
G16  22548413.705   118492716.335        3054.527          42.000                                                                  
C09  37718524.296   196410255.139        -159.251          43.000    37718510.005   151876810.277        -123.215          47.000  
C25  23711718.492   123473146.141        1615.094          43.000                                                                  
C13  38275536.176   199310757.791       -2242.434          41.000    38275530.449   154119699.964       -1734.050          42.000  
C08  39097212.309   203589434.664       -2448.066          38.000    39097200.723   157428203.893       -1892.531          43.000  
C10  40533722.001   211069728.417         928.383          34.000    40533723.264   163212560.907         718.127          38.000  
C35  25971206.168   135238902.435         481.896          39.000                                                                  
G25  24242737.650   127396434.102       -3907.047          35.000    24242730.070    99269923.570       -3044.093          37.000  
G04                                                                  24616735.518   100801427.095        2487.317          38.000  
> 2025 10 30 06 16 46.6000000  0 21                     
G32  21908173.077   115128225.257       -2829.597          47.000    21908166.516    89710277.254       -2204.996          44.000  
G29  23052065.049   121139436.629        -453.668          42.000    23052056.841    94394330.645        -353.538          41.000  
G28  21207194.269   111444556.076       -1142.756          44.000    21207183.384    86839872.911        -890.402          46.000  
G26  20373418.924   107063037.558         800.826          46.000    20373412.228    83425724.413         623.983          45.000  
G31  20630382.078   108413387.059         211.038          46.000    20630371.693    84477922.793         164.389          45.000  
C33  22479287.595   117055545.461        -576.836          48.000                                                                  
C06  36566629.357   190412035.766        -169.235          45.000    36566612.324   147238593.434        -130.895          47.000  
C14  22584471.894   117603259.221       -2156.934          45.000    22584457.051    90938246.428       -1667.878          50.000  
C16  36993266.514   192633643.764        -202.406          46.000    36993254.561   148956505.103        -156.418          47.000  
C24  21809416.204   113567357.254        -812.680          48.000                                                                  
C26  24327855.435   126681521.211       -2553.073          44.000                                                                  
G03  22886702.891   120270436.968          21.170          38.000    22886697.229    93717203.227          16.693          36.000  
G16  22548390.450   118492594.149        3054.559          42.000                                                                  
C09  37718525.551   196410261.513        -159.414          43.000    37718511.218   151876815.201        -123.194          47.000  
C25  23711706.114   123473081.531        1615.125          43.000                                                                  
C13  38275553.381   199310847.497       -2242.658          41.000    38275547.684   154119769.323       -1734.061          42.000  
C08  39097231.106   203589532.574       -2447.964          38.000    39097219.553   157428279.618       -1892.918          43.000  
C10  40533714.887   211069691.267         928.568          34.000    40533716.129   163212532.183         718.052          38.000  
C35  25971202.463   135238883.171         481.583          39.000                                                                  
G25  24242767.387   127396590.372       -3906.954          35.000    24242759.796    99270045.341       -3044.215          37.000  
G04                                                                  24616711.227   100801327.599        2487.322          37.000  
> 2025 10 30 06 16 46.6400000  0 21                     
G32  21908194.590   115128338.433       -2829.502          47.000    21908188.049    89710365.448       -2204.962          44.000  
G29  23052068.489   121139454.773        -453.698          42.000    23052060.273    94394344.780        -353.455          41.000  
G28  21207202.953   111444601.766       -1142.537          44.000    21207192.063    86839908.520        -890.367          46.000  
G26  20373412.828   107063005.524         800.777          46.000    20373406.143    83425699.448         624.053          45.000  
G31  20630380.486   108413378.611         211.082          46.000    20630370.103    84477916.204         164.544          45.000  
C33  22479292.053   117055568.528        -576.811          48.000                                                                  
C06  36566630.632   190412042.527        -169.177          45.000    36566613.622   147238598.657        -130.740          47.000  
C14  22584488.448   117603345.492       -2156.876          45.000    22584473.628    90938313.145       -1667.952          50.000  
C16  36993268.085   192633651.840        -202.108          46.000    36993256.110   148956511.351        -156.316          47.000  
C24  21809422.463   113567389.753        -812.622          48.000                                                                  
C26  24327875.052   126681623.350       -2553.380          44.000                                                                  
G03  22886702.719   120270436.112          21.220          38.000    22886697.048    93717202.562          16.668          35.000  
G16  22548367.184   118492471.959        3054.642          42.000                                                                  
C09  37718526.743   196410267.885        -159.447          43.000    37718512.464   151876820.125        -123.174          46.000  
C25  23711693.704   123473016.932        1614.966          42.000                                                                  
C13  38275570.623   199310937.206       -2242.767          41.000    38275564.896   154119838.687       -1734.122          43.000  
C08  39097249.895   203589630.491       -2448.019          38.000    39097238.356   157428355.324       -1892.787          43.000  
C10  40533707.740   211069654.130         928.434          34.000    40533709.017   163212503.460         718.016          38.000  
C35  25971198.757   135238863.901         481.575          41.000                                                                  
G25  24242797.123   127396746.636       -3906.708          35.000    24242789.534    99270167.135       -3044.738          37.000  
G04                                                                  24616686.922   100801228.093        2487.411          37.000  
> 2025 10 30 06 16 46.6800000  0 21                     
G32  21908216.117   115128451.615       -2829.547          47.000    21908209.581    89710453.636       -2204.803          44.000  
G29  23052071.920   121139472.920        -453.722          42.000    23052063.743    94394358.924        -353.569          41.000  
G28  21207211.638   111444647.457       -1142.394          44.000    21207200.744    86839944.126        -890.250          46.000  
G26  20373406.738   107062973.496         800.647          46.000    20373400.072    83425674.492         623.916          45.000  
G31  20630378.865   108413370.168         211.021          46.000    20630368.494    84477909.623         164.519          45.000  
C33  22479296.472   117055591.595        -576.783          48.000                                                                  
C06  36566631.941   190412049.296        -169.238          45.000    36566614.944   147238603.888        -130.774          47.000  
C14  22584504.995   117603431.773       -2156.995          45.000    22584490.204    90938379.866       -1668.063          49.000  
C16  36993269.641   192633659.913        -201.906          46.000    36993257.647   148956517.606        -156.379          47.000  
C24  21809428.714   113567422.254        -812.607          48.000                                                                  
C26  24327894.673   126681725.474       -2553.313          44.000                                                                  
G03  22886702.579   120270435.253          21.315          38.000    22886696.876    93717201.855          17.403          35.000  
G16  22548343.938   118492349.772        3054.668          42.000                                                                  
C09  37718527.981   196410274.248        -159.254          43.000    37718513.704   151876825.045        -123.077          46.000  
C25  23711681.334   123472952.321        1615.118          42.000                                                                  
C13  38275587.829   199311026.897       -2242.524          41.000    38275582.145   154119908.042       -1733.991          43.000  
C08  39097268.718   203589728.386       -2447.598          38.000    39097257.206   157428431.042       -1892.911          44.000  
C10  40533700.625   211069616.972         928.799          34.000    40533701.893   163212474.742         718.003          38.000  
C35  25971195.042   135238844.632         481.617          41.000                                                                  
G25  24242826.898   127396902.951       -3907.564          35.000    24242819.295    99270288.917       -3044.740          37.000  
G04                                                                  24616662.624   100801128.559        2488.023          37.000  
> 2025 10 30 06 16 46.7200000  0 21                     
G32  21908237.679   115128564.805       -2829.746          47.000    21908231.120    89710541.830       -2204.822          44.000  
G29  23052075.386   121139491.087        -454.085          42.000    23052067.181    94394373.063        -353.524          41.000  
G28  21207220.322   111444693.150       -1142.348          44.000    21207209.445    86839979.738        -890.290          46.000  
G26  20373400.629   107062941.471         800.537          46.000    20373393.959    83425649.541         623.711          45.000  
G31  20630377.260   108413361.722         211.058          46.000    20630366.886    84477903.041         164.513          45.000  
C33  22479300.890   117055614.670        -576.897          48.000                                                                  
C06  36566633.231   190412056.059        -169.128          45.000    36566616.266   147238609.118        -130.787          47.000  
C14  22584521.562   117603518.049       -2156.954          45.000    22584506.789    90938446.587       -1668.079          49.000  
C16  36993271.177   192633667.998        -202.054          46.000    36993259.197   148956523.861        -156.383          47.000  
C24  21809434.934   113567454.769        -812.847          48.000                                                                  
C26  24327914.275   126681827.607       -2553.383          44.000                                                                  
G03  22886702.437   120270434.408          21.147          38.000    22886696.704    93717201.244          15.955          35.000  
G16  22548320.688   118492227.598        3054.434          42.000                                                                  
C09  37718529.186   196410280.616        -159.184          43.000    37718514.956   151876829.978        -123.249          46.000  
C25  23711668.909   123472887.703        1615.387          42.000                                                                  
C13  38275605.033   199311116.597       -2242.543          41.000    38275599.362   154119977.408       -1734.154          43.000  
C08  39097287.514   203589826.297       -2447.647          38.000    39097276.018   157428506.752       -1892.818          44.000  
C10  40533693.487   211069579.813         928.953          34.000    40533694.742   163212446.013         718.182          38.000  
C35  25971191.351   135238825.350         481.817          41.000                                                                  
G25  24242856.627   127397059.239       -3907.551          35.000    24242849.022    99270410.681       -3044.313          37.000  
G04                                                                  24616638.308   100801029.069        2487.461          37.000  
> 2025 10 30 06 16 46.7600000  0 21                     
G32  21908259.229   115128677.996       -2829.804          47.000    21908252.649    89710630.018       -2204.746          44.000  
G29  23052078.820   121139509.236        -453.942          42.000    23052070.635    94394387.227        -353.982          41.000  
G28  21207229.022   111444738.851       -1142.479          44.000    21207218.155    86840015.355        -890.428          46.000  
G26  20373394.537   107062909.445         800.557          46.000    20373387.870    83425624.587         623.751          45.000  
G31  20630375.679   108413353.283         211.003          46.000    20630365.284    84477896.455         164.600          45.000  
C33  22479305.338   117055637.743        -576.881          48.000                                                                  
C06  36566634.523   190412062.839        -169.393          45.000    36566617.599   147238614.356        -130.909          47.000  
C14  22584538.110   117603604.336       -2157.106          44.000    22584523.338    90938513.303       -1667.982          49.000  
C16  36993272.719   192633676.084        -202.138          46.000    36993260.802   148956530.114        -156.350          47.000  
C24  21809441.174   113567487.274        -812.746          48.000                                                                  
C26  24327933.911   126681929.731       -2553.273          44.000                                                                  
G03  22886702.265   120270433.551          21.262          38.000    22886696.548    93717200.592          15.941          35.000  
G16  22548297.439   118492105.414        3054.474          42.000                                                                  
C09  37718530.415   196410286.996        -159.381          43.000    37718516.186   151876834.902        -123.177          46.000  
C25  23711656.493   123472823.106        1615.106          42.000                                                                  
C13  38275622.240   199311206.295       -2242.500          41.000    38275616.579   154120046.774       -1734.202          43.000  
C08  39097306.329   203589924.205       -2447.709          38.000    39097294.789   157428582.459       -1892.761          44.000  
C10  40533686.384   211069542.682         928.531          34.000    40533687.605   163212417.292         718.083          38.000  
C35  25971187.666   135238806.071         481.910          41.000                                                                  
G25  24242886.369   127397215.509       -3907.157          35.000    24242878.770    99270532.484       -3044.814          37.000  
G04                                                                  24616614.023   100800929.571        2487.331          37.000  
> 2025 10 30 06 16 46.8000000  0 21                     
G32  21908280.771   115128791.178       -2829.671          47.000    21908274.172    89710718.210       -2204.795          44.000  
G29  23052082.273   121139527.386        -453.847          42.000    23052074.081    94394401.365        -353.694          41.000  
G28  21207237.704   111444784.552       -1142.549          44.000    21207226.841    86840050.965        -890.330          45.000  
G26  20373388.429   107062877.421         800.565          46.000    20373381.752    83425599.632         623.821          45.000  
G31  20630374.056   108413344.831         211.226          46.000    20630363.658    84477889.871         164.600          45.000  
C33  22479309.772   117055660.820        -576.949          48.000                                                                  
C06  36566635.842   190412069.612        -169.412          45.000    36566618.899   147238619.587        -130.861          47.000  
C14  22584554.685   117603690.617       -2157.097          44.000    22584539.933    90938580.020       -1667.944          48.000  
C16  36993274.237   192633684.176        -202.284          46.000    36993262.385   148956536.364        -156.265          47.000  
C24  21809447.432   113567519.781        -812.739          48.000                                                                  
C26  24327953.528   126682031.851       -2553.149          44.000                                                                  
G03  22886702.104   120270432.696          21.357          36.000    22886696.398    93717199.938          16.131          32.000  
G16  22548274.201   118491983.227        3054.636          42.000                                                                  
C09  37718531.656   196410293.362        -159.240          42.000    37718517.395   151876839.823        -123.068          46.000  
C25  23711644.069   123472758.496        1615.161          41.000                                                                  
C13  38275639.465   199311295.999       -2242.587          41.000    38275633.801   154120116.135       -1734.120          43.000  
C08  39097325.121   203590022.132       -2448.033          38.000    39097313.597   157428658.165       -1892.693          44.000  
C10  40533679.286   211069505.554         928.184          34.000    40533680.469   163212388.558         718.273          38.000  
C35  25971183.967   135238786.801         481.796          41.000                                                                  
G25  24242916.109   127397371.785       -3907.028          36.000    24242908.501    99270654.242       -3044.300          37.000  
G04                                                                  24616589.719   100800830.059        2487.606          37.000  
> 2025 10 30 06 16 46.8400000  0 21                     
G32  21908302.287   115128904.363       -2829.646          47.000    21908295.714    89710806.405       -2204.852          44.000  
G29  23052085.711   121139545.541        -453.865          42.000    23052077.536    94394415.504        -353.562          41.000  
G28  21207246.388   111444830.247       -1142.451          44.000    21207235.538    86840086.574        -890.277          45.000  
G26  20373382.323   107062845.391         800.652          46.000    20373375.650    83425574.664         624.070          45.000  
G31  20630372.459   108413336.379         211.293          45.000    20630362.039    84477883.293         164.495          45.000  
C33  22479314.200   117055683.893        -576.902          48.000                                                                  
C06  36566637.124   190412076.361        -168.966          45.000    36566620.202   147238624.811        -130.687          47.000  
C14  22584571.271   117603776.896       -2157.052          44.000    22584556.502    90938646.737       -1667.952          48.000  
C16  36993275.794   192633692.262        -202.234          46.000    36993263.940   148956542.614        -156.275          47.000  
C24  21809453.680   113567552.277        -812.530          48.000                                                                  
C26  24327973.137   126682133.977       -2553.187          44.000                                                                  
G03  22886701.927   120270431.845          21.320          36.000    22886696.216    93717199.233          17.085          32.000  
G16  22548250.945   118491861.042        3054.620          42.000                                                                  
C09  37718532.886   196410299.722        -159.063          42.000    37718518.601   151876844.746        -123.032          46.000  
C25  23711631.648   123472693.884        1615.228          41.000                                                                  
C13  38275656.692   199311385.699       -2242.530          41.000    38275651.030   154120185.495       -1734.071          43.000  
C08  39097343.954   203590120.049       -2448.007          38.000    39097332.405   157428733.878       -1892.809          44.000  
C10  40533672.164   211069468.409         928.354          34.000    40533673.330   163212359.841         718.102          38.000  
C35  25971180.275   135238767.541         481.520          41.000                                                                  
G25  24242945.850   127397528.060       -3906.854          36.000    24242938.233    99270776.020       -3044.413          37.000  
G04                                                                  24616565.427   100800730.582        2487.149          37.000  
> 2025 10 30 06 16 46.8800000  0 21                     
G32  21908323.838   115129017.548       -2829.627          47.000    21908317.254    89710894.607       -2204.991          43.000  
G29  23052089.155   121139563.686        -453.696          42.000    23052080.983    94394429.652        -353.639          41.000  
G28  21207255.080   111444875.956       -1142.623          44.000    21207244.225    86840122.179        -890.179          45.000  
G26  20373376.241   107062813.356         800.814          46.000    20373369.581    83425549.705         624.037          45.000  
G31  20630370.849   108413327.926         211.341          45.000    20630360.449    84477876.714         164.439          45.000  
C33  22479318.637   117055706.957        -576.684          48.000                                                                  
C06  36566638.433   190412083.124        -168.977          45.000    36566621.461   147238630.039        -130.671          47.000  
C14  22584587.825   117603863.167       -2156.882          44.000    22584573.076    90938713.458       -1668.010          48.000  
C16  36993277.338   192633700.335        -201.982          46.000    36993265.501   148956548.867        -156.301          47.000  
C24  21809459.925   113567584.772        -812.391          48.000                                                                  
C26  24327992.722   126682236.098       -2553.114          44.000                                                                  
G03  22886701.771   120270430.968          21.816          36.000    22886696.086    93717198.582          16.657          32.000  
G16  22548227.707   118491738.843        3054.906          42.000                                                                  
C09  37718534.100   196410306.091        -159.110          42.000    37718519.813   151876849.674        -123.122          46.000  
C25  23711619.255   123472629.274        1615.271          41.000                                                                  
C13  38275673.915   199311475.401       -2242.523          41.000    38275668.237   154120254.853       -1733.989          43.000  
C08  39097362.789   203590217.965       -2447.983          38.000    39097351.217   157428809.579       -1892.626          44.000  
C10  40533665.021   211069431.238         928.959          34.000    40533666.164   163212331.106         718.331          38.000  
C35  25971176.593   135238748.275         481.542          41.000                                                                  
G25  24242975.594   127397684.335       -3906.795          36.000    24242967.981    99270897.807       -3044.605          37.000  
G04                                                                  24616541.123   100800631.055        2487.736          35.000  
> 2025 10 30 06 16 46.9200000  0 21                     
G32  21908345.377   115129130.729       -2829.585          47.000    21908338.783    89710982.808       -2205.087          43.000  
G29  23052092.602   121139581.841        -453.875          42.000    23052084.435    94394443.800        -353.670          41.000  
G28  21207263.759   111444921.648       -1142.462          44.000    21207252.913    86840157.791        -890.266          45.000  
G26  20373370.115   107062781.322         800.856          46.000    20373363.492    83425524.739         624.129          45.000  
G31  20630369.254   108413319.484         211.137          45.000    20630358.830    84477870.131         164.495          45.000  
C33  22479323.080   117055730.027        -576.713          48.000                                                                  
C06  36566639.741   190412089.887        -169.030          45.000    36566622.749   147238635.267        -130.653          47.000  
C14  22584604.382   117603949.456       -2157.119          44.000    22584589.653    90938780.178       -1668.027          48.000  
C16  36993278.885   192633708.418        -202.040          46.000    36993267.050   148956555.113        -156.226          47.000  
C24  21809466.160   113567617.275        -812.510          48.000                                                                  
C26  24328012.321   126682338.218       -2553.029          44.000                                                                  
G03  22886701.616   120270430.113          21.615          36.000    22886695.897    93717197.913          16.810          32.000  
G16  22548204.434   118491616.667        3054.663          42.000                                                                  
C09  37718535.307   196410312.462        -159.213          42.000    37718521.046   151876854.596        -123.084          46.000  
C25  23711606.844   123472564.665        1615.283          41.000                                                                  
C13  38275691.142   199311565.110       -2242.723          41.000    38275685.435   154120324.224       -1734.189          43.000  
C08  39097381.573   203590315.875       -2447.855          38.000    39097370.018   157428885.295       -1892.824          44.000  
C10  40533657.900   211069394.088         928.815          34.000    40533659.017   163212302.380         718.297          38.000  
C35  25971172.884   135238729.001         481.688          41.000                                                                  
G25  24243005.362   127397840.577       -3906.307          36.000    24242997.729    99271019.582       -3044.529          37.000  
G04                                                                  24616516.830   100800531.573        2487.276          35.000  
> 2025 10 30 06 16 46.9600000  0 21                     
G32  21908366.929   115129243.921       -2829.746          47.000    21908360.309    89711071.004       -2205.078          43.000  
G29  23052096.048   121139599.990        -453.779          42.000    23052087.889    94394457.940        -353.576          41.000  
G28  21207272.462   111444967.343       -1142.412          44.000    21207261.612    86840193.394        -890.152          45.000  
G26  20373364.014   107062749.289         800.842          46.000    20373357.414    83425499.780         624.009          44.000  
G31  20630367.625   108413311.038         211.101          45.000    20630357.216    84477863.549         164.532          45.000  
C33  22479327.494   117055753.095        -576.696          48.000                                                                  
C06  36566641.039   190412096.643        -168.931          45.000    36566624.048   147238640.506        -130.873          47.000  
C14  22584620.929   117604035.738       -2157.109          44.000    22584606.240    90938846.897       -1667.996          48.000  
C16  36993280.407   192633716.503        -202.139          46.000    36993268.583   148956561.366        -156.318          47.000  
C24  21809472.388   113567649.779        -812.594          48.000                                                                  
C26  24328031.929   126682440.342       -2553.085          44.000                                                                  
G03  22886701.440   120270429.262          21.414          36.000    22886695.738    93717197.260          16.486          32.000  
G16  22548181.181   118491494.497        3054.338          42.000                                                                  
C09  37718536.531   196410318.823        -159.079          42.000    37718522.284   151876859.523        -123.155          46.000  
C25  23711594.444   123472500.054        1615.302          41.000                                                                  
C13  38275708.350   199311654.805       -2242.504          41.000    38275702.662   154120393.580       -1734.040          43.000  
C08  39097400.361   203590413.766       -2447.419          38.000    39097388.815   157428961.008       -1892.844          44.000  
C10  40533650.792   211069356.985         927.922          34.000    40533651.863   163212273.656         718.220          38.000  
C35  25971169.190   135238709.719         481.932          41.000                                                                  
G25  24243035.124   127397996.877       -3906.992          36.000    24243027.463    99271141.340       -3044.083          37.000  
G04                                                                  24616492.548   100800432.076        2487.381          35.000  
> 2025 10 30 06 16 47.0000000  0 21                     
G32  21908388.497   115129357.114       -2829.847          47.000    21908381.835    89711159.203       -2205.015          43.000  
G29  23052099.520   121139618.150        -453.884          42.000    23052091.343    94394472.095        -353.855          41.000  
G28  21207281.164   111445013.047       -1142.562          44.000    21207270.297    86840229.006        -890.241          45.000  
G26  20373357.948   107062717.260         800.736          46.000    20373351.312    83425474.830         623.779          44.000  
G31  20630366.020   108413302.596         211.033          45.000    20630355.596    84477856.962         164.631          44.000  
C33  22479331.965   117055776.162        -576.659          48.000                                                                  
C06  36566642.338   190412103.409        -169.075          45.000    36566625.338   147238645.727        -130.693          47.000  
C14  22584637.498   117604122.027       -2157.242          44.000    22584622.793    90938913.612       -1667.932          48.000  
C16  36993281.974   192633724.585        -202.117          46.000    36993270.118   148956567.615        -156.290          47.000  
C24  21809478.658   113567682.276        -812.522          48.000                                                                  
C26  24328051.543   126682542.476       -2553.298          44.000                                                                  
G03  22886701.271   120270428.413          21.193          36.000    22886695.556    93717196.573          16.997          32.000  
G16  22548157.945   118491372.329        3054.165          42.000                                                                  
C09  37718537.762   196410325.186        -159.062          42.000    37718523.505   151876864.439        -122.976          46.000  
C25  23711582.036   123472435.431        1615.509          41.000                                                                  
C13  38275725.582   199311744.505       -2242.505          41.000    38275719.898   154120462.945       -1734.102          43.000  
C08  39097419.164   203590511.675       -2447.542          38.000    39097407.628   157429036.720       -1892.870          44.000  
C10  40533643.678   211069319.833         928.312          35.000    40533644.696   163212244.932         718.189          38.000  
C35  25971165.487   135238690.447         481.867          40.000                                                                  
G25  24243064.886   127398153.171       -3907.327          36.000    24243057.202    99271263.106       -3044.001          37.000  
G04                                                                  24616468.223   100800332.570        2487.508          35.000  
> 2025 10 30 06 16 47.0400000  0 21                     
G32  21908410.051   115129470.309       -2829.920          47.000    21908403.359    89711247.395       -2204.879          43.000  
G29  23052102.978   121139636.307        -453.927          42.000    23052094.826    94394486.249        -353.966          41.000  
G28  21207289.856   111445058.742       -1142.500          44.000    21207278.999    86840264.616        -890.272          45.000  
G26  20373351.877   107062685.232         800.674          46.000    20373345.225    83425449.877         623.744          44.000  
G31  20630364.387   108413294.142         211.219          45.000    20630353.987    84477850.384         164.489          44.000  
C33  22479336.361   117055799.233        -576.763          48.000                                                                  
C06  36566643.626   190412110.161        -168.910          44.000    36566626.641   147238650.955        -130.688          46.000  
C14  22584654.096   117604208.310       -2157.189          44.000    22584639.348    90938980.329       -1667.921          48.000  
C16  36993283.560   192633732.664        -202.040          46.000    36993271.663   148956573.869        -156.321          47.000  
C24  21809484.891   113567714.776        -812.502          48.000                                                                  
C26  24328071.167   126682644.604       -2553.313          44.000                                                                  
G03  22886701.106   120270427.550          21.365          36.000    22886695.383    93717195.897          16.953          32.000  
G16  22548134.690   118491250.147        3054.329          41.000                                                                  
C09  37718538.987   196410331.548        -159.019          42.000    37718524.699   151876869.351        -122.839          46.000  
C25  23711569.640   123472370.808        1615.582          41.000                                                                  
C13  38275742.812   199311834.211       -2242.630          41.000    38275737.118   154120532.298       -1733.890          43.000  
C08  39097437.968   203590609.584       -2447.654          38.000    39097426.436   157429112.441       -1893.006          44.000  
C10  40533636.556   211069282.661         928.900          35.000    40533637.541   163212216.216         717.953          38.000  
C35  25971161.809   135238671.191         481.521          40.000                                                                  
G25  24243094.632   127398309.449       -3907.141          36.000    24243086.951    99271384.889       -3044.302          37.000  
G04                                                                  24616443.928   100800233.074        2487.435          35.000  
> 2025 10 30 06 16 47.0800000  0 21                     
G32  21908431.564   115129583.490       -2829.697          47.000    21908424.907    89711335.600       -2205.050          43.000  
G29  23052106.446   121139654.465        -453.964          42.000    23052098.286    94394500.396        -353.849          41.000  
G28  21207298.540   111445104.445       -1142.608          43.000    21207287.688    86840300.231        -890.355          45.000  
G26  20373345.782   107062653.201         800.713          46.000    20373339.118    83425424.920         623.833          44.000  
G31  20630362.773   108413285.691         211.268          45.000    20630352.383    84477843.803         164.451          44.000  
C33  22479340.796   117055822.305        -576.814          48.000                                                                  
C06  36566644.920   190412116.919        -168.942          44.000    36566627.958   147238656.183        -130.703          46.000  
C14  22584670.656   117604294.600       -2157.257          44.000    22584655.914    90939047.050       -1668.010          48.000  
C16  36993285.135   192633740.738        -201.931          46.000    36993273.204   148956580.109        -156.115          47.000  
C24  21809491.094   113567747.277        -812.555          48.000                                                                  
C26  24328090.783   126682746.730       -2553.284          44.000                                                                  
G03  22886700.937   120270426.689          21.519          36.000    22886695.215    93717195.222          16.887          32.000  
G16  22548111.454   118491127.963        3054.468          41.000                                                                  
C09  37718540.206   196410337.905        -158.951          42.000    37718525.922   151876874.269        -122.860          46.000  
C25  23711557.236   123472306.222        1614.899          41.000                                                                  
C13  38275760.042   199311923.912       -2242.585          41.000    38275754.340   154120601.671       -1734.133          43.000  
C08  39097456.758   203590707.527       -2448.348          38.000    39097445.251   157429188.163       -1893.065          44.000  
C10  40533629.437   211069245.492         929.158          35.000    40533630.434   163212187.499         717.842          38.000  
C35  25971158.104   135238651.926         481.492          40.000                                                                  
G25  24243124.408   127398465.751       -3907.441          36.000    24243116.702    99271506.674       -3044.529          37.000  
G04                                                                  24616419.647   100800133.625        2486.499          35.000  
> 2025 10 30 06 16 47.1200000  0 21                     
G32  21908453.112   115129696.683       -2829.764          47.000    21908446.450    89711423.797       -2205.003          43.000  
G29  23052109.915   121139672.626        -454.040          41.000    23052101.728    94394514.543        -353.799          41.000  
G28  21207307.256   111445150.143       -1142.542          43.000    21207296.373    86840335.831        -890.090          45.000  
G26  20373339.685   107062621.174         800.657          46.000    20373333.026    83425399.957         623.988          44.000  
G31  20630361.190   108413277.246         211.175          45.000    20630350.795    84477837.214         164.631          44.000  
C33  22479345.231   117055845.375        -576.799          48.000                                                                  
C06  36566646.226   190412123.679        -169.023          44.000    36566629.256   147238661.404        -130.577          46.000  
C14  22584687.249   117604380.887       -2157.250          44.000    22584672.478    90939113.773       -1668.079          48.000  
C16  36993286.714   192633748.810        -201.812          46.000    36993274.728   148956586.349        -156.009          47.000  
C24  21809497.333   113567779.776        -812.501          48.000                                                                  
C26  24328110.397   126682848.850       -2553.109          44.000                                                                  
G03  22886700.753   120270425.819          21.737          36.000    22886695.085    93717194.571          16.455          32.000  
G16  22548088.201   118491005.788        3054.351          41.000                                                                  
C09  37718541.432   196410344.267        -158.984          42.000    37718527.139   151876879.188        -122.946          46.000  
C25  23711544.847   123472241.604        1615.131          41.000                                                                  
C13  38275777.286   199312013.613       -2242.567          41.000    38275771.581   154120671.035       -1734.100          43.000  
C08  39097475.558   203590805.437       -2448.093          38.000    39097464.074   157429263.859       -1892.642          44.000  
C10  40533622.300   211069208.314         929.437          35.000    40533623.286   163212158.783         717.793          38.000  
C35  25971154.409   135238632.669         481.414          40.000                                                                  
G25  24243154.137   127398622.004       -3906.741          36.000    24243146.464    99271628.457       -3044.637          37.000  
G04                                                                  24616395.340   100800034.114        2487.198          35.000  
> 2025 10 30 06 16 47.1600000  0 21                     
G32  21908474.666   115129809.878       -2829.861          47.000    21908468.000    89711512.005       -2205.157          43.000  
G29  23052113.362   121139690.778        -453.867          41.000    23052105.198    94394528.684        -353.643          41.000  
G28  21207315.946   111445195.826       -1142.228          43.000    21207305.067    86840371.433        -890.018          45.000  
G26  20373333.595   107062589.146         800.676          46.000    20373326.923    83425374.994         624.030          44.000  
G31  20630359.577   108413268.795         211.249          45.000    20630349.214    84477830.628         164.655          44.000  
C33  22479349.679   117055868.445        -576.786          48.000                                                                  
C06  36566647.526   190412130.434        -168.976          44.000    36566630.553   147238666.624        -130.497          46.000  
C14  22584703.803   117604467.162       -2157.002          44.000    22584689.015    90939180.490       -1668.021          48.000  
C16  36993288.290   192633756.892        -201.957          46.000    36993276.260   148956592.591        -156.014          47.000  
C24  21809503.595   113567812.271        -812.417          48.000                                                                  
C26  24328130.026   126682950.968       -2552.972          44.000                                                                  
G03  22886700.579   120270424.958          21.735          36.000    22886694.906    93717193.892          16.878          32.000  
G16  22548064.950   118490883.596        3054.639          41.000                                                                  
C09  37718542.686   196410350.626        -158.998          42.000    37718528.363   151876884.103        -122.933          46.000  
C25  23711532.444   123472176.987        1615.308          41.000                                                                  
C13  38275794.498   199312103.314       -2242.535          41.000    38275788.815   154120740.389       -1733.895          43.000  
C08  39097494.351   203590903.342       -2447.822          38.000    39097482.864   157429339.574       -1892.752          44.000  
C10  40533615.147   211069171.183         928.779          35.000    40533616.150   163212130.045         718.215          38.000  
C35  25971150.727   135238613.403         481.510          41.000                                                                  
G25  24243183.851   127398778.271       -3906.633          36.000    24243176.207    99271750.225       -3044.487          37.000  
G04                                                                  24616371.046   100799934.611        2487.523          35.000  
> 2025 10 30 06 16 47.2000000  0 21                     
G32  21908496.170   115129923.061       -2829.684          47.000    21908489.525    89711600.205       -2205.076          43.000  
G29  23052116.814   121139708.935        -453.901          41.000    23052108.665    94394542.831        -353.681          41.000  
G28  21207324.627   111445241.520       -1142.303          43.000    21207313.766    86840407.032        -889.960          45.000  
G26  20373327.501   107062557.113         800.738          46.000    20373320.836    83425350.039         623.905          44.000  
G31  20630357.957   108413260.334         211.439          45.000    20630347.601    84477824.038         164.728          44.000  
C33  22479354.105   117055891.509        -576.684          48.000                                                                  
C06  36566648.855   190412137.179        -168.739          44.000    36566631.870   147238671.848        -130.554          46.000  
C14  22584720.369   117604553.434       -2156.867          45.000    22584705.577    90939247.208       -1668.001          48.000  
C16  36993289.853   192633764.961        -201.802          46.000    36993277.830   148956598.833        -156.057          47.000  
C24  21809509.873   113567844.761        -812.297          48.000                                                                  
C26  24328149.624   126683053.089       -2552.972          44.000                                                                  
G03  22886700.422   120270424.102          21.524          36.000    22886694.726    93717193.227          16.665          32.000  
G16  22548041.699   118490761.408        3054.737          42.000                                                                  
C09  37718543.911   196410356.978        -158.872          42.000    37718529.565   151876889.018        -122.941          46.000  
C25  23711520.040   123472112.368        1615.430          41.000                                                                  
C13  38275811.722   199312193.006       -2242.362          41.000    38275806.026   154120809.742       -1733.848          43.000  
C08  39097513.168   203591001.251       -2447.737          38.000    39097501.645   157429415.266       -1892.423          44.000  
C10  40533607.992   211069134.036         928.644          35.000    40533608.995   163212101.309         718.408          38.000  
C35  25971147.045   135238594.118         481.911          40.000                                                                  
G25  24243213.596   127398934.533       -3906.529          36.000    24243205.945    99271872.008       -3044.563          37.000  
G04                                                                  24616346.751   100799835.083        2488.002          35.000  
> 2025 10 30 06 16 47.2400000  0 21                     
G32  21908517.721   115130036.249       -2829.694          47.000    21908511.081    89711688.410       -2205.119          43.000  
G29  23052120.283   121139727.096        -454.002          41.000    23052112.130    94394556.980        -353.745          41.000  
G28  21207333.332   111445287.207       -1142.249          43.000    21207322.495    86840442.638        -890.110          45.000  
G26  20373321.439   107062525.083         800.750          46.000    20373314.757    83425325.076         624.011          44.000  
G31  20630356.349   108413251.883         211.346          45.000    20630346.000    84477817.453         164.666          44.000  
C33  22479358.534   117055914.578        -576.737          48.000                                                                  
C06  36566650.158   190412143.931        -168.751          44.000    36566633.166   147238677.067        -130.511          46.000  
C14  22584736.941   117604639.723       -2157.119          45.000    22584722.174    90939313.922       -1667.906          49.000  
C16  36993291.408   192633773.030        -201.734          46.000    36993279.409   148956605.081        -156.147          47.000  
C24  21809516.086   113567877.259        -812.353          48.000                                                                  
C26  24328169.250   126683155.217       -2553.115          44.000                                                                  
G03  22886700.265   120270423.252          21.260          36.000    22886694.554    93717192.590          16.062          32.000  
G16  22548018.474   118490639.229        3054.555          42.000                                                                  
C09  37718545.151   196410363.341        -158.988          42.000    37718530.781   151876893.932        -122.896          46.000  
C25  23711507.618   123472047.746        1615.509          41.000                                                                  
C13  38275828.927   199312282.696       -2242.302          41.000    38275823.271   154120879.106       -1733.986          43.000  
C08  39097531.955   203591099.137       -2447.286          38.000    39097520.429   157429490.977       -1892.622          44.000  
C10  40533600.863   211069096.876         928.739          35.000    40533601.866   163212072.584         718.256          38.000  
C35  25971143.356   135238574.850         481.858          41.000                                                                  
G25  24243243.359   127399090.822       -3906.940          36.000    24243235.695    99271993.775       -3044.269          37.000  
G04                                                                  24616322.448   100799735.579        2487.857          35.000  
> 2025 10 30 06 16 47.2800000  0 21                     
G32  21908539.291   115130149.442       -2829.798          47.000    21908532.610    89711776.614       -2205.140          43.000  
G29  23052123.702   121139745.254        -453.988          41.000    23052115.582    94394571.135        -353.870          41.000  
G28  21207342.036   111445332.899       -1142.283          43.000    21207331.175    86840478.250        -890.296          45.000  
G26  20373315.336   107062493.051         800.750          46.000    20373308.651    83425300.119         623.942          44.000  
G31  20630354.775   108413243.438         211.179          45.000    20630344.402    84477810.865         164.685          44.000  
C33  22479362.949   117055937.653        -576.865          48.000                                                                  
C06  36566651.465   190412150.690        -168.886          45.000    36566634.479   147238682.291        -130.586          46.000  
C14  22584753.519   117604726.014       -2157.268          45.000    22584738.767    90939380.639       -1667.902          49.000  
C16  36993292.971   192633781.101        -201.744          46.000    36993280.973   148956611.323        -156.126          47.000  
C24  21809522.347   113567909.754        -812.368          48.000                                                                  
C26  24328188.863   126683257.329       -2552.922          44.000                                                                  
G03  22886700.105   120270422.378          21.635          36.000    22886694.404    93717191.895          16.958          32.000  
G16  22547995.208   118490517.044        3054.581          42.000                                                                  
C09  37718546.374   196410369.692        -158.840          42.000    37718532.015   151876898.854        -123.016          46.000  
C25  23711495.206   123471983.129        1615.466          41.000                                                                  
C13  38275846.146   199312372.394       -2242.409          41.000    38275840.482   154120948.461       -1733.949          43.000  
C08  39097550.736   203591197.044       -2447.449          38.000    39097539.250   157429566.693       -1892.808          44.000  
C10  40533593.740   211069059.716         928.973          35.000    40533594.746   163212043.851         718.391          38.000  
C35  25971139.660   135238555.586         481.654          40.000                                                                  
G25  24243273.105   127399247.119       -3907.405          36.000    24243265.446    99272115.533       -3044.028          37.000  
G04                                                                  24616298.146   100799636.085        2487.479          35.000  
> 2025 10 30 06 16 47.3200000  0 21                     
G32  21908560.829   115130262.632       -2829.804          47.000    21908554.148    89711864.802       -2204.854          43.000  
G29  23052127.143   121139763.412        -453.988          41.000    23052119.015    94394585.283        -353.793          41.000  
G28  21207350.728   111445378.588       -1142.236          43.000    21207339.861    86840513.857        -890.295          45.000  
G26  20373309.279   107062461.025         800.656          46.000    20373302.579    83425275.165         623.875          44.000  
G31  20630353.176   108413234.984         211.248          45.000    20630342.789    84477804.278         164.691          45.000  
C33  22479367.378   117055960.727        -576.902          48.000                                                                  
C06  36566652.781   190412157.443        -168.871          45.000    36566635.780   147238687.513        -130.586          46.000  
C14  22584770.106   117604812.292       -2157.080          45.000    22584755.346    90939447.355       -1667.902          49.000  
C16  36993294.491   192633789.175        -201.831          46.000    36993282.554   148956617.559        -155.991          47.000  
C24  21809528.568   113567942.249        -812.387          48.000                                                                  
C26  24328208.476   126683359.450       -2552.946          44.000                                                                  
G03  22886699.948   120270421.524          21.483          36.000    22886694.206    93717191.208          17.240          32.000  
G16  22547971.963   118490394.873        3054.327          42.000                                                                  
C09  37718547.622   196410376.036        -158.660          42.000    37718533.230   151876903.764        -122.850          46.000  
C25  23711482.791   123471918.517        1615.302          41.000                                                                  
C13  38275863.378   199312462.093       -2242.458          41.000    38275857.723   154121017.818       -1733.962          43.000  
C08  39097569.539   203591294.937       -2447.337          38.000    39097558.063   157429642.398       -1892.753          44.000  
C10  40533586.616   211069022.553         929.171          35.000    40533587.581   163212015.119         718.355          38.000  
C35  25971135.950   135238536.313         481.763          40.000                                                                  
G25  24243302.862   127399403.387       -3907.022          36.000    24243295.212    99272237.301       -3044.074          37.000  
G04                                                                  24616273.848   100799536.571        2487.627          35.000  
> 2025 10 30 06 16 47.3600000  0 21                     
G32  21908582.346   115130375.814       -2829.640          47.000    21908575.681    89711952.998       -2204.847          43.000  
G29  23052130.599   121139781.563        -453.843          41.000    23052122.477    94394599.435        -353.837          41.000  
G28  21207359.424   111445424.281       -1142.303          43.000    21207348.553    86840549.456        -890.118          45.000  
G26  20373303.190   107062428.994         800.713          46.000    20373296.473    83425250.210         623.844          44.000  
G31  20630351.572   108413226.526         211.415          45.000    20630341.172    84477797.696         164.599          45.000  
C33  22479371.788   117055983.793        -576.791          48.000                                                                  
C06  36566654.073   190412164.199        -168.882          45.000    36566637.064   147238692.734        -130.586          46.000  
C14  22584786.687   117604898.567       -2156.942          45.000    22584771.906    90939514.074       -1667.940          49.000  
C16  36993296.028   192633797.244        -201.763          46.000    36993284.127   148956623.793        -155.870          47.000  
C24  21809534.782   113567974.748        -812.453          48.000                                                                  
C26  24328228.081   126683461.570       -2552.981          44.000                                                                  
G03  22886699.787   120270420.667          21.407          36.000    22886694.032    93717190.548          16.786          32.000  
G16  22547948.682   118490272.687        3054.490          42.000                                                                  
C09  37718548.839   196410382.398        -158.917          42.000    37718534.474   151876908.676        -122.821          46.000  
C25  23711470.371   123471853.904        1615.240          41.000                                                                  
C13  38275880.604   199312551.783       -2242.359          41.000    38275874.954   154121087.175       -1733.943          43.000  
C08  39097588.349   203591392.842       -2447.503          38.000    39097576.889   157429718.095       -1892.573          44.000  
C10  40533579.488   211068985.388         929.300          34.000    40533580.446   163211986.381         718.384          38.000  
C35  25971132.241   135238517.050         481.566          40.000                                                                  
G25  24243332.577   127399559.674       -3907.143          36.000    24243324.953    99272359.069       -3044.112          37.000  
G04                                                                  24616249.564   100799437.076        2487.426          35.000  
> 2025 10 30 06 16 47.4000000  0 21                     
G32  21908603.891   115130489.001       -2829.636          47.000    21908597.221    89712041.191       -2204.803          44.000  
G29  23052134.062   121139799.712        -453.712          41.000    23052125.926    94394613.583        -353.754          41.000  
G28  21207368.111   111445469.975       -1142.342          43.000    21207357.262    86840585.056        -890.034          45.000  
G26  20373297.105   107062396.966         800.688          46.000    20373290.387    83425225.250         623.913          44.000  
G31  20630349.971   108413218.066         211.507          45.000    20630339.551    84477791.107         164.642          45.000  
C33  22479376.209   117056006.867        -576.855          48.000                                                                  
C06  36566655.369   190412170.942        -168.678          45.000    36566638.353   147238697.950        -130.487          46.000  
C14  22584803.258   117604984.847       -2156.944          45.000    22584788.454    90939580.795       -1668.023          49.000  
C16  36993297.580   192633805.316        -201.784          46.000    36993285.676   148956630.036        -155.990          47.000  
C24  21809541.048   113568007.237        -812.314          48.000                                                                  
C26  24328247.711   126683563.681       -2552.837          44.000                                                                  
G03  22886699.604   120270419.795          21.679          36.000    22886693.871    93717189.876          16.717          32.000  
G16  22547925.422   118490150.489        3054.807          42.000                                                                  
C09  37718550.042   196410388.754        -158.960          42.000    37718535.691   151876913.592        -122.892          46.000  
C25  23711457.978   123471789.280        1615.503          41.000                                                                  
C13  38275897.866   199312641.481       -2242.466          41.000    38275892.162   154121156.535       -1734.005          43.000  
C08  39097607.140   203591490.754       -2447.714          38.000    39097595.680   157429793.798       -1892.551          44.000  
C10  40533572.354   211068948.239         928.983          34.000    40533573.298   163211957.643         718.400          38.000  
C35  25971128.560   135238497.776         481.693          40.000                                                                  
G25  24243362.287   127399715.918       -3906.499          36.000    24243354.685    99272480.831       -3044.104          37.000  
G04                                                                  24616225.268   100799337.577        2487.359          35.000  
> 2025 10 30 06 16 47.4400000  0 21                     
G32  21908625.423   115130602.191       -2829.729          47.000    21908618.759    89712129.394       -2204.935          44.000  
G29  23052137.496   121139817.873        -453.896          41.000    23052129.387    94394627.722        -353.611          41.000  
G28  21207376.811   111445515.666       -1142.342          43.000    21207365.964    86840620.657        -890.011          45.000  
G26  20373290.977   107062364.935         800.751          46.000    20373284.299    83425200.289         623.968          44.000  
G31  20630348.379   108413209.610         211.450          45.000    20630337.943    84477784.517         164.703          45.000  
C33  22479380.661   117056029.935        -576.772          48.000                                                                  
C06  36566656.683   190412177.696        -168.799          45.000    36566639.646   147238703.169        -130.509          46.000  
C14  22584819.846   117605071.126       -2156.971          45.000    22584805.025    90939647.514       -1668.028          49.000  
C16  36993299.112   192633813.379        -201.644          46.000    36993287.200   148956636.275        -155.983          47.000  
C24  21809547.286   113568039.728        -812.298          48.000                                                                  
C26  24328267.310   126683665.793       -2552.810          44.000                                                                  
G03  22886699.446   120270418.950          21.422          36.000    22886693.708    93717189.199          16.994          32.000  
G16  22547902.168   118490028.295        3054.897          42.000                                                                  
C09  37718551.260   196410395.101        -158.761          42.000    37718536.937   151876918.501        -122.810          46.000  
C25  23711445.553   123471724.657        1615.613          41.000                                                                  
C13  38275915.075   199312731.171       -2242.365          41.000    38275909.429   154121225.892       -1733.986          43.000  
C08  39097625.937   203591588.654       -2447.621          38.000    39097614.481   157429869.509       -1892.707          44.000  
C10  40533565.224   211068911.078         928.943          34.000    40533566.159   163211928.902         718.477          38.000  
C35  25971124.875   135238478.512         481.593          40.000                                                                  
G25  24243392.050   127399872.205       -3906.895          36.000    24243384.429    99272602.598       -3044.133          37.000  
G04                                                                  24616200.986   100799238.088        2487.239          35.000  
> 2025 10 30 06 16 47.4800000  0 21                     
G32  21908646.967   115130715.377       -2829.689          47.000    21908640.287    89712217.593       -2204.959          44.000  
G29  23052140.958   121139836.040        -454.103          41.000    23052132.845    94394641.867        -353.574          41.000  
G28  21207385.498   111445561.358       -1142.348          43.000    21207374.656    86840656.266        -890.153          45.000  
G26  20373284.851   107062332.902         800.813          46.000    20373278.201    83425175.328         624.005          44.000  
G31  20630346.794   108413201.158         211.358          45.000    20630336.347    84477777.929         164.703          45.000  
C33  22479385.077   117056053.014        -576.933          48.000                                                                  
C06  36566657.970   190412184.445        -168.785          45.000    36566640.928   147238708.392        -130.554          46.000  
C14  22584836.411   117605157.412       -2157.091          45.000    22584821.584    90939714.235       -1668.072          49.000  
C16  36993300.662   192633821.452        -201.770          46.000    36993288.720   148956642.520        -156.094          47.000  
C24  21809553.485   113568072.225        -812.392          48.000                                                                  
C26  24328286.900   126683767.910       -2552.887          44.000                                                                  
G03  22886699.271   120270418.094          21.338          36.000    22886693.546    93717188.545          16.640          32.000  
G16  22547878.927   118489906.115        3054.658          42.000                                                                  
C09  37718552.471   196410401.462        -158.914          42.000    37718538.154   151876923.411        -122.798          46.000  
C25  23711433.136   123471660.039        1615.527          41.000                                                                  
C13  38275932.284   199312820.865       -2242.404          41.000    38275926.626   154121295.244       -1733.867          43.000  
C08  39097644.737   203591686.571       -2447.887          38.000    39097633.275   157429945.214       -1892.698          44.000  
C10  40533558.104   211068873.916         928.969          34.000    40533558.997   163211900.172         718.278          38.000  
C35  25971121.190   135238459.245         481.633          40.000                                                                  
G25  24243421.760   127400028.455       -3906.512          36.000    24243414.176    99272724.368       -3044.224          37.000  
G04                                                                  24616176.709   100799138.585        2487.405          35.000  
> 2025 10 30 06 16 47.5200000  0 21                     
G32  21908668.501   115130828.566       -2829.742          47.000    21908661.812    89712305.796       -2205.082          44.000  
G29  23052144.413   121139854.187        -453.855          41.000    23052136.305    94394656.021        -353.771          41.000  
G28  21207394.174   111445607.050       -1142.378          43.000    21207383.364    86840691.862        -890.012          45.000  
G26  20373278.743   107062300.869         800.812          46.000    20373272.114    83425150.366         624.036          44.000  
G31  20630345.191   108413192.713         211.161          45.000    20630334.737    84477771.344         164.629          45.000  
C33  22479389.537   117056076.081        -576.822          48.000                                                                  
C06  36566659.261   190412191.193        -168.724          45.000    36566642.198   147238713.606        -130.442          46.000  
C14  22584852.989   117605243.698       -2157.159          45.000    22584838.140    90939780.950       -1667.943          49.000  
C16  36993302.220   192633829.516        -201.704          46.000    36993290.234   148956648.765        -156.137          47.000  
C24  21809559.718   113568104.721        -812.423          48.000                                                                  
C26  24328306.510   126683870.033       -2553.044          44.000                                                                  
G03  22886699.149   120270417.249          21.152          36.000    22886693.383    93717187.883          16.476          32.000  
G16  22547855.683   118489783.928        3054.634          42.000                                                                  
C09  37718553.726   196410407.811        -158.806          43.000    37718539.380   151876928.324        -122.805          46.000  
C25  23711420.735   123471595.424        1615.417          41.000                                                                  
C13  38275949.479   199312910.563       -2242.446          41.000    38275943.853   154121364.598       -1733.843          43.000  
C08  39097663.559   203591784.467       -2447.605          38.000    39097652.091   157430020.918       -1892.642          44.000  
C10  40533550.953   211068836.776         928.544          34.000    40533551.863   163211871.441         718.270          38.000  
C35  25971117.500   135238439.974         481.695          40.000                                                                  
G25  24243451.515   127400184.720       -3906.496          36.000    24243443.915    99272846.154       -3044.569          37.000  
G04                                                                  24616152.403   100799039.057        2487.980          35.000  
> 2025 10 30 06 16 47.5600000  0 21                     
G32  21908690.056   115130941.751       -2829.663          47.000    21908683.362    89712393.990       -2204.951          44.000  
G29  23052147.891   121139872.344        -453.888          41.000    23052139.762    94394670.164        -353.663          41.000  
G28  21207402.871   111445652.732       -1142.181          43.000    21207392.050    86840727.456        -889.895          45.000  
G26  20373272.661   107062268.841         800.718          46.000    20373266.006    83425125.411         623.930          44.000  
G31  20630343.555   108413184.250         211.427          45.000    20630333.124    84477764.749         164.790          45.000  
C33  22479393.981   117056099.151        -576.783          48.000                                                                  
C06  36566660.558   190412197.929        -168.490          45.000    36566643.462   147238718.820        -130.386          46.000  
C14  22584869.552   117605329.975       -2157.025          45.000    22584854.702    90939847.664       -1667.888          49.000  
C16  36993303.783   192633837.579        -201.600          46.000    36993291.743   148956654.991        -155.831          47.000  
C24  21809565.996   113568137.206        -812.218          48.000                                                                  
C26  24328326.148   126683972.148       -2552.938          44.000                                                                  
G03  22886698.986   120270416.385          21.399          36.000    22886693.203    93717187.215          16.502          32.000  
G16  22547832.454   118489661.748        3054.495          42.000                                                                  
C09  37718554.971   196410414.149        -158.548          43.000    37718540.618   151876933.231        -122.716          46.000  
C25  23711408.328   123471530.801        1615.564          41.000                                                                  
C13  38275966.697   199313000.234       -2241.992          41.000    38275961.090   154121433.947       -1733.732          43.000  
C08  39097682.347   203591882.352       -2447.320          38.000    39097670.875   157430096.607       -1892.386          44.000  
C10  40533543.817   211068799.611         928.796          34.000    40533544.698   163211842.703         718.392          38.000  
C35  25971113.792   135238420.697         481.818          40.000                                                                  
G25  24243481.248   127400340.989       -3906.553          36.000    24243473.654    99272967.911       -3044.166          37.000  
G04                                                                  24616128.090   100798939.531        2488.185          35.000  
> 2025 10 30 06 16 47.6000000  0 21                     
G32  21908711.606   115131054.928       -2829.524          47.000    21908704.888    89712482.185       -2204.866          44.000  
G29  23052151.362   121139890.493        -453.763          41.000    23052143.228    94394684.321        -353.890          41.000  
G28  21207411.586   111445698.417       -1142.139          43.000    21207400.746    86840763.061        -890.028          45.000  
G26  20373266.583   107062236.817         800.575          46.000    20373259.905    83425100.460         623.813          44.000  
G31  20630341.946   108413175.787         211.537          45.000    20630331.513    84477758.161         164.721          45.000  
C33  22479398.413   117056122.221        -576.779          48.000                                                                  
C06  36566661.819   190412204.668        -168.424          45.000    36566644.737   147238724.034        -130.364          46.000  
C14  22584886.105   117605416.247       -2156.848          45.000    22584871.277    90939914.373       -1667.770          50.000  
C16  36993305.368   192633845.639        -201.506          46.000    36993293.259   148956661.227        -155.850          47.000  
C24  21809572.242   113568169.688        -812.100          48.000                                                                  
C26  24328345.780   126684074.253       -2552.736          44.000                                                                  
G03  22886698.815   120270415.515          21.695          36.000    22886693.059    93717186.544          16.617          32.000  
G16  22547809.200   118489539.554        3054.701          42.000                                                                  
C09  37718556.185   196410420.496        -158.604          43.000    37718541.817   151876938.142        -122.749          46.000  
C25  23711395.932   123471466.181        1615.552          41.000                                                                  
C13  38275983.913   199313089.915       -2241.945          42.000    38275978.324   154121503.295       -1733.658          43.000  
C08  39097701.139   203591980.246       -2447.319          38.000    39097689.687   157430172.302       -1892.384          44.000  
C10  40533536.683   211068762.420         929.363          34.000    40533537.562   163211813.965         718.441          38.000  
C35  25971110.088   135238401.412         482.063          40.000                                                                  
G25  24243510.990   127400497.256       -3906.675          36.000    24243503.379    99273089.667       -3043.976          37.000  
G04                                                                  24616103.801   100798840.023        2487.921          35.000  
> 2025 10 30 06 16 47.6400000  0 21                     
G32  21908733.149   115131168.111       -2829.540          47.000    21908726.406    89712570.383       -2204.955          44.000  
G29  23052154.806   121139908.653        -453.935          41.000    23052146.708    94394698.475        -353.905          41.000  
G28  21207420.270   111445744.100       -1142.098          43.000    21207409.465    86840798.667        -890.131          45.000  
G26  20373260.493   107062204.794         800.508          46.000    20373253.797    83425075.507         623.783          44.000  
G31  20630340.347   108413167.338         211.345          45.000    20630329.908    84477751.576         164.628          45.000  
C33  22479402.823   117056145.291        -576.772          48.000                                                                  
C06  36566663.096   190412211.409        -168.452          45.000    36566646.042   147238729.248        -130.376          46.000  
C14  22584902.655   117605502.530       -2156.992          45.000    22584887.847    90939981.089       -1667.835          50.000  
C16  36993306.915   192633853.707        -201.620          46.000    36993294.819   148956667.460        -155.854          47.000  
C24  21809578.463   113568202.185        -812.336          48.000                                                                  
C26  24328365.383   126684176.358       -2552.631          44.000                                                                  
G03  22886698.660   120270414.655          21.563          36.000    22886692.885    93717185.846          17.181          32.000  
G16  22547785.942   118489417.365        3054.771          42.000                                                                  
C09  37718557.406   196410426.839        -158.580          43.000    37718543.051   151876943.052        -122.768          46.000  
C25  23711383.501   123471401.559        1615.576          41.000                                                                  
C13  38276001.126   199313179.610       -2242.208          42.000    38275995.537   154121572.655       -1733.840          43.000  
C08  39097719.926   203592078.130       -2447.146          38.000    39097708.516   157430248.006       -1892.537          44.000  
C10  40533529.555   211068725.265         929.020          34.000    40533530.421   163211785.239         718.211          38.000  
C35  25971106.369   135238382.141         481.922          40.000                                                                  
G25  24243540.742   127400653.506       -3906.394          36.000    24243533.134    99273211.441       -3044.146          37.000  
G04                                                                  24616079.510   100798740.541        2487.328          35.000  
> 2025 10 30 06 16 47.6800000  0 21                     
G32  21908754.702   115131281.302       -2829.723          47.000    21908747.942    89712658.583       -2205.013          44.000  
G29  23052158.259   121139926.824        -454.203          41.000    23052150.169    94394712.625        -353.790          41.000  
G28  21207428.956   111445789.797       -1142.308          43.000    21207418.143    86840834.265        -890.048          45.000  
G26  20373254.385   107062172.768         800.559          46.000    20373247.707    83425050.552         623.795          44.000  
G31  20630338.727   108413158.888         211.203          45.000    20630328.283    84477744.989         164.629          45.000  
C33  22479407.223   117056168.372        -576.985          48.000                                                                  
C06  36566664.362   190412218.163        -168.739          45.000    36566647.335   147238734.474        -130.614          46.000  
C14  22584919.216   117605588.812       -2157.061          45.000    22584904.425    90940047.819       -1668.146          50.000  
C16  36993308.471   192633861.770        -201.587          46.000    36993296.345   148956673.699        -155.939          47.000  
C24  21809584.669   113568234.677        -812.372          48.000                                                                  
C26  24328385.004   126684278.471       -2552.777          44.000                                                                  
G03  22886698.492   120270413.815          21.174          36.000    22886692.729    93717185.192          16.674          32.000  
G16  22547762.668   118489295.182        3054.655          42.000                                                                  
C09  37718558.643   196410433.192        -158.706          43.000    37718544.272   151876947.965        -122.838          46.000  
C25  23711371.089   123471336.939        1615.515          41.000                                                                  
C13  38276018.346   199313269.306       -2242.375          42.000    38276012.775   154121642.015       -1733.969          43.000  
C08  39097738.722   203592176.046       -2447.644          38.000    39097727.334   157430323.716       -1892.725          44.000  
C10  40533522.432   211068688.104         928.971          34.000    40533523.266   163211756.485         718.638          38.000  
C35  25971102.658   135238362.873         481.764          40.000                                                                  
G25  24243570.496   127400809.794       -3906.882          36.000    24243562.876    99273333.221       -3044.416          37.000  
G04                                                                  24616055.222   100798641.048        2487.213          36.000  
> 2025 10 30 06 16 47.7200000  0 21                     
G32  21908776.244   115131394.496       -2829.883          47.000    21908769.473    89712746.784       -2205.083          44.000  
G29  23052161.715   121139944.990        -454.263          41.000    23052153.623    94394726.775        -353.720          41.000  
G28  21207437.657   111445835.491       -1142.418          43.000    21207426.843    86840869.871        -890.157          45.000  
G26  20373248.301   107062140.745         800.516          46.000    20373241.641    83425025.593         623.857          44.000  
G31  20630337.152   108413150.439         211.143          45.000    20630326.682    84477738.409         164.512          45.000  
C33  22479411.644   117056191.450        -577.012          48.000                                                                  
C06  36566665.631   190412224.922        -168.976          45.000    36566648.662   147238739.694        -130.608          46.000  
C14  22584935.797   117605675.099       -2157.200          45.000    22584921.011    90940114.543       -1668.206          50.000  
C16  36993310.014   192633869.849        -201.900          46.000    36993297.923   148956679.940        -156.027          47.000  
C24  21809590.880   113568267.185        -812.649          48.000                                                                  
C26  24328404.605   126684380.594       -2553.028          45.000                                                                  
G03  22886698.325   120270412.965          21.134          36.000    22886692.570    93717184.547          16.238          32.000  
G16  22547739.404   118489172.994        3054.668          42.000                                                                  
C09  37718559.900   196410439.549        -158.857          43.000    37718545.476   151876952.879        -122.901          46.000  
C25  23711358.655   123471272.334        1615.167          41.000                                                                  
C13  38276035.557   199313358.994       -2242.319          42.000    38276030.013   154121711.382       -1734.168          43.000  
C08  39097757.523   203592273.953       -2447.784          38.000    39097746.125   157430399.416       -1892.584          44.000  
C10  40533515.295   211068650.950         928.755          34.000    40533516.100   163211727.756         718.359          38.000  
C35  25971098.979   135238343.612         481.559          40.000                                                                  
G25  24243600.229   127400966.075       -3907.066          36.000    24243592.611    99273454.991       -3044.337          37.000  
G04                                                                  24616030.924   100798541.540        2487.423          36.000  
> 2025 10 30 06 16 47.7600000  0 21                     
G32  21908797.783   115131507.696       -2830.071          47.000    21908791.023    89712834.990       -2205.190          44.000  
G29  23052165.180   121139963.162        -454.406          41.000    23052157.078    94394740.925        -353.716          41.000  
G28  21207446.379   111445881.193       -1142.583          43.000    21207435.571    86840905.488        -890.349          45.000  
G26  20373242.225   107062108.724         800.498          46.000    20373235.566    83425000.647         623.670          44.000  
G31  20630335.567   108413141.992         211.094          45.000    20630325.065    84477731.827         164.519          45.000  
C33  22479416.081   117056214.539        -577.240          48.000                                                                  
C06  36566666.920   190412231.670        -168.881          45.000    36566649.969   147238744.910        -130.532          46.000  
C14  22584952.394   117605761.399       -2157.456          45.000    22584937.566    90940181.268       -1668.221          50.000  
C16  36993311.569   192633877.916        -201.815          46.000    36993299.492   148956686.186        -156.162          47.000  
C24  21809597.126   113568299.689        -812.718          48.000                                                                  
C26  24328424.213   126684482.723       -2553.242          45.000                                                                  
G03  22886698.155   120270412.129          20.905          36.000    22886692.433    93717183.923          15.549          32.000  
G16  22547716.163   118489050.819        3054.439          42.000                                                                  
C09  37718561.125   196410445.913        -159.044          43.000    37718546.700   151876957.792        -122.880          46.000  
C25  23711346.268   123471207.731        1614.984          41.000                                                                  
C13  38276052.780   199313448.693       -2242.492          42.000    38276047.244   154121780.735       -1734.010          43.000  
C08  39097776.322   203592371.864       -2447.878          38.000    39097764.902   157430475.132       -1892.806          44.000  
C10  40533508.162   211068613.797         928.619          34.000    40533508.960   163211699.028         718.203          38.000  
C35  25971095.274   135238324.347         481.556          40.000                                                                  
G25  24243629.956   127401122.356       -3907.121          36.000    24243622.344    99273576.752       -3044.164          37.000  
G04                                                                  24616006.623   100798442.030        2487.621          36.000  
> 2025 10 30 06 16 47.8000000  0 21                     
G32  21908819.336   115131620.899       -2830.187          47.000    21908812.556    89712923.195       -2205.218          44.000  
G29  23052168.631   121139981.331        -454.365          41.000    23052160.522    94394755.081        -353.842          41.000  
G28  21207455.078   111445926.890       -1142.553          43.000    21207444.262    86840941.098        -890.355          45.000  
G26  20373236.131   107062076.710         800.343          46.000    20373229.471    83424975.701         623.553          44.000  
G31  20630333.960   108413133.545         211.094          45.000    20630323.433    84477725.251         164.371          45.000  
C33  22479420.522   117056237.622        -577.222          48.000                                                                  
C06  36566668.232   190412238.424        -168.925          45.000    36566651.274   147238750.136        -130.642          46.000  
C14  22584968.971   117605847.692       -2157.476          45.000    22584954.136    90940247.998       -1668.296          50.000  
C16  36993313.102   192633885.988        -201.824          46.000    36993301.060   148956692.425        -156.105          47.000  
C24  21809603.366   113568332.189        -812.640          48.000                                                                  
C26  24328443.854   126684584.851       -2553.317          45.000                                                                  
G03  22886698.012   120270411.289          20.897          37.000    22886692.292    93717183.281          15.650          32.000  
G16  22547692.915   118488928.654        3054.139          42.000                                                                  
C09  37718562.371   196410452.270        -159.028          43.000    37718547.913   151876962.706        -122.892          46.000  
C25  23711333.883   123471143.115        1615.234          41.000                                                                  
C13  38276069.992   199313538.390       -2242.515          42.000    38276064.475   154121850.088       -1733.898          43.000  
C08  39097795.115   203592469.756       -2447.568          38.000    39097783.700   157430550.830       -1892.649          44.000  
C10  40533501.016   211068576.616         929.164          34.000    40533501.810   163211670.291         718.340          38.000  
C35  25971091.584   135238305.093         481.376          40.000                                                                  
G25  24243659.676   127401278.612       -3906.669          36.000    24243652.101    99273698.534       -3044.399          37.000  
G04                                                                  24615982.304   100798342.524        2487.664          36.000  
> 2025 10 30 06 16 47.8400000  0 21                     
G32  21908840.878   115131734.093       -2830.050          47.000    21908834.100    89713011.392       -2205.033          44.000  
G29  23052172.093   121139999.497        -454.263          42.000    23052163.970    94394769.243        -354.004          41.000  
G28  21207463.744   111445972.588       -1142.522          44.000    21207452.964    86840976.705        -890.263          45.000  
G26  20373230.025   107062044.692         800.357          46.000    20373223.379    83424950.757         623.531          44.000  
G31  20630332.355   108413125.103         211.015          45.000    20630321.830    84477718.668         164.446          45.000  
C33  22479424.937   117056260.707        -577.184          48.000                                                                  
C06  36566669.531   190412245.173        -168.798          45.000    36566652.576   147238755.366        -130.784          46.000  
C14  22584985.556   117605933.984       -2157.409          45.000    22584970.711    90940314.721       -1668.211          50.000  
C16  36993314.639   192633894.059        -201.838          46.000    36993302.633   148956698.667        -156.117          47.000  
C24  21809609.621   113568364.689        -812.600          48.000                                                                  
C26  24328463.461   126684686.967       -2553.104          45.000                                                                  
G03  22886697.852   120270410.452          20.882          37.000    22886692.109    93717182.586          16.805          32.000  
G16  22547669.670   118488806.473        3054.343          42.000                                                                  
C09  37718563.584   196410458.623        -158.917          43.000    37718549.108   151876967.619        -122.860          46.000  
C25  23711321.499   123471078.497        1615.387          41.000                                                                  
C13  38276087.230   199313628.090       -2242.520          42.000    38276081.727   154121919.442       -1733.843          43.000  
C08  39097813.922   203592567.650       -2447.382          38.000    39097802.538   157430626.542       -1892.769          44.000  
C10  40533493.867   211068539.475         928.689          34.000    40533494.662   163211641.550         718.427          38.000  
C35  25971087.867   135238285.826         481.562          40.000                                                                  
G25  24243689.384   127401434.883       -3906.671          36.000    24243681.847    99273820.301       -3044.307          37.000  
G04                                                                  24615957.994   100798243.004        2487.851          36.000  
> 2025 10 30 06 16 47.8800000  0 21                     
G32  21908862.403   115131847.275       -2829.698          47.000    21908855.624    89713099.588       -2204.932          44.000  
G29  23052175.525   121140017.664        -454.244          42.000    23052167.439    94394783.412        -354.261          41.000  
G28  21207472.441   111446018.283       -1142.432          44.000    21207461.669    86841012.310        -890.176          45.000  
G26  20373223.926   107062012.679         800.308          46.000    20373217.281    83424925.808         623.625          44.000  
G31  20630330.741   108413116.661         210.935          45.000    20630320.214    84477712.082         164.557          45.000  
C33  22479429.388   117056283.788        -577.101          48.000                                                                  
C06  36566670.846   190412251.925        -168.805          45.000    36566653.876   147238760.585        -130.647          46.000  
C14  22585002.141   117606020.267       -2157.230          45.000    22584987.329    90940381.444       -1668.147          50.000  
C16  36993316.176   192633902.132        -201.870          46.000    36993304.177   148956704.908        -156.077          47.000  
C24  21809615.912   113568397.190        -812.578          48.000                                                                  
C26  24328483.084   126684789.072       -2552.795          45.000                                                                  
G03  22886697.697   120270409.605          21.078          37.000    22886691.943    93717181.904          17.142          32.000  
G16  22547646.423   118488684.297        3054.355          42.000                                                                  
C09  37718564.830   196410464.976        -158.861          43.000    37718550.323   151876972.535        -122.910          46.000  
C25  23711309.075   123471013.887        1615.277          41.000                                                                  
C13  38276104.466   199313717.770       -2242.126          42.000    38276098.982   154121988.796       -1733.837          43.000  
C08  39097832.726   203592665.571       -2447.769          38.000    39097821.315   157430702.244       -1892.645          44.000  
C10  40533486.743   211068502.298         929.270          34.000    40533487.495   163211612.812         718.431          38.000  
C35  25971084.154   135238266.565         481.568          40.000                                                                  
G25  24243719.114   127401591.153       -3906.706          36.000    24243711.604    99273942.080       -3044.460          37.000  
G04                                                                  24615933.695   100798143.496        2487.775          36.000  
> 2025 10 30 06 16 47.9200000  0 21                     
G32  21908883.940   115131960.473       -2829.862          47.000    21908877.172    89713187.799       -2205.182          44.000  
G29  23052178.976   121140035.836        -454.281          42.000    23052170.913    94394797.580        -354.339          41.000  
G28  21207481.131   111446063.980       -1142.435          44.000    21207470.349    86841047.917        -890.179          45.000  
G26  20373217.850   107061980.665         800.303          46.000    20373211.198    83424900.866         623.538          45.000  
G31  20630329.120   108413108.215         210.997          45.000    20630318.613    84477705.500         164.544          45.000  
C33  22479433.810   117056306.879        -577.235          48.000                                                                  
C06  36566672.164   190412258.672        -168.701          45.000    36566655.166   147238765.809        -130.647          46.000  
C14  22585018.715   117606106.555       -2157.168          45.000    22585003.896    90940448.176       -1668.293          50.000  
C16  36993317.726   192633910.203        -201.842          46.000    36993305.731   148956711.151        -156.097          47.000  
C24  21809622.142   113568429.698        -812.696          48.000                                                                  
C26  24328502.676   126684891.196       -2552.971          45.000                                                                  
G03  22886697.534   120270408.756          21.182          37.000    22886691.785    93717181.264          16.448          32.000  
G16  22547623.161   118488562.118        3054.425          42.000                                                                  
C09  37718566.032   196410471.333        -158.940          43.000    37718551.530   151876977.448        -122.864          46.000  
C25  23711296.662   123470949.285        1615.088          41.000                                                                  
C13  38276121.699   199313807.469       -2242.347          42.000    38276116.219   154122058.156       -1733.944          43.000  
C08  39097851.535   203592763.482       -2447.857          38.000    39097840.106   157430777.945       -1892.559          44.000  
C10  40533479.589   211068465.169         928.585          34.000    40533480.358   163211584.094         718.063          38.000  
C35  25971080.453   135238247.315         481.361          40.000                                                                  
G25  24243748.841   127401747.447       -3907.169          36.000    24243741.360    99274063.843       -3044.219          37.000  
G04                                                                  24615909.394   100798044.011        2487.248          36.000  
> 2025 10 30 06 16 47.9600000  0 21                     
G32  21908905.489   115132073.698       -2830.490          47.000    21908898.720    89713276.034       -2205.761          44.000  
G29  23052182.446   121140054.038        -454.948          42.000    23052174.378    94394811.755        -354.460          41.000  
G28  21207489.840   111446109.701       -1142.888          44.000    21207479.051    86841083.544        -890.541          45.000  
G26  20373211.758   107061948.681         799.693          46.000    20373205.111    83424875.940         623.196          45.000  
G31  20630327.514   108413099.790         210.633          45.000    20630317.020    84477698.941         164.069          45.000  
C33  22479438.236   117056329.991        -577.715          48.000                                                                  
C06  36566673.477   190412265.448        -169.208          45.000    36566656.456   147238771.035        -130.699          46.000  
C14  22585035.284   117606192.868       -2157.672          45.000    22585020.502    90940514.922       -1668.636          50.000  
C16  36993319.271   192633918.300        -202.321          46.000    36993307.235   148956717.407        -156.348          47.000  
C24  21809628.358   113568462.223        -813.100          48.000                                                                  
C26  24328522.279   126684993.337       -2553.422          45.000                                                                  
G03  22886697.379   120270407.960          20.160          37.000    22886691.642    93717180.660          15.407          32.000  
G16  22547599.904   118488439.962        3053.965          42.000                                                                  
C09  37718567.248   196410477.717        -159.545          43.000    37718552.757   151876982.383        -123.273          46.000  
C25  23711284.258   123470884.708        1614.502          41.000                                                                  
C13  38276138.929   199313897.199       -2243.102          42.000    38276133.448   154122127.542       -1734.541          43.000  
C08  39097870.332   203592861.408       -2448.208          38.000    39097858.924   157430853.675       -1893.052          44.000  
C10  40533472.473   211068428.019         928.610          35.000    40533473.242   163211555.397         717.438          38.000  
C35  25971076.765   135238228.081         480.857          40.000                                                                  
G25  24243778.606   127401903.745       -3907.530          36.000    24243771.093    99274185.642       -3044.771          37.000  
G04                                                                  24615885.085   100797944.525        2487.047          36.000  
> 2025 10 30 06 16 48.0000000  0 21                     
G32  21908927.052   115132187.072       -2833.715          47.000    21908920.289    89713364.361       -2207.848          44.000  
G29  23052185.973   121140072.407        -458.597          42.000    23052177.869    94394826.054        -357.040          41.000  
G28  21207498.568   111446155.572       -1146.018          44.000    21207487.792    86841119.275        -892.744          45.000  
G26  20373205.691   107061916.861         796.083          46.000    20373199.032    83424851.137         620.469          45.000  
G31  20630325.925   108413091.556         206.577          45.000    20630315.451    84477692.517         161.043          45.000  
C33  22479442.680   117056353.269        -581.225          48.000                                                                  
C06  36566674.829   190412272.391        -172.682          45.000    36566657.761   147238776.388        -133.187          46.000  
C14  22585051.869   117606279.359       -2161.456          45.000    22585037.099    90940581.789       -1671.218          49.000  
C16  36993320.851   192633926.556        -205.686          46.000    36993308.796   148956723.774        -158.658          47.000  
C24  21809634.638   113568494.899        -816.213          48.000                                                                  
C26  24328541.920   126685095.635       -2556.656          45.000                                                                  
G03  22886697.258   120270407.330          16.364          37.000    22886691.483    93717180.120          13.414          32.000  
G16  22547576.664   118488317.980        3050.263          42.000                                                                  
C09  37718568.480   196410484.260        -162.989          43.000    37718553.994   151876987.434        -125.798          46.000  
C25  23711271.868   123470820.283        1610.992          41.000                                                                  
C13  38276156.193   199313987.088       -2246.704          42.000    38276150.717   154122197.032       -1736.917          43.000  
C08  39097889.151   203592959.453       -2450.552          38.000    39097877.739   157430929.502       -1895.218          44.000  
C10  40533465.380   211068391.051         925.059          35.000    40533466.127   163211526.801         715.129          38.000  
C35  25971073.111   135238209.025         477.042          40.000                                                                  
G25  24243808.411   127402060.194       -3910.559          36.000    24243800.857    99274307.513       -3046.512          37.000  
G04                                                                  24615860.814   100797845.154        2484.670          36.000  
> 2025 10 30 06 16 48.0400000  0 21                     
G32  21908948.680   115132300.649       -2838.703          47.000    21908941.932    89713452.859       -2211.758          44.000  
G29  23052189.525   121140090.937        -462.979          42.000    23052181.434    94394840.488        -360.541          41.000  
G28  21207507.367   111446201.661       -1151.174          44.000    21207496.613    86841155.202        -897.143          45.000  
G26  20373199.692   107061885.204         791.689          46.000    20373193.039    83424826.468         616.968          45.000  
G31  20630324.401   108413083.464         202.319          45.000    20630313.944    84477686.210         157.686          45.000  
C33  22479447.186   117056376.712        -585.616          48.000                                                                  
C06  36566676.212   190412279.510        -177.345          45.000    36566659.114   147238781.895        -137.000          46.000  
C14  22585068.501   117606366.015       -2166.029          45.000    22585053.755    90940648.796       -1674.802          49.000  
C16  36993322.502   192633934.993        -210.348          46.000    36993310.435   148956730.304        -162.541          47.000  
C24  21809640.963   113568527.779        -821.145          48.000                                                                  
C26  24328561.627   126685198.129       -2561.533          45.000                                                                  
G03  22886697.192   120270406.842          12.242          37.000    22886691.414    93717179.771           9.300          33.000  
G16  22547553.503   118488196.165        3045.714          42.000                                                                  
C09  37718569.783   196410490.958        -167.190          43.000    37718555.283   151876992.630        -129.459          46.000  
C25  23711259.571   123470756.029        1606.543          41.000                                                                  
C13  38276173.481   199314077.132       -2250.962          42.000    38276168.020   154122266.667       -1740.527          43.000  
C08  39097908.018   203593057.752       -2456.070          38.000    39097896.628   157431005.503       -1899.164          44.000  
C10  40533458.329   211068354.233         920.934          35.000    40533459.051   163211498.330         711.988          38.000  
C35  25971069.497   135238190.111         472.964          40.000                                                                  
G25  24243838.249   127402216.826       -3915.017          36.000    24243830.699    99274429.596       -3050.848          37.000  
G04                                                                  24615836.624   100797745.914        2481.478          36.000  
> 2025 10 30 06 16 48.0800000  0 21                     
G32  21908970.307   115132414.145       -2839.267          47.000    21908963.546    89713541.316       -2212.684          44.000  
G29  23052193.060   121140109.397        -463.265          42.000    23052184.953    94394854.888        -361.256          41.000  
G28  21207516.153   111446247.676       -1152.175          44.000    21207505.375    86841191.064        -898.028          45.000  
G26  20373193.668   107061853.473         791.458          46.000    20373187.012    83424801.749         616.607          45.000  
G31  20630322.854   108413075.297         202.267          45.000    20630312.392    84477679.845         157.665          45.000  
C33  22479451.685   117056400.103        -586.423          48.000                                                                  
C06  36566677.609   190412286.571        -178.282          45.000    36566660.477   147238787.365        -137.992          46.000  
C14  22585085.124   117606452.612       -2166.716          45.000    22585070.393    90940715.762       -1675.446          49.000  
C16  36993324.127   192633943.360        -210.945          46.000    36993312.041   148956736.793        -163.462          47.000  
C24  21809647.212   113568560.583        -821.907          48.000                                                                  
C26  24328581.302   126685300.557       -2562.450          45.000                                                                  
G03  22886697.104   120270406.277          12.218          37.000    22886691.330                           8.653          33.000  
G16  22547530.319   118488074.293        3045.008          42.000                                                                  
C09  37718571.068   196410497.616        -168.015          43.000    37718556.554   151876997.781        -130.136          46.000  
C25  23711247.222   123470691.686        1606.677          41.000                                                                  
C13  38276190.771   199314167.104       -2251.092          42.000    38276185.325   154122336.268       -1741.280          43.000  
C08  39097926.886   203593155.979       -2457.314          38.000    39097915.495   157431081.455       -1900.103          44.000  
C10  40533451.257   211068317.385         919.711          35.000    40533451.980   163211469.831         711.272          38.000  
C35  25971065.874   135238171.135         472.630          40.000                                                                  
G25  24243868.040   127402373.433       -3916.654          36.000    24243860.518    99274551.626       -3051.991          37.000  
G04                                                                  24615812.396   100797646.681        2480.027          36.000  
> 2025 10 30 06 16 48.1200000  0 21                     
G32  21908991.839   115132527.450       -2835.517          47.000    21908985.107    89713629.599       -2209.511          44.000  
G29  23052196.506   121140127.690        -459.806          42.000    23052188.438    94394869.158        -358.762          41.000  
G28  21207524.843   111446293.475       -1148.245          44.000    21207514.045    86841226.743        -894.760          45.000  
G26  20373187.562   107061821.592         794.663          46.000    20373180.914    83424776.914         619.010          45.000  
G31  20630321.258   108413066.972         205.752          45.000    20630310.787    84477673.360         160.352          45.000  
C33  22479456.142   117056423.311        -582.980          48.000                                                                  
C06  36566678.947   190412293.430        -174.595          45.000    36566661.797   147238792.678        -135.232          46.000  
C14  22585101.740   117606539.015       -2162.906          45.000    22585086.979    90940782.584       -1672.759          49.000  
C16  36993325.729   192633951.544        -207.421          46.000    36993313.589   148956743.109        -160.323          47.000  
C24  21809653.483   113568593.195        -818.294          48.000                                                                  
C26  24328600.948   126685402.782       -2558.735          45.000                                                                  
G03  22886696.950   120270405.558          15.626          37.000    22886691.167                          11.951          33.000  
G16  22547507.063   118487952.230        3048.734          42.000                                                                  
C09  37718572.318   196410504.090        -164.586          43.000    37718557.798   151877002.787        -127.377          46.000  
C25  23711234.865   123470627.203        1609.937          41.000                                                                  
C13  38276208.007   199314256.915       -2247.658          42.000    38276202.584   154122405.707       -1738.133          43.000  
C08  39097945.715   203593254.007       -2453.998          38.000    39097934.318   157431157.248       -1897.280          44.000  
C10  40533444.168                         923.371          35.000    40533444.877   163211441.207         713.597          38.000  
C35  25971062.196   135238151.986         476.203          40.000                                                                  
G25  24243897.801   127402529.809       -3912.697          36.000    24243890.288    99274673.477       -3048.905          37.000  
G04                                                                  24615788.105   100797547.247        2483.362          36.000  
> 2025 10 30 06 16 48.1600000  0 21                     
G32  21909013.397   115132640.801       -2834.146          47.000    21909006.685    89713717.936       -2208.621          44.000  
G29  23052199.978   121140146.030        -458.652          42.000    23052191.911    94394883.446        -357.616          41.000  
G28  21207533.558   111446339.315       -1146.599          44.000    21207522.754    86841262.474        -893.685          45.000  
G26  20373181.516   107061789.736         796.052          46.000    20373174.853    83424752.089         620.233          45.000  
G31  20630319.681   108413058.693         206.882          45.000    20630309.185    84477666.913         161.126          45.000  
C33  22479460.565   117056446.551        -581.485          48.000                                                                  
C06  36566680.256   190412300.325        -173.004          45.000    36566663.128   147238798.008        -133.831          46.000  
C14  22585118.341   117606625.455       -2161.346          45.000    22585103.585    90940849.430       -1671.533          49.000  
C16  36993327.304   192633959.759        -205.898          46.000    36993315.143   148956749.460        -159.076          47.000  
C24  21809659.742   113568625.850        -816.859          48.000                                                                  
C26  24328620.567   126685505.046       -2557.190          45.000                                                                  
G03  22886696.809   120270404.880          16.853          37.000    22886691.030                          13.291          33.000  
G16  22547483.833   118487830.190        3050.472          42.000                                                                  
C09  37718573.539   196410510.596        -163.123          43.000    37718559.038   151877007.813        -126.071          46.000  
C25  23711222.463   123470562.758        1611.060          41.000                                                                  
C13  38276225.253   199314346.786       -2246.781          42.000    38276219.818   154122475.191       -1737.193          43.000  
C08  39097964.533   203593352.030       -2451.770          38.000    39097953.127   157431233.055       -1895.820          44.000  
C10  40533437.037                         925.015          35.000    40533437.756   163211412.589         714.901          38.000  
C35  25971058.528   135238132.888         477.342          40.000                                                                  
G25  24243927.581   127402686.208       -3910.693          36.000    24243920.019    99274795.350       -3047.483          37.000  
G04                                                                  24615763.814   100797447.868        2484.217          36.000  
> 2025 10 30 06 16 48.2000000  0 21                     
G32  21909034.979   115132754.184       -2834.137          47.000    21909028.265    89713806.277       -2208.333          44.000  
G29  23052203.490   121140164.396        -458.717          42.000    23052195.396    94394897.747        -357.387          41.000  
G28  21207542.280   111446385.197       -1146.584          44.000    21207531.485    86841298.219        -893.416          45.000  
G26  20373175.446   107061757.913         795.994          46.000    20373168.794    83424727.292         620.247          45.000  
G31  20630318.100   108413050.443         206.734          45.000    20630307.618    84477660.482         161.077          45.000  
C33  22479465.011   117056469.821        -581.365          48.000                                                                  
C06  36566681.560   190412307.251        -172.782          45.000    36566664.449   147238803.355        -133.470          46.000  
C14  22585134.947   117606711.938       -2161.492          45.000    22585120.195    90940916.294       -1671.334          49.000  
C16  36993328.884   192633968.011        -205.858          46.000    36993316.750   148956755.840        -159.089          47.000  
C24  21809666.019   113568658.536        -816.769          48.000                                                                  
C26  24328640.211   126685607.338       -2556.920          45.000                                                                  
G03  22886696.672   120270404.242          16.569          37.000    22886690.887                          12.960          33.000  
G16  22547460.591   118487708.205        3050.242          42.000                                                                  
C09  37718574.782   196410517.130        -162.946          43.000    37718560.319   151877012.865        -126.013          46.000  
C25  23711210.065   123470498.331        1611.115          41.000                                                                  
C13  38276242.492   199314436.665       -2246.669          42.000    38276237.063   154122544.686       -1737.024          43.000  
C08  39097983.349   203593450.112       -2451.588          38.000    39097971.958   157431308.900       -1895.751          44.000  
C10  40533429.935                         924.699          35.000    40533430.657   163211383.974         715.482          38.000  
C35  25971054.861   135238113.823         477.088          40.000                                                                  
G25  24243957.349   127402842.646       -3910.408          36.000    24243949.804    99274917.272       -3047.599          37.000  
G04                                                                  24615739.554   100797348.503        2484.331          36.000  
> 2025 10 30 06 16 48.2400000  0 21                     
G32  21909056.564   115132867.608       -2834.913          47.000    21909049.860    89713894.653       -2208.872          44.000  
G29  23052206.990   121140182.782        -459.178          42.000    23052198.896    94394912.070        -357.691          41.000  
G28  21207551.027   111446431.120       -1147.361          44.000    21207540.244    86841333.995        -893.879          45.000  
G26  20373169.379   107061726.103         795.683          46.000    20373162.744    83424702.506         619.955          45.000  
G31  20630316.553   108413042.196         206.496          45.000    20630306.050    84477654.067         160.699          45.000  
C33  22479469.467   117056493.127        -582.031          48.000                                                                  
C06  36566682.885   190412314.212        -173.384          45.000    36566665.801   147238808.733        -133.896          46.000  
C14  22585151.567   117606798.447       -2162.160          45.000    22585136.820    90940983.184       -1671.799          49.000  
C16  36993330.456   192633976.286        -206.345          46.000    36993318.360   148956762.241        -159.554          47.000  
C24  21809672.282   113568691.245        -817.233          48.000                                                                  
C26  24328659.866   126685709.674       -2557.654          45.000                                                                  
G03  22886696.562   120270403.631          15.859          37.000    22886690.785                          11.900          33.000  
G16  22547437.392   118487586.245        3049.583          42.000                                                                  
C09  37718576.046   196410523.689        -163.444          43.000    37718561.594   151877017.927        -126.209          46.000  
C25  23711197.714   123470433.934        1610.449          41.000                                                                  
C13  38276259.757   199314526.560       -2246.974          42.000    38276254.333   154122614.210       -1737.616          43.000  
C08  39098002.196   203593548.232       -2452.345          38.000    39097990.806   157431384.767       -1896.200          44.000  
C10  40533422.814                         924.084          34.000    40533423.547   163211355.393         715.058          38.000  
C35  25971051.204   135238094.777         476.591          40.000                                                                  
G25  24243987.144   127402999.158       -3911.715          36.000    24243979.571    99275039.217       -3048.159          37.000  
G04                                                                  24615715.303   100797249.172        2483.758          36.000  
> 2025 10 30 06 16 48.2800000  0 21                     
G32  21909078.117   115132980.937       -2833.619          47.000    21909071.430    89713982.971       -2208.161          44.000  
G29  23052210.471   121140201.085        -457.870          42.000    23052202.370    94394926.329        -356.732          41.000  
G28  21207559.754   111446476.955       -1146.222          44.000    21207548.976    86841369.709        -893.055          45.000  
G26  20373163.332   107061694.225         796.771          46.000    20373156.681    83424677.662         620.906          45.000  
G31  20630314.979   108413033.880         207.735          45.000    20630304.472    84477647.583         161.834          45.000  
C33  22479473.924   117056516.343        -580.760          48.000                                                                  
C06  36566684.211   190412321.091        -172.292          45.000    36566667.145   147238814.061        -133.291          46.000  
C14  22585168.158   117606884.871       -2160.959          45.000    22585153.430    90941050.010       -1670.872          49.000  
C16  36993332.021   192633984.489        -205.312          46.000    36993319.951   148956768.585        -158.783          47.000  
C24  21809678.547   113568723.885        -816.243          48.000                                                                  
C26  24328679.516   126685811.923       -2556.497          45.000                                                                  
G03  22886696.426   120270402.931          17.125          37.000    22886690.639                          13.354          33.000  
G16  22547414.179   118487464.214        3050.498          42.000                                                                  
C09  37718577.318   196410530.162        -162.087          43.000    37718562.819   151877022.946        -125.527          46.000  
C25  23711185.350   123470369.443        1611.890          41.000                                                                  
C13  38276277.005   199314616.376       -2245.643          42.000    38276271.585   154122683.660       -1736.482          43.000  
C08  39098021.017   203593646.263       -2451.180          38.000    39098009.635   157431460.580       -1895.527          44.000  
C10  40533415.685                         924.985          35.000    40533416.442   163211326.755         715.873          38.000  
C35  25971047.538   135238075.640         478.052          40.000                                                                  
G25  24244016.927   127403155.577       -3910.806          36.000    24244009.321    99275161.081       -3047.039          37.000  
G04                                                                  24615691.053   100797149.777        2484.640          36.000  
> 2025 10 30 06 16 48.3200000  0 21                     
G32  21909099.692   115133094.145       -2830.806          47.000    21909092.968    89714071.178       -2205.753          43.000  
G29  23052213.924   121140219.290        -455.409          42.000    23052205.831    94394940.508        -354.785          41.000  
G28  21207568.461   111446522.677       -1143.635          44.000    21207557.683    86841405.337        -891.099          45.000  
G26  20373157.222   107061662.239         799.263          46.000    20373150.585    83424652.741         622.803          45.000  
G31  20630313.376   108413025.453         210.399          45.000    20630302.860    84477641.019         163.857          45.000  
C33  22479478.326   117056539.461        -578.345          48.000                                                                  
C06  36566685.489   190412327.870        -169.930          45.000    36566668.438   147238819.301        -131.416          46.000  
C14  22585184.719   117606971.194       -2158.464          44.000    22585170.013    90941116.766       -1669.104          49.000  
C16  36993333.537   192633992.571        -202.596          46.000    36993321.493   148956774.844        -156.849          47.000  
C24  21809684.747   113568756.403        -813.563          48.000                                                                  
C26  24328699.109   126685914.057       -2553.885          45.000                                                                  
G03  22886696.277   120270402.103          20.094          37.000    22886690.496                          15.662          33.000  
G16  22547390.934   118487342.044        3053.634          42.000                                                                  
C09  37718578.545   196410536.552        -159.979          43.000    37718564.030   151877027.882        -123.675          46.000  
C25  23711172.917   123470304.847        1614.600          41.000                                                                  
C13  38276294.215   199314706.089       -2243.097          41.000    38276288.781   154122753.035       -1734.606          43.000  
C08  39098039.807   203593744.176       -2448.327          38.000    39098028.426   157431536.306       -1893.615          44.000  
C10  40533408.542                         928.710          35.000    40533409.337   163211298.042         717.615          38.000  
C35  25971043.828   135238056.404         480.574          40.000                                                                  
G25  24244046.681   127403311.868       -3907.935          36.000    24244039.070    99275282.881       -3045.305          37.000  
G04                                                                  24615666.753   100797050.277        2486.897          36.000  
> 2025 10 30 06 16 48.3600000  0 21                     
G32  21909121.201   115133207.301       -2828.640          47.000    21909114.503    89714159.350       -2204.007          43.000  
G29  23052217.342   121140237.431        -453.270          42.000    23052209.285    94394954.649        -353.283          41.000  
G28  21207577.127   111446568.311       -1140.948          44.000    21207566.364    86841440.906        -889.192          45.000  
G26  20373151.130   107061630.196         801.321          46.000    20373144.483    83424627.771         624.431          45.000  
G31  20630311.746   108413016.974         212.399          45.000    20630301.233    84477634.408         165.541          45.000  
C33  22479482.742   117056562.514        -576.136          48.000                                                                  
C06  36566686.777   190412334.573        -167.522          45.000    36566669.746   147238824.484        -129.562          46.000  
C14  22585201.273   117607057.436       -2155.994          44.000    22585186.562    90941183.468       -1667.418          49.000  
C16  36993335.043   192634000.595        -200.370          46.000    36993323.045   148956781.042        -154.931          47.000  
C24  21809690.969   113568788.860        -811.260          48.000                                                                  
C26  24328718.707   126686016.126       -2551.582          45.000                                                                  
G03  22886696.116   120270401.251          21.803          37.000    22886690.310                          17.984          33.000  
G16  22547367.680   118487219.826        3055.787          42.000                                                                  
C09  37718579.759   196410542.860        -157.657          43.000    37718565.227   151877032.758        -121.804          46.000  
C25  23711160.509   123470240.206        1616.461          41.000                                                                  
C13  38276311.433   199314795.754       -2241.202          41.000    38276305.998   154122822.372       -1733.146          43.000  
C08  39098058.584   203593842.033       -2446.046          38.000    39098047.209   157431611.970       -1891.653          44.000  
C10  40533401.397                         930.734          35.000    40533402.151   163211269.270         719.357          38.000  
C35  25971040.092   135238037.104         482.762          40.000                                                                  
G25  24244076.392   127403468.096       -3905.606          36.000    24244068.799    99275404.605       -3043.201          37.000  
G04                                                                  24615642.436   100796950.751        2488.427          36.000  
> 2025 10 30 06 16 48.4000000  0 21                     
G32  21909142.764   115133320.605       -2830.768          47.000    21909136.057    89714247.631       -2205.544          43.000  
G29  23052220.815   121140255.734        -455.813          42.000    23052212.749    94394968.893        -354.803          41.000  
G28  21207585.841   111446614.110       -1142.950          44.000    21207575.065    86841476.595        -890.754          45.000  
G26  20373145.046   107061598.329         798.530          46.000    20373138.402    83424602.928         622.405          45.000  
G31  20630310.164   108413008.666         209.521          45.000    20630299.630    84477627.930         163.394          45.000  
C33  22479487.175   117056585.728        -578.504          48.000                                                                  
C06  36566688.080   190412341.423        -169.419          45.000    36566671.071   147238829.773        -130.906          46.000  
C14  22585217.855                       -2158.663          44.000    22585203.150    90941250.285       -1669.122          49.000  
C16  36993336.579   192634008.773        -202.614          46.000    36993324.594   148956787.363        -156.639          47.000  
C24  21809697.215   113568821.473        -813.431          48.000                                                                  
C26  24328738.318   126686118.347       -2553.668          45.000                                                                  
G03  22886695.954                          19.163          37.000    22886690.168                          15.178          33.000  
G16  22547344.448                        3053.259          42.000                                                                  
C09  37718580.989   196410549.326        -159.912          43.000    37718566.466   151877037.748        -123.384          46.000  
C25  23711148.108                        1613.269          42.000                                                                  
C13  38276328.653                       -2243.882          41.000    38276323.253   154122891.812       -1734.785          43.000  
C08  39098077.373                       -2447.624          38.000    39098066.042   157431687.732       -1892.763          44.000  
C10  40533394.281                         927.498          35.000    40533395.021   163211240.613         717.808          38.000  
C35  25971036.401                         479.773          40.000                                                                  
G25  24244106.144                       -3907.275          36.000    24244098.545    99275526.437       -3044.419          37.000  
G04                                                                  24615618.133   100796851.310        2487.300          36.000  
> 2025 10 30 06 16 48.4400000  0 21                     
G32  21909164.375                       -2834.058          47.000    21909157.663    89714336.016       -2208.302          43.000  
G29  23052224.353                        -458.691          42.000    23052216.252    94394983.211        -357.086          41.000  
G28  21207594.593                       -1146.425          44.000    21207583.799    86841512.366        -893.130          45.000  
G26  20373139.004   107061566.518         796.035          46.000    20373132.377    83424578.144         620.306          45.000  
G31  20630308.596                         207.177          45.000    20630298.067    84477621.495         161.491          45.000  
C33  22479491.671                        -581.455          48.000                                                                  
C06  36566689.436                        -172.430          45.000    36566672.431   147238835.156        -133.344          46.000  
C14  22585234.477                       -2162.042          43.000    22585219.784    90941317.188       -1671.565          48.000  
C16  36993338.194                        -205.448          46.000    36993326.191   148956793.763        -158.997          47.000  
C24  21809703.508                        -816.420          48.000                                                                  
C26  24328757.969                       -2556.984          45.000                                                                  
G03  22886695.868                          16.873          37.000    22886690.099                          12.056          33.000  
G16  22547321.254                        3050.421          42.000                                                                  
C09  37718582.269                        -162.913          43.000    37718567.763   151877042.815        -125.675          46.000  
C25  23711135.750                        1610.962          42.000                                                                  
C13  38276345.944                       -2245.980          41.000    38276340.534   154122961.326       -1737.016          42.000  
C08  39098096.239                       -2451.583          38.000    39098084.912   157431763.617       -1895.602          44.000  
C10  40533387.195                         924.780          35.000    40533387.932   163211212.029         715.621          38.000  
C35  25971032.743                         477.169          40.000                                                                  
G25  24244135.962                       -3910.582          36.000    24244128.364                       -3047.287          37.000  
G04                                                                  24615593.872                        2485.203          36.000  
> 2025 10 30 06 16 48.4800000  0 21                     
G32  21909185.949                       -2833.923          47.000    21909179.258    89714424.337       -2208.563          42.000  
G29  23052227.852                        -458.195          42.000    23052219.760    94394997.499        -357.568          41.000  
G28  21207603.335                       -1146.488          44.000    21207592.528    86841548.080        -893.361          45.000  
G26  20373132.954   107061534.631         796.349          46.000    20373126.320    83424553.300         620.461          45.000  
G31  20630307.023                         207.391          45.000    20630296.500    84477615.008         161.598          44.000  
C33  22479496.123                        -581.392          48.000                                                                  
C06  36566690.779                        -172.622          45.000    36566673.777   147238840.475        -133.451          46.000  
C14  22585251.061                       -2161.707          43.000    22585236.375    90941384.025       -1671.573          48.000  
C16  36993339.781                        -205.352          46.000    36993327.741   148956800.097        -159.019          47.000  
C24  21809709.761                        -816.531          48.000                                                                  
C26  24328777.605                       -2557.189          45.000                                                                  
G03  22886695.739                          16.668          37.000    22886689.963                          13.709          33.000  
G16  22547298.047                        3050.451          41.000                                                                  
C09  37718583.504                        -162.206          43.000    37718569.010   151877047.828        -125.826          46.000  
C25  23711123.364                        1611.560          42.000                                                                  
C13  38276363.202                       -2245.649          40.000    38276357.800   154123030.787       -1737.080          42.000  
C08  39098115.072                       -2451.165          38.000    39098103.726   157431839.411       -1895.507          44.000  
C10  40533380.088                         925.387          35.000    40533380.802   163211183.366         715.969          38.000  
C35  25971029.070                         477.518          40.000                                                                  
G25  24244165.719                       -3910.635          36.000    24244158.152    99275770.272       -3047.544          37.000  
G04                                                                  24615569.609   100796652.527        2485.019          36.000  
> 2025 10 30 06 16 48.5200000  0 21                     
G32  21909207.491                       -2831.131          46.000    21909200.817    89714512.536       -2206.257          42.000  
G29  23052231.312                        -455.718          42.000    23052223.228    94395011.662        -355.267          41.000  
G28  21207612.057                       -1143.748          44.000    21207601.229    86841583.684        -891.308          45.000  
G26  20373126.866                         798.904          46.000    20373120.244    83424528.362         622.474          45.000  
G31  20630305.415                         210.125          45.000    20630294.893    84477608.440         163.303          44.000  
C33  22479500.536                        -578.642          48.000                                                                  
C06  36566692.065                        -169.905          45.000    36566675.061   147238845.701        -131.708          46.000  
C14  22585267.621                       -2158.765          42.000    22585252.927    90941450.763       -1669.503          48.000  
C16  36993341.318                        -202.828          46.000    36993329.298   148956806.330        -156.965          47.000  
C24  21809715.957                        -813.913          48.000                                                                  
C26  24328797.252                       -2554.211          45.000                                                                  
G03  22886695.585                          19.251          37.000    22886689.784                          15.539          33.000  
G16  22547274.788                        3053.123          40.000                                                                  
C09  37718584.733                        -159.700          43.000    37718570.248   151877052.744        -123.901          46.000  
C25  23711110.971                        1614.563          43.000                                                                  
C13  38276380.398                       -2243.644          40.000    38276375.024   154123100.157       -1735.139          42.000  
C08  39098133.862                       -2449.044          38.000    39098122.532   157431915.112       -1893.575          44.000  
C10  40533372.940                         928.337          35.000    40533373.634                         718.244          38.000  
C35  25971025.358                         480.378          40.000                                                                  
G25  24244195.467                       -3908.691          36.000    24244187.901                       -3045.802          37.000  
G04                                                                  24615545.322                        2486.421          36.000  
> 2025 10 30 06 16 48.5600000  0 21                     
G32  21909229.049                       -2829.133          46.000    21909222.364    89714600.721       -2204.774          42.000  
G29  23052234.767                        -454.037          42.000    23052226.669    94395025.817        -353.939          41.000  
G28  21207620.757                       -1141.912          45.000    21207609.908    86841619.255        -889.623          45.000  
G26  20373120.766                         800.763          46.000    20373114.129    83424503.405         623.863          45.000  
G31  20630303.802                         211.948          45.000    20630293.262    84477601.822         165.172          44.000  
C33  22479504.927                        -576.762          49.000                                                                  
C06  36566693.339                        -167.720          44.000    36566676.328   147238850.873        -129.819          46.000  
C14  22585284.177                       -2157.317          42.000    22585269.495    90941517.476       -1667.988          48.000  
C16  36993342.850                        -200.605          46.000    36993330.816   148956812.535        -155.387          47.000  
C24  21809722.134                        -811.834          47.000                                                                  
C26  24328816.818                       -2552.202          46.000                                                                  
G03  22886695.413                          21.275          36.000    22886689.599                          16.668          33.000  
G16  22547251.515                        3054.728          39.000                                                                  
C09  37718585.925                        -158.094          43.000    37718571.476   151877057.619        -122.178          46.000  
C25  23711098.580                        1615.973          43.000                                                                  
C13  38276397.619                       -2241.926          39.000    38276392.252   154123169.490       -1733.570          40.000  
C08  39098152.663                       -2446.280          38.000    39098141.282   157431990.771       -1891.822          43.000  
C10  40533365.771                         930.275          35.000    40533366.510   163211125.848         718.995          39.000  
C35  25971021.651                         482.229          40.000                                                                  
G25  24244225.205                       -3906.106          36.000    24244217.646                       -3043.970          37.000  
G04                                                                  24615521.026                        2488.354          36.000  
> 2025 10 30 06 16 48.6000000  0 21                     
G32  21909250.594                       -2828.772          46.000    21909243.905    89714688.915       -2204.295          41.000  
G29  23052238.205                        -453.617          42.000    23052230.128    94395039.965        -353.330          41.000  
G28  21207629.451                       -1141.332          45.000    21207618.590    86841654.830        -888.967          45.000  
G26  20373114.673                         801.125          46.000    20373108.020    83424478.449         624.331          45.000  
G31  20630302.189                         212.244          44.000    20630291.651    84477595.224         165.508          44.000  
C33  22479509.367                        -576.230          49.000                                                                  
C06  36566694.643                        -167.106          44.000    36566677.594   147238856.054        -129.110          46.000  
C14  22585300.738                       -2156.998          42.000    22585286.050    90941584.195       -1667.498          48.000  
C16  36993344.413                        -200.065          46.000    36993332.357   148956818.732        -154.609          46.000  
C24  21809728.383                        -811.231          47.000                                                                  
C26  24328836.417                       -2551.656          46.000                                                                  
G03  22886695.238                          22.180          34.000    22886689.434                          16.692          29.000  
G16  22547228.272                        3054.734          39.000                                                                  
C09  37718587.135                        -157.498          43.000    37718572.685   151877062.503        -121.652          46.000  
C25  23711086.173                        1616.150          43.000                                                                  
C13  38276414.808                       -2241.904          38.000    38276409.475   154123238.852       -1733.444          40.000  
C08  39098171.441                       -2445.764          38.000    39098160.062   157432066.452       -1891.464          43.000  
C10  40533358.644                         930.975          35.000    40533359.338   163211097.073         719.630          39.000  
C35  25971017.911                         482.500          40.000                                                                  
G25  24244254.949                       -3905.515          36.000    24244247.403                       -3043.613          37.000  
G04                                                                  24615496.688                        2489.403          36.000  
> 2025 10 30 06 16 48.6400000  0 21                     
G32  21909272.139                       -2830.607          46.000    21909265.432    89714777.174       -2205.443          41.000  
G29  23052241.690                        -454.967          42.000    23052233.610    94395054.178        -354.477          41.000  
G28  21207638.150                       -1142.726          46.000    21207627.291    86841690.471        -889.997          45.000  
G26  20373108.557                         799.871          46.000    20373101.945    83424453.540         623.439          45.000  
G31  20630300.566                         210.874          44.000    20630290.054    84477588.682         164.397          44.000  
C33  22479513.845                        -577.651          49.000                                                                  
C06  36566695.932                        -168.369          44.000    36566678.854   147238861.305        -130.223          46.000  
C14  22585317.341                       -2158.282          42.000    22585302.645    90941650.977       -1668.643          48.000  
C16  36993345.988                        -201.467          46.000    36993333.935   148956825.000        -155.658          46.000  
C24  21809734.640                        -812.758          47.000                                                                  
C26  24328856.069                       -2553.356          46.000                                                                  
G03  22886695.090                          20.235          34.000    22886689.248                          16.145          29.000  
G16  22547205.055                        3053.190          39.000                                                                  
C09  37718588.380                        -158.710          42.000    37718573.931   151877067.459        -122.971          46.000  
C25  23711073.793                        1614.496          43.000                                                                  
C13  38276432.050                       -2243.067          37.000    38276426.717   154123308.267       -1734.632          40.000  
C08  39098190.264                       -2447.815          36.000    39098178.859   157432142.196       -1892.626          42.000  
C10  40533351.512                         929.382          35.000    40533352.211                         717.953          38.000  
C35  25971014.234                         480.897          40.000                                                                  
G25  24244284.676                       -3906.584          36.000    24244277.168                       -3044.484          37.000  
G04                                                                  24615472.397                        2487.575          38.000  
> 2025 10 30 06 16 48.6800000  0 21                     
G32  21909293.704                       -2831.724          46.000    21909287.000    89714865.461       -2206.677          41.000  
G29  23052245.162                        -455.763          42.000    23052237.109    94395068.402        -355.278          41.000  
G28  21207646.874                       -1143.592          46.000    21207636.034    86841726.149        -891.312          45.000  
G26  20373102.489                         799.031          46.000    20373095.854    83424428.646         622.610          45.000  
G31  20630298.976                         210.172          44.000    20630288.464    84477582.156         163.448          44.000  
C33  22479518.310                        -578.564          49.000                                                                  
C06  36566697.232                        -169.435          44.000    36566680.135   147238866.567        -131.105          46.000  
C14  22585333.922                       -2159.064          43.000    22585319.228    90941717.768       -1669.459          48.000  
C16  36993347.556                        -202.739          46.000    36993335.575   148956831.283        -156.639          46.000  
C24  21809740.891                        -813.655          47.000                                                                  
C26  24328875.707                       -2554.250          46.000                                                                  
G03  22886694.940                          20.408          34.000    22886689.114                          16.495          29.000  
G16  22547181.832                        3052.307          39.000                                                                  
C09  37718589.607                        -159.630          42.000    37718575.167   151877072.411        -123.613          45.000  
C25  23711061.411                        1613.886          43.000                                                                  
C13  38276449.299                       -2244.830          37.000    38276443.972   154123377.698       -1735.563          39.000  
C08  39098209.071                       -2449.225          36.000    39098197.687   157432217.986       -1894.145          40.000  
C10  40533344.376                         928.488          35.000    40533345.114   163211039.713         717.239          38.000  
C35  25971010.548                         480.048          40.000                                                                  
G25  24244314.437                       -3907.658          37.000    24244306.958                       -3045.321          37.000  
G04                                                                  24615448.120                        2486.438          38.000  
> 2025 10 30 06 16 48.7200000  0 21                     
G32  21909315.264                       -2831.602          45.000    21909308.560    89714953.715       -2206.710          41.000  
G29  23052248.647                        -455.991          42.000    23052240.571    94395082.619        -355.552          41.000  
G28  21207655.586                       -1143.882          46.000    21207644.750    86841761.796        -891.495          45.000  
G26  20373096.409   107061342.703         798.963          47.000    20373089.780    83424403.746         622.348          45.000  
G31  20630297.381                         210.151          44.000    20630286.879    84477575.607         163.440          44.000  
C33  22479522.732                        -578.694          49.000                                                                  
C06  36566698.532                        -169.639          44.000    36566681.441   147238871.814        -131.312          46.000  
C14  22585350.504                       -2158.805          44.000    22585335.837    90941784.534       -1669.402          48.000  
C16  36993349.131                        -202.804          46.000    36993337.165   148956837.552        -156.885          46.000  
C24  21809747.152                        -813.743          47.000                                                                  
C26  24328895.336                       -2554.177          45.000                                                                  
G03  22886694.784                          21.345          30.000    22886688.928                          17.103          28.000  
G16  22547158.574                        3052.359          38.000                                                                  
C09  37718590.821                        -159.417          42.000    37718576.387   151877077.344        -123.564          45.000  
C25  23711049.023                        1614.270          43.000                                                                  
C13  38276466.555                       -2244.391          36.000    38276461.207   154123447.093       -1735.344          39.000  
C08  39098227.895                       -2449.557          36.000    39098216.486   157432293.734       -1894.183          40.000  
C10  40533337.235                         928.409          35.000    40533337.980   163211011.020         717.031          37.000  
C35  25971006.881                         479.859          40.000                                                                  
G25  24244344.174                       -3907.972          37.000    24244336.699                       -3045.226          37.000  
G04                                                                  24615423.808                        2486.132          40.000  
> 2025 10 30 06 16 48.7600000  0 21                     
G32  21909336.805                       -2831.102          45.000    21909330.107    89715041.949       -2206.239          41.000  
G29  23052252.105                        -455.554          42.000    23052244.031    94395096.802        -354.939          41.000  
G28  21207664.281                       -1143.432          46.000    21207653.443    86841797.419        -891.049          45.000  
G26  20373090.319   107061310.710         799.497          47.000    20373083.680    83424378.815         622.870          45.000  
G31  20630295.750   108412933.043         210.560          44.000    20630285.293    84477569.032         164.053          44.000  
C33  22479527.143                        -578.054          49.000                                                                  
C06  36566699.821                        -169.017          44.000    36566682.706   147238877.041        -131.010          46.000  
C14  22585367.070                       -2157.882          44.000    22585352.443    90941851.281       -1668.951          49.000  
C16  36993350.682                        -202.262          46.000    36993338.738   148956843.790        -156.384          46.000  
C24  21809753.399                        -813.241          47.000                                                                  
C26  24328914.943                       -2553.641          45.000                                                                  
G03  22886694.606                          21.895          30.000    22886688.768                          17.070          28.000  
G16  22547135.330                        3053.341          39.000                                                                  
C09  37718592.045                        -158.842          42.000    37718577.612   151877082.263        -123.202          44.000  
C25  23711036.628                        1614.850          43.000                                                                  
C13  38276483.768                       -2243.390          36.000    38276478.412   154123516.467       -1734.699          39.000  
C08  39098246.719                       -2448.803          34.000    39098235.279   157432369.443       -1893.314          40.000  
C10  40533330.093                         927.693          32.000    40533330.853   163210982.326         717.083          37.000  
C35  25971003.166                         480.408          40.000                                                                  
G25  24244373.932                       -3908.176          37.000    24244366.421    99276622.802       -3045.221          37.000  
G04                                                                  24615399.504                        2486.923          40.000  
> 2025 10 30 06 16 48.8000000  0 21                     
G32  21909358.352                       -2830.444          45.000    21909351.664    89715130.152       -2205.374          41.000  
G29  23052255.567   121140438.039        -454.983          42.000    23052247.482    94395110.986        -354.666          41.000  
G28  21207672.978   111447071.589       -1142.874          46.000    21207662.151    86841833.022        -890.386          46.000  
G26  20373084.214   107061278.703         800.048          47.000    20373077.584    83424353.881         623.262          46.000  
G31  20630294.139   108412924.607         210.849          45.000    20630283.680    84477562.457         164.341          44.000  
C33  22479531.565   117056817.139        -577.529          49.000                                                                  
C06  36566701.091                        -168.508          44.000    36566684.013   147238882.249        -130.441          46.000  
C14  22585383.643                       -2157.304          44.000    22585369.038    90941918.014       -1668.454          49.000  
C16  36993352.211                        -201.632          47.000    36993340.298   148956850.030        -156.101          46.000  
C24  21809759.644   113569146.916        -812.645          48.000                                                                  
C26  24328934.560                       -2553.043          45.000                                                                  
G03  22886694.416                          22.457          30.000    22886688.605                          16.770          28.000  
G16  22547112.083                        3054.291          39.000                                                                  
C09  37718593.267                        -158.456          42.000    37718578.815   151877087.156        -122.519          44.000  
C25  23711024.223                        1615.454          43.000                                                                  
C13  38276500.977                       -2242.451          37.000    38276495.643   154123585.820       -1733.955          39.000  
C08  39098265.490                       -2448.418          33.000    39098254.074   157432445.161       -1893.014          40.000  
C10  40533322.942                         928.462          32.000    40533323.713   163210953.609         717.618          37.000  
C35  25970999.467                         480.883          40.000                                                                  
G25  24244403.669                       -3907.257          36.000    24244396.164    99276744.561       -3044.380          37.000  
G04                                                                  24615375.193                        2487.521          40.000  
> 2025 10 30 06 16 48.8400000  0 21                     
G32  21909379.895   115134566.324       -2830.110          45.000    21909373.197    89715218.366       -2205.228          41.000  
G29  23052259.015   121140456.226        -454.638          42.000    23052250.950    94395125.163        -354.419          41.000  
G28  21207681.682   111447117.295       -1142.599          46.000    21207670.849    86841868.635        -890.234          46.000  
G26  20373078.130   107061246.698         800.224          47.000    20373071.488    83424328.948         623.395          45.000  
G31  20630292.537   108412916.168         211.020          45.000    20630282.089    84477555.875         164.592          44.000  
G04  24615341.386                3       3197.168          36.000    24615350.883   100795757.063        2487.511          41.000  
C33  22479536.003   117056840.240        -577.401          49.000                                                                  
C06  36566702.385   190412415.988        -168.344          44.000    36566685.290   147238887.461        -130.225          46.000  
C14  22585400.201                       -2157.377          45.000    22585385.614    90941984.746       -1668.229          49.000  
C16  36993353.720   192634097.860        -201.473          47.000    36993341.853   148956856.259        -155.765          46.000  
C24  21809765.885   113569179.418        -812.461          49.000                                                                  
C26  24328954.179   126687242.102       -2552.880          46.000                                                                  
G03  22886694.271                          22.280          30.000    22886688.450                          16.392          28.000  
G16  22547088.842                        3054.630          40.000                                                                  
C09  37718594.489   196410619.498        -158.182          42.000    37718580.019   151877092.055        -122.335          44.000  
C25  23711011.777                        1615.558          43.000                                                                  
C13  38276518.180                       -2242.080          37.000    38276512.858   154123655.181       -1733.794          39.000  
C08  39098284.294                       -2447.928          34.000    39098272.898   157432520.882       -1892.980          40.000  
C10  40533315.805                         929.553          33.000    40533316.577   163210924.898         717.823          37.000  
C35  25970995.776                         481.010          39.000                                                                  
G25  24244433.409                       -3907.170          36.000    24244425.907    99276866.344       -3044.421          37.000  
> 2025 10 30 06 16 48.8800000  0 21                     
G32  21909401.455   115134679.540       -2830.154          45.000    21909394.748    89715306.582       -2205.190          41.000  
G29  23052262.495   121140474.423        -454.677          42.000    23052254.410    94395139.337        -354.273          41.000  
G28  21207690.384   111447162.997       -1142.426          46.000    21207679.555    86841904.255        -890.322          46.000  
G26  20373072.024   107061214.698         800.182          47.000    20373065.398    83424304.007         623.579          45.000  
G31  20630290.944   108412907.734         210.982          46.000    20630280.485    84477549.299         164.572          44.000  
G04  24615317.806                3       3196.826          35.000    24615326.575   100795657.571        2487.455          41.000  
C33  22479540.406   117056863.344        -577.436          49.000                                                                  
C06  36566703.647   190412422.745        -168.666          44.000    36566686.595   147238892.673        -130.182          46.000  
C14  22585416.772   117608180.015       -2157.571          46.000    22585402.169    90942051.485       -1668.302          49.000  
C16  36993355.273   192634105.931        -201.575          48.000    36993343.380   148956862.491        -155.679          46.000  
C24  21809772.133   113569211.926        -812.528          49.000                                                                  
C26  24328973.770   126687344.224       -2552.883          46.000                                                                  
G03  22886694.145                          21.783          30.000    22886688.304                          15.866          28.000  
G16  22547065.593   118485632.259        3054.429          40.000                                                                  
C09  37718595.717   196410625.856        -158.622          42.000    37718581.224   151877096.963        -122.485          44.000  
C25  23710999.346   123469400.831        1615.485          43.000                                                                  
C13  38276535.405                       -2241.735          37.000    38276530.072   154123724.537       -1733.719          40.000  
C08  39098303.095                       -2447.798          34.000    39098291.698   157432596.591       -1892.766          40.000  
C10  40533308.677                         927.412          32.000    40533309.454   163210896.145         718.641          37.000  
C35  25970992.095                         481.268          39.000                                                                  
G25  24244463.164                       -3906.815          36.000    24244455.668    99276988.133       -3044.595          37.000  
> 2025 10 30 06 16 48.9200000  0 21                     
G32  21909423.003   115134792.751       -2830.178          45.000    21909416.293    89715394.809       -2205.445          41.000  
G29  23052265.963   121140492.636        -455.123          42.000    23052257.865    94395153.517        -354.380          41.000  
G28  21207699.107   111447208.714       -1142.700          46.000    21207688.243    86841939.880        -890.511          46.000  
G26  20373065.953   107061182.719         799.668          47.000    20373059.305    83424279.080         623.320          45.000  
G31  20630289.335   108412899.306         210.771          46.000    20630278.881    84477542.740         164.195          44.000  
G04  24615294.068                3       3193.408          35.000    24615302.285   100795558.074        2487.463          41.000  
C33  22479544.826   117056886.457        -577.687          49.000                                                                  
C06  36566704.940   190412429.508        -168.978          45.000    36566687.924   147238897.902        -130.531          46.000  
C14  22585433.360   117608266.337       -2157.936          46.000    22585418.760    90942118.237       -1668.630          49.000  
C16  36993356.778   192634114.010        -201.821          48.000    36993344.930   148956868.738        -155.976          47.000  
C24  21809778.345   113569244.446        -812.851          50.000                                                                  
C26  24328993.363   126687446.345       -2552.949          45.000                                                                  
G03  22886694.015                          19.877          30.000    22886688.151                          15.739          28.000  
G16  22547042.360   118485510.105        3054.079          40.000                                                                  
C09  37718596.921   196410632.220        -159.029          42.000    37718582.453   151877101.881        -122.825          44.000  
C25  23710986.939   123469336.241        1614.966          43.000                                                                  
C13  38276552.626   199316052.143       -2242.446          39.000    38276547.284   154123793.921       -1734.283          40.000  
C08  39098321.903                       -2447.702          34.000    39098310.498   157432672.293       -1892.577          40.000  
C10  40533301.533                         928.220          32.000    40533302.309   163210867.424         718.337          36.000  
C35  25970988.388   135237768.177         481.219          39.000                                                                  
G25  24244492.909                       -3907.177          36.000    24244485.411    99277109.907       -3044.472          37.000  
> 2025 10 30 06 16 48.9600000  0 21                     
G32  21909444.562   115134906.029       -2831.458          45.000    21909437.852    89715483.070       -2206.296          41.000  
G29  23052269.421   121140510.884        -456.013          42.000    23052261.348    94395167.752        -355.526          41.000  
G28  21207707.807   111447254.478       -1143.719          46.000    21207696.927    86841975.534        -891.156          47.000  
G26  20373059.891   107061150.780         798.638          47.000    20373053.230    83424254.197         622.324          45.000  
G31  20630287.748   108412890.928         209.686          46.000    20630277.297    84477536.207         163.412          44.000  
G04  24615270.593                3       3191.113          35.000    24615278.005   100795458.617        2486.708          41.000  
C33  22479549.293   117056909.614        -578.692          49.000                                                                  
C06  36566706.250   190412436.314        -169.946          45.000    36566689.249   147238903.163        -131.320          46.000  
C14  22585449.962   117608352.707       -2159.010          46.000    22585435.346    90942185.019       -1669.396          50.000  
C16  36993358.346   192634122.132        -202.811          49.000    36993346.476   148956875.025        -156.928          47.000  
C24  21809784.593   113569277.017        -813.957          50.000                                                                  
C26  24329012.988   126687548.530       -2554.208          45.000                                                                  
G03  22886693.904                          18.387          31.000    22886688.018                          15.021          29.000  
G16  22547019.102   118485387.993        3053.077          40.000                                                                  
C09  37718598.149   196410638.626        -160.032          42.000    37718583.689   151877106.833        -123.622          44.000  
C25  23710974.560   123469271.691        1613.910          43.000                                                                  
C13  38276569.871   199316141.914       -2243.845          39.000    38276564.507   154123863.317       -1734.848          41.000  
C08  39098340.709                       -2447.999          34.000    39098329.325   157432748.046       -1893.406          40.000  
C10  40533294.413                         927.178          32.000    40533295.203   163210838.738         717.542          36.000  
C35  25970984.694   135237748.986         480.128          39.000                                                                  
G25  24244522.650                       -3907.687          36.000    24244515.125    99277231.672       -3044.267          35.000  
> 2025 10 30 06 16 49.0000000  0 21                     
G32  21909466.135   115135019.332       -2832.529          45.000    21909459.419    89715571.366       -2207.287          41.000  
G29  23052272.873   121140529.158        -456.900          42.000    23052264.828    94395181.993        -356.186          41.000  
G28  21207716.525   111447300.274       -1144.789          46.000    21207705.631    86842011.220        -892.000          47.000  
G26  20373053.828   107061118.868         797.721          47.000    20373047.179    83424229.340         621.411          45.000  
G31  20630286.144   108412882.569         208.884          47.000    20630275.705    84477529.701         162.639          44.000  
G04  24615246.868                3       3189.453          35.000    24615253.734   100795359.176        2486.018          41.000  
C33  22479553.766   117056932.814        -579.893          49.000                                                                  
C06  36566707.561   190412443.143        -170.801          45.000    36566690.571   147238908.447        -132.068          47.000  
C14  22585466.556   117608439.098       -2159.878          46.000    22585451.922    90942251.831       -1670.277          50.000  
C16  36993359.918   192634130.286        -203.840          49.000    36993348.037   148956881.329        -157.675          47.000  
C24  21809790.849   113569309.612        -814.908          50.000                                                                  
C26  24329032.621   126687650.744       -2555.294          45.000                                                                  
G03  22886693.766                          17.592          34.000    22886687.924                          13.354          29.000  
G16  22546995.890   118485265.914        3052.054          40.000                                                                  
C09  37718599.374   196410645.061        -160.981          42.000    37718584.921   151877111.816        -124.586          44.000  
C25  23710962.149   123469207.159        1613.129          43.000                                                                  
C13  38276587.107   199316231.697       -2244.699          39.000    38276581.728   154123932.740       -1735.538          41.000  
C08  39098359.562                       -2449.760          34.000    39098348.150   157432823.813       -1894.133          40.000  
C10  40533287.305                         926.792          32.000    40533288.076   163210810.061         716.882          36.000  
C35  25970980.998   135237729.836         478.903          39.000                                                                  
G25  24244552.411                       -3908.661          36.000    24244544.873    99277353.536       -3045.945          35.000  
> 2025 10 30 06 16 49.0400000  0 21                     
G32  21909487.685   115135132.589       -2832.059          45.000    21909480.977    89715659.613       -2206.808          41.000  
G29  23052276.355   121140547.393        -456.479          42.000    23052268.287    94395196.208        -355.856          41.000  
G28  21207725.220   111447346.023       -1144.386          46.000    21207714.330    86842046.864        -891.618          47.000  
G26  20373047.749   107061086.916         798.195          47.000    20373041.104    83424204.443         621.879          45.000  
G31  20630284.542   108412874.167         209.476          47.000    20630274.113    84477523.148         163.261          44.000  
G04  24615223.274                3       3190.039          36.000    24615229.442   100795259.710        2486.241          41.000  
C33  22479558.200   117056955.963        -579.421          49.000                                                                  
C06  36566708.850   190412449.926        -170.236          45.000    36566691.921   147238913.699        -131.777          47.000  
C14  22585483.169   117608525.446       -2159.325          46.000    22585468.513    90942318.604       -1669.893          50.000  
C16  36993361.528   192634138.394        -203.366          49.000    36993349.611   148956887.600        -157.318          47.000  
C24  21809797.103   113569342.163        -814.444          50.000                                                                  
C26  24329052.223   126687752.907       -2554.796          45.000                                                                  
G03  22886693.592                          18.405          34.000    22886687.765                          14.950          29.000  
G16  22546972.663   118485143.800        3052.296          40.000                                                                  
C09  37718600.584   196410651.453        -160.485          42.000    37718586.143   151877116.776        -124.509          44.000  
C25  23710949.752   123469142.597        1613.519          43.000                                                                  
C13  38276604.344   199316321.444       -2244.293          39.000    38276598.958   154124002.127       -1735.138          41.000  
C08  39098378.369                       -2449.631          34.000    39098366.950   157432899.557       -1894.002          40.000  
C10  40533280.200                         928.718          32.000    40533280.941   163210781.359         717.140          36.000  
C35  25970977.316   135237710.626         479.580          39.000                                                                  
G25  24244582.138                       -3908.606          36.000    24244574.625    99277475.339       -3045.650          35.000  
> 2025 10 30 06 16 49.0800000  0 21                     
G32  21909509.215   115135245.765       -2830.237          45.000    21909502.522    89715747.805       -2205.462          41.000  
G29  23052279.835   121140565.561        -454.878          42.000    23052271.739    94395210.352        -354.312          41.000  
G28  21207733.912   111447391.692       -1142.609          46.000    21207723.022    86842082.459        -890.434          47.000  
G26  20373041.669   107061054.890         799.916          47.000    20373035.015    83424179.487         623.313          45.000  
G31  20630282.930   108412865.704         211.024          47.000    20630272.493    84477516.555         164.427          44.000  
G04  24615199.236                2       3192.249          36.000    24615205.150   100795160.191        2487.415          41.000  
C33  22479562.586   117056979.045        -577.808          49.000                                                                  
C06  36566710.171   190412456.638        -168.542          45.000    36566693.191   147238918.895        -130.551          47.000  
C14  22585499.726   117608611.729       -2157.752          46.000    22585485.095    90942385.317       -1668.498          50.000  
C16  36993363.062   192634146.417        -201.440          49.000    36993351.126   148956893.810        -155.917          47.000  
C24  21809803.326   113569374.633        -812.609          50.000                                                                  
C26  24329071.785   126687854.979       -2552.762          45.000                                                                  
G03  22886693.424                          21.687          34.000    22886687.599                          15.931          29.000  
G16  22546949.426   118485021.599        3054.140          40.000                                                                  
C09  37718601.808   196410657.783        -158.987          42.000    37718587.330   151877121.650        -122.726          44.000  
C25  23710937.300   123469077.969        1615.076          43.000                                                                  
C13  38276621.551                       -2242.167          39.000    38276616.162   154124071.474       -1734.071          41.000  
C08  39098397.165                       -2447.870          34.000    39098385.750   157432975.247       -1892.917          40.000  
C10  40533273.051                         930.305          32.000    40533273.800   163210752.596         718.564          36.000  
C35  25970973.612   135237691.359         481.124          39.000                                                                  
G25  24244611.882                       -3906.773          36.000    24244604.345    99277597.069       -3044.088          35.000  
> 2025 10 30 06 16 49.1200000  0 21                     
G32  21909530.744   115135358.923       -2828.970          45.000    21909524.049    89715835.974       -2204.328          41.000  
G29  23052283.255   121140583.696        -453.467          42.000    23052275.209    94395224.491        -353.402          41.000  
G28  21207742.601   111447437.330       -1141.128          46.000    21207731.710    86842118.027        -889.357          47.000  
G26  20373035.584   107061022.847         801.087          47.000    20373028.929    83424154.509         624.423          45.000  
G31  20630281.311   108412857.210         212.331          47.000    20630270.872    84477509.943         165.297          44.000  
G04  24615175.119                2       3195.270          36.000    24615180.838   100795060.625        2488.842          41.000  
C33  22479566.998   117057002.095        -576.417          49.000                                                                  
C06  36566711.481   190412463.329        -167.330          45.000    36566694.463   147238924.061        -129.348          47.000  
C14  22585516.252   117608697.978       -2156.328          46.000    22585501.668    90942452.011       -1667.404          50.000  
C16  36993364.573   192634154.421        -200.139          49.000    36993352.661   148956899.997        -154.787          47.000  
C24  21809809.541   113569407.083        -811.284          50.000                                                                  
C26  24329091.371   126687957.033       -2551.377          45.000                                                                  
G03  22886693.257                          21.996          34.000    22886687.425                          17.249          29.000  
G16  22546926.176   118484899.373        3055.572          40.000                                                                  
C09  37718603.001   196410664.074        -157.456          42.000    37718588.532   151877126.519        -121.719          44.000  
C25  23710924.880   123469013.318        1616.260          43.000                                                                  
C13  38276638.760   199316500.736       -2240.912          39.000    38276633.376   154124140.783       -1732.846          41.000  
C08  39098415.949                       -2445.840          34.000    39098404.494   157433050.912       -1891.829          40.000  
C10  40533265.898                         931.742          32.000    40533266.638   163210723.815         719.585          36.000  
C35  25970969.916   135237672.058         482.470          39.000                                                                  
G25  24244641.629                       -3905.391          36.000    24244634.064    99277718.828       -3043.753          35.000  
> 2025 10 30 06 16 49.1600000  0 21                     
G32  21909552.270   115135472.090       -2828.652          45.000    21909545.569    89715924.151       -2204.049          41.000  
G29  23052286.723   121140601.856        -453.417          42.000    23052278.671    94395238.624        -353.014          41.000  
G28  21207751.304   111447482.982       -1140.762          46.000    21207740.401    86842153.584        -888.704          47.000  
G26  20373029.483   107060990.811         801.370          47.000    20373022.836    83424129.547         624.515          45.000  
G31  20630279.701   108412848.727         212.581          47.000    20630269.255    84477503.339         165.439          44.000  
G04  24615150.955                2       3194.740          36.000    24615156.542   100794961.077        2489.130          41.000  
C33  22479571.448   117057025.158        -576.067          49.000                                                                  
C06  36566712.774   190412470.032        -167.058          45.000    36566695.765   147238929.242        -129.098          47.000  
C14  22585532.812   117608784.250       -2156.242          46.000    22585518.220    90942518.721       -1667.305          50.000  
C16  36993366.111   192634162.437        -199.842          49.000    36993354.195   148956906.198        -154.581          47.000  
C24  21809815.761   113569439.546        -811.017          50.000                                                                  
C26  24329110.962   126688059.096       -2551.033          45.000                                                                  
G03  22886693.113                          21.248          34.000    22886687.260                          16.539          29.000  
G16  22546902.923   118484777.163        3055.815          40.000                                                                  
C09  37718604.189   196410670.383        -157.173          42.000    37718589.752   151877131.398        -121.517          44.000  
C25  23710912.456   123468948.670        1616.602          43.000                                                                  
C13  38276655.951   199316590.393       -2240.792          39.000    38276650.577   154124210.107       -1732.668          41.000  
C08  39098434.734                       -2445.196          34.000    39098423.300   157433126.587       -1891.605          40.000  
C10  40533258.742                         931.503          31.000    40533259.489   163210695.041         719.746          36.000  
C35  25970966.203   135237652.778         482.551          39.000                                                                  
G25  24244671.339   127406594.151       -3905.083          36.000    24244663.807    99277840.589       -3043.764          35.000  
