     3.04           OBSERVATION DATA    M: Mixed            RINEX VERSION / TYPE
RTKCONV 2.4.3 b34                       20251030 064056 UTC PGM / RUN BY / DATE 
format: u-blox UBX                                          COMMENT             
log: D:\GPdata\10_30\fingure_290_200_10_30_3.ubx            COMMENT             
                                                            MARKER NAME         
                                                            MARKER NUMBER       
                                                            MARKER TYPE         
                                                            OBSERVER / AGENCY   
                                                            REC # / TYPE / VERS 
                                                            ANT # / TYPE        
        0.0000        0.0000        0.0000                  APPROX POSITION XYZ 
        0.0000        0.0000        0.0000                  ANTENNA: DELTA H/E/N
G    8 C1C L1C D1C S1C C2L L2L D2L S2L                      SYS / # / OBS TYPES 
C    8 C2I L2I D2I S2I C7I L7I D7I S7I                      SYS / # / OBS TYPES 
  2025    10    30    06    25   03.4000000     GPS         TIME OF FIRST OBS   
  2025    10    30    06    25   23.7600000     GPS         TIME OF LAST OBS    
G L1C                                                       SYS / PHASE SHIFT   
G L2L  0.00000                                              SYS / PHASE SHIFT   
C L2I                                                       SYS / PHASE SHIFT   
C L7I                                                       SYS / PHASE SHIFT   
  0                                                         GLONASS SLOT / FRQ #
 C1C    0.000 C1P    0.000 C2C    0.000 C2P    0.000        GLONASS COD/PHS/BIS 
                                                            END OF HEADER       
> 2025 10 30 06 25 03.4000000  0 23                     
G32  22185571.800   116585970.6363      -3037.043          40.000    22185568.030    90846190.6861      -2366.225          37.000  
G29  23109749.077   121442562.2691       -767.037          45.000    23109740.295    94630538.3221       -597.676          43.000  
G28  21320470.539   112039831.5921      -1254.481          44.000    21320460.684    87303724.1481       -977.524          46.000  
G26  20310430.551   106732034.7651        531.816          46.000    20310423.247    83167801.0421        414.416          44.000  
G31  20616854.777   108342297.8761         74.492          45.000    20616843.437    84422528.9771         58.031          42.000  
G04  24316400.726   127783530.5171       3157.617          42.000    24316397.224    99571611.8471       2460.300          45.000  
C33  22548026.121   117413483.2881       -864.194          48.000                                                                  
C06  36581827.059   190491174.7821       -149.806          39.000    36581809.818   147299788.9281       -115.679          45.000  
C14  22801318.890   118732434.3531      -2386.569          43.000    22801304.869    91811395.6511      -1845.602          45.000  
C16  37011382.257   192727977.4871       -177.896          44.000    37011370.298   149029450.0491       -137.403          44.000  
C24  21892506.615   114000030.5281       -928.113          48.000                                                                  
C26  24572467.135   127955282.2711      -2573.926          46.000                                                                  
G03  22900337.663   120342107.4361       -309.636          39.000    22900332.854    93773034.3561       -240.951          32.000  
G16  22267661.488                3       2881.572          30.000                                                                  
C09  37732687.847   196483986.5191       -137.667          35.000    37732674.033   151933843.7791       -106.529          44.000  
C25  23562286.812   122695022.1441       1516.609          38.000                                                                  
C08  39332169.373                3      -2475.858          27.000    39332161.691   158374303.5303      -1914.319          34.000  
C10  40444656.419                3        953.588          21.000    40444664.231                3        724.441          31.000  
C35  25935806.297   135054553.4581        258.066          40.000                                                                  
C13  38491857.747   200437204.7793      -2291.300          34.000    38491852.273                1      -1771.597          27.000  
C12  26326300.542   137087948.8191       2324.786          36.000    26326295.162   106005083.1271       1798.033          43.000  
G25  24612859.957   129341456.6851      -3920.242          38.000    24612855.827   100785514.5441      -3054.274          36.000  
C07                                                                  39498432.458                1        864.332          32.000  
> 2025 10 30 06 25 03.4400000  0 23                     
G32  22185594.542   116586092.1142      -3036.962          40.000    22185590.904    90846285.362       -2366.742          37.000  
G29  23109754.902   121442592.950        -767.036          45.000    23109746.156    94630562.230        -597.732          43.000  
G28  21320480.073   112039881.767       -1254.398          44.000    21320470.254    87303763.250        -977.582          46.000  
G26  20310426.477   106732013.483         531.965          46.000    20310419.192    83167784.468         414.372          44.000  
G31  20616854.191   108342294.889          74.572          45.000    20616842.874    84422526.660          57.870          42.000  
G04  24316376.696   127783404.216        3157.579          42.000    24316373.201    99571513.427        2460.398          45.000  
C33  22548032.770   117413517.853        -864.195          48.000                                                                  
C06  36581828.199   190491180.758        -149.599          39.000    36581810.973   147299793.553        -115.645          45.000  
C14  22801337.217   118732529.823       -2386.738          43.000    22801323.191    91811469.474       -1845.649          45.000  
C16  37011383.618   192727984.600        -177.895          44.000    37011371.621   149029455.545        -137.380          44.000  
C24  21892513.745   114000067.657        -928.179          48.000                                                                  
C26  24572486.918   127955385.218       -2573.812          46.000                                                                  
G03  22900340.016   120342119.820        -309.647          39.000    22900335.214    93773044.025        -241.545          32.000  
G16  22267639.153                2       2881.427          30.000                                                                  
C09  37732688.908   196483992.012        -137.445          35.000    37732675.051   151933848.029        -106.311          44.000  
C25  23562275.187   122694961.470        1516.635          38.000                                                                  
C08  39332187.407                3      -2476.313          27.000    39332180.609   158374380.1242      -1914.646          34.000  
C10  40444649.048                3        935.079          21.000    40444656.399                2        724.677          31.000  
C35  25935804.320   135054543.143         257.910          40.000                                                                  
C13  38491875.340   200437296.4412      -2291.489          34.000    38491869.915                       -1771.707          27.000  
C12  26326282.833   137087855.815        2324.886          36.000    26326277.280   106005011.211        1797.994          43.000  
G25  24612889.783   129341613.475       -3919.986          38.000    24612885.668   100785636.733       -3054.587          36.000  
C07                                                                  39498423.836                         864.325          32.000  
> 2025 10 30 06 25 03.4800000  0 23                     
G32  22185617.488   116586213.5922      -3036.944          40.000    22185614.000    90846380.038       -2367.056          37.000  
G29  23109760.735   121442623.638        -767.167          45.000    23109751.989    94630586.132        -597.645          43.000  
G28  21320489.603   112039931.942       -1254.396          44.000    21320479.790    87303802.349        -977.504          46.000  
G26  20310422.441   106731992.216         531.784          46.000    20310415.148    83167767.893         414.334          44.000  
G31  20616853.617   108342291.911          74.492          45.000    20616842.322    84422524.325          58.167          42.000  
G04  24316352.658   127783277.925        3157.375          42.000    24316349.159    99571415.018        2460.265          45.000  
C33  22548039.400   117413552.426        -864.327          48.000                                                                  
C06  36581829.342   190491186.742        -149.604          39.000    36581812.126   147299798.177        -115.641          45.000  
C14  22801355.591   118732625.290       -2386.768          43.000    22801341.500    91811543.294       -1845.591          45.000  
C16  37011384.997   192727991.709        -177.830          44.000    37011372.982   149029461.046        -137.479          44.000  
C24  21892520.869   114000104.790        -928.294          48.000                                                                  
C26  24572506.689   127955488.173       -2573.873          46.000                                                                  
G03  22900342.366   120342132.206        -309.677          39.000    22900337.577    93773053.691        -241.791          32.000  
G16  22267616.871                2       2881.056          29.000                                                                  
C09  37732689.966   196483997.516        -137.445          35.000    37732676.114   151933852.288        -106.371          44.000  
C25  23562263.548   122694900.773        1517.122          38.000                                                                  
C08  39332205.900                3      -2475.605          27.000    39332199.312   158374456.7482      -1915.264          34.000  
C10  40444641.723                3        935.079          21.000    40444649.173                2        724.458          31.000  
C35  25935802.326   135054532.832         257.742          40.000                                                                  
C13  38491892.915   200437388.0662      -2290.877          34.000    38491887.479                       -1771.134          27.000  
C12  26326264.858   137087762.806        2325.017          36.000    26326259.393   106004939.299        1797.836          43.000  
G25  24612919.613   129341770.249       -3919.593          38.000    24612915.501   100785758.905       -3054.470          36.000  
C07                                                                  39498415.271                         864.789          32.000  
> 2025 10 30 06 25 03.5200000  0 23                     
G32  22185640.656   116586335.0652      -3036.849          40.000    22185637.203    90846474.694       -2366.711          37.000  
G29  23109766.544   121442654.303        -766.817          45.000    23109757.816    94630610.037        -597.588          43.000  
G28  21320499.144   112039982.119       -1254.438          44.000    21320489.346    87303841.449        -977.490          46.000  
G26  20310418.406   106731970.948         531.673          46.000    20310411.109    83167751.314         414.378          44.000  
G31  20616853.040   108342288.924          74.597          45.000    20616841.745    84422521.997          58.203          42.000  
G04  24316328.624   127783151.633        3157.277          42.000    24316325.131    99571316.598        2460.364          45.000  
C33  22548046.060   117413586.989        -864.205          48.000                                                                  
C06  36581830.535   190491192.705        -149.177          39.000    36581813.278   147299802.805        -115.713          45.000  
C14  22801373.912   118732720.746       -2386.558          43.000    22801359.809    91811617.100       -1845.301          45.000  
C16  37011386.370   192727998.816        -177.767          44.000    37011374.300   149029466.539        -137.376          44.000  
C24  21892527.999   114000141.913        -928.181          48.000                                                                  
C26  24572526.494   127955591.125       -2573.853          46.000                                                                  
G03  22900344.707   120342144.598        -309.803          39.000    22900339.997    93773063.379        -242.308          32.000  
G16  22267595.595                2       2880.859          29.000                                                                  
C09  37732691.032   196484003.033        -137.766          35.000    37732677.165   151933856.535        -106.219          44.000  
C25  23562251.903   122694840.064        1517.664          38.000                                                                  
C08  39332225.764                3      -2476.501          27.000    39332218.159   158374533.3412      -1915.063          34.000  
C10  40444634.203                3        935.079          21.000    40444641.851                2        726.347          31.000  
C35  25935800.340   135054522.510         257.915          40.000                                                                  
C13  38491910.501   200437479.7132      -2291.102          34.000    38491905.122                       -1771.493          27.000  
C12  26326246.886   137087669.827        2324.644          36.000    26326241.539   106004867.381        1797.900          43.000  
G25  24612949.417   129341927.013       -3919.150          38.000    24612945.344   100785881.082       -3054.496          36.000  
C07                                                                  39498406.666                         864.569          32.000  
> 2025 10 30 06 25 03.5600000  0 23                     
G32  22185663.738   116586456.5412      -3036.892          40.000    22185660.322    90846569.342       -2366.343          37.000  
G29  23109772.382   121442684.977        -766.782          45.000    23109763.667    94630633.944        -597.645          43.000  
G28  21320508.687   112040032.292       -1254.407          44.000    21320498.883    87303880.538        -977.316          46.000  
G26  20310414.331   106731949.671         531.836          46.000    20310407.087    83167734.735         414.447          44.000  
G31  20616852.457   108342285.926          74.868          45.000    20616841.173    84422519.654          58.449          42.000  
G04  24316304.598   127783025.315        3157.751          42.000    24316301.092    99571218.168        2460.645          45.000  
C33  22548052.717   117413621.551        -864.090          48.000                                                                  
C06  36581831.661   190491198.668        -148.980          39.000    36581814.422   147299807.424        -115.567          45.000  
C14  22801392.218   118732816.193       -2386.252          43.000    22801378.132    91811690.908       -1845.166          45.000  
C16  37011387.734   192728005.919        -177.686          44.000    37011375.665   149029472.037        -137.436          44.000  
C24  21892535.124   114000179.028        -927.969          48.000                                                                  
C26  24572546.268   127955694.070       -2573.715          46.000                                                                  
G03  22900347.068   120342156.980        -309.669          39.000    22900342.354    93773073.017        -241.505          32.000  
G16  22267573.804                2       2881.322          29.000                                                                  
C09  37732692.096   196484008.515        -137.325          35.000    37732678.210   151933860.782        -106.146          44.000  
C25  23562240.231   122694779.390        1517.249          38.000                                                                  
C08  39332241.664                3      -2476.171          27.000    39332237.079   158374609.9092      -1914.451          34.000  
C10  40444627.025                3        935.079          21.000    40444633.713                2        726.261          31.000  
C35  25935798.343   135054512.185         258.092          40.000                                                                  
C13  38491928.081   200437571.3292      -2290.684          34.000    38491922.716                       -1771.117          27.000  
C12  26326229.106   137087576.814        2325.039          36.000    26326223.685   106004795.463        1797.956          43.000  
G25  24612979.262   129342083.810       -3919.549          38.000    24612975.179   100786003.249       -3054.325          36.000  
C07                                                                  39498398.043                         864.775          32.000  
> 2025 10 30 06 25 03.6000000  0 23                     
G32  22185686.724   116586578.0242      -3037.100          40.000    22185683.220    90846663.969       -2365.759          37.000  
G29  23109778.251   121442715.656        -766.895          45.000    23109769.498    94630657.838        -597.434          43.000  
G28  21320518.220   112040082.460       -1254.303          44.000    21320508.441    87303919.630        -977.295          46.000  
G26  20310410.268   106731928.386         532.060          46.000    20310403.031    83167718.151         414.572          44.000  
G31  20616851.896   108342282.926          75.058          45.000    20616840.619    84422517.325          58.325          42.000  
G04  24316280.564   127782899.001        3157.891          42.000    24316277.050    99571119.748        2460.583          45.000  
C33  22548059.351   117413656.104        -863.896          48.000                                                                  
C06  36581832.829   190491204.642        -149.123          39.000    36581815.534   147299812.033        -115.329          45.000  
C14  22801410.551   118732911.649       -2386.307          43.000    22801396.480    91811764.724       -1845.307          45.000  
C16  37011389.102   192728013.018        -177.546          44.000    37011377.022   149029477.529        -137.373          44.000  
C24  21892542.259   114000216.139        -927.799          48.000                                                                  
C26  24572566.038   127955797.013       -2573.626          46.000                                                                  
G03  22900349.433   120342169.363        -309.548          39.000    22900344.700    93773082.664        -241.302          32.000  
G16  22267552.591                2       2881.491          29.000                                                                  
C09  37732693.122   196484014.000        -137.122          35.000    37732679.263   151933865.029        -106.130          44.000  
C25  23562228.579   122694718.703        1517.205          38.000                                                                  
C08  39332262.105                3      -2476.332          27.000    39332255.633   158374686.4942      -1914.491          34.000  
C10  40444619.745                3        933.454          21.000    40444626.833                2        726.042          31.000  
C35  25935796.365   135054501.845         258.409          40.000                                                                  
C13  38491945.712   200437662.9482      -2290.482          34.000    38491940.340                       -1770.919          27.000  
C12  26326211.368   137087483.772        2325.834          36.000    26326205.818   106004723.550        1797.862          43.000  
G25  24613009.076   129342240.583       -3919.347          38.000    24613005.006   100786125.395       -3053.896          36.000  
C07                                                                  39498389.431                         863.893          32.000  
> 2025 10 30 06 25 03.6400000  0 23                     
G32  22185710.098   116586699.4912      -3036.825          40.000    22185706.597    90846758.615       -2365.857          37.000  
G29  23109784.065   121442746.324        -766.746          45.000    23109775.317    94630681.739        -597.479          43.000  
G28  21320527.739   112040132.616       -1254.022          44.000    21320517.990    87303958.716        -977.195          46.000  
G26  20310406.232   106731907.100         532.189          46.000    20310398.953    83167701.571         414.533          44.000  
G31  20616851.302   108342279.933          74.927          45.000    20616840.074    84422514.995          58.226          42.000  
G04  24316256.530   127782772.674        3158.170          42.000    24316253.016    99571021.318        2460.696          45.000  
C33  22548065.988   117413690.656        -863.793          48.000                                                                  
C06  36581833.974   190491210.605        -149.077          39.000    36581816.657   147299816.646        -115.306          45.000  
C14  22801428.887   118733007.102       -2386.276          43.000    22801414.794    91811838.531       -1845.226          46.000  
C16  37011390.474   192728020.108        -177.290          44.000    37011378.375   149029483.017        -137.292          44.000  
C24  21892549.386   114000253.249        -927.689          48.000                                                                  
C26  24572585.819   127955899.947       -2573.422          46.000                                                                  
G03  22900351.807   120342181.741        -309.450          39.000    22900347.042    93773092.306        -241.105          32.000  
G16  22267530.914                2       2881.748          29.000                                                                  
C09  37732694.181   196484019.510        -137.606          35.000    37732680.313   151933869.266        -105.955          44.000  
C25  23562216.924   122694658.003        1517.402          38.000                                                                  
C08  39332281.899                3      -2476.623          27.000    39332274.418   158374763.0592      -1914.242          34.000  
C10  40444612.072                3        933.454          21.000    40444620.106                2        725.376          31.000  
C35  25935794.400   135054491.503         258.573          40.000                                                                  
C13  38491963.307   200437754.5792      -2290.625          34.000    38491957.947                       -1771.198          27.000  
C12  26326193.412   137087390.763        2325.610          36.000    26326187.933   106004651.625        1798.005          43.000  
G25  24613038.927   129342397.361       -3919.414          38.000    24613034.848   100786247.561       -3053.998          36.000  
C07                                                                  39498380.826                         864.716          32.000  
> 2025 10 30 06 25 03.6800000  0 23                     
G32  22185733.141   116586820.9432      -3036.424          40.000    22185729.645    90846853.260       -2365.907          37.000  
G29  23109789.905   121442776.994        -766.735          45.000    23109781.156    94630705.637        -597.467          43.000  
G28  21320537.271   112040182.775       -1253.939          44.000    21320527.543    87303997.809        -977.238          46.000  
G26  20310402.211   106731885.822         532.068          46.000    20310394.909    83167684.984         414.625          44.000  
G31  20616850.728   108342276.947          74.736          45.000    20616839.519    84422512.666          58.133          42.000  
G04  24316232.494   127782646.357        3158.090          42.000    24316228.975    99570922.897        2460.585          45.000  
C33  22548072.629   117413725.212        -863.861          48.000                                                                  
C06  36581835.112   190491216.567        -149.092          39.000    36581817.792   147299821.263        -115.375          45.000  
C14  22801447.208   118733102.553       -2386.272          43.000    22801433.115    91811912.340       -1845.221          46.000  
C16  37011391.853   192728027.209        -177.415          44.000    37011379.777   149029488.501        -137.158          44.000  
C24  21892556.489   114000290.363        -927.762          48.000                                                                  
C26  24572605.583   127956002.880       -2573.327          46.000                                                                  
G03  22900354.175   120342194.120        -309.427          39.000    22900349.381    93773101.918        -240.450          32.000  
G16  22267508.972                2       2881.971          29.000                                                                  
C09  37732695.220   196484024.996        -137.347          35.000    37732681.364   151933873.520        -106.206          44.000  
C25  23562205.268   122694597.299        1517.618          38.000                                                                  
C08  39332302.330                3      -2476.010          27.000    39332293.754   158374839.6532      -1914.565          34.000  
C10  40444605.038                3        933.454          21.000    40444612.286                2        725.080          31.000  
C35  25935792.423   135054481.183         258.216          40.000                                                                  
C13  38491980.889   200437846.1912      -2290.416          34.000    38491975.597                       -1771.528          27.000  
C12  26326175.565   137087297.740        2325.746          36.000    26326170.077   106004579.694        1798.222          43.000  
G25  24613068.731   129342554.135       -3919.377          38.000    24613064.686   100786369.733       -3054.211          36.000  
C07                                                                  39498372.254                         863.616          32.000  
> 2025 10 30 06 25 03.7200000  0 23                     
G32  22185756.505   116586942.4072      -3036.466          40.000    22185753.071    90846947.951       -2366.833          37.000  
G29  23109795.733   121442807.667        -766.798          45.000    23109787.002    94630729.545        -597.629          43.000  
G28  21320546.796   112040232.949       -1254.170          44.000    21320537.079    87304036.900        -977.274          46.000  
G26  20310398.165   106731864.544         531.974          46.000    20310390.881    83167668.415         414.325          44.000  
G31  20616850.155   108342273.955          74.724          45.000    20616838.948    84422510.343          58.054          42.000  
G04  24316208.455   127782520.056        3157.740          42.000    24316204.926    99570824.471        2460.604          45.000  
C33  22548079.239   117413759.777        -864.065          48.000                                                                  
C06  36581836.230   190491222.557        -149.568          39.000    36581818.923   147299825.874        -115.298          45.000  
C14  22801465.546   118733198.010       -2386.362          43.000    22801451.457    91811986.160       -1845.429          46.000  
C16  37011393.206   192728034.304        -177.358          44.000    37011381.160   149029493.989        -137.177          44.000  
C24  21892563.616   114000327.480        -927.888          48.000                                                                  
C26  24572625.326   127956105.818       -2573.416          46.000                                                                  
G03  22900356.551   120342206.482        -309.082          39.000    22900351.716    93773111.548        -240.471          32.000  
G16  22267486.958                2       2881.641          29.000                                                                  
C09  37732696.266   196484030.436        -136.420          35.000    37732682.439   151933877.765        -106.173          44.000  
C25  23562193.600   122694536.606        1517.443          38.000                                                                  
C08  39332324.658                3      -2476.433          27.000    39332313.509   158374916.2462      -1914.836          35.000  
C10  40444597.690                3        933.454          21.000    40444604.930                2        724.020          31.000  
C35  25935790.420   135054470.868         257.858          40.000                                                                  
C13  38491998.486   200437937.8362      -2290.897          34.000    38491993.203                       -1771.219          27.000  
C12  26326157.950   137087204.725        2325.486          36.000    26326152.202   106004507.768        1798.201          43.000  
G25  24613098.566   129342710.913       -3919.402          38.000    24613094.516   100786491.892       -3054.091          36.000  
C07                                                                  39498363.639                         865.070          32.000  
> 2025 10 30 06 25 03.7600000  0 23                     
G32  22185779.289   116587063.8952      -3036.923          40.000    22185776.332    90847042.620       -2366.976          37.000  
G29  23109801.565   121442838.347        -766.960          45.000    23109792.833    94630753.455        -597.753          43.000  
G28  21320556.363   112040283.122       -1254.286          44.000    21320546.644    87304076.003        -977.512          46.000  
G26  20310394.135   106731843.269         531.887          46.000    20310386.830    83167651.837         414.340          44.000  
G31  20616849.610   108342270.970          74.607          45.000    20616838.365    84422508.018          58.042          42.000  
G04  24316184.433   127782393.760        3157.443          42.000    24316180.901    99570726.047        2460.591          45.000  
C33  22548085.851   117413794.347        -864.272          48.000                                                                  
C06  36581837.357   190491228.523        -149.331          39.000    36581820.082   147299830.505        -115.621          45.000  
C14  22801483.905   118733293.472       -2386.511          43.000    22801469.807    91812059.977       -1845.497          46.000  
C16  37011394.567   192728041.411        -177.552          44.000    37011382.537   149029499.472        -137.127          44.000  
C24  21892570.748   114000364.606        -928.106          48.000                                                                  
C26  24572645.088   127956208.764       -2573.580          46.000                                                                  
G03  22900358.929   120342218.876        -309.487          39.000    22900354.089    93773121.214        -241.094          32.000  
G16  22267465.013                2       2881.654          29.000                                                                  
C09  37732697.314   196484035.919        -136.585          35.000    37732683.468   151933882.014        -106.236          44.000  
C25  23562181.930   122694475.928        1517.074          38.000                                                                  
C08  39332345.095                3      -2475.982          27.000    39332332.534   158374992.8482      -1915.046          35.000  
C10  40444590.099                3        933.454          21.000    40444597.747                2        724.607          31.000  
C35  25935788.460   135054460.546         257.856          40.000                                                                  
C13  38492016.085   200438029.4782      -2291.136          34.000    38492010.803                       -1772.056          27.000  
C12  26326139.799   137087111.723        2325.145          36.000    26326134.329   106004435.851        1797.975          43.000  
G25  24613128.385   129342867.699       -3919.539          38.000    24613124.356   100786614.072       -3054.393          36.000  
C07                                                                  39498355.049                         864.654          32.000  
> 2025 10 30 06 25 03.8000000  0 23                     
G32  22185802.502   116587185.3742      -3037.113          40.000    22185799.509    90847137.265       -2366.490          37.000  
G29  23109807.425   121442869.036        -767.233          45.000    23109798.702    94630777.377        -598.044          43.000  
G28  21320565.914   112040333.302       -1254.470          44.000    21320556.190    87304115.101        -977.572          46.000  
G26  20310390.106   106731822.008         531.571          46.000    20310382.773    83167635.260         414.391          44.000  
G31  20616849.048   108342267.992          74.417          45.000    20616837.806    84422505.686          58.185          42.000  
G04  24316160.385   127782267.466        3157.278          42.000    24316156.876    99570627.633        2460.408          45.000  
C33  22548092.491   117413828.924        -864.484          48.000                                                                  
C06  36581838.514   190491234.507        -149.583          39.000    36581821.241   147299835.134        -115.763          45.000  
C14  22801502.248   118733388.941       -2386.723          43.000    22801488.139    91812133.801       -1845.626          46.000  
C16  37011395.921   192728048.520        -177.706          44.000    37011383.897   149029504.971        -137.367          44.000  
C24  21892577.866   114000401.739        -928.346          48.000                                                                  
C26  24572664.856   127956311.719       -2573.823          46.000                                                                  
G03  22900361.271   120342231.272        -309.788          39.000    22900356.423    93773130.891        -241.772          32.000  
G16  22267443.239                2       2881.942          29.000                                                                  
C09  37732698.404   196484041.466        -138.012          35.000    37732684.528   151933886.265        -106.305          44.000  
C25  23562170.290   122694415.242        1516.994          38.000                                                                  
C08  39332363.592                3      -2476.245          27.000    39332350.951   158375069.4332      -1914.839          35.000  
C10  40444582.933                3        940.095          21.000    40444591.049                2        725.655          31.000  
C35  25935786.483   135054450.231         257.747          40.000                                                                  
C13  38492033.664   200438121.1312      -2291.462          34.000    38492028.445                       -1771.531          27.000  
C12  26326122.016   137087018.739        2324.719          36.000    26326116.508   106004363.937        1797.808          43.000  
G25  24613158.214   129343024.483       -3919.572          38.000    24613154.210   100786736.242       -3054.365          36.000  
C07                                                                  39498346.481                         864.088          32.000  
> 2025 10 30 06 25 03.8400000  0 23                     
G32  22185826.363   116587306.8582      -3037.228          40.000    22185822.591    90847231.921       -2366.461          37.000  
G29  23109813.257   121442899.736        -767.541          45.000    23109804.562    94630801.285        -597.910          43.000  
G28  21320575.440   112040383.475       -1254.437          44.000    21320565.721    87304154.200        -977.557          46.000  
G26  20310386.052   106731800.736         531.649          46.000    20310378.703    83167618.686         414.316          44.000  
G31  20616848.462   108342265.007          74.498          45.000    20616837.235    84422503.355          58.271          42.000  
G04  24316136.338   127782141.167        3157.289          42.000    24316132.838    99570529.223        2460.220          45.000  
C33  22548099.139   117413863.499        -864.483          48.000                                                                  
C06  36581839.639   190491240.479        -149.506          39.000    36581822.384   147299839.759        -115.757          45.000  
C14  22801520.585   118733484.414       -2386.864          43.000    22801506.473    91812207.619       -1845.554          46.000  
C16  37011397.251   192728055.628        -177.752          44.000    37011385.278   149029510.471        -137.510          44.000  
C24  21892585.061   114000438.865        -928.319          48.000                                                                  
C26  24572684.627   127956414.671       -2573.866          46.000                                                                  
G03  22900363.663   120342243.664        -309.917          39.000    22900358.805    93773140.599        -242.616          32.000  
G16  22267421.524                2       2881.568          29.000                                                                  
C09  37732699.460   196484046.958        -137.736          35.000    37732685.569   151933890.524        -106.462          44.000  
C25  23562158.661   122694354.572        1516.700          38.000                                                                  
C08  39332383.078                3      -2476.580          27.000    39332369.700   158375145.9972      -1914.293          34.000  
C10  40444575.750                3        940.095          21.000    40444583.892                2        725.460          31.000  
C35  25935784.464   135054439.916         257.782          40.000                                                                  
C13  38492051.242   200438212.7642      -2291.195          34.000    38492046.041                       -1771.116          27.000  
C12  26326103.874   137086925.731        2324.974          36.000    26326098.635   106004292.025        1797.686          43.000  
G25  24613188.055   129343181.268       -3919.617          38.000    24613184.049   100786858.423       -3054.566          36.000  
C07                                                                  39498337.889                         864.481          32.000  
> 2025 10 30 06 25 03.8800000  0 23                     
G32  22185849.420   116587428.3412      -3037.274          40.000    22185845.449    90847326.573       -2366.346          37.000  
G29  23109819.090   121442930.424        -767.424          45.000    23109810.417    94630825.188        -597.673          43.000  
G28  21320584.996   112040433.655       -1254.482          44.000    21320575.271    87304193.299        -977.555          46.000  
G26  20310381.998   106731779.473         531.544          46.000    20310374.665    83167602.119         414.192          44.000  
G31  20616847.894   108342262.028          74.474          45.000    20616836.667    84422501.037          58.030          42.000  
G04  24316112.297   127782014.852        3157.660          42.000    24316108.777    99570430.804        2460.329          45.000  
C33  22548105.814   117413898.073        -864.440          48.000                                                                  
C06  36581840.768   190491246.454        -149.478          39.000    36581823.544   147299844.374        -115.571          45.000  
C14  22801538.934   118733579.877       -2386.754          43.000    22801524.797    91812281.443       -1845.616          46.000  
C16  37011398.617   192728062.739        -177.813          44.000    37011386.626   149029515.973        -137.629          44.000  
C24  21892592.195   114000475.989        -928.229          48.000                                                                  
C26  24572704.405   127956517.623       -2573.899          46.000                                                                  
G03  22900366.028   120342256.070        -310.158          39.000    22900361.151    93773150.249        -241.814          32.000  
G16  22267399.479                2       2881.700          29.000                                                                  
C09  37732700.520   196484052.452        -137.501          35.000    37732686.594   151933894.778        -106.459          44.000  
C25  23562147.023   122694293.901        1516.653          38.000                                                                  
C08  39332400.423                3      -2476.225          27.000    39332389.234   158375222.6122      -1915.005          35.000  
C10  40444568.735                3        940.095          21.000    40444576.491                2        724.493          30.000  
C35  25935782.476   135054429.595         257.928          40.000                                                                  
C13  38492068.826   200438304.4112      -2291.244          34.000    38492063.641                       -1771.833          27.000  
C12  26326085.749   137086832.714        2325.323          36.000    26326080.804   106004220.107        1797.800          43.000  
G25  24613217.898   129343338.061       -3919.784          38.000    24613213.872   100786980.571       -3054.022          36.000  
C07                                                                  39498329.282                         864.915          32.000  
> 2025 10 30 06 25 03.9200000  0 23                     
G32  22185872.256   116587549.8252      -3037.257          40.000    22185868.446    90847421.247       -2366.703          37.000  
G29  23109824.942   121442961.109        -767.255          45.000    23109816.252    94630849.102        -597.760          43.000  
G28  21320594.522   112040483.824       -1254.315          44.000    21320584.808    87304232.396        -977.509          46.000  
G26  20310377.936   106731758.198         531.739          46.000    20310370.614    83167585.551         414.157          44.000  
G31  20616847.306   108342259.042          74.567          45.000    20616836.097    84422498.720          57.901          42.000  
G04  24316088.258   127781888.544        3157.711          42.000    24316084.743    99570332.370        2460.667          45.000  
C33  22548112.426   117413932.639        -864.274          48.000                                                                  
C06  36581841.918   190491252.432        -149.476          39.000    36581824.712   147299848.993        -115.508          45.000  
C14  22801557.233   118733675.342       -2386.729          43.000    22801543.120    91812355.259       -1845.502          46.000  
C16  37011399.984   192728069.849        -177.837          44.000    37011387.995   149029521.458        -137.352          44.000  
C24  21892599.338   114000513.107        -928.081          48.000                                                                  
C26  24572724.185   127956620.565       -2573.712          46.000                                                                  
G03  22900368.406   120342268.459        -309.939          39.000    22900363.469    93773159.869        -241.016          32.000  
G16  22267377.845                2       2881.015          29.000                                                                  
C09  37732701.575   196484057.947        -137.393          36.000    37732687.653   151933899.017        -106.152          44.000  
C25  23562135.387   122694233.209        1517.023          38.000                                                                  
C08  39332420.276                3      -2477.238          27.000    39332408.477   158375299.2022      -1915.000          34.000  
C10  40444561.168                3        938.868          21.000    40444569.228                2        724.023          30.000  
C35  25935780.507   135054419.265         258.128          40.000                                                                  
C13  38492086.434   200438396.0422      -2290.979          34.000    38492081.293                       -1771.763          27.000  
C12  26326067.909   137086739.714        2325.108          36.000    26326062.975   106004148.181        1798.005          43.000  
G25  24613247.723   129343494.834       -3919.485          38.000    24613243.722   100787102.726       -3053.925          36.000  
C07                                                                  39498320.710                         864.290          32.000  
> 2025 10 30 06 25 03.9600000  0 23                     
G32  22185895.149   116587671.2942      -3036.939          40.000    22185891.681    90847515.899       -2366.459          37.000  
G29  23109830.760   121442991.786        -767.007          45.000    23109822.093    94630873.023        -597.953          43.000  
G28  21320604.069   112040533.994       -1254.274          44.000    21320594.368    87304271.496        -977.528          46.000  
G26  20310373.900   106731736.940         531.508          46.000    20310366.548    83167568.981         414.201          44.000  
G31  20616846.750   108342256.063          74.505          45.000    20616835.561    84422496.382          58.266          42.000  
G04  24316064.247   127781762.238        3157.679          42.000    24316060.705    99570233.952        2460.540          45.000  
C33  22548119.042   117413967.212        -864.315          48.000                                                                  
C06  36581843.071   190491258.404        -149.349          39.000    36581825.883   147299853.612        -115.498          45.000  
C14  22801575.557   118733770.800       -2386.584          43.000    22801561.483    91812429.079       -1845.496          46.000  
C16  37011401.347   192728076.943        -177.544          44.000    37011389.321   149029526.952        -137.327          44.000  
C24  21892606.471   114000550.232        -928.103          48.000                                                                  
C26  24572743.968   127956723.512       -2573.708          46.000                                                                  
G03  22900370.759   120342280.853        -309.857          39.000    22900365.828    93773169.519        -241.062          33.000  
G16  22267356.261                2       2880.518          29.000                                                                  
C09  37732702.629   196484063.448        -137.411          36.000    37732688.686   151933903.264        -106.136          44.000  
C25  23562123.729   122694172.523        1517.096          38.000                                                                  
C08  39332440.123                3      -2476.842          27.000    39332427.848   158375375.8042      -1915.129          34.000  
C10  40444554.059                3        938.868          21.000    40444562.290                2        724.166          30.000  
C35  25935778.527   135054408.950         258.007          40.000                                                                  
C13  38492104.082   200438487.6742      -2290.825          34.000    38492098.922                       -1771.335          27.000  
C12  26326050.160   137086646.678        2325.636          36.000    26326045.146   106004076.253        1798.140          43.000  
G25  24613277.538   129343651.628       -3919.703          38.000    24613273.540   100787224.909       -3054.384          36.000  
C07                                                                  39498312.145                         863.062          32.000  
> 2025 10 30 06 25 04.0000000  0 23                     
G32  22185918.399   116587792.7612      -3036.784          40.000    22185914.637    90847610.564       -2366.596          37.000  
G29  23109836.611   121443022.469        -767.027          45.000    23109827.931    94630896.936        -597.908          43.000  
G28  21320613.616   112040584.175       -1254.414          44.000    21320603.908    87304310.591        -977.468          46.000  
G26  20310369.842   106731715.669         531.652          46.000    20310362.479    83167552.404         414.338          44.000  
G31  20616846.175   108342253.071          74.727          45.000    20616834.999    84422494.063          58.093          42.000  
G04  24316040.236   127781635.931        3157.665          42.000    24316036.639    99570135.537        2460.435          45.000  
C33  22548125.685   117414001.783        -864.296          48.000                                                                  
C06  36581844.226   190491264.376        -149.271          39.000    36581827.034   147299858.231        -115.499          45.000  
C14  22801593.894   118733866.269       -2386.698          43.000    22801579.776    91812502.886       -1845.290          46.000  
C16  37011402.729   192728084.040        -177.417          44.000    37011390.688   149029532.440        -137.198          44.000  
C24  21892613.585   114000587.353        -928.058          48.000                                                                  
C26  24572763.730   127956826.456       -2573.658          46.000                                                                  
G03  22900373.129   120342293.247        -309.871          39.000    22900368.166    93773179.162        -241.042          33.000  
G16  22267334.727                2       2880.840          29.000                                                                  
C09  37732703.668   196484068.938        -137.247          36.000    37732689.745   151933907.525        -106.359          44.000  
C25  23562112.071   122694111.840        1517.083          38.000                                                                  
C08  39332458.805                3      -2475.659          27.000    39332447.137   158375452.3962      -1914.986          34.000  
C10  40444547.017                3        938.868          21.000    40444556.111                2        724.198          30.000  
C35  25935776.545   135054398.636         257.810          41.000                                                                  
C13  38492121.690   200438579.3132      -2290.806          34.000    38492116.496                       -1771.574          27.000  
C12  26326032.010   137086553.654        2325.740          36.000    26326027.259   106004004.335        1797.983          43.000  
G25  24613307.345   129343808.407       -3919.552          38.000    24613303.374   100787347.075       -3054.304          36.000  
C07                                                                  39498303.559                         863.937          32.000  
> 2025 10 30 06 25 04.0400000  0 23                     
G32  22185941.555   116587914.2512      -3037.069          40.000    22185937.736    90847705.219       -2366.527          37.000  
G29  23109842.463   121443053.159        -767.203          45.000    23109833.765    94630920.845        -597.803          43.000  
G28  21320623.148   112040634.357       -1254.567          44.000    21320613.431    87304349.691        -977.501          46.000  
G26  20310365.814   106731694.403         531.627          46.000    20310358.437    83167535.830         414.362          44.000  
G31  20616845.584   108342250.087          74.639          45.000    20616834.444    84422491.745          57.969          42.000  
G04  24316016.185   127781509.619        3157.755          42.000    24316012.605    99570037.122        2460.363          45.000  
C33  22548132.315   117414036.359        -864.384          48.000                                                                  
C06  36581845.346   190491270.346        -149.273          39.000    36581828.190   147299862.850        -115.514          45.000  
C14  22801612.228   118733961.737       -2386.768          43.000    22801598.083    91812576.710       -1845.474          46.000  
C16  37011404.105   192728091.138        -177.412          44.000    37011392.062   149029537.931        -137.222          44.000  
C24  21892620.740   114000624.476        -928.072          48.000                                                                  
C26  24572783.465   127956929.404       -2573.679          46.000                                                                  
G03  22900375.479   120342305.652        -310.066          39.000    22900370.517    93773188.820        -241.237          33.000  
G16  22267313.367                2       2880.884          29.000                                                                  
C09  37732704.740   196484074.416        -136.978          36.000    37732690.826   151933911.773        -106.262          44.000  
C25  23562100.417   122694051.147        1517.250          38.000                                                                  
C08  39332477.421                3      -2476.741          27.000    39332465.865   158375528.9572      -1914.326          34.000  
C10  40444539.932                3        935.651          21.000    40444548.703                2        724.630          30.000  
C35  25935774.558   135054388.326         257.687          41.000                                                                  
C13  38492139.291   200438670.9382      -2290.678          34.000    38492134.107                       -1771.751          27.000  
C12  26326014.072   137086460.675        2324.909          36.000    26326009.402   106003932.428        1797.703          43.000  
G25  24613337.158   129343965.182       -3919.347          38.000    24613333.209   100787469.265       -3054.679          36.000  
C07                                                                  39498294.949                         864.169          31.000  
> 2025 10 30 06 25 04.0800000  0 23                     
G32  22185965.230   116588035.7382      -3037.195          40.000    22185960.759    90847799.872       -2366.411          37.000  
G29  23109848.307   121443083.863        -767.544          45.000    23109839.609    94630944.760        -597.828          43.000  
G28  21320632.689   112040684.537       -1254.608          44.000    21320622.991    87304388.792        -977.555          46.000  
G26  20310361.786   106731673.138         531.621          46.000    20310354.383    83167519.262         414.212          44.000  
G31  20616845.025   108342247.108          74.504          45.000    20616833.869    84422489.421          58.007          42.000  
G04  24315992.137   127781383.320        3157.524          42.000    24315988.577    99569938.708        2460.320          45.000  
C33  22548138.988   117414070.929        -864.320          48.000                                                                  
C06  36581846.485   190491276.333        -149.604          39.000    36581829.343   147299867.480        -115.710          45.000  
C14  22801630.582   118734057.206       -2386.772          43.000    22801616.415    91812650.539       -1845.701          46.000  
C16  37011405.499   192728098.253        -177.718          44.000    37011393.423   149029543.432        -137.405          44.000  
C24  21892627.850   114000661.604        -928.203          48.000                                                                  
C26  24572803.243   127957032.357       -2573.824          46.000                                                                  
G03  22900377.826   120342318.046        -309.963          39.000    22900372.910    93773198.490        -241.594          33.000  
G16  22267291.584                2       2881.434          28.000                                                                  
C09  37732705.792   196484079.916        -137.244          36.000    37732691.902   151933916.025        -106.295          44.000  
C25  23562088.767   122693990.463        1517.138          38.000                                                                  
C08  39332497.703                3      -2476.371          27.000    39332484.009   158375605.5602      -1914.718          34.000  
C10  40444532.886                3        935.651          21.000    40444541.276                2        725.539          30.000  
C35  25935772.582   135054378.013         257.741          41.000                                                                  
C13  38492156.884   200438762.5792      -2290.926          34.000    38492151.683                       -1771.823          27.000  
C12  26325996.235   137086367.687        2324.474          36.000    26325991.561   106003860.508        1797.855          43.000  
G25  24613366.987   129344121.965       -3919.441          38.000    24613363.021   100787591.434       -3054.443          36.000  
C07                                                                  39498286.361                         864.524          31.000  
> 2025 10 30 06 25 04.1200000  0 23                     
G32  22185987.722   116588157.2112      -3036.953          40.000    22185983.945    90847894.548       -2366.771          37.000  
G29  23109854.112   121443114.558        -767.529          45.000    23109845.432    94630968.671        -597.784          43.000  
G28  21320642.218   112040734.720       -1254.628          44.000    21320632.538    87304427.893        -977.573          46.000  
G26  20310357.736   106731651.882         531.422          46.000    20310350.364    83167502.702         414.014          44.000  
G31  20616844.461   108342244.132          74.394          45.000    20616833.307    84422487.092          58.192          42.000  
G04  24315968.107   127781257.020        3157.452          42.000    24315964.540    99569840.282        2460.509          45.000  
C33  22548145.615   117414105.514        -864.561          48.000                                                                  
C06  36581847.640   190491282.329        -149.957          39.000    36581830.505   147299872.097        -115.589          45.000  
C14  22801648.922   118734152.681       -2386.915          43.000    22801634.752    91812724.368       -1845.791          46.000  
C16  37011406.867   192728105.366        -177.822          44.000    37011394.762   149029548.932        -137.484          44.000  
C24  21892634.979   114000698.730        -928.193          48.000                                                                  
C26  24572823.013   127957135.306       -2573.806          46.000                                                                  
G03  22900380.192   120342330.434        -309.755          39.000    22900375.260    93773208.161        -241.790          33.000  
G16  22267269.707                2       2881.607          28.000                                                                  
C09  37732706.851   196484085.430        -137.595          36.000    37732692.983   151933920.278        -106.353          44.000  
C25  23562077.121   122693929.785        1516.965          38.000                                                                  
C08  39332518.161                3      -2476.363          27.000    39332503.076   158375682.1792      -1915.265          34.000  
C10  40444525.609                3        935.651          21.000    40444533.646                2        725.952          30.000  
C35  25935770.609   135054367.700         257.793          41.000                                                                  
C13  38492174.440   200438854.2522      -2291.702          34.000    38492169.277                       -1771.005          27.000  
C12  26325978.352   137086274.665        2324.965          36.000    26325973.687   106003788.589        1797.956          43.000  
G25  24613396.843   129344278.753       -3919.634          38.000    24613392.831   100787713.585       -3053.984          36.000  
C07                                                                  39498277.760                         864.688          31.000  
> 2025 10 30 06 25 04.1600000  0 23                     
G32  22186010.800   116588278.7142      -3037.376          40.000    22186007.024    90847989.221       -2366.976          37.000  
G29  23109859.942   121443145.255        -767.546          45.000    23109851.266    94630992.600        -598.139          43.000  
G28  21320651.763   112040784.906       -1254.669          44.000    21320642.088    87304466.992        -977.560          46.000  
G26  20310353.681   106731630.625         531.361          46.000    20310346.310    83167486.135         414.047          44.000  
G31  20616843.917   108342241.158          74.295          45.000    20616832.747    84422484.771          58.087          42.000  
G04  24315944.077   127781130.720        3157.440          42.000    24315940.495    99569741.865        2460.472          45.000  
C33  22548152.279   117414140.095        -864.583          48.000                                                                  
C06  36581848.786   190491288.306        -149.728          39.000    36581831.653   147299876.716        -115.530          45.000  
C14  22801667.278   118734248.156       -2386.952          43.000    22801653.072    91812798.195       -1845.782          46.000  
C16  37011408.237   192728112.470        -177.741          44.000    37011396.148   149029554.432        -137.520          44.000  
C24  21892642.129   114000735.858        -928.237          48.000                                                                  
C26  24572842.806   127957238.254       -2573.744          46.000                                                                  
G03  22900382.575   120342342.841        -310.053          39.000    22900377.621    93773217.848        -242.286          33.000  
G16  22267247.895                2       2881.430          28.000                                                                  
C09  37732707.909   196484090.942        -137.762          36.000    37732694.035   151933924.536        -106.479          44.000  
C25  23562065.471   122693869.111        1516.818          38.000                                                                  
C08  39332537.821                3      -2475.092          27.000    39332522.280   158375758.7442      -1914.686          34.000  
C10  40444518.327                3        935.651          21.000    40444526.682                2        724.846          30.000  
C35  25935768.631   135054357.395         257.648          41.000                                                                  
C13  38492192.018   200438945.8902      -2291.391          34.000    38492186.826                       -1770.818          27.000  
C12  26325960.667   137086181.667        2324.898          36.000    26325955.823   106003716.666        1798.042          43.000  
G25  24613426.654   129344435.527       -3919.496          38.000    24613422.677   100787835.760       -3054.114          36.000  
C07                                                                  39498269.198                         864.098          31.000  
> 2025 10 30 06 25 04.2000000  0 23                     
G32  22186034.187   116588400.1992      -3037.234          40.000    22186030.179    90848083.887       -2366.803          37.000  
G29  23109865.777   121443175.949        -767.439          45.000    23109857.123    94631016.522        -598.175          43.000  
G28  21320661.306   112040835.091       -1254.701          44.000    21320651.651    87304506.095        -977.604          46.000  
G26  20310349.625   106731609.361         531.487          46.000    20310342.250    83167469.570         414.066          44.000  
G31  20616843.360   108342238.180          74.364          45.000    20616832.190    84422482.461          57.841          42.000  
G04  24315920.055   127781004.412        3157.554          42.000    24315916.449    99569643.443        2460.532          45.000  
C33  22548158.909   117414174.679        -864.637          48.000                                                                  
C06  36581849.919   190491294.267        -149.280          39.000    36581832.782   147299881.346        -115.721          45.000  
C14  22801685.609   118734343.628       -2386.925          43.000    22801671.396    91812872.024       -1845.799          46.000  
C16  37011409.619   192728119.579        -177.772          44.000    37011397.536   149029559.928        -137.466          44.000  
C24  21892649.244   114000772.994        -928.396          48.000                                                                  
C26  24572862.594   127957341.195       -2573.566          46.000                                                                  
G03  22900384.946   120342355.245        -310.120          39.000    22900379.997    93773227.536        -242.369          33.000  
G16  22267225.915                2       2881.449          28.000                                                                  
C09  37732708.953   196484096.437        -137.529          36.000    37732695.087   151933928.785        -106.330          44.000  
C25  23562053.841   122693808.441        1516.708          38.000                                                                  
C08  39332558.047                3      -2476.050          27.000    39332541.821   158375835.3422      -1914.797          34.000  
C10  40444511.414                3        939.749          21.000    40444519.311                2        723.820          30.000  
C35  25935766.658   135054347.066         258.033          41.000                                                                  
C13  38492209.579   200439037.5182      -2290.915          34.000    38492204.452                       -1771.406          27.000  
C12  26325942.885   137086088.653        2325.255          36.000    26325937.947   106003644.747        1798.010          43.000  
G25  24613456.498   129344592.315       -3919.605          38.000    24613452.500   100787957.914       -3053.935          36.000  
C07                                                                  39498260.605                         863.936          31.000  
> 2025 10 30 06 25 04.2400000  0 23                     
G32  22186057.040   116588521.6872      -3037.242          40.000    22186053.364    90848178.551       -2366.707          37.000  
G29  23109871.614   121443206.644        -767.420          45.000    23109862.977    94631040.448        -598.223          43.000  
G28  21320670.831   112040885.265       -1254.521          44.000    21320661.195    87304545.203        -977.686          46.000  
G26  20310345.574   106731588.105         531.412          46.000    20310338.206    83167453.007         414.036          44.000  
G31  20616842.806   108342235.205          74.371          45.000    20616831.625    84422480.152          57.693          42.000  
G04  24315896.035   127780878.116        3157.448          42.000    24315892.410    99569545.034        2460.310          45.000  
C33  22548165.610   117414209.261        -864.623          48.000                                                                  
C06  36581851.070   190491300.242        -149.290          39.000    36581833.938   147299885.967        -115.665          45.000  
C14  22801703.952   118734439.096       -2386.766          43.000    22801689.738    91812945.839       -1845.516          46.000  
C16  37011410.971   192728126.694        -177.935          44.000    37011398.916   149029565.428        -137.547          44.000  
C24  21892656.398   114000810.128        -928.425          48.000                                                                  
C26  24572882.369   127957444.156       -2573.883          46.000                                                                  
G03  22900387.316   120342367.662        -310.400          39.000    22900382.350    93773237.182        -241.552          33.000  
G16  22267203.726                2       2881.347          28.000                                                                  
C09  37732709.963   196484101.924        -137.271          36.000    37732696.119   151933933.035        -106.286          44.000  
C25  23562042.196   122693747.758        1516.906          38.000                                                                  
C08  39332575.606                2      -2476.518          27.000    39332560.280   158375911.9212      -1914.709          34.000  
C10  40444504.268                3        939.749          21.000    40444511.825                2        724.934          30.000  
C35  25935764.674   135054336.765         257.697          41.000                                                                  
C13  38492227.186   200439129.1492      -2290.794          34.000    38492222.050                       -1771.909          27.000  
C12  26325924.733   137085995.642        2325.359          35.000    26325920.080   106003572.837        1797.798          43.000  
G25  24613486.333   129344749.111       -3919.824          38.000    24613482.324   100788080.085       -3054.131          36.000  
C07                                                                  39498252.077                         863.733          31.000  
> 2025 10 30 06 25 04.2800000  0 23                     
G32  22186080.642   116588643.1872      -3037.446          40.000    22186076.399    90848273.204       -2366.506          37.000  
G29  23109877.464   121443237.344        -767.507          45.000    23109868.835    94631064.361        -598.010          43.000  
G28  21320680.379   112040935.441       -1254.447          44.000    21320670.740    87304584.303        -977.589          46.000  
G26  20310341.537   106731566.847         531.419          46.000    20310334.159    83167436.440         414.111          44.000  
G31  20616842.249   108342232.229          74.402          45.000    20616831.056    84422477.825          57.965          42.000  
G04  24315872.018   127780751.816        3157.444          42.000    24315868.373    99569446.616        2460.348          45.000  
C33  22548172.295   117414243.841        -864.564          48.000                                                                  
C06  36581852.240   190491306.219        -149.338          39.000    36581835.103   147299890.589        -115.597          45.000  
C14  22801722.280   118734534.565       -2386.697          43.000    22801708.077    91813019.667       -1845.605          46.000  
C16  37011412.340   192728133.798        -177.748          44.000    37011400.290   149029570.923        -137.468          44.000  
C24  21892663.535   114000847.256        -928.310          48.000                                                                  
C26  24572902.146   127957547.117       -2574.049          46.000                                                                  
G03  22900389.664   120342380.065        -310.265          39.000    22900384.716    93773246.825        -241.029          33.000  
G16  22267181.195                2       2881.504          28.000                                                                  
C09  37732711.049   196484107.433        -137.535          36.000    37732697.173   151933937.289        -106.312          44.000  
C25  23562030.537   122693687.095        1516.635          38.000                                                                  
C08  39332595.113                2      -2476.609          27.000    39332579.393   158375988.5492      -1915.475          34.000  
C10  40444497.302                3        939.749          21.000    40444504.438                2        724.982          31.000  
C35  25935762.679   135054326.466         257.447          41.000                                                                  
C13  38492244.763   200439220.7872      -2290.813          34.000    38492239.690                       -1772.229          27.000  
C12  26325906.726   137085902.633        2325.364          36.000    26325902.231   106003500.915        1797.930          43.000  
G25  24613516.157   129344905.903       -3919.835          38.000    24613512.160   100788202.286       -3054.731          36.000  
C07                                                                  39498243.463                         864.265          31.000  
> 2025 10 30 06 25 04.3200000  0 23                     
G32  22186103.876   116588764.6662      -3037.200          40.000    22186099.233    90848367.868       -2366.526          37.000  
G29  23109883.304   121443268.040        -767.445          45.000    23109874.691    94631088.281        -597.985          43.000  
G28  21320689.943   112040985.619       -1254.427          44.000    21320680.270    87304623.398        -977.466          46.000  
G26  20310337.466   106731545.593         531.358          46.000    20310330.101    83167419.875         414.098          44.000  
G31  20616841.681   108342229.249          74.451          45.000    20616830.502    84422475.508          57.953          42.000  
G04  24315847.945   127780625.502        3157.702          42.000    24315844.333    99569348.196        2460.436          45.000  
C33  22548178.965   117414278.422        -864.540          48.000                                                                  
C06  36581853.386   190491312.218        -149.792          39.000    36581836.252   147299895.218        -115.695          45.000  
C14  22801740.610   118734630.039       -2386.768          44.000    22801726.407    91813093.495       -1845.682          46.000  
C16  37011413.691   192728140.902        -177.651          44.000    37011401.659   149029576.404        -137.190          44.000  
C24  21892670.668   114000884.382        -928.201          48.000                                                                  
C26  24572921.942   127957650.064       -2573.849          46.000                                                                  
G03  22900392.039   120342392.485        -310.419          39.000    22900387.090    93773256.483        -241.177          33.000  
G16  22267159.309                2       2881.358          28.000                                                                  
C09  37732712.102   196484112.923        -137.263          36.000    37732698.222   151933941.544        -106.376          44.000  
C25  23562018.890   122693626.425        1516.661          38.000                                                                  
C08  39332614.454                2      -2477.071          27.000    39332598.085   158376065.1342      -1915.042          34.000  
C10  40444490.105                3        939.749          21.000    40444496.843                2        724.133          31.000  
C35  25935760.669   135054316.160         257.494          41.000                                                                  
C13  38492262.330   200439312.4142      -2290.591          34.000    38492257.274                       -1771.678          27.000  
C12  26325888.948   137085809.613        2325.555          35.000    26325884.356   106003428.997        1797.955          43.000  
G25  24613545.978   129345062.680       -3919.522          38.000    24613541.992   100788324.462       -3054.465          36.000  
C07                                                                  39498234.868                         865.043          31.000  
> 2025 10 30 06 25 04.3600000  0 23                     
G32  22186127.034   116588886.1422      -3036.943          40.000    22186122.308    90848462.551       -2366.933          37.000  
G29  23109889.119   121443298.728        -767.289          45.000    23109880.519    94631112.199        -597.955          43.000  
G28  21320699.506   112041035.805       -1254.554          44.000    21320689.808    87304662.494        -977.405          46.000  
G26  20310333.417   106731524.329         531.501          46.000    20310326.070    83167403.309         414.104          44.000  
G31  20616841.147   108342226.269          74.481          45.000    20616829.951    84422473.185          58.001          42.000  
G04  24315823.897   127780499.195        3157.701          42.000    24315820.305    99569249.780        2460.416          45.000  
C33  22548185.606   117414313.002        -864.554          48.000                                                                  
C06  36581854.528   190491318.186        -149.433          39.000    36581837.391   147299899.840        -115.607          45.000  
C14  22801758.937   118734725.517       -2386.906          43.000    22801744.728    91813167.320       -1845.656          46.000  
C16  37011415.043   192728148.001        -177.526          44.000    37011403.010   149029581.897        -137.248          44.000  
C24  21892677.839   114000921.508        -928.158          48.000                                                                  
C26  24572941.708   127957753.004       -2573.634          46.000                                                                  
G03  22900394.426   120342404.877        -310.027          39.000    22900389.436    93773266.161        -241.761          33.000  
G16  22267137.715                2       2881.213          28.000                                                                  
C09  37732713.152   196484118.422        -137.357          36.000    37732699.286   151933945.794        -106.300          44.000  
C25  23562007.244   122693565.731        1517.130          38.000                                                                  
C08  39332631.196                2      -2477.253          27.000    39332617.194   158376141.7022      -1914.403          34.000  
C10  40444482.835                3        939.749          21.000    40444489.473                2        726.041          30.000  
C35  25935758.682   135054305.835         257.911          41.000                                                                  
C13  38492279.925   200439404.0762      -2291.271          34.000    38492274.846                       -1771.646          27.000  
C12  26325871.146   137085716.604        2325.397          36.000    26325866.480   106003357.079        1797.911          43.000  
G25  24613575.797   129345219.466       -3919.570          38.000    24613571.807   100788446.634       -3054.273          36.000  
C07                                                                  39498226.325                         864.226          31.000  
> 2025 10 30 06 25 04.4000000  0 23                     
G32  22186150.020   116589007.6332      -3037.102          40.000    22186145.488    90848557.214       -2366.813          37.000  
G29  23109894.948   121443329.429        -767.440          45.000    23109886.372    94631136.119        -597.961          43.000  
G28  21320709.065   112041085.980       -1254.462          44.000    21320699.370    87304701.595        -977.489          46.000  
G26  20310329.344   106731503.068         531.537          46.000    20310322.042    83167386.746         414.060          44.000  
G31  20616840.582   108342223.282          74.604          45.000    20616829.376    84422470.856          58.130          42.000  
G04  24315799.864   127780372.885        3157.778          42.000    24315796.269    99569151.357        2460.493          45.000  
C33  22548192.238   117414347.582        -864.521          48.000                                                                  
C06  36581855.674   190491324.153        -149.186          39.000    36581838.510   147299904.455        -115.446          45.000  
C14  22801777.285   118734820.982       -2386.736          43.000    22801763.051    91813241.146       -1845.674          46.000  
C16  37011416.400   192728155.096        -177.421          44.000    37011404.422   149029587.392        -137.335          44.000  
C24  21892684.991   114000958.631        -928.090          48.000                                                                  
C26  24572961.473   127957855.944       -2573.510          46.000                                                                  
G03  22900396.790   120342417.281        -310.057          39.000    22900391.805    93773275.846        -242.172          33.000  
G16  22267115.777                2       2880.938          28.000                                                                  
C09  37732714.211   196484123.916        -137.307          36.000    37732700.355   151933950.038        -106.141          44.000  
C25  23561995.577   122693505.042        1517.313          38.000                                                                  
C08  39332650.303                2      -2476.655          27.000    39332636.379   158376218.2952      -1914.595          34.000  
C10  40444475.829                3        942.644          21.000    40444481.392                2        724.313          30.000  
C35  25935756.701   135054295.520         257.971          41.000                                                                  
C13  38492297.540   200439495.7012      -2290.887          34.000    38492292.462                       -1771.393          27.000  
C12  26325853.139   137085623.610        2325.037          36.000    26325848.602   106003285.157        1797.991          43.000  
G25  24613605.619   129345376.236       -3919.325          38.000    24613601.628   100788568.761       -3053.415          36.000  
C07                                                                  39498217.736                         864.718          31.000  
> 2025 10 30 06 25 04.4400000  0 23                     
G32  22186172.827   116589129.1352      -3037.438          40.000    22186168.207    90848651.889       -2366.879          37.000  
G29  23109900.793   121443360.138        -767.657          45.000    23109892.188    94631160.039        -598.012          43.000  
G28  21320718.623   112041136.158       -1254.429          44.000    21320708.933    87304740.703        -977.645          46.000  
G26  20310325.310   106731481.814         531.400          46.000    20310317.996    83167370.181         414.029          44.000  
G31  20616840.007   108342220.309          74.387          45.000    20616828.801    84422468.536          58.062          42.000  
G04  24315775.836   127780246.593        3157.457          42.000    24315772.243    99569052.939        2460.471          45.000  
C33  22548198.879   117414382.168        -864.610          48.000                                                                  
C06  36581856.819   190491330.115        -149.012          39.000    36581839.666   147299909.070        -115.366          45.000  
C14  22801795.593   118734916.465       -2386.963          43.000    22801781.374    91813314.976       -1845.737          46.000  
C16  37011417.773   192728162.207        -177.646          44.000    37011405.741   149029592.883        -137.300          44.000  
C24  21892692.112   114000995.759        -928.156          48.000                                                                  
C26  24572981.253   127957958.890       -2573.555          46.000                                                                  
G03  22900399.141   120342429.683        -310.085          39.000    22900394.179    93773285.495        -241.753          33.000  
G16  22267093.896                2       2880.916          28.000                                                                  
C09  37732715.267   196484129.407        -137.279          35.000    37732701.394   151933954.276        -105.972          44.000  
C25  23561983.915   122693444.364        1517.120          38.000                                                                  
C08  39332670.650                2      -2476.376          27.000    39332655.256   158376294.8842      -1914.518          34.000  
C10  40444468.450                3        942.644          21.000    40444474.228                2        724.866          30.000  
C35  25935754.714   135054285.205         257.949          41.000                                                                  
C13  38492315.129   200439587.3472      -2291.054          34.000    38492310.096                       -1771.534          27.000  
C12  26325835.345   137085530.593        2325.288          36.000    26325830.755   106003213.229        1798.147          43.000  
G25  24613635.435   129345533.015       -3919.351          38.000    24613631.459   100788690.937       -3053.948          36.000  
C07                                                                  39498209.136                         863.800          31.000  
> 2025 10 30 06 25 04.4800000  0 23                     
G32  22186195.923   116589250.6192      -3037.205          40.000    22186191.172    90848746.556       -2366.794          37.000  
G29  23109906.639   121443390.835        -767.524          45.000    23109898.007    94631183.955        -597.950          43.000  
G28  21320728.161   112041186.337       -1254.429          44.000    21320718.471    87304779.807        -977.668          46.000  
G26  20310321.258   106731460.559         531.326          46.000    20310313.952    83167353.611         414.122          44.000  
G31  20616839.450   108342217.332          74.369          45.000    20616828.225    84422466.224          57.853          42.000  
G04  24315751.799   127780120.285        3157.562          42.000    24315748.188    99568954.521        2460.430          45.000  
C33  22548205.526   117414416.750        -864.590          48.000                                                                  
C06  36581857.963   190491336.089        -149.102          39.000    36581840.789   147299913.683        -115.320          45.000  
C14  22801813.920   118735011.944       -2387.043          43.000    22801799.711    91813388.800       -1845.667          46.000  
C16  37011419.130   192728169.308        -177.578          44.000    37011407.076   149029598.387        -137.506          44.000  
C24  21892699.225   114001032.895        -928.346          48.000                                                                  
C26  24573000.994   127958061.844       -2573.749          46.000                                                                  
G03  22900401.503   120342442.089        -310.167          39.000    22900396.562    93773295.181        -241.974          33.000  
G16  22267072.625                2       2880.441          28.000                                                                  
C09  37732716.318   196484134.902        -137.403          35.000    37732702.433   151933958.533        -106.236          44.000  
C25  23561972.273   122693383.680        1517.071          38.000                                                                  
C08  39332690.306                2      -2476.072          27.000    39332674.439   158376371.4972      -1915.127          34.000  
C10  40444461.351                3        942.644          21.000    40444467.350                2        724.926          30.000  
C35  25935752.725   135054274.905         257.633          41.000                                                                  
C13  38492332.724   200439679.0212      -2291.651          34.000    38492327.745                       -1771.457          27.000  
C12  26325817.789   137085437.578        2325.362          36.000    26325812.899   106003141.316        1797.947          43.000  
G25  24613665.252   129345689.810       -3919.758          38.000    24613661.290   100788813.115       -3054.343          36.000  
C07                                                                  39498200.534                         864.246          31.000  
> 2025 10 30 06 25 04.5200000  0 23                     
G32  22186219.052   116589372.0882      -3036.815          40.000    22186214.376    90848841.205       -2366.370          37.000  
G29  23109912.501   121443421.529        -767.406          45.000    23109903.843    94631207.874        -597.988          43.000  
G28  21320737.717   112041236.513       -1254.404          44.000    21320728.002    87304818.904        -977.539          46.000  
G26  20310317.216   106731439.302         531.370          46.000    20310309.920    83167337.049         414.066          44.000  
G31  20616838.899   108342214.355          74.351          45.000    20616827.643    84422463.898          58.045          42.000  
G04  24315727.778   127779993.989        3157.439          42.000    24315724.153    99568856.092        2460.621          45.000  
C33  22548212.126   117414451.333        -864.570          48.000                                                                  
C06  36581859.111   190491342.080        -149.538          39.000    36581841.936   147299918.301        -115.411          45.000  
C14  22801832.278   118735107.416       -2386.883          43.000    22801818.045    91813462.625       -1845.630          46.000  
C16  37011420.494   192728176.421        -177.751          44.000    37011408.421   149029603.878        -137.386          44.000  
C24  21892706.377   114001070.026        -928.368          48.000                                                                  
C26  24573020.765   127958164.784       -2573.608          46.000                                                                  
G03  22900403.876   120342454.494        -310.146          39.000    22900398.930    93773304.855        -242.005          33.000  
G16  22267050.956                2       2880.359          28.000                                                                  
C09  37732717.366   196484140.393        -137.397          35.000    37732703.472   151933962.779        -106.184          44.000  
C25  23561960.612   122693323.014        1516.750          38.000                                                                  
C08  39332708.230                2      -2475.912          27.000    39332693.932   158376448.0862      -1914.946          34.000  
C10  40444454.258                3        942.644          21.000    40444460.148                2        724.674          31.000  
C35  25935750.773   135054264.600         257.580          41.000                                                                  
C13  38492350.328   200439770.6722      -2291.650          34.000    38492345.357                       -1771.759          27.000  
C12  26325799.817   137085344.563        2325.462          36.000    26325795.031   106003069.392        1798.022          43.000  
G25  24613695.093   129345846.604       -3919.940          38.000    24613691.121   100788935.294       -3054.592          36.000  
C07                                                                  39498191.909                         864.299          31.000  
> 2025 10 30 06 25 04.5600000  0 23                     
G32  22186241.959   116589493.5762      -3036.956          40.000    22186237.492    90848935.839       -2365.899          37.000  
G29  23109918.351   121443452.223        -767.357          45.000    23109909.698    94631231.809        -598.279          43.000  
G28  21320747.273   112041286.694       -1254.508          44.000    21320737.557    87304858.000        -977.427          46.000  
G26  20310313.182   106731418.051         531.271          46.000    20310305.874    83167320.492         413.924          44.000  
G31  20616838.335   108342211.375          74.420          45.000    20616827.076    84422461.567          58.242          42.000  
G04  24315703.724   127779867.670        3157.777          42.000    24315700.129    99568757.668        2460.609          45.000  
C33  22548218.758   117414485.919        -864.620          48.000                                                                  
C06  36581860.253   190491348.070        -149.717          39.000    36581843.061   147299922.921        -115.480          45.000  
C14  22801850.617   118735202.892       -2386.917          43.000    22801836.395    91813536.457       -1845.788          46.000  
C16  37011421.898   192728183.513        -177.457          44.000    37011409.767   149029609.359        -137.129          44.000  
C24  21892713.524   114001107.149        -928.210          48.000                                                                  
C26  24573040.534   127958267.732       -2573.646          46.000                                                                  
G03  22900406.215   120342466.900        -310.158          39.000    22900401.291    93773314.504        -241.476          33.000  
G16  22267029.658                2       2880.804          28.000                                                                  
C09  37732718.408   196484145.891        -137.504          35.000    37732704.514   151933967.036        -106.374          44.000  
C25  23561948.963   122693262.311        1517.288          38.000                                                                  
C08  39332728.146                2      -2475.776          27.000    39332712.665   158376524.6692      -1914.720          34.000  
C10  40444447.222                3        942.644          21.000    40444452.589                2        725.097          31.000  
C35  25935748.771   135054254.294         257.601          41.000                                                                  
C13  38492367.934   200439862.2832      -2290.742          34.000    38492362.979                       -1771.342          27.000  
C12  26325781.851   137085251.560        2325.236          36.000    26325777.160   106002997.479        1797.834          43.000  
G25  24613724.897   129346003.396       -3919.977          38.000    24613720.951   100789057.470       -3054.612          36.000  
C07                                                                  39498183.307                         864.929          31.000  
> 2025 10 30 06 25 04.6000000  0 23                     
G32  22186265.388   116589615.0642      -3037.053          39.000    22186260.805    90849030.519       -2366.573          37.000  
G29  23109924.169   121443482.926        -767.539          45.000    23109915.555    94631255.738        -598.321          43.000  
G28  21320756.810   112041336.870       -1254.467          44.000    21320747.116    87304897.103        -977.511          46.000  
G26  20310309.157   106731396.810         531.016          46.000    20310301.840    83167303.939         413.769          44.000  
G31  20616837.783   108342208.400          74.383          45.000    20616826.510    84422459.253          57.963          42.000  
G04  24315679.687   127779741.374        3157.511          42.000    24315676.103    99568659.256        2460.355          45.000  
C33  22548225.414   117414520.510        -864.766          48.000                                                                  
C06  36581861.388   190491354.037        -149.438          39.000    36581844.218   147299927.554        -115.779          45.000  
C14  22801868.965   118735298.373       -2387.043          43.000    22801854.725    91813610.281       -1845.731          46.000  
C16  37011423.236   192728190.619        -177.572          44.000    37011411.155   149029614.856        -137.302          44.000  
C24  21892720.644   114001144.286        -928.380          48.000                                                                  
C26  24573060.319   127958370.680       -2573.679          46.000                                                                  
G03  22900408.570   120342479.311        -310.284          39.000    22900403.630    93773324.160        -241.400          33.000  
G16  22267007.577                2       2881.143          28.000                                                                  
C09  37732719.452   196484151.370        -137.144          35.000    37732705.571   151933971.290        -106.417          44.000  
C25  23561937.306   122693201.619        1517.367          38.000                                                                  
C08  39332746.151                2      -2475.877          27.000    39332732.424   158376601.2732      -1915.005          34.000  
C10  40444439.926                3        942.644          21.000    40444445.413                2        724.885          31.000  
C35  25935746.798   135054243.979         257.817          41.000                                                                  
C13  38492385.521   200439953.9232      -2290.893          34.000    38492380.605                       -1771.202          27.000  
C12  26325764.016   137085158.548        2325.230          36.000    26325759.306   106002925.569        1797.648          43.000  
G25  24613754.730   129346160.161       -3919.425          38.000    24613750.782   100789179.635       -3054.333          36.000  
C07                                                                  39498174.775                         864.524          31.000  
> 2025 10 30 06 25 04.6400000  0 23                     
G32  22186288.281   116589736.5662      -3037.427          39.000    22186283.912    90849125.216       -2367.253          37.000  
G29  23109930.009   121443513.632        -767.656          45.000    23109921.409    94631279.670        -598.369          43.000  
G28  21320766.370   112041387.049       -1254.492          44.000    21320756.688    87304936.213        -977.703          46.000  
G26  20310305.105   106731375.557         531.156          46.000    20310297.809    83167287.382         413.840          44.000  
G31  20616837.236   108342205.430          74.278          45.000    20616825.955    84422456.940          57.797          42.000  
G04  24315655.669   127779615.069        3157.550          42.000    24315652.078    99568560.852        2460.083          45.000  
C33  22548232.054   117414555.103        -864.852          48.000                                                                  
C06  36581862.549   190491360.014        -149.440          39.000    36581845.389   147299932.180        -115.771          45.000  
C14  22801887.313   118735393.858       -2387.128          43.000    22801873.095    91813684.114       -1845.831          46.000  
C16  37011424.614   192728197.726        -177.656          44.000    37011412.507   149029620.338        -137.105          44.000  
C24  21892727.759   114001181.418        -928.377          48.000                                                                  
C26  24573080.090   127958473.634       -2573.810          46.000                                                                  
G03  22900410.948   120342491.719        -310.238          39.000    22900405.972    93773333.850        -242.033          33.000  
G16  22266985.980                2       2881.399          28.000                                                                  
C09  37732720.506   196484156.900        -137.856          35.000    37732706.632   151933975.535        -106.243          44.000  
C25  23561925.660   122693140.954        1516.823          38.000                                                                  
C08  39332765.783                2      -2475.990          27.000    39332751.237   158376677.8742      -1915.093          34.000  
C10  40444432.527                3        935.449          21.000    40444437.827                2        725.248          31.000  
C35  25935744.804   135054233.674         257.695          41.000                                                                  
C13  38492403.094   200440045.5422      -2290.580          34.000    38492398.175                       -1771.807          27.000  
C12  26325746.033   137085065.541        2325.117          36.000    26325741.436   106002853.643        1797.874          43.000  
G25  24613784.561   129346316.940       -3919.460          38.000    24613780.609   100789301.800       -3054.199          36.000  
C07                                                                  39498166.215                         864.247          31.000  
> 2025 10 30 06 25 04.6800000  0 23                     
G32  22186311.015   116589858.0652      -3037.550          39.000    22186306.810    90849219.898       -2367.335          37.000  
G29  23109935.833   121443544.344        -767.810          45.000    23109927.267    94631303.590        -598.182          43.000  
G28  21320775.945   112041437.249       -1254.866          44.000    21320766.240    87304975.317        -977.692          46.000  
G26  20310301.040   106731354.303         531.275          46.000    20310293.760    83167270.819         413.959          44.000  
G31  20616836.652   108342202.452          74.359          45.000    20616825.374    84422454.617          57.921          42.000  
G04  24315631.632   127779488.764        3157.568          42.000    24315628.038    99568462.434        2460.228          45.000  
C33  22548238.723   117414589.689        -864.768          48.000                                                                  
C06  36581863.699   190491365.962        -148.934          39.000    36581846.560   147299936.789        -115.438          45.000  
C14  22801905.657   118735489.334       -2387.013          43.000    22801891.427    91813757.942       -1845.830          46.000  
C16  37011425.985   192728204.831        -177.667          44.000    37011413.868   149029625.843        -137.427          44.000  
C24  21892734.886   114001218.550        -928.364          48.000                                                                  
C26  24573099.850   127958576.585       -2573.840          46.000                                                                  
G03  22900413.312   120342504.135        -310.434          39.000    22900408.337    93773343.536        -242.312          33.000  
G16  22266964.153                2       2881.357          28.000                                                                  
C09  37732721.539   196484162.382        -137.406          35.000    37732707.694   151933979.789        -106.353          44.000  
C25  23561914.010   122693080.268        1516.960          38.000                                                                  
C08  39332783.766                2      -2476.100          27.000    39332769.888   158376754.4412      -1914.456          34.000  
C10  40444425.390                3        935.449          21.000    40444430.459                2        725.115          31.000  
C35  25935742.838   135054223.378         257.501          41.000                                                                  
C13  38492420.700   200440137.2122      -2291.363          34.000    38492415.832                       -1771.082          27.000  
C12  26325728.059   137084972.545        2324.901          36.000    26325723.560   106002781.711        1798.167          43.000  
G25  24613814.395   129346473.720       -3919.504          38.000    24613810.436   100789423.959       -3054.057          36.000  
C07                                                                  39498157.628                         864.557          31.000  
> 2025 10 30 06 25 04.7200000  0 23                     
G32  22186334.387   116589979.5512      -3037.338          39.000    22186330.163    90849314.574       -2367.095          37.000  
G29  23109941.694   121443575.062        -767.976          45.000    23109933.090    94631327.506        -597.977          43.000  
G28  21320785.463   112041487.431       -1254.758          44.000    21320775.786    87305014.430        -977.826          46.000  
G26  20310296.987   106731333.050         531.299          46.000    20310289.683    83167254.256         414.058          44.000  
G31  20616836.085   108342199.481          74.303          45.000    20616824.799    84422452.303          57.829          42.000  
G04  24315607.595   127779362.479        3157.234          42.000    24315603.989    99568364.014        2460.385          45.000  
C33  22548245.360   117414624.284        -864.849          48.000                                                                  
C06  36581864.825   190491371.955        -149.511          39.000    36581847.762   147299941.420        -115.625          45.000  
C14  22801924.009   118735584.819       -2387.075          43.000    22801909.780    91813831.778       -1845.923          46.000  
C16  37011427.314   192728211.940        -177.737          44.000    37011415.210   149029631.341        -137.508          44.000  
C24  21892742.048   114001255.683        -928.362          48.000                                                                  
C26  24573119.623   127958679.541       -2573.917          46.000                                                                  
G03  22900415.674   120342516.567        -310.783          39.000    22900410.721    93773353.191        -241.692          33.000  
G16  22266941.735                2       2881.342          28.000                                                                  
C09  37732722.579   196484167.861        -137.011          35.000    37732708.734   151933984.026        -106.080          44.000  
C25  23561902.354   122693019.602        1516.664          38.000                                                                  
C08  39332802.738                2      -2476.550          27.000    39332788.834   158376831.0372      -1914.603          34.000  
C10  40444418.407                3        935.449          21.000    40444423.452                2        724.776          31.000  
C35  25935740.854   135054213.092         257.196          41.000                                                                  
C13  38492438.305   200440228.8772      -2291.731          34.000    38492433.426                       -1771.603          27.000  
C12  26325710.174   137084879.537        2325.034          36.000    26325705.700   106002709.784        1798.253          43.000  
G25  24613844.236   129346630.525       -3920.016          38.000    24613840.279   100789546.125       -3054.143          36.000  
C07                                                                  39498149.033                         865.477          31.000  
> 2025 10 30 06 25 04.7600000  0 23                     
G32  22186357.294   116590101.0542      -3037.476          39.000    22186353.017    90849409.235       -2366.670          37.000  
G29  23109947.533   121443605.763        -767.737          45.000    23109938.926    94631351.430        -598.028          43.000  
G28  21320795.005   112041537.607       -1254.542          44.000    21320785.344    87305053.527        -977.596          46.000  
G26  20310292.936   106731311.802         531.224          46.000    20310285.644    83167237.702         413.920          44.000  
G31  20616835.525   108342196.501          74.427          45.000    20616824.236    84422449.987          57.854          42.000  
G04  24315583.562   127779236.170        3157.537          42.000    24315579.936    99568265.591        2460.533          45.000  
C33  22548251.986   117414658.875        -864.829          48.000                                                                  
C06  36581865.974   190491377.927        -149.424          39.000    36581848.935   147299946.026        -115.277          45.000  
C14  22801942.349   118735680.299       -2387.005          43.000    22801928.097    91813905.617       -1846.028          46.000  
C16  37011428.671   192728219.035        -177.501          44.000    37011416.602   149029636.826        -137.257          44.000  
C24  21892749.164   114001292.815        -928.349          48.000                                                                  
C26  24573139.398   127958782.486       -2573.783          46.000                                                                  
G03  22900418.051   120342528.960        -310.135          39.000    22900413.068    93773362.844        -241.317          33.000  
G16  22266919.770                2       2881.058          28.000                                                                  
C09  37732723.623   196484173.351        -137.070          35.000    37732709.819   151933988.275        -106.192          44.000  
C25  23561890.691   122692958.923        1516.814          38.000                                                                  
C08  39332820.934                2      -2476.787          27.000    39332807.791   158376907.6322      -1914.719          34.000  
C10  40444411.094                3        935.449          21.000    40444417.033                2        724.031          31.000  
C35  25935738.890   135054202.781         257.526          41.000                                                                  
C13  38492455.883   200440320.4902      -2290.866          34.000    38492450.991                       -1771.533          27.000  
C12  26325692.278   137084786.520        2325.328          36.000    26325687.824   106002637.871        1797.996          43.000  
G25  24613874.047   129346787.328       -3920.183          38.000    24613870.117   100789668.305       -3054.403          36.000  
C07                                                                  39498140.463                         864.929          31.000  
> 2025 10 30 06 25 04.8000000  0 23                     
G32  22186380.369   116590222.5382      -3037.231          39.000    22186376.239    90849503.878       -2366.200          37.000  
G29  23109953.363   121443636.460        -767.501          45.000    23109944.771    94631375.352        -598.041          43.000  
G28  21320804.539   112041587.782       -1254.395          44.000    21320794.881    87305092.622        -977.407          46.000  
G26  20310288.876   106731290.548         531.280          46.000    20310281.604    83167221.137         414.032          44.000  
G31  20616834.942   108342193.520          74.494          45.000    20616823.672    84422447.668          57.922          42.000  
G04  24315559.546   127779109.861        3157.693          42.000    24315555.895    99568167.168        2460.613          45.000  
C33  22548258.635   117414693.466        -864.783          48.000                                                                  
C06  36581867.136   190491383.911        -149.597          39.000    36581850.060   147299950.639        -115.267          45.000  
C14  22801960.680   118735775.780       -2387.057          43.000    22801946.445    91813979.448       -1845.920          46.000  
C16  37011430.015   192728226.134        -177.480          44.000    37011417.980   149029642.314        -137.202          44.000  
C24  21892756.332   114001329.943        -928.278          48.000                                                                  
C26  24573159.193   127958885.423       -2573.553          46.000                                                                  
G03  22900420.404   120342541.371        -310.202          39.000    22900415.443    93773372.540        -242.015          33.000  
G16  22266897.725                2       2880.858          28.000                                                                  
C09  37732724.673   196484178.871        -137.689          35.000    37732710.895   151933992.528        -106.306          44.000  
C25  23561879.036   122692898.247        1516.864          38.000                                                                  
C08  39332839.741                2      -2476.429          27.000    39332827.095   158376984.2272      -1914.820          34.000  
C10  40444404.074                3        945.658          21.000    40444409.289                2        725.153          31.000  
C35  25935736.922   135054192.461         257.896          41.000                                                                  
C13  38492473.498   200440412.1362      -2291.015          34.000    38492468.564                       -1771.885          27.000  
C12  26325674.438   137084693.490        2325.744          36.000    26325669.977   106002565.946        1798.046          43.000  
G25  24613903.881   129346944.065       -3919.069          38.000    24613899.939   100789790.476       -3054.355          36.000  
C07                                                                  39498131.865                         863.777          31.000  
> 2025 10 30 06 25 04.8400000  0 23                     
G32  22186403.438   116590344.0372      -3037.362          39.000    22186399.525    90849598.542       -2366.395          37.000  
G29  23109959.198   121443667.167        -767.564          45.000    23109950.610    94631399.283        -598.209          43.000  
G28  21320814.083   112041637.968       -1254.532          44.000    21320804.424    87305131.720        -977.410          46.000  
G26  20310284.826   106731269.293         531.354          46.000    20310277.556    83167204.580         413.957          44.000  
G31  20616834.366   108342190.551          74.302          45.000    20616823.112    84422445.349          57.940          42.000  
G04  24315535.501   127778983.557        3157.645          42.000    24315531.867    99568068.748        2460.555          45.000  
C33  22548265.286   117414728.048        -864.639          48.000                                                                  
C06  36581868.260   190491389.888        -149.546          39.000    36581851.236   147299955.256        -115.337          45.000  
C14  22801979.006   118735871.257       -2386.981          43.000    22801964.789    91814053.271       -1845.687          46.000  
C16  37011431.373   192728233.239        -177.573          44.000    37011419.346   149029647.810        -137.314          44.000  
C24  21892763.489   114001367.070        -928.208          48.000                                                                  
C26  24573178.960   127958988.365       -2573.536          46.000                                                                  
G03  22900422.776   120342553.785        -310.325          39.000    22900417.824    93773382.198        -241.763          33.000  
G16  22266875.854                2       2881.225          28.000                                                                  
C09  37732725.736   196484184.347        -137.246          35.000    37732711.966   151933996.782        -106.380          44.000  
C25  23561867.387   122692837.558        1517.116          38.000                                                                  
C08  39332858.354                2      -2475.933          27.000    39332846.700   158377060.8132      -1914.698          34.000  
C10  40444396.868                3        945.658          21.000    40444402.182                2        725.035          31.000  
C35  25935734.935   135054182.143         258.036          41.000                                                                  
C13  38492491.101   200440503.7502      -2290.616          34.000    38492486.173                       -1771.572          27.000  
C12  26325656.538   137084600.443        2326.136          35.000    26325652.111   106002494.022        1798.071          43.000  
G25  24613933.690   129347100.815       -3918.686          38.000    24613929.755   100789912.637       -3054.214          36.000  
C07                                                                  39498123.255                         864.283          31.000  
> 2025 10 30 06 25 04.8800000  0 23                     
G32  22186426.179   116590465.5212      -3037.189          39.000    22186422.758    90849693.231       -2367.021          37.000  
G29  23109965.042   121443697.883        -767.789          45.000    23109956.464    94631423.223        -598.495          43.000  
G28  21320823.633   112041688.158       -1254.711          43.000    21320813.994    87305170.830        -977.659          46.000  
G26  20310280.789   106731248.051         531.130          46.000    20310273.535    83167188.028         413.802          44.000  
G31  20616833.802   108342187.585          74.155          45.000    20616822.545    84422443.038          57.798          42.000  
G04  24315511.465   127778857.245        3157.739          42.000    24315507.839    99567970.338        2460.321          45.000  
C33  22548271.913   117414762.643        -864.794          48.000                                                                  
C06  36581869.395   190491395.853        -149.234          39.000    36581852.360   147299959.889        -115.684          45.000  
C14  22801997.333   118735966.735       -2386.990          43.000    22801983.132    91814127.107       -1845.801          46.000  
C16  37011432.719   192728240.338        -177.522          44.000    37011420.720   149029653.315        -137.560          44.000  
C24  21892770.634   114001404.204        -928.294          48.000                                                                  
C26  24573198.699   127959091.316       -2573.696          46.000                                                                  
G03  22900425.141   120342566.217        -310.733          39.000    22900420.192    93773391.876        -241.893          33.000  
G16  22266853.656                2       2880.871          28.000                                                                  
C09  37732726.793   196484189.871        -137.891          35.000    37732713.020   151934001.038        -106.461          44.000  
C25  23561855.743   122692776.864        1517.312          38.000                                                                  
C08  39332877.181                2      -2476.045          27.000    39332864.357   158377137.3982      -1914.622          34.000  
C10  40444389.734                3        945.658          21.000    40444394.533                2        725.522          31.000  
C35  25935732.962   135054171.855         257.490          41.000                                                                  
C13  38492508.706   200440595.3892      -2290.858          34.000    38492503.757                       -1771.638          27.000  
C12  26325638.675   137084507.446        2325.390          35.000    26325634.221   106002422.102        1797.983          43.000  
G25  24613963.491   129347257.613       -3919.496          38.000    24613959.584   100790034.786       -3053.882          36.000  
C07                                                                  39498114.686                         864.954          31.000  
> 2025 10 30 06 25 04.9200000  0 23                     
G32  22186449.349   116590587.0212      -3037.384          39.000    22186445.724    90849787.920       -2367.372          37.000  
G29  23109970.893   121443728.591        -767.763          45.000    23109962.312    94631447.157        -598.479          43.000  
G28  21320833.184   112041738.346       -1254.766          43.000    21320823.557    87305209.946        -977.870          46.000  
G26  20310276.721   106731226.811         531.013          46.000    20310269.491    83167171.477         413.716          44.000  
G31  20616833.225   108342184.614          74.174          44.000    20616821.975    84422440.707          58.101          42.000  
G04  24315487.429   127778730.942        3157.679          42.000    24315483.812    99567871.920        2460.338          45.000  
C33  22548278.535   117414797.242        -864.951          48.000                                                                  
C06  36581870.548   190491401.834        -149.405          39.000    36581853.504   147299964.514        -115.708          45.000  
C14  22802015.656   118736062.237       -2387.455          43.000    22802001.447    91814200.937       -1845.790          46.000  
C16  37011434.081   192728247.450        -177.756          44.000    37011422.070   149029658.800        -137.315          44.000  
C24  21892777.753   114001441.346        -928.513          48.000                                                                  
C26  24573218.449   127959194.268       -2573.800          46.000                                                                  
G03  22900427.509   120342578.637        -310.672          39.000    22900422.543    93773401.564        -242.156          33.000  
G16  22266831.461                2       2881.941          29.000                                                                  
C09  37732727.846   196484195.348        -137.369          35.000    37732714.115   151934005.288        -106.356          44.000  
C25  23561844.099   122692716.188        1517.014          38.000                                                                  
C08  39332895.356                2      -2475.770          27.000    39332883.916   158377214.0142      -1915.317          34.000  
C10  40444382.345                3        940.914          21.000    40444387.239                2        725.284          31.000  
C35  25935730.983   135054161.552         257.444          41.000                                                                  
C13  38492526.328   200440687.0522      -2291.431          34.000    38492521.420                       -1772.134          27.000  
C12  26325621.073   137084414.479        2324.441          35.000    26325616.345   106002350.185        1797.915          43.000  
G25  24613993.330   129347414.406       -3919.734          38.000    24613989.430   100790156.945       -3053.850          36.000  
C07                                                                  39498106.073                         864.979          31.000  
> 2025 10 30 06 25 04.9600000  0 23                     
G32  22186472.308   116590708.5192      -3037.486          37.000    22186468.754    90849882.592       -2367.079          37.000  
G29  23109976.724   121443759.304        -767.806          45.000    23109968.147    94631471.083        -598.285          43.000  
G28  21320842.733   112041788.529       -1254.688          43.000    21320833.071    87305249.045        -977.665          46.000  
G26  20310272.684   106731205.572         530.915          46.000    20310265.453    83167154.932         413.599          44.000  
G31  20616832.662   108342181.647          74.113          44.000    20616821.406    84422438.404          57.724          42.000  
G04  24315463.376   127778604.640        3157.606          42.000    24315459.776    99567773.506        2460.266          45.000  
C33  22548285.172   117414831.841        -865.037          48.000                                                                  
C06  36581871.683   190491407.798        -149.219          39.000    36581854.626   147299969.136        -115.678          45.000  
C14  22802034.002   118736157.720       -2387.331          43.000    22802019.772    91814274.772       -1845.879          46.000  
C16  37011435.462   192728254.564        -177.900          44.000    37011423.434   149029664.297        -137.428          44.000  
C24  21892784.900   114001478.475        -928.393          48.000                                                                  
C26  24573238.211   127959297.208       -2573.658          46.000                                                                  
G03  22900429.863   120342591.058        -310.663          39.000    22900424.936    93773411.231        -241.811          33.000  
G16  22266809.651                2       2880.794          29.000                                                                  
C09  37732728.894   196484200.831        -137.164          35.000    37732715.178   151934009.532        -106.218          44.000  
C25  23561832.449   122692655.537        1516.417          38.000                                                                  
C08  39332914.317                2      -2475.719          27.000    39332902.917   158377290.6252      -1915.509          34.000  
C10  40444375.296                3        940.914          21.000    40444380.320                2        724.730          31.000  
C35  25935729.005   135054151.261         257.271          41.000                                                                  
C13  38492543.890   200440778.6962      -2291.230          34.000    38492539.034                       -1771.957          27.000  
C12  26325603.401   137084321.453        2325.122          35.000    26325598.493   106002278.269        1797.885          43.000  
G25  24614023.149   129347571.181       -3919.598          38.000    24614019.269   100790279.123       -3054.304          36.000  
C07                                                                  39498097.508                         864.342          31.000  
> 2025 10 30 06 25 05.0000000  0 23                     
G32  22186495.596   116590830.0292      -3037.658          37.000    22186492.085    90849977.227       -2366.294          37.000  
G29  23109982.574   121443790.023        -767.961          45.000    23109974.007    94631495.013        -598.266          43.000  
G28  21320852.310   112041838.723       -1254.832          43.000    21320842.620    87305288.152        -977.692          46.000  
G26  20310268.635   106731184.334         530.885          46.000    20310261.394    83167138.377         413.763          44.000  
G31  20616832.088   108342178.681          74.052          44.000    20616820.839    84422436.098          57.602          42.000  
G04  24315439.329   127778478.329        3157.712          42.000    24315435.726    99567675.086        2460.349          45.000  
C33  22548291.806   117414866.441        -865.065          48.000                                                                  
C06  36581872.821   190491413.789        -149.593          39.000    36581855.748   147299973.756        -115.584          45.000  
C14  22802052.342   118736253.209       -2387.342          43.000    22802038.131    91814348.614       -1846.041          46.000  
C16  37011436.813   192728261.669        -177.818          43.000    37011424.790   149029669.803        -137.613          44.000  
C24  21892792.047   114001515.602        -928.277          48.000                                                                  
C26  24573257.966   127959400.160       -2573.738          46.000                                                                  
G03  22900432.236   120342603.485        -310.705          39.000    22900427.305    93773420.910        -241.882          33.000  
G16  22266787.668                2       2880.661          29.000                                                                  
C09  37732729.957   196484206.322        -137.245          35.000    37732716.237   151934013.773        -106.100          44.000  
C25  23561820.780   122692594.872        1516.389          37.000                                                                  
C08  39332930.903                2      -2476.548          27.000    39332921.547   158377367.1962      -1914.856          34.000  
C10  40444367.890                3        940.914          21.000    40444372.811                2        724.804          31.000  
C35  25935726.999   135054140.976         257.106          41.000                                                                  
C13  38492561.500   200440870.3352      -2291.027          34.000    38492556.659                       -1771.632          27.000  
C12  26325585.524   137084228.459        2324.853          35.000    26325580.601   106002206.355        1797.837          43.000  
G25  24614052.963   129347727.984       -3920.013          38.000    24614049.110   100790401.304       -3054.564          36.000  
C07                                                                  39498088.940                         864.707          31.000  
> 2025 10 30 06 25 05.0400000  0 23                     
G32  22186518.234   116590951.5132      -3037.316          37.000    22186515.189    90850071.925       -2367.050          37.000  
G29  23109988.427   121443820.743        -768.060          45.000    23109979.861    94631518.955        -598.466          43.000  
G28  21320861.866   112041888.916       -1254.873          42.000    21320852.181    87305327.253        -977.571          46.000  
G26  20310264.555   106731163.087         531.062          46.000    20310257.363    83167121.815         413.981          44.000  
G31  20616831.494   108342175.705          74.255          44.000    20616820.274    84422433.786          57.671          42.000  
G04  24315415.298   127778352.035        3157.480          42.000    24315411.685    99567576.664        2460.456          45.000  
C33  22548298.461   117414901.038        -865.032          48.000                                                                  
C06  36581873.980   190491419.787        -149.932          39.000    36581856.868   147299978.375        -115.535          45.000  
C14  22802070.683   118736348.690       -2387.196          42.000    22802056.481    91814422.457       -1846.100          46.000  
C16  37011438.179   192728268.766        -177.597          43.000    37011426.163   149029675.295        -137.426          44.000  
C24  21892799.155   114001552.737        -928.357          48.000                                                                  
C26  24573277.716   127959503.110       -2573.791          46.000                                                                  
G03  22900434.631   120342615.897        -310.400          39.000    22900429.654    93773430.607        -242.440          33.000  
G16  22266766.358                2       2881.269          29.000                                                                  
C09  37732731.045   196484211.837        -137.747          35.000    37732717.262   151934018.025        -106.189          44.000  
C25  23561809.114   122692534.191        1516.636          37.000                                                                  
C08  39332949.194                2      -2476.627          27.000    39332940.646   158377443.7972      -1915.001          34.000  
C10  40444361.252                3        940.914          21.000    40444365.554                2        724.738          31.000  
C35  25935725.040   135054130.676         257.330          41.000                                                                  
C13  38492579.095   200440961.9872      -2290.976          33.000    38492574.240                       -1771.266          27.000  
C12  26325567.645   137084135.448        2325.034          35.000    26325562.739   106002134.423        1798.186          43.000  
G25  24614082.808   129347884.795       -3920.262          38.000    24614078.942   100790523.469       -3054.396          36.000  
C07                                                                  39498080.349                         864.574          31.000  
> 2025 10 30 06 25 05.0800000  0 23                     
G32  22186541.456   116591073.0122      -3037.470          37.000    22186538.474    90850166.589       -2366.838          37.000  
G29  23109994.269   121443851.450        -767.840          45.000    23109985.713    94631542.878        -598.242          43.000  
G28  21320871.431   112041939.104       -1254.760          42.000    21320861.732    87305366.349        -977.443          46.000  
G26  20310260.508   106731141.839         531.173          46.000    20310253.308    83167105.254         414.015          44.000  
G31  20616830.926   108342172.731          74.317          44.000    20616819.703    84422431.462          57.979          42.000  
G04  24315391.250   127778225.734        3157.458          42.000    24315387.672    99567478.239        2460.572          45.000  
C33  22548305.108   117414935.628        -864.867          48.000                                                                  
C06  36581875.145   190491425.748        -149.383          39.000    36581858.020   147299982.985        -115.334          45.000  
C14  22802089.026   118736444.163       -2386.913          42.000    22802074.810    91814496.290       -1845.934          46.000  
C16  37011439.550   192728275.856        -177.327          43.000    37011427.520   149029680.787        -137.351          44.000  
C24  21892806.290   114001589.863        -928.212          48.000                                                                  
C26  24573297.509   127959606.051       -2573.644          46.000                                                                  
G03  22900436.983   120342628.309        -310.297          39.000    22900432.006    93773440.299        -242.496          33.000  
G16  22266743.799                2       2881.327          29.000                                                                  
C09  37732732.096   196484217.360        -138.133          35.000    37732718.301   151934022.284        -106.385          44.000  
C25  23561797.460   122692473.515        1516.797          37.000                                                                  
C08  39332968.983                2      -2476.303          27.000    39332959.860   158377520.3732      -1914.596          34.000  
C10  40444354.173                3        940.914          21.000    40444357.976                2        724.763          31.000  
C35  25935723.071   135054120.373         257.486          40.000                                                                  
C13  38492596.691   200441053.6292      -2290.896          33.000    38492591.820                       -1771.089          27.000  
C12  26325549.971   137084042.418        2325.513          35.000    26325544.872   106002062.498        1798.203          43.000  
G25  24614112.640   129348041.534       -3919.144          38.000    24614108.797   100790645.644       -3054.375          36.000  
C07                                                                  39498071.748                         864.647          31.000  
> 2025 10 30 06 25 05.1200000  0 23                     
G32  22186564.221   116591194.5052      -3037.399          37.000    22186561.337    90850261.258       -2366.773          37.000  
G29  23110000.091   121443882.167        -767.896          45.000    23109991.569    94631566.805        -598.192          43.000  
G28  21320880.946   112041989.290       -1254.648          42.000    21320871.276    87305405.453        -977.535          46.000  
G26  20310256.456   106731120.591         531.202          46.000    20310249.261    83167088.694         414.001          44.000  
G31  20616830.324   108342169.749          74.501          44.000    20616819.163    84422429.150          57.929          42.000  
G04  24315367.206   127778099.413        3157.861          42.000    24315363.616    99567379.815        2460.627          45.000  
C33  22548311.741   117414970.220        -864.798          47.000                                                                  
C06  36581876.283   190491431.723        -149.352          39.000    36581859.169   147299987.605        -115.417          45.000  
C14  22802107.336   118736539.648       -2386.992          42.000    22802093.146    91814570.114       -1845.691          46.000  
C16  37011440.919   192728282.949        -177.250          43.000    37011428.895   149029686.265        -137.036          44.000  
C24  21892813.415   114001626.997        -928.286          48.000                                                                  
C26  24573317.300   127959708.990       -2573.522          46.000                                                                  
G03  22900439.366   120342640.738        -310.570          39.000    22900434.348    93773449.941        -241.646          33.000  
G16  22266721.579                2       2881.250          29.000                                                                  
C09  37732733.157   196484222.834        -137.315          35.000    37732719.365   151934026.535        -106.345          44.000  
C25  23561785.788   122692412.812        1517.345          37.000                                                                  
C08  39332988.057                2      -2476.266          27.000    39332978.858   158377596.9382      -1914.072          34.000  
C10  40444347.171                3        945.542          21.000    40444350.823                2        725.000          31.000  
C35  25935721.083   135054110.061         257.768          40.000                                                                  
C13  38492614.288   200441145.2312      -2290.202          33.000    38492609.433                       -1770.991          27.000  
C12  26325532.078   137083949.373        2326.026          35.000    26325526.983   106001990.582        1798.052          43.000  
G25  24614142.462   129348198.315       -3919.288          38.000    24614138.625   100790767.813       -3054.339          36.000  
C07                                                                  39498063.172                         864.900          31.000  
> 2025 10 30 06 25 05.1600000  0 23                     
G32  22186587.180   116591315.9982      -3037.394          37.000    22186584.131    90850355.931       -2366.826          37.000  
G29  23110005.927   121443912.883        -767.896          45.000    23109997.411    94631590.738        -598.306          43.000  
G28  21320890.502   112042039.463       -1254.382          42.000    21320880.817    87305444.556        -977.604          46.000  
G26  20310252.410   106731099.338         531.301          46.000    20310245.201    83167072.139         413.920          44.000  
G31  20616829.761   108342166.782          74.278          43.000    20616818.593    84422426.815          58.299          42.000  
G04  24315343.178   127777973.102        3157.883          42.000    24315339.579    99567281.391        2460.623          45.000  
C33  22548318.417   117415004.811        -864.755          47.000                                                                  
C06  36581877.422   190491437.691        -149.206          39.000    36581860.286   147299992.222        -115.398          45.000  
C14  22802125.669   118736635.105       -2386.598          42.000    22802111.480    91814643.945       -1845.713          46.000  
C16  37011442.300   192728290.056        -177.489          43.000    37011430.261   149029691.751        -137.059          44.000  
C24  21892820.526   114001664.132        -928.364          47.000                                                                  
C26  24573337.089   127959811.932       -2573.541          45.000                                                                  
G03  22900441.737   120342653.161        -310.646          39.000    22900436.704    93773459.614        -241.636          32.000  
G16  22266699.728                2       2880.126          30.000                                                                  
C09  37732734.184   196484228.292        -136.539          35.000    37732720.437   151934030.782        -106.236          44.000  
C25  23561774.135   122692352.131        1517.194          37.000                                                                  
C08  39333007.723                2      -2476.150          27.000    39332998.374   158377673.5012      -1913.964          34.000  
C10  40444339.810                3        945.542          21.000    40444343.740                2        725.024          31.000  
C35  25935719.099   135054099.763         257.560          40.000                                                                  
C13  38492631.888   200441236.8962      -2291.062          33.000    38492627.068                       -1772.106          27.000  
C12  26325514.190   137083856.364        2325.540          35.000    26325509.105   106001918.644        1798.338          43.000  
G25  24614172.282   129348355.095       -3919.324          37.000    24614168.460   100790889.972       -3054.076          36.000  
C07                                                                  39498054.555                         865.637          31.000  
> 2025 10 30 06 25 05.2000000  0 23                     
G32  22186609.819   116591437.4972      -3037.517          37.000    22186607.406    90850450.587       -2366.490          37.000  
G29  23110011.760   121443943.590        -767.754          44.000    23110003.253    94631614.672        -598.330          43.000  
G28  21320900.028   112042089.629       -1254.150          42.000    21320890.385    87305483.664        -977.700          46.000  
G26  20310248.385   106731078.095         531.150          46.000    20310241.154    83167055.593         413.665          44.000  
G31  20616829.201   108342163.815          74.180          43.000    20616818.042    84422424.504          58.013          42.000  
G04  24315319.157   127777846.794        3157.810          42.000    24315315.572    99567182.977        2460.450          45.000  
C33  22548325.045   117415039.412        -864.922          47.000                                                                  
C06  36581878.562   190491443.662        -149.254          39.000    36581861.490   147299996.837        -115.361          45.000  
C14  22802144.052   118736730.596       -2386.992          42.000    22802129.792    91814717.777       -1845.798          46.000  
C16  37011443.675   192728297.154        -177.509          43.000    37011431.606   149029697.235        -137.084          44.000  
C24  21892827.667   114001701.255        -928.188          47.000                                                                  
C26  24573356.868   127959914.877       -2573.589          45.000                                                                  
G03  22900444.097   120342665.574        -310.454          39.000    22900439.053    93773469.269        -241.344          32.000  
G16  22266677.178                2       2880.755          30.000                                                                  
C09  37732735.219   196484233.776        -136.747          35.000    37732721.511   151934035.024        -106.073          44.000  
C25  23561762.484   122692291.448        1517.045          37.000                                                                  
C08  39333025.783                2      -2476.476          27.000    39333017.385   158377750.1182      -1914.946          34.000  
C10  40444332.429                3        945.542          21.000    40444336.693                2        725.445          30.000  
C35  25935717.110   135054089.466         257.441          40.000                                                                  
C13  38492649.443   200441328.5552      -2291.567          33.000    38492644.724                       -1772.147          27.000  
C12  26325496.240   137083763.333        2325.747          35.000    26325491.233   106001846.718        1798.224          43.000  
G25  24614202.144   129348511.852       -3919.040          35.000    24614198.294   100791012.121       -3053.789          36.000  
C07                                                                  39498045.996                         863.380          31.000  
> 2025 10 30 06 25 05.2400000  0 23                     
G32  22186633.036   116591558.9902      -3037.444          37.000    22186630.369    90850545.247       -2366.467          37.000  
G29  23110017.603   121443974.290        -767.524          44.000    23110009.097    94631638.612        -598.491          43.000  
G28  21320909.593   112042139.821       -1254.548          42.000    21320899.930    87305522.762        -977.543          46.000  
G26  20310244.349   106731056.855         531.039          46.000    20310237.114    83167039.036         413.804          44.000  
G31  20616828.626   108342160.832          74.427          43.000    20616817.487    84422422.189          57.890          42.000  
G04  24315295.108   127777720.470        3158.066          42.000    24315291.525    99567084.554        2460.493          45.000  
C33  22548331.725   117415074.010        -864.958          47.000                                                                  
C06  36581879.700   190491449.616        -148.984          39.000    36581862.634   147300001.449        -115.311          45.000  
C14  22802162.372   118736826.092       -2387.330          42.000    22802148.116    91814791.615       -1845.936          45.000  
C16  37011445.070   192728304.254        -177.485          42.000    37011432.980   149029702.719        -137.072          44.000  
C24  21892834.795   114001738.381        -928.173          47.000                                                                  
C26  24573376.642   127960017.814       -2573.503          45.000                                                                  
G03  22900446.475   120342678.004        -310.643          39.000    22900441.425    93773479.001        -242.870          32.000  
G16  22266654.952                2       2881.356          30.000                                                                  
C09  37732736.268   196484239.312        -138.087          35.000    37732722.569   151934039.271        -106.121          44.000  
C25  23561750.828   122692230.772        1516.885          35.000                                                                  
C08  39333045.188                2      -2476.345          27.000    39333036.550   158377826.7212      -1915.229          34.000  
C10  40444325.646                3        947.866          21.000    40444329.722                2        725.050          30.000  
C35  25935715.128   135054079.153         257.804          40.000                                                                  
C13  38492667.032   200441420.1932      -2291.380          33.000    38492662.330                       -1771.865          27.000  
C12  26325478.287   137083670.333        2325.224          35.000    26325473.360   106001774.798        1798.062          43.000  
G25  24614231.978   129348668.630       -3919.272          36.000    24614228.126   100791134.285       -3053.995          36.000  
C07                                                                  39498037.418                         863.746          31.000  
> 2025 10 30 06 25 05.2800000  0 23                     
G32  22186656.094   116591680.4692      -3037.103          37.000    22186653.512    90850639.932       -2366.911          37.000  
G29  23110023.451   121444005.004        -767.707          44.000    23110014.923    94631662.538        -598.297          43.000  
G28  21320919.145   112042189.996       -1254.486          41.000    21320909.495    87305561.858        -977.419          46.000  
G26  20310240.285   106731035.606         531.146          45.000    20310233.061    83167022.475         413.948          44.000  
G31  20616828.039   108342157.852          74.513          43.000    20616816.953    84422419.872          57.866          42.000  
G04  24315271.078   127777594.171        3157.722          42.000    24315267.490    99566986.125        2460.616          45.000  
C33  22548338.394   117415108.603        -864.893          47.000                                                                  
C06  36581880.826   190491455.591        -149.213          39.000    36581863.794   147300006.056        -115.237          45.000  
C14  22802180.713   118736921.568       -2387.105          42.000    22802166.457    91814865.445       -1845.846          45.000  
C16  37011446.421   192728311.343        -177.271          42.000    37011434.357   149029708.213        -137.240          44.000  
C24  21892841.918   114001775.508        -928.182          47.000                                                                  
C26  24573396.391   127960120.770       -2573.783          45.000                                                                  
G03  22900448.850   120342690.421        -310.510          39.000    22900443.800    93773488.674        -242.563          32.000  
G16  22266633.187                2       2880.862          30.000                                                                  
C09  37732737.349   196484244.846        -138.779          34.000    37732723.616   151934043.502        -105.861          44.000  
C25  23561739.166   122692170.096        1516.744          35.000                                                                  
C08  39333063.163                2      -2475.692          27.000    39333056.009   158377903.3392      -1915.493          34.000  
C10  40444318.225                3        947.866          21.000    40444323.612                2        723.904          31.000  
C35  25935713.143   135054068.863         257.486          40.000                                                                  
C13  38492684.659   200441511.8502      -2291.421          33.000    38492679.941                       -1771.693          27.000  
C12  26325460.410   137083577.315        2325.377          35.000    26325455.506   106001702.879        1797.931          43.000  
G25  24614261.814   129348825.419       -3919.617          36.000    24614257.945   100791256.442       -3053.971          36.000  
C07                                                                  39498028.819                         864.302          31.000  
> 2025 10 30 06 25 05.3200000  0 23                     
G32  22186678.834   116591801.9842      -3037.602          37.000    22186676.598    90850734.620       -2367.248          37.000  
G29  23110029.314   121444035.728        -767.968          44.000    23110020.764    94631686.468        -598.266          43.000  
G28  21320928.726   112042240.193       -1254.764          41.000    21320919.045    87305600.967        -977.618          46.000  
G26  20310236.232   106731014.358         531.202          45.000    20310229.029    83167005.918         413.972          44.000  
G31  20616827.473   108342154.880          74.389          43.000    20616816.402    84422417.559          57.755          42.000  
G04  24315247.032   127777467.871        3157.563          42.000    24315243.474    99566887.707        2460.494          45.000  
C33  22548345.040   117415143.200        -864.932          47.000                                                                  
C06  36581881.956   190491461.565        -149.413          38.000    36581864.937   147300010.673        -115.364          45.000  
C14  22802199.045   118737017.057       -2387.219          42.000    22802184.787    91814939.287       -1846.028          45.000  
C16  37011447.767   192728318.432        -177.171          42.000    37011435.708   149029713.700        -137.219          44.000  
C24  21892849.030   114001812.645        -928.384          47.000                                                                  
C26  24573416.156   127960223.716       -2573.784          45.000                                                                  
G03  22900451.224   120342702.844        -310.568          39.000    22900446.160    93773498.365        -242.667          32.000  
G16  22266611.383                2       2881.294          30.000                                                                  
C09  37732738.413   196484250.307        -137.393          34.000    37732724.659   151934047.748        -106.000          44.000  
C25  23561727.520   122692109.420        1516.739          35.000                                                                  
C08  39333083.692                2      -2476.260          27.000    39333075.177   158377979.9142      -1914.885          34.000  
C10  40444310.952                3        947.866          21.000    40444316.255                2        724.229          31.000  
C35  25935711.174   135054058.564         257.404          40.000                                                                  
C13  38492702.246   200441603.4912      -2291.174          33.000    38492697.540                       -1772.064          27.000  
C12  26325442.499   137083484.304        2325.316          35.000    26325437.677   106001630.947        1798.125          43.000  
G25  24614291.644   129348982.172       -3919.068          35.000    24614287.782   100791378.618       -3054.368          36.000  
C07                                                                  39498020.229                         864.525          31.000  
> 2025 10 30 06 25 05.3600000  0 23                     
G32  22186701.751   116591923.5022      -3037.868          37.000    22186699.728    90850829.303       -2367.316          36.000  
G29  23110035.147   121444066.453        -768.159          44.000    23110026.623    94631710.414        -598.566          43.000  
G28  21320938.293   112042290.372       -1254.662          41.000    21320928.589    87305640.072        -977.675          46.000  
G26  20310232.180   106730993.122         530.977          45.000    20310224.983    83166989.373         413.741          44.000  
G31  20616826.925   108342151.917          74.136          43.000    20616815.816    84422415.242          57.786          42.000  
G04  24315223.000   127777341.570        3157.504          42.000    24315219.450    99566789.295        2460.326          45.000  
C33  22548351.711   117415177.801        -865.028          47.000                                                                  
C06  36581883.103   190491467.533        -149.348          38.000    36581866.110   147300015.294        -115.507          45.000  
C14  22802217.372   118737112.539       -2387.142          42.000    22802203.125    91815013.120       -1845.958          45.000  
C16  37011449.119   192728325.541        -177.527          42.000    37011437.087   149029719.190        -137.222          44.000  
C24  21892856.132   114001849.787        -928.559          47.000                                                                  
C26  24573435.947   127960326.663       -2573.752          45.000                                                                  
G03  22900453.588   120342715.263        -310.562          39.000    22900448.519    93773507.996        -241.434          32.000  
G16  22266589.407                2       2880.852          30.000                                                                  
C09  37732739.465   196484255.766        -136.706          34.000    37732725.709   151934052.000        -106.222          44.000  
C25  23561715.885   122692048.717        1517.382          35.000                                                                  
C08  39333102.058                2      -2476.299          27.000    39333094.214   158378056.4852      -1914.324          34.000  
C10  40444303.728                3        947.866          21.000    40444309.499                2        724.197          31.000  
C35  25935709.217   135054048.267         257.420          40.000                                                                  
C13  38492719.851   200441695.1052      -2290.714          33.000    38492715.134                       -1771.126          27.000  
C12  26325424.669   137083391.298        2325.109          35.000    26325419.801   106001559.025        1798.070          42.000  
G25  24614321.428   129349138.954       -3919.391          36.000    24614317.606   100791500.783       -3054.365          36.000  
C07                                                                  39498011.631                         864.955          31.000  
> 2025 10 30 06 25 05.4000000  0 23                     
G32  22186724.624   116592044.9882      -3037.418          37.000    22186722.791    90850923.983       -2367.232          36.000  
G29  23110040.999   121444097.175        -768.125          44.000    23110032.481    94631734.341        -598.327          43.000  
G28  21320947.829   112042340.541       -1254.381          41.000    21320938.153    87305679.176        -977.677          46.000  
G26  20310228.149   106730971.883         530.928          45.000    20310220.937    83166972.825         413.667          44.000  
G31  20616826.361   108342148.937          74.285          43.000    20616815.237    84422412.923          57.885          42.000  
G04  24315198.975   127777215.273        3157.418          42.000    24315195.423    99566690.878        2460.347          45.000  
C33  22548358.339   117415212.404        -865.107          47.000                                                                  
C06  36581884.254   190491473.494        -149.168          38.000    36581867.262   147300019.917        -115.626          45.000  
C14  22802235.700   118737208.029       -2387.261          42.000    22802221.463    91815086.955       -1845.906          45.000  
C16  37011450.477   192728332.643        -177.588          42.000    37011438.450   149029724.675        -137.170          44.000  
C24  21892863.244   114001886.917        -928.389          47.000                                                                  
C26  24573455.722   127960429.601       -2573.573          45.000                                                                  
G03  22900455.955   120342727.688        -310.612          39.000    22900450.894    93773517.681        -241.666          32.000  
G16  22266567.511                2       2880.658          31.000                                                                  
C09  37732740.524   196484261.243        -136.714          34.000    37732726.742   151934056.237        -106.068          44.000  
C25  23561704.232   122691988.051        1516.948          35.000                                                                  
C08  39333122.457                2      -2476.031          27.000    39333112.736   158378133.0792      -1914.543          34.000  
C10  40444296.714                3        936.085          21.000    40444302.026                2        725.192          31.000  
C35  25935707.198   135054037.968         257.483          40.000                                                                  
C13  38492737.504   200441786.7612      -2291.096          33.000    38492732.718                       -1770.564          27.000  
C12  26325406.832   137083298.269        2325.637          35.000    26325401.933   106001487.092        1798.238          42.000  
G25  24614351.259   129349295.762       -3920.033          36.000    24614347.436   100791622.951       -3054.308          36.000  
C07                                                                  39498003.035                         864.882          31.000  
> 2025 10 30 06 25 05.4400000  0 23                     
G32  22186747.709   116592166.4792      -3037.336          37.000    22186746.061    90851018.646       -2366.851          36.000  
G29  23110046.825   121444127.884        -767.862          44.000    23110038.332    94631758.284        -598.508          43.000  
G28  21320957.361   112042390.717       -1254.319          41.000    21320947.713    87305718.277        -977.589          46.000  
G26  20310224.109   106730950.633         531.110          46.000    20310216.888    83166956.270         413.769          44.000  
G31  20616825.788   108342145.961          74.340          43.000    20616814.669    84422410.606          57.904          42.000  
G04  24315174.931   127777088.957        3157.683          42.000    24315171.396    99566592.453        2460.494          45.000  
C33  22548364.973   117415247.001        -865.016          47.000                                                                  
C06  36581885.385   190491479.452        -148.951          38.000    36581868.370   147300024.529        -115.451          44.000  
C14  22802254.088   118737303.516       -2387.235          42.000    22802239.798    91815160.786       -1845.843          45.000  
C16  37011451.838   192728339.738        -177.446          42.000    37011439.838   149029730.156        -137.075          44.000  
C24  21892870.395   114001924.044        -928.242          47.000                                                                  
C26  24573475.498   127960532.538       -2573.457          45.000                                                                  
G03  22900458.342   120342740.120        -310.715          39.000    22900453.246    93773527.353        -241.708          32.000  
G16  22266545.952                2       2880.834          31.000                                                                  
C09  37732741.561   196484266.754        -137.532          34.000    37732727.792   151934060.483        -106.105          44.000  
C25  23561692.583   122691927.367        1516.979          35.000                                                                  
C08  39333141.345                2      -2476.136          27.000    39333131.797   158378209.6962      -1915.106          34.000  
C10  40444289.390                3        936.085          21.000    40444294.831                2        725.444          31.000  
C35  25935705.202   135054027.676         257.338          40.000                                                                  
C13  38492755.090   200441878.3782      -2290.628          33.000    38492750.329                       -1771.134          27.000  
C12  26325389.042   137083205.251        2325.615          35.000    26325384.046   106001415.164        1798.224          42.000  
G25  24614381.095   129349452.538       -3919.718          36.000    24614377.244   100791745.117       -3054.213          36.000  
C07                                                                  39497994.438                         864.865          31.000  
> 2025 10 30 06 25 05.4800000  0 23                     
G32  22186770.654   116592287.9632      -3037.203          37.000    22186769.285    90851113.295       -2366.369          36.000  
G29  23110052.647   121444158.590        -767.646          44.000    23110044.175    94631782.226        -598.576          43.000  
G28  21320966.908   112042440.894       -1254.347          41.000    21320957.249    87305757.379        -977.570          46.000  
G26  20310220.084   106730929.385         531.203          46.000    20310212.852    83166939.716         413.831          44.000  
G31  20616825.203   108342142.988          74.328          43.000    20616814.106    84422408.285          58.015          42.000  
G04  24315150.890   127776962.646        3157.710          42.000    24315147.345    99566494.035        2460.492          45.000  
C33  22548371.625   117415281.599        -864.952          47.000                                                                  
C06  36581886.543   190491485.415        -148.994          38.000    36581869.541   147300029.130        -115.207          44.000  
C14  22802272.420   118737399.002       -2387.184          42.000    22802258.131    91815234.620       -1845.818          45.000  
C16  37011453.178   192728346.817        -177.126          42.000    37011441.186   149029735.637        -137.027          44.000  
C24  21892877.524   114001961.172        -928.200          47.000                                                                  
C26  24573495.257   127960635.472       -2573.330          45.000                                                                  
G03  22900460.707   120342752.546        -310.695          39.000    22900455.624    93773537.053        -242.301          32.000  
G16  22266523.544   117011347.8513       2880.564          31.000                                                                  
C09  37732742.642   196484272.221        -137.100          34.000    37732728.841   151934064.734        -106.245          44.000  
C25  23561680.949   122691866.675        1517.176          35.000                                                                  
C08  39333159.423                2      -2476.200          27.000    39333150.635   158378286.2682      -1914.700          34.000  
C10  40444282.307                3        936.085          21.000    40444288.198                2        725.135          31.000  
C35  25935703.215   135054017.372         257.470          40.000                                                                  
C13  38492772.652   200441970.0272      -2291.105          33.000    38492767.964                       -1771.792          27.000  
C12  26325371.248   137083112.220        2325.819          35.000    26325366.188   106001343.238        1798.162          42.000  
G25  24614410.911   129349609.295       -3919.110          36.000    24614407.072   100791867.279       -3054.146          36.000  
C07                                                                  39497985.857                         864.366          31.000  
> 2025 10 30 06 25 05.5200000  0 23                     
G32  22186794.149   116592409.4482      -3037.108          37.000    22186792.632    90851207.982       -2366.876          36.000  
G29  23110058.469   121444189.299        -767.635          44.000    23110050.006    94631806.151        -598.295          43.000  
G28  21320976.457   112042491.067       -1254.303          41.000    21320966.794    87305796.474        -977.427          46.000  
G26  20310216.050   106730908.138         531.189          46.000    20310208.827    83166923.157         413.948          44.000  
G31  20616824.635   108342140.007          74.470          43.000    20616813.553    84422405.962          58.082          42.000  
G04  24315126.842   127776836.339        3157.644          42.000    24315123.304    99566395.611        2460.550          45.000  
C33  22548378.302   117415316.191        -864.854          47.000                                                                  
C06  36581887.700   190491491.361        -148.757          38.000    36581870.704   147300033.741        -115.212          44.000  
C14  22802290.743   118737494.476       -2386.913          42.000    22802276.460    91815308.450       -1845.743          45.000  
C16  37011454.519   192728353.894        -176.887          42.000    37011442.543   149029741.113        -136.961          44.000  
C24  21892884.674   114001998.293        -928.075          47.000                                                                  
C26  24573515.039   127960738.412       -2573.390          45.000                                                                  
G03  22900463.093   120342764.971        -310.683          39.000    22900457.982    93773546.736        -242.277          32.000  
G16  22266502.022   117011232.5872       2881.191          31.000                                                                  
C09  37732743.685   196484277.705        -137.119          34.000    37732729.941   151934068.962        -105.875          44.000  
C25  23561669.293   122691805.996        1517.040          35.000                                                                  
C08  39333179.541                2      -2475.983          27.000    39333169.316   158378362.8842      -1915.161          34.000  
C10  40444275.212                3        936.085          21.000    40444280.969                2        725.851          31.000  
C35  25935701.234   135054007.079         257.350          40.000                                                                  
C13  38492790.264   200442061.6302      -2290.488          32.000    38492785.556                       -1771.493          27.000  
C12  26325353.597   137083019.190        2325.802          35.000    26325348.330   106001271.310        1798.174          42.000  
G25  24614440.737   129349766.078       -3919.323          36.000    24614436.907   100791989.416       -3053.744          36.000  
C07                                                                  39497977.256                         863.945          31.000  
> 2025 10 30 06 25 05.5600000  0 23                     
G32  22186817.352   116592530.9602      -3037.539          37.000    22186815.740    90851302.645       -2366.691          36.000  
G29  23110064.327   121444220.009        -767.694          44.000    23110055.856    94631830.068        -598.023          43.000  
G28  21320986.019   112042541.249       -1254.479          41.000    21320976.327    87305835.562        -977.241          46.000  
G26  20310211.987   106730886.888         531.226          46.000    20310204.782    83166906.603         413.866          44.000  
G31  20616824.056   108342137.022          74.611          43.000    20616812.981    84422403.629          58.297          42.000  
G04  24315102.820   127776710.021        3157.817          42.000    24315099.260    99566297.180        2460.710          45.000  
C33  22548384.926   117415350.790        -864.925          47.000                                                                  
C06  36581888.843   190491497.330        -149.026          38.000    36581871.870   147300038.344        -115.098          44.000  
C14  22802309.085   118737589.960       -2387.018          42.000    22802294.769    91815382.284       -1845.808          45.000  
C16  37011455.873   192728360.981        -177.034          42.000    37011443.908   149029746.606        -137.227          44.000  
C24  21892891.805   114002035.416        -928.066          47.000                                                                  
C26  24573534.805   127960841.348       -2573.364          45.000                                                                  
G03  22900465.460   120342777.393        -310.582          39.000    22900460.367    93773556.421        -242.287          32.000  
G16  22266479.962   117011117.3402       2881.174          31.000                                                                  
C09  37732744.705   196484283.180        -137.039          34.000    37732731.018   151934073.185        -105.601          44.000  
C25  23561657.626   122691745.296        1517.348          35.000                                                                  
C08  39333197.919                2      -2476.272          27.000    39333188.363   158378439.4382      -1914.402          34.000  
C10  40444268.085                3        936.085          21.000    40444274.305                2        724.968          31.000  
C35  25935699.255   135053996.776         257.489          40.000                                                                  
C13  38492807.827   200442153.2702      -2290.823          32.000    38492803.151                       -1771.818          27.000  
C12  26325335.741   137082926.181        2325.307          35.000    26325330.429   106001199.374        1798.329          42.000  
G25  24614470.553   129349922.829       -3918.861          36.000    24614466.728   100792111.577       -3053.953          36.000  
C07                                                                  39497968.664                         864.102          31.000  
> 2025 10 30 06 25 05.6000000  0 23                     
G32  22186840.475   116592652.4472      -3037.410          37.000    22186838.988    90851397.337       -2367.216          36.000  
G29  23110070.171   121444250.724        -767.813          44.000    23110061.721    94631854.015        -598.461          43.000  
G28  21320995.576   112042591.426       -1254.490          41.000    21320985.905    87305874.663        -977.388          46.000  
G26  20310207.962   106730865.648         531.032          46.000    20310200.758    83166890.055         413.742          44.000  
G31  20616823.478   108342134.033          74.740          43.000    20616812.430    84422401.318          57.994          42.000  
G04  24315078.802   127776583.705        3157.850          42.000    24315075.229    99566198.750        2460.757          45.000  
C33  22548391.563   117415385.387        -864.943          47.000                                                                  
C06  36581889.992   190491503.298        -149.158          38.000    36581873.027   147300042.950        -115.100          45.000  
C14  22802327.463   118737685.439       -2387.013          42.000    22802313.088    91815456.119       -1845.839          45.000  
C16  37011457.232   192728368.075        -177.204          42.000    37011445.265   149029752.083        -137.109          44.000  
C24  21892898.934   114002072.538        -928.037          47.000                                                                  
C26  24573554.582   127960944.280       -2573.309          45.000                                                                  
G03  22900467.830   120342789.804        -310.325          39.000    22900462.709    93773566.106        -242.267          32.000  
G16  22266458.350   117011002.1142       2880.734          32.000                                                                  
C09  37732745.761   196484288.653        -136.873          34.000    37732732.023   151934077.419        -105.696          44.000  
C25  23561645.992   122691684.610        1517.230          36.000                                                                  
C08  39333216.771                2      -2476.269          27.000    39333208.088   158378516.0072      -1914.167          34.000  
C10  40444260.890                3        935.102          21.000    40444266.741                2        724.805          31.000  
C35  25935697.295   135053986.465         257.682          40.000                                                                  
C13  38492825.437   200442244.9012      -2290.822          32.000    38492820.738                       -1771.728          27.000  
C12  26325317.906   137082833.166        2325.230          35.000    26325312.549   106001127.443        1798.316          42.000  
G25  24614500.385   129350079.579       -3918.696          36.000    24614496.559   100792233.743       -3054.197          36.000  
C07                                                                  39497960.049                         865.105          31.000  
> 2025 10 30 06 25 05.6400000  0 23                     
G32  22186863.782   116592773.9492      -3037.594          37.000    22186862.081    90851492.008       -2367.066          36.000  
G29  23110075.989   121444281.445        -768.017          44.000    23110067.582    94631877.947        -598.391          43.000  
G28  21321005.141   112042641.609       -1254.573          41.000    21320995.481    87305913.772        -977.611          46.000  
G26  20310203.908   106730844.404         531.008          46.000    20310196.741    83166873.506         413.681          44.000  
G31  20616822.908   108342131.057          74.504          43.000    20616811.853    84422398.995          58.032          42.000  
G04  24315054.769   127776457.393        3157.802          42.000    24315051.187    99566100.328        2460.660          45.000  
C33  22548398.188   117415419.981        -864.860          47.000                                                                  
C06  36581891.154   190491509.259        -149.137          38.000    36581874.136   147300047.570        -115.364          45.000  
C14  22802345.794   118737780.921       -2387.038          42.000    22802331.427    91815529.946       -1845.746          45.000  
C16  37011458.585   192728375.164        -177.260          43.000    37011446.652   149029757.567        -137.108          44.000  
C24  21892906.033   114002109.670        -928.221          47.000                                                                  
C26  24573574.331   127961047.213       -2573.292          45.000                                                                  
G03  22900470.196   120342802.245        -310.762          39.000    22900465.093    93773575.809        -242.510          32.000  
G16  22266436.730   117010886.8702       2880.902          32.000                                                                  
C09  37732746.813   196484294.148        -137.244          34.000    37732733.083   151934081.659        -105.947          44.000  
C25  23561634.358   122691623.943        1516.761          36.000                                                                  
C08  39333236.363                2      -2475.358          27.000    39333226.864   158378592.6012      -1914.530          34.000  
C10  40444253.773                3        935.102          21.000    40444259.755                2        724.734          31.000  
C35  25935695.315   135053976.154         257.729          40.000                                                                  
C13  38492843.000   200442336.5382      -2291.038          32.000    38492838.360                       -1771.482          27.000  
C12  26325300.035   137082740.117        2325.917          35.000    26325294.670   106001055.507        1798.358          42.000  
G25  24614530.222   129350236.354       -3919.060          36.000    24614526.391   100792355.919       -3054.419          36.000  
C07                                                                  39497951.466                         865.315          31.000  
> 2025 10 30 06 25 05.6800000  0 23                     
G32  22186886.809   116592895.4352      -3037.320          37.000    22186885.351    90851586.642       -2366.197          36.000  
G29  23110081.849   121444312.171        -768.203          44.000    23110073.437    94631901.886        -598.515          43.000  
G28  21321014.700   112042691.798       -1254.713          41.000    21321005.022    87305952.874        -977.646          46.000  
G26  20310199.880   106730823.162         530.978          46.000    20310192.689    83166856.949         413.824          44.000  
G31  20616822.353   108342128.086          74.314          43.000    20616811.257    84422396.675          57.957          42.000  
G04  24315030.741   127776331.085        3157.731          42.000    24315027.163    99566001.899        2460.686          45.000  
C33  22548404.853   117415454.578        -864.893          47.000                                                                  
C06  36581892.301   190491515.217        -149.057          38.000    36581875.258   147300052.188        -115.506          44.000  
C14  22802364.123   118737876.411       -2387.208          42.000    22802349.770    91815603.783       -1845.872          45.000  
C16  37011459.929   192728382.256        -177.323          43.000    37011448.011   149029763.044        -136.977          44.000  
C24  21892913.161   114002146.800        -928.282          47.000                                                                  
C26  24573594.091   127961150.148       -2573.334          45.000                                                                  
G03  22900472.552   120342814.665        -310.666          39.000    22900467.457    93773585.506        -242.621          32.000  
G16  22266414.576   117010771.5912       2881.625          32.000                                                                  
C09  37732747.856   196484299.616        -136.903          34.000    37732734.138   151934085.904        -106.115          44.000  
C25  23561622.686   122691563.269        1516.664          36.000                                                                  
C08  39333256.403                2      -2475.519          28.000    39333246.359   158378669.1792      -1914.376          34.000  
C10  40444246.713                3        935.102          21.000    40444252.443                2        725.336          31.000  
C35  25935693.326   135053965.858         257.456          40.000                                                                  
C13  38492860.576   200442428.1722      -2291.043          32.000    38492855.933                       -1771.354          27.000  
C12  26325282.185   137082647.087        2325.947          35.000    26325276.803   106000983.581        1798.202          42.000  
G25  24614560.041   129350393.136       -3919.445          36.000    24614556.213   100792478.056       -3053.856          36.000  
C07                                                                  39497942.862                         864.379          31.000  
> 2025 10 30 06 25 05.7200000  0 23                     
G32  22186909.996   116593016.9312      -3037.367          37.000    22186908.415    90851681.331       -2366.760          36.000  
G29  23110087.692   121444342.892        -768.169          44.000    23110079.283    94631925.828        -598.595          43.000  
G28  21321024.236   112042741.958       -1254.274          41.000    21321014.553    87305991.963        -977.384          46.000  
G26  20310195.863   106730801.921         530.947          46.000    20310188.642    83166840.383         414.061          44.000  
G31  20616821.769   108342125.113          74.253          43.000    20616810.691    84422394.354          57.951          42.000  
G04  24315006.688   127776204.780        3157.635          42.000    24315003.146    99565903.485        2460.421          45.000  
C33  22548411.501   117415489.181        -865.040          47.000                                                                  
C06  36581893.433   190491521.162        -148.806          38.000    36581876.389   147300056.789        -115.247          44.000  
C14  22802382.463   118737971.894       -2387.162          42.000    22802368.146    91815677.616       -1845.877          45.000  
C16  37011461.309   192728389.345        -177.287          43.000    37011449.367   149029768.523        -136.953          44.000  
C24  21892920.316   114002183.931        -928.331          47.000                                                                  
C26  24573613.873   127961253.082       -2573.350          45.000                                                                  
G03  22900474.941   120342827.097        -310.779          39.000    22900469.830    93773595.175        -242.064          32.000  
G16  22266392.598   117010656.3412       2881.444          32.000                                                                  
C09  37732748.922   196484305.078        -136.660          34.000    37732735.181   151934090.155        -106.315          44.000  
C25  23561611.038   122691502.591        1516.802          36.000                                                                  
C08  39333276.311                2      -2475.474          27.000    39333265.280   158378745.7292      -1913.934          34.000  
C10  40444239.264                3        940.555          21.000    40444245.012                2        725.604          31.000  
C35  25935691.374   135053955.564         257.314          40.000                                                                  
C13  38492878.130   200442519.7702      -2290.197          32.000    38492873.506                       -1770.904          27.000  
C12  26325264.393   137082554.061        2325.762          35.000    26325258.940   106000911.637        1798.458          42.000  
G25  24614589.877   129350549.912       -3919.435          36.000    24614586.039   100792600.212       -3053.807          36.000  
C07                                                                  39497934.275                         864.493          31.000  
> 2025 10 30 06 25 05.7600000  0 23                     
G32  22186933.365   116593138.4232      -3037.322          37.000    22186931.453    90851776.006       -2366.928          36.000  
G29  23110093.523   121444373.612        -768.137          44.000    23110085.111    94631949.768        -598.581          43.000  
G28  21321033.782   112042792.145       -1254.513          42.000    21321024.105    87306031.067        -977.527          46.000  
G26  20310191.821   106730780.683         530.886          46.000    20310184.592    83166823.832         413.846          44.000  
G31  20616821.212   108342122.142          74.204          43.000    20616810.132    84422392.041          57.804          42.000  
G04  24314982.648   127776078.465        3157.750          42.000    24314979.141    99565805.055        2460.565          45.000  
C33  22548418.139   117415523.789        -865.183          47.000                                                                  
C06  36581894.595   190491527.122        -148.854          38.000    36581877.549   147300061.397        -115.264          44.000  
C14  22802400.779   118738067.378       -2387.142          42.000    22802386.478    91815751.450       -1845.831          45.000  
C16  37011462.688   192728396.438        -177.352          42.000    37011450.707   149029774.015        -137.175          44.000  
C24  21892927.454   114002221.057        -928.258          47.000                                                                  
C26  24573633.599   127961356.022       -2573.468          45.000                                                                  
G03  22900477.311   120342839.526        -310.823          39.000    22900472.201    93773604.843        -241.644          32.000  
G16  22266370.720   117010541.1232       2880.710          32.000                                                                  
C09  37732749.973   196484310.564        -137.122          34.000    37732736.241   151934094.389        -106.062          44.000  
C25  23561599.378   122691441.897        1517.178          36.000                                                                  
C08  39333294.652                2      -2475.945          27.000    39333284.845   158378822.3202      -1914.379          34.000  
C10  40444232.297                3        940.555          21.000    40444237.743                2        725.956          31.000  
C35  25935689.398   135053945.282         257.054          40.000                                                                  
C13  38492895.706   200442611.4072      -2290.476          32.000    38492891.109                       -1770.933          27.000  
C12  26325246.444   137082461.048        2325.414          35.000    26325241.027   106000839.712        1798.220          42.000  
G25  24614619.703   129350706.691       -3919.459          36.000    24614615.868   100792722.389       -3054.185          36.000  
C07                                                                  39497925.718                         864.772          31.000  
> 2025 10 30 06 25 05.8000000  0 23                     
G32  22186956.863   116593259.9282      -3037.569          37.000    22186954.599    90851870.703       -2367.397          36.000  
G29  23110099.330   121444404.328        -768.018          44.000    23110090.962    94631973.704        -598.500          43.000  
G28  21321043.355   112042842.334       -1254.681          42.000    21321033.679    87306070.180        -977.736          46.000  
G26  20310187.757   106730759.440         530.987          46.000    20310180.567    83166807.291         413.560          44.000  
G31  20616820.656   108342119.161          74.396          43.000    20616809.567    84422389.722          57.897          42.000  
G04  24314958.605   127775952.156        3157.756          42.000    24314955.114    99565706.637        2460.475          45.000  
C33  22548424.792   117415558.392        -865.161          47.000                                                                  
C06  36581895.742   190491533.112        -149.504          38.000    36581878.658   147300065.997        -115.082          44.000  
C14  22802419.118   118738162.880       -2387.410          42.000    22802404.830    91815825.296       -1846.058          45.000  
C16  37011464.020   192728403.522        -177.208          42.000    37011452.074   149029779.492        -137.022          44.000  
C24  21892934.615   114002258.186        -928.292          47.000                                                                  
C26  24573653.361   127961458.963       -2573.571          45.000                                                                  
G03  22900479.685   120342851.962        -310.920          39.000    22900474.553    93773614.532        -241.980          32.000  
G16  22266348.824   117010425.8612       2881.165          32.000                                                                  
C09  37732751.033   196484316.078        -137.742          34.000    37732737.284   151934098.624        -105.957          44.000  
C25  23561587.723   122691381.192        1517.540          36.000                                                                  
C08  39333312.444                2      -2475.810          27.000    39333303.671   158378898.9252      -1914.995          34.000  
C10  40444225.386                3        940.555          22.000    40444230.561                2        724.897          31.000  
C35  25935687.413   135053934.988         257.205          40.000                                                                  
C13  38492913.302   200442703.0122      -2290.263          32.000    38492908.748                       -1771.132          27.000  
C12  26325228.607   137082368.048        2325.069          35.000    26325223.155   106000767.788        1798.072          42.000  
G25  24614649.526   129350863.474       -3919.554          36.000    24614645.705   100792844.537       -3053.921          36.000  
C07                                                                  39497917.130                         865.317          31.000  
> 2025 10 30 06 25 05.8400000  0 23                     
G32  22186980.653   116593381.4332      -3037.653          37.000    22186977.677    90851965.391       -2367.391          36.000  
G29  23110105.169   121444435.044        -767.906          44.000    23110096.809    94631997.641        -598.463          43.000  
G28  21321052.903   112042892.505       -1254.486          42.000    21321043.221    87306109.280        -977.666          46.000  
G26  20310183.707   106730738.197         531.081          46.000    20310176.534    83166790.747         413.507          44.000  
G31  20616820.112   108342116.182          74.488          43.000    20616809.029    84422387.401          57.953          42.000  
G04  24314934.592   127775825.842        3157.834          42.000    24314931.100    99565608.204        2460.695          45.000  
C33  22548431.415   117415593.001        -865.247          47.000                                                                  
C06  36581896.881   190491539.055        -148.938          38.000    36581879.776   147300070.611        -115.248          44.000  
C14  22802437.467   118738258.360       -2387.118          42.000    22802423.144    91815899.129       -1845.936          45.000  
C16  37011465.373   192728410.603        -177.095          42.000    37011453.432   149029784.968        -136.947          44.000  
C24  21892941.751   114002295.310        -928.193          47.000                                                                  
C26  24573673.131   127961561.896       -2573.453          45.000                                                                  
G03  22900482.051   120342864.404        -311.087          39.000    22900476.945    93773624.219        -242.048          32.000  
G16  22266326.902   117010310.6142       2881.163          32.000                                                                  
C09  37732752.096   196484321.546        -137.116          34.000    37732738.347   151934102.859        -105.868          44.000  
C25  23561576.075   122691320.507        1517.397          36.000                                                                  
C08  39333330.734                2      -2476.109          27.000    39333322.269   158378975.4982      -1914.679          34.000  
C10  40444218.236                3        940.555          22.000    40444223.553                2        724.758          31.000  
C35  25935685.448   135053924.687         257.406          40.000                                                                  
C13  38492930.933   200442794.6782      -2291.219          32.000    38492926.373                       -1770.719          27.000  
C12  26325210.700   137082275.024        2325.321          35.000    26325205.269   106000695.853        1798.216          42.000  
G25  24614679.319   129351020.242       -3919.329          36.000    24614675.534   100792966.691       -3053.916          36.000  
C07                                                                  39497908.565                         864.591          31.000  
> 2025 10 30 06 25 05.8800000  0 23                     
G32  22187003.364   116593502.9122      -3037.126          37.000    22187000.724    90852060.052       -2366.847          36.000  
G29  23110110.998   121444465.754        -767.795          44.000    23110102.662    94632021.575        -598.414          43.000  
G28  21321062.429   112042942.671       -1254.238          42.000    21321052.768    87306148.377        -977.546          46.000  
G26  20310179.666   106730716.953         531.111          46.000    20310172.480    83166774.192         413.708          44.000  
G31  20616819.511   108342113.202          74.512          43.000    20616808.449    84422385.081          57.965          42.000  
G04  24314910.560   127775699.522        3157.979          42.000    24314907.074    99565509.780        2460.637          45.000  
C33  22548438.045   117415627.597        -865.037          47.000                                                                  
C06  36581898.003   190491544.997        -148.633          38.000    36581880.924   147300075.219        -115.220          44.000  
C14  22802455.826   118738353.839       -2387.007          42.000    22802441.468    91815972.965       -1845.917          45.000  
C16  37011466.742   192728417.683        -177.048          42.000    37011454.814   149029790.454        -137.099          44.000  
C24  21892948.899   114002332.435        -928.155          47.000                                                                  
C26  24573692.936   127961664.823       -2573.242          45.000                                                                  
G03  22900484.409   120342876.819        -310.639          39.000    22900479.328    93773633.917        -242.317          32.000  
G16  22266305.314   117010195.3652       2881.268          32.000                                                                  
C09  37732753.129   196484326.992        -136.353          34.000    37732739.385   151934107.087        -105.737          44.000  
C25  23561564.438   122691259.813        1517.483          38.000                                                                  
C08  39333351.019                2      -2476.390          27.000    39333341.298   158379052.1062      -1915.155          34.000  
C10  40444211.050                3        944.158          22.000    40444215.982                2        725.725          31.000  
C35  25935683.484   135053914.371         257.748          40.000                                                                  
C13  38492948.497                2      -2291.365          32.000    38492943.960                       -1771.267          27.000  
C12  26325192.841   137082181.971        2325.999          35.000    26325187.402   106000623.923        1798.210          42.000  
G25  24614709.136   129351176.988       -3918.783          37.000    24614705.373   100793088.866       -3054.269          36.000  
C07                                                                  39497899.946                         863.944          31.000  
> 2025 10 30 06 25 05.9200000  0 23                     
G32  22187026.506   116593624.4192      -3037.395          37.000    22187023.796    90852154.696       -2366.143          36.000  
G29  23110116.850   121444496.481        -768.052          44.000    23110108.516    94632045.516        -598.489          43.000  
G28  21321071.960   112042992.846       -1254.305          42.000    21321062.338    87306187.474        -977.477          46.000  
G26  20310175.640   106730695.713         531.029          46.000    20310168.423    83166757.641         413.770          44.000  
G31  20616818.958   108342110.217          74.592          43.000    20616807.884    84422382.762          57.971          42.000  
G04  24314886.511   127775573.207        3157.937          42.000    24314883.043    99565411.354        2460.621          45.000  
C33  22548444.710   117415662.188        -864.855          47.000                                                                  
C06  36581899.120   190491550.949        -148.608          38.000    36581882.074   147300079.827        -115.255          44.000  
C14  22802474.156   118738449.315       -2386.904          42.000    22802459.804    91816046.794       -1845.812          45.000  
C16  37011468.099   192728424.766        -177.077          42.000    37011456.217   149029795.927        -136.936          44.000  
C24  21892956.065   114002369.566        -928.232          47.000                                                                  
C26  24573712.711   127961767.756       -2573.269          45.000                                                                  
G03  22900486.771   120342889.232        -310.385          40.000    22900481.668    93773643.581        -241.746          32.000  
G16  22266283.619   117010080.1712       2880.213          32.000                                                                  
C09  37732754.180   196484332.455        -136.434          34.000    37732740.443   151934111.325        -105.887          44.000  
C25  23561552.797   122691199.148        1516.903          38.000                                                                  
C08  39333369.999                2      -2475.898          27.000    39333360.060   158379128.6862      -1914.871          34.000  
C10  40444203.657                3        944.158          22.000    40444208.601                2        724.622          31.000  
C35  25935681.493   135053904.073         257.606          40.000                                                                  
C13  38492966.122   200442977.9672      -2291.399          32.000    38492961.556                       -1771.454          27.000  
C12  26325175.040   137082088.930        2326.112          35.000    26325169.499   106000551.974        1798.571          42.000  
G25  24614738.974   129351333.746       -3918.797          37.000    24614735.213   100793211.043       -3054.474          36.000  
C07                                                                  39497891.352                         863.577          31.000  
> 2025 10 30 06 25 05.9600000  0 23                     
G32  22187049.514   116593745.8932      -3036.986          37.000    22187046.901    90852249.362       -2366.309          36.000  
G29  23110122.707   121444527.210        -768.225          44.000    23110114.363    94632069.467        -598.743          43.000  
G28  21321081.503   112043043.020       -1254.343          42.000    21321071.894    87306226.568        -977.407          46.000  
G26  20310171.566   106730674.475         530.973          46.000    20310164.403    83166741.093         413.726          44.000  
G31  20616818.416   108342107.241          74.431          44.000    20616807.308    84422380.442          57.983          42.000  
G04  24314862.482   127775446.898        3157.782          42.000    24314859.019    99565312.936        2460.463          45.000  
C33  22548451.309   117415696.794        -865.011          47.000                                                                  
C06  36581900.253   190491556.895        -148.571          38.000    36581883.217   147300084.440        -115.337          44.000  
C14  22802492.476   118738544.810       -2387.219          42.000    22802478.140    91816120.630       -1845.869          45.000  
C16  37011469.437   192728431.849        -177.118          42.000    37011457.627   149029801.410        -137.063          44.000  
C24  21892963.196   114002406.693        -928.193          47.000                                                                  
C26  24573732.447   127961870.697       -2573.448          45.000                                                                  
G03  22900489.112   120342901.665        -310.608          40.000    22900484.007    93773653.261        -241.777          32.000  
G16  22266261.644   117009964.9302       2880.503          32.000                                                                  
C09  37732755.222   196484337.951        -137.104          34.000    37732741.473   151934115.560        -105.886          44.000  
C25  23561541.163   122691138.465        1516.966          38.000                                                                  
C08  39333388.574                2      -2476.073          27.000    39333379.521   158379205.2502      -1914.440          34.000  
C10  40444196.267                3        944.158          22.000    40444201.838                2        724.677          31.000  
C35  25935679.505   135053893.786         257.297          40.000                                                                  
C13  38492983.712   200443069.5902      -2290.755          32.000    38492979.173                       -1771.804          27.000  
C12  26325157.196   137081995.910        2325.792          35.000    26325151.654   106000480.043        1798.426          43.000  
G25  24614768.828   129351490.529       -3919.317          37.000    24614765.049   100793333.191       -3054.012          36.000  
C07                                                                  39497882.760                         863.982          31.000  
> 2025 10 30 06 25 06.0000000  0 23                     
G32  22187072.780   116593867.3852      -3037.062          37.000    22187070.057    90852344.061       -2367.065          36.000  
G29  23110128.534   121444557.932        -768.180          44.000    23110120.230    94632093.406        -598.636          43.000  
G28  21321091.048   112043093.194       -1254.357          42.000    21321081.449    87306265.668        -977.470          46.000  
G26  20310167.522   106730653.229         531.086          46.000    20310160.341    83166724.536         413.863          44.000  
G31  20616817.842   108342104.269          74.295          44.000    20616806.750    84422378.114          58.149          42.000  
G04  24314838.447   127775320.600        3157.544          42.000    24314835.005    99565214.520        2460.349          45.000  
C33  22548457.955   117415731.406        -865.252          47.000                                                                  
C06  36581901.356   190491562.839        -148.552          38.000    36581884.368   147300089.034        -115.006          44.000  
C14  22802510.812   118738640.305       -2387.368          42.000    22802496.461    91816194.463       -1845.902          45.000  
C16  37011470.797   192728438.942        -177.284          43.000    37011459.004   149029806.882        -136.892          44.000  
C24  21892970.290   114002443.830        -928.375          47.000                                                                  
C26  24573752.239   127961973.637       -2573.524          45.000                                                                  
G03  22900491.489   120342914.120        -311.180          40.000    22900486.382    93773662.952        -242.172          32.000  
G16  22266239.563   117009849.7012       2880.588          32.000                                                                  
C09  37732756.292   196484343.420        -136.951          34.000    37732742.530   151934119.797        -105.943          44.000  
C25  23561529.537   122691077.778        1517.096          38.000                                                                  
C08  39333408.917                2      -2476.003          27.000    39333398.803   158379281.8362      -1914.580          34.000  
C10  40444189.461                3        938.687          22.000    40444194.805                2        724.654          31.000  
C35  25935677.541   135053883.499         257.169          40.000                                                                  
C13  38493001.318   200443161.2122      -2290.554          32.000    38492996.796                       -1771.927          27.000  
C12  26325139.392   137081902.907        2325.283          35.000    26325133.813   106000408.110        1798.389          43.000  
G25  24614798.668   129351647.316       -3919.639          37.000    24614794.879   100793455.334       -3053.708          36.000  
C07                                                                  39497874.119                         866.333          31.000  
> 2025 10 30 06 25 06.0400000  0 23                     
G32  22187096.202   116593988.9002      -3037.599          37.000    22187093.184    90852438.725       -2366.832          36.000  
G29  23110134.374   121444588.650        -768.086          44.000    23110126.082    94632117.337        -598.405          43.000  
G28  21321100.611   112043143.375       -1254.524          42.000    21321091.011    87306304.775        -977.614          46.000  
G26  20310163.489   106730631.992         530.979          46.000    20310156.299    83166707.980         413.911          44.000  
G31  20616817.264   108342101.298          74.185          44.000    20616806.179    84422375.783          58.272          42.000  
G04  24314814.398   127775194.279        3157.809          42.000    24314810.944    99565116.092        2460.510          45.000  
C33  22548464.633   117415766.006        -865.140          47.000                                                                  
C06  36581902.502   190491568.813        -149.145          38.000    36581885.547   147300093.637        -114.986          44.000  
C14  22802529.123   118738735.795       -2387.378          42.000    22802514.794    91816268.296       -1845.896          45.000  
C16  37011472.146   192728446.033        -177.338          43.000    37011460.359   149029812.364        -137.005          44.000  
C24  21892977.426   114002480.962        -928.392          47.000                                                                  
C26  24573772.027   127962076.568       -2573.390          45.000                                                                  
G03  22900493.856   120342926.559        -311.168          40.000    22900488.767    93773672.678        -243.058          33.000  
G16  22266217.353   117009734.4562       2880.950          32.000                                                                  
C09  37732757.341   196484348.899        -137.014          34.000    37732743.561   151934124.036        -105.953          44.000  
C25  23561517.882   122691017.084        1517.287          38.000                                                                  
C08  39333427.673                2      -2476.214          27.000    39333417.303   158379358.4512      -1915.223          34.000  
C10  40444182.252                3        938.687          22.000    40444187.127                2        725.149          31.000  
C35  25935675.552   135053873.211         257.096          42.000                                                                  
C13  38493018.875                2      -2291.550          31.000    38493014.430                       -1771.825          26.000  
C12  26325121.544   137081809.882        2325.354          35.000    26325115.936   106000336.177        1798.370          43.000  
G25  24614828.525   129351804.081       -3919.372          37.000    24614824.714   100793577.504       -3054.023          36.000  
C07                                                                  39497865.536                         865.056          31.000  
> 2025 10 30 06 25 06.0800000  0 23                     
G32  22187119.686   116594110.3802      -3037.266          37.000    22187116.244    90852533.436       -2367.474          36.000  
G29  23110140.197   121444619.375        -768.180          45.000    23110131.913    94632141.274        -598.400          43.000  
G28  21321110.141   112043193.548       -1254.431          42.000    21321100.567    87306343.876        -977.596          46.000  
G26  20310159.459   106730610.754         530.917          46.000    20310152.255    83166691.442         413.587          44.000  
G31  20616816.705   108342098.323          74.279          44.000    20616805.605    84422373.471          58.007          42.000  
G04  24314790.350   127775067.963        3157.885          42.000    24314786.906    99565017.654        2460.765          45.000  
C33  22548471.272   117415800.610        -865.120          47.000                                                                  
C06  36581903.652   190491574.774        -149.150          38.000    36581886.709   147300098.249        -115.168          44.000  
C14  22802547.474   118738831.281       -2387.219          42.000    22802533.105    91816342.132       -1845.945          45.000  
C16  37011473.496   192728453.110        -177.082          43.000    37011461.708   149029817.842        -137.006          44.000  
C24  21892984.585   114002518.087        -928.260          47.000                                                                  
C26  24573791.813   127962179.502       -2573.364          45.000                                                                  
G03  22900496.218   120342938.995        -311.070          40.000    22900491.147    93773682.373        -242.773          33.000  
G16  22266195.512   117009619.2362       2880.630          32.000                                                                  
C09  37732758.394   196484354.375        -136.926          34.000    37732744.584   151934128.272        -105.928          44.000  
C25  23561506.241   122690956.404        1517.089          40.000                                                                  
C08  39333445.742                2      -2476.179          28.000    39333435.938   158379435.0572      -1915.411          33.000  
C10  40444175.239                3        938.687          21.000    40444179.717                2        725.664          31.000  
C35  25935673.583   135053862.910         257.337          42.000                                                                  
C13  38493036.500                2      -2291.530          31.000    38493032.080                       -1772.135          26.000  
C12  26325103.615   137081716.833        2325.903          35.000    26325098.048   106000264.231        1798.582          43.000  
G25  24614858.365   129351960.831       -3918.989          37.000    24614854.539   100793699.661       -3053.948          36.000  
C07                                                                  39497856.948                         865.573          31.000  
> 2025 10 30 06 25 06.1200000  0 23                     
G32  22187142.672   116594231.8742      -3037.286          37.000    22187139.433    90852628.127       -2367.429          36.000  
G29  23110146.054   121444650.105        -768.292          45.000    23110137.752    94632165.210        -598.369          43.000  
G28  21321119.692   112043243.719       -1254.324          42.000    21321110.114    87306382.980        -977.628          46.000  
G26  20310155.415   106730589.520         530.831          46.000    20310148.228    83166674.893         413.607          44.000  
G31  20616816.132   108342095.350          74.266          44.000    20616805.036    84422371.152          57.976          42.000  
G04  24314766.320   127774941.650        3157.870          42.000    24314762.866    99564919.238        2460.542          45.000  
C33  22548477.904   117415835.216        -865.159          47.000                                                                  
C06  36581904.824   190491580.734        -149.088          38.000    36581887.838   147300102.849        -115.110          44.000  
C14  22802565.816   118738926.767       -2387.150          42.000    22802551.441    91816415.970       -1845.982          45.000  
C16  37011474.863   192728460.200        -177.218          43.000    37011463.042   149029823.322        -137.059          44.000  
C24  21892991.718   114002555.213        -928.178          47.000                                                                  
C26  24573811.585   127962282.437       -2573.387          45.000                                                                  
G03  22900498.584   120342951.440        -311.138          40.000    22900493.512    93773692.050        -242.345          33.000  
G16  22266173.321   117009503.9922       2880.967          32.000                                                                  
C09  37732759.427   196484359.849        -136.877          34.000    37732745.630   151934132.507        -105.890          44.000  
C25  23561494.594   122690895.728        1516.923          40.000                                                                  
C08  39333466.043                2      -2476.755          28.000    39333454.885   158379511.6152      -1914.515          33.000  
C10  40444168.046                3        940.266          22.000    40444172.536                2        725.271          31.000  
C35  25935671.585   135053852.635         256.991          42.000                                                                  
C13  38493054.078                2      -2292.053          31.000    38493049.669                       -1772.195          26.000  
C12  26325085.693   137081623.803        2325.939          35.000    26325080.183   106000192.292        1798.555          44.000  
G25  24614888.199   129352117.603       -3919.154          37.000    24614884.359   100793821.810       -3053.837          36.000  
C07                                                                  39497848.334                         863.706          31.000  
> 2025 10 30 06 25 06.1600000  0 23                     
G32  22187165.350   116594353.3562      -3037.148          37.000    22187162.660    90852722.812       -2367.237          36.000  
G29  23110151.907   121444680.832        -768.277          45.000    23110143.593    94632189.161        -598.688          43.000  
G28  21321129.241   112043293.919       -1254.829          42.000    21321119.673    87306422.089        -977.717          46.000  
G26  20310151.381   106730568.286         530.807          46.000    20310144.185    83166658.348         413.558          44.000  
G31  20616815.569   108342092.386          74.081          44.000    20616804.481    84422368.846          57.736          42.000  
G04  24314742.286   127774815.340        3157.802          42.000    24314738.836    99564820.812        2460.563          45.000  
C33  22548484.547   117415869.825        -865.222          47.000                                                                  
C06  36581905.958   190491586.703        -149.224          38.000    36581888.971   147300107.464        -115.340          44.000  
C14  22802584.132   118739022.247       -2387.001          42.000    22802569.764    91816489.818       -1846.201          45.000  
C16  37011476.223   192728467.288        -177.234          43.000    37011464.398   149029828.795        -136.919          44.000  
C24  21892998.866   114002592.347        -928.289          47.000                                                                  
C26  24573831.387   127962385.363       -2573.241          45.000                                                                  
G03  22900500.941   120342963.879        -311.062          40.000    22900495.879    93773701.739        -242.291          33.000  
G16  22266151.334   117009388.7782       2880.510          32.000                                                                  
C09  37732760.492   196484365.314        -136.727          34.000    37732746.682   151934136.743        -105.890          44.000  
C25  23561482.951   122690835.055        1516.788          41.000                                                                  
C08  39333486.533                2      -2476.698          28.000    39333473.852   158379588.2362      -1915.217          33.000  
C10  40444161.242                3        940.266          22.000    40444165.355                2        725.308          31.000  
C35  25935669.634   135053842.355         256.931          42.000                                                                  
C13  38493071.630                2      -2291.935          31.000    38493067.254                       -1772.554          26.000  
C12  26325067.809   137081530.750        2326.285          35.000    26325062.311   106000120.355        1798.492          44.000  
G25  24614918.051   129352274.371       -3919.229          37.000    24614914.204   100793943.949       -3053.564          36.000  
C07                                                                  39497839.763                         863.058          31.000  
> 2025 10 30 06 25 06.2000000  0 23                     
G32  22187188.521   116594474.8722      -3037.743          34.000    22187185.823    90852817.475       -2366.784          36.000  
G29  23110157.772   121444711.560        -768.270          45.000    23110149.441    94632213.113        -598.803          43.000  
G28  21321138.792   112043344.105       -1254.850          42.000    21321129.212    87306461.192        -977.654          46.000  
G26  20310147.339   106730547.046         530.914          46.000    20310140.139    83166641.792         413.771          44.000  
G31  20616815.000   108342089.418          74.076          44.000    20616803.889    84422366.523          57.947          42.000  
G04  24314718.264   127774689.015        3158.026          42.000    24314714.796    99564722.386        2460.625          45.000  
C33  22548491.205   117415904.429        -865.189          47.000                                                                  
C06  36581907.121   190491592.667        -149.212          38.000    36581890.094   147300112.064        -115.143          44.000  
C14  22802602.453   118739117.747       -2387.323          42.000    22802588.082    91816563.647       -1845.915          45.000  
C16  37011477.585   192728474.382        -177.350          43.000    37011465.758   149029834.266        -136.806          44.000  
C24  21893005.983   114002629.478        -928.314          47.000                                                                  
C26  24573851.179   127962488.291       -2573.173          45.000                                                                  
G03  22900503.310   120342976.328        -311.251          40.000    22900498.247    93773711.457        -242.808          33.000  
G16  22266129.244   117009273.5282       2880.933          32.000                                                                  
C09  37732761.536   196484370.813        -137.335          34.000    37732747.740   151934140.975        -105.834          44.000  
C25  23561471.315   122690774.387        1516.635          41.000                                                                  
C08  39333506.275                2      -2476.169          28.000    39333493.209   158379664.8902      -1916.122          33.000  
C10  40444154.251                3        940.266          22.000    40444157.766                2        725.270          32.000  
C35  25935667.672   135053832.063         257.128          42.000                                                                  
C13  38493089.212                2      -2291.950          26.000    38493084.900                       -1772.155          26.000  
C12  26325049.974   137081437.717        2325.994          35.000    26325044.441   106000048.411        1798.560          44.000  
G25  24614947.912   129352431.145       -3919.406          37.000    24614944.036   100794066.107       -3053.803          36.000  
C07                                                                  39497831.175                         864.227          31.000  
> 2025 10 30 06 25 06.2400000  0 23                     
G32  22187211.437   116594596.3202      -3036.728          34.000    22187208.923    90852912.168       -2367.074          36.000  
G29  23110163.603   121444742.282        -768.177          45.000    23110155.288    94632237.056        -598.714          43.000  
G28  21321148.346   112043394.300       -1255.009          41.000    21321138.763    87306500.294        -977.607          46.000  
G26  20310143.324   106730525.815         530.814          46.000    20310136.091    83166625.250         413.608          44.000  
G31  20616814.444   108342086.454          74.052          44.000    20616803.323    84422364.195          58.188          42.000  
G04  24314694.227   127774562.701        3157.920          42.000    24314690.774    99564623.959        2460.651          45.000  
C33  22548497.869   117415939.030        -865.094          47.000                                                                  
C06  36581908.258   190491598.620        -148.918          38.000    36581891.222   147300116.669        -115.144          44.000  
C14  22802620.800   118739213.241       -2387.384          42.000    22802606.394    91816637.483       -1845.892          45.000  
C16  37011478.959   192728481.462        -177.166          43.000    37011467.142   149029839.737        -136.770          44.000  
C24  21893013.143   114002666.608        -928.293          47.000                                                                  
C26  24573870.922   127962591.225       -2573.262          45.000                                                                  
G03  22900505.681   120342988.761        -311.055          40.000    22900500.600    93773721.173        -243.035          33.000  
G16  22266107.426   117009158.3072       2880.620          35.000                                                                  
C09  37732762.606   196484376.327        -137.872          34.000    37732748.791   151934145.209        -105.829          44.000  
C25  23561459.681   122690713.719        1516.624          41.000                                                                  
C08  39333524.186                2      -2476.841          28.000    39333511.976   158379741.4462      -1914.810          33.000  
C10  40444147.143                3        940.266          22.000    40444150.176                2        724.535          32.000  
C35  25935665.719   135053821.758         257.473          42.000                                                                  
C13  38493106.836                2      -2291.924          26.000    38493102.531                       -1773.287          26.000  
C12  26325032.175   137081344.681        2325.913          35.000    26325026.593   105999976.471        1798.503          43.000  
G25  24614977.748   129352587.901       -3919.112          37.000    24614973.874   100794188.261       -3053.922          36.000  
C07                                                                  39497822.620                         864.539          30.000  
> 2025 10 30 06 25 06.2800000  0 23                     
G32  22187234.404   116594717.9112      -3038.874          31.000    22187232.058    90853006.844       -2367.012          36.000  
G29  23110169.446   121444773.010        -768.208          45.000    23110161.129    94632260.988        -598.478          43.000  
G28  21321157.907   112043444.488       -1254.913          40.000    21321148.299    87306539.398        -977.622          46.000  
G26  20310139.293   106730504.588         530.671          46.000    20310132.047    83166608.694         413.777          44.000  
G31  20616813.886   108342083.483          74.182          44.000    20616802.741    84422361.877          58.106          42.000  
G04  24314670.188   127774436.385        3157.892          42.000    24314666.720    99564525.530        2460.686          45.000  
C33  22548504.535   117415973.634        -865.114          47.000                                                                  
C06  36581909.412   190491604.575        -148.896          38.000    36581892.341   147300121.286        -115.389          44.000  
C14  22802639.153   118739308.735       -2387.407          42.000    22802624.746    91816711.321       -1845.963          45.000  
C16  37011480.315   192728488.558        -177.314          43.000    37011468.494   149029845.230        -137.194          43.000  
C24  21893020.269   114002703.741        -928.312          47.000                                                                  
C26  24573890.696   127962694.155       -2573.278          45.000                                                                  
G03  22900508.056   120343001.201        -311.024          38.000    22900502.949    93773730.843        -242.420          33.000  
G16  22266085.486   117009043.0982       2880.266          35.000                                                                  
C09  37732763.682   196484381.838        -138.023          37.000    37732749.864   151934149.459        -106.127          44.000  
C25  23561448.040   122690653.048        1516.698          41.000                                                                  
C08  39333542.746                2      -2477.034          28.000    39333531.260   158379818.0432      -1914.735          33.000  
C10  40444140.058                3        940.266          22.000    40444143.347                2        725.107          32.000  
C35  25935663.742   135053811.468         257.362          42.000                                                                  
C13  38493124.421                2      -2291.063          26.000    38493120.160                       -1773.998          26.000  
C12  26325014.356   137081251.663        2325.617          35.000    26325008.704   105999904.533        1798.403          42.000  
G25  24615007.571   129352744.679       -3919.364          37.000    24615003.720   100794310.426       -3054.070          36.000  
C07                                                                  39497813.998                         864.502          25.000  
> 2025 10 30 06 25 06.3200000  0 23                     
G32  22187257.500   116594839.6592      -3042.661          25.000    22187255.303    90853101.521       -2367.008          36.000  
G29  23110175.285   121444803.736        -768.183          45.000    23110166.972    94632284.921        -598.317          42.000  
G28  21321167.462   112043494.668       -1254.657          40.000    21321157.825    87306578.502        -977.629          46.000  
G26  20310135.275   106730483.346         530.904          46.000    20310128.004    83166592.150         413.677          44.000  
G31  20616813.310   108342080.508          74.354          44.000    20616802.195    84422359.558          58.013          42.000  
G04  24314646.142   127774310.066        3157.939          42.000    24314642.670    99564427.097        2460.728          45.000  
C33  22548511.205   117416008.242        -865.184          47.000                                                                  
C06  36581910.552   190491610.522        -148.696          38.000    36581893.471   147300125.888        -115.240          44.000  
C14  22802657.498   118739404.209       -2387.029          42.000    22802643.077    91816785.160       -1845.974          44.000  
C16  37011481.675   192728495.646        -177.261          43.000    37011469.893   149029850.709        -137.128          43.000  
C24  21893027.391   114002740.861        -928.118          47.000                                                                  
C26  24573910.472   127962797.085       -2573.284          45.000                                                                  
G03  22900510.405   120343013.613        -310.523          38.000    22900505.298    93773740.561        -242.907          33.000  
G16  22266063.502   117008927.8882       2880.122          35.000                                                                  
C09  37732764.706   196484387.321        -137.572          36.000    37732750.921   151934153.692        -105.984          44.000  
C25  23561436.369   122690592.389        1516.464          41.000                                                                  
C08  39333562.671                2      -2476.925          27.000    39333550.394   158379894.6172      -1914.250          33.000  
C10  40444133.069                3        939.465          22.000    40444135.995                2        725.874          31.000  
C35  25935661.763   135053801.183         257.211          42.000                                                                  
C13  38493141.994                2      -2290.908          26.000    38493137.740                       -1773.219          26.000  
C12  26324996.493   137081158.637        2325.588          35.000    26324990.855   105999832.605        1798.180          42.000  
G25  24615037.412   129352901.437       -3919.103          37.000    24615033.534   100794432.602       -3054.385          36.000  
C07                                                                  39497805.391                         865.861          25.000  
> 2025 10 30 06 25 06.3600000  0 23                     
G32  22187280.454   116594961.2452      -3042.652          25.000    22187278.530    90853196.220       -2367.420          36.000  
G29  23110181.153   121444834.467        -768.271          45.000    23110172.811    94632308.872        -598.618          41.000  
G28  21321177.009   112043544.838       -1254.423          40.000    21321167.366    87306617.600        -977.539          46.000  
G26  20310131.205   106730462.099         531.121          46.000    20310123.970    83166575.609         413.508          43.000  
G31  20616812.754   108342077.540          74.243          44.000    20616801.635    84422357.245          57.859          42.000  
G04  24314622.095   127774183.752        3157.867          42.000    24314618.612    99564328.668        2460.699          45.000  
C33  22548517.873   117416042.849        -865.208          47.000                                                                  
C06  36581911.671   190491616.476        -148.722          40.000    36581894.601   147300130.487        -115.085          44.000  
C14  22802675.841   118739499.690       -2386.943          42.000    22802661.407    91816858.996       -1845.949          44.000  
C16  37011483.053   192728502.733        -177.217          43.000    37011471.257   149029856.187        -137.034          43.000  
C24  21893034.548   114002777.998        -928.330          47.000                                                                  
C26  24573930.268   127962900.018       -2573.335          45.000                                                                  
G03  22900512.766   120343026.027        -310.282          36.000    22900507.687    93773750.245        -242.513          28.000  
G16  22266041.700   117008812.6572       2880.434          35.000                                                                  
C09  37732765.730   196484392.808        -137.364          36.000    37732751.965   151934157.935        -106.060          44.000  
C25  23561424.712   122690531.720        1516.570          41.000                                                                  
C08  39333582.943                2      -2476.382          28.000    39333569.506   158379971.2802      -1915.660          33.000  
C10  40444126.033                3        939.465          21.000    40444128.388                2        725.448          31.000  
C35  25935659.791   135053790.897         257.129          42.000                                                                  
C13  38493159.570                3      -2289.241          26.000    38493155.279                       -1772.185          26.000  
C12  26324978.584   137081065.617        2325.496          35.000    26324972.974   105999760.682        1798.021          42.000  
G25  24615067.270   129353058.232       -3919.649          37.000    24615063.355   100794554.754       -3054.072          36.000  
C07                                                                  39497796.752                         866.043          25.000  
> 2025 10 30 06 25 06.4000000  0 22                     
G32  22187303.485                3      -3038.833          25.000    22187301.690    90853290.884       -2366.883          36.000  
G29  23110186.974   121444865.193        -768.189          45.000    23110178.669    94632332.829        -598.853          41.000  
G28  21321186.572   112043595.008       -1254.246          40.000    21321176.925    87306656.706        -977.592          46.000  
G26  20310127.171   106730440.857         531.149          46.000    20310119.918    83166559.056         413.671          43.000  
G31  20616812.195   108342074.567          74.304          45.000    20616801.063    84422354.939          57.656          42.000  
G04  24314598.057   127774057.442        3157.783          42.000    24314594.569    99564230.243        2460.614          45.000  
C33  22548524.552   117416077.458        -865.232          47.000                                                                  
C06  36581912.775   190491622.436        -148.917          40.000    36581895.735   147300135.094        -115.167          44.000  
C14  22802694.161   118739595.173       -2386.933          42.000    22802679.744    91816932.819       -1845.665          43.000  
C16  37011484.426   192728509.812        -177.036          44.000    37011472.623   149029861.657        -136.854          43.000  
C24  21893041.687   114002815.128        -928.329          47.000                                                                  
C26  24573950.008   127963002.946       -2573.226          45.000                                                                  
G03  22900515.131   120343038.461        -310.551          36.000    22900510.052    93773759.932        -242.222          28.000  
G16  22266019.942   117008697.4362       2880.425          35.000                                                                  
C09  37732766.784   196484398.302        -137.407          36.000    37732753.026   151934162.170        -105.997          44.000  
C25  23561413.056   122690471.033        1517.014          41.000                                                                  
C08  39333601.315                2      -2475.827          28.000    39333588.593   158380047.8822      -1915.486          32.000  
C10  40444118.731                3        939.465          21.000    40444121.512                2        724.841          31.000  
C35  25935657.811   135053780.607         257.233          42.000                                                                  
C13  38493177.131                3      -2286.911          25.000    38493172.835                       -1772.589          26.000  
C12  26324960.665   137080972.558        2326.156          35.000    26324955.127   105999688.752        1798.162          41.000  
G25  24615097.085   129353214.982       -3919.144          37.000    24615093.188   100794676.907       -3053.884          36.000  
> 2025 10 30 06 25 06.4400000  0 22                     
G32  22187326.813                3      -3038.860          25.000    22187324.909    90853385.555       -2366.781          36.000  
G29  23110192.803   121444895.918        -768.183          45.000    23110184.504    94632356.775        -598.782          41.000  
G28  21321196.093   112043645.193       -1254.467          40.000    21321186.474    87306695.806        -977.552          46.000  
G26  20310123.173   106730419.625         530.898          46.000    20310115.871    83166542.506         413.715          43.000  
G31  20616811.611   108342071.596          74.292          44.000    20616800.484    84422352.621          57.781          42.000  
G04  24314573.992   127773931.116        3158.004          42.000    24314570.539    99564131.813        2460.684          45.000  
C33  22548531.225   117416112.068        -865.283          47.000                                                                  
C06  36581913.919   190491628.387        -148.828          40.000    36581896.878   147300139.696        -115.122          44.000  
C14  22802712.487   118739690.658       -2387.011          42.000    22802698.116    91817006.670       -1846.064          43.000  
C16  37011485.786   192728516.887        -176.914          44.000    37011473.967   149029867.138        -136.969          43.000  
C24  21893048.811   114002852.259        -928.334          47.000                                                                  
C26  24573969.758   127963105.873       -2573.169          45.000                                                                  
G03  22900517.514   120343050.902        -310.782          36.000    22900512.385    93773769.572        -241.220          28.000  
G16  22265998.076   117008582.1912       2880.732          32.000                                                                  
C09  37732767.826   196484403.764        -136.856          36.000    37732754.066   151934166.392        -105.705          44.000  
C25  23561401.405   122690410.345        1517.228          41.000                                                                  
C08  39333619.739                2      -2475.688          28.000    39333607.489                2      -1915.323          28.000  
C10  40444111.354                3        939.465          21.000    40444114.736                2        725.009          31.000  
C35  25935655.854   135053770.308         257.440          42.000                                                                  
C13  38493194.649                3      -2286.911          25.000    38493190.424                       -1772.236          26.000  
C12  26324942.799   137080879.534        2325.886          35.000    26324937.251   105999616.797        1798.665          41.000  
G25  24615126.904   129353371.751       -3919.168          37.000    24615123.005   100794799.040       -3053.459          36.000  
> 2025 10 30 06 25 06.4800000  0 22                     
G32  22187349.501                3      -3037.605          25.000    22187348.061    90853480.249       -2367.157          36.000  
G29  23110198.648   121444926.647        -768.227          45.000    23110190.353    94632380.718        -598.663          41.000  
G28  21321205.635   112043695.382       -1254.657          40.000    21321196.024    87306734.911        -977.593          46.000  
G26  20310119.123   106730398.404         530.576          46.000    20310111.852    83166525.965         413.546          43.000  
G31  20616811.030   108342068.624          74.292          44.000    20616799.924    84422350.307          57.806          42.000  
G04  24314549.950   127773804.812        3157.772          42.000    24314546.512    99564033.379        2460.776          45.000  
C33  22548537.852   117416146.683        -865.377          47.000                                                                  
C06  36581915.053   190491634.345        -148.915          40.000    36581898.025   147300144.304        -115.187          44.000  
C14  22802730.818   118739786.173       -2387.652          41.000    22802716.457    91817080.517       -1846.194          43.000  
C16  37011487.130   192728523.977        -177.147          44.000    37011475.310   149029872.614        -136.982          43.000  
C24  21893055.937   114002889.381        -928.164          47.000                                                                  
C26  24573989.532   127963208.797       -2573.086          45.000                                                                  
G03  22900519.869   120343063.340        -310.958          36.000    22900514.759    93773779.329        -243.104          28.000  
G16  22265975.955   117008466.9462       2880.862          32.000                                                                  
C09  37732768.865   196484409.215        -136.356          36.000    37732755.158   151934170.624        -105.735          44.000  
C25  23561389.743   122690349.650        1517.398          41.000                                                                  
C08  39333638.779                2      -2475.868          28.000    39333626.457                2      -1914.741          29.000  
C10  40444103.952                3        939.465          21.000    40444107.457                2        725.135          31.000  
C35  25935653.849   135053760.010         257.467          42.000                                                                  
C13  38493212.149                3      -2286.911          25.000    38493208.001                       -1771.032          26.000  
C12  26324924.955   137080786.489        2326.027          35.000    26324919.407   105999544.865        1798.500          41.000  
G25  24615156.699   129353528.516       -3919.146          37.000    24615152.840   100794921.197       -3053.710          36.000  
> 2025 10 30 06 25 06.5200000  0 22                     
G32  22187372.230                3      -3036.979          26.000    22187371.279    90853574.914       -2366.873          36.000  
G29  23110204.501   121444957.378        -768.283          45.000    23110196.187    94632404.672        -598.781          41.000  
G28  21321215.188   112043745.556       -1254.514          40.000    21321205.569    87306774.010        -977.526          46.000  
G26  20310115.075   106730377.180         530.498          46.000    20310107.775    83166509.433         413.335          43.000  
G31  20616810.476   108342065.650          74.322          44.000    20616799.349    84422347.991          57.849          42.000  
G04  24314525.905   127773678.497        3157.784          42.000    24314522.487    99563934.956        2460.647          45.000  
C33  22548544.553   117416181.292        -865.317          47.000                                                                  
C06  36581916.212   190491640.292        -148.748          40.000    36581899.207   147300148.899        -114.996          44.000  
C14  22802749.208   118739881.665       -2387.532          41.000    22802734.793    91817154.360       -1846.140          43.000  
C16  37011488.490   192728531.059        -177.187          44.000    37011476.687   149029878.082        -136.819          43.000  
C24  21893063.085   114002926.508        -928.166          47.000                                                                  
C26  24574009.294   127963311.724       -2573.116          45.000                                                                  
G03  22900522.245   120343075.797        -311.409          36.000    22900517.127    93773789.014        -243.052          28.000  
G16  22265953.645   117008351.7242       2880.627          32.000                                                                  
C09  37732769.916   196484414.685        -136.483          36.000    37732756.204   151934174.861        -105.870          44.000  
C25  23561378.083   122690288.959        1517.366          41.000                                                                  
C08  39333658.272                2      -2475.515          27.000    39333645.481                2      -1913.896          29.000  
C10  40444096.736                3        939.465          21.000    40444100.642                2        724.849          31.000  
C35  25935651.853   135053749.723         257.271          42.000                                                                  
C13  38493229.323                3      -2286.911          25.000    38493225.574                       -1770.726          26.000  
C12  26324907.085   137080693.469        2325.640          35.000    26324901.515   105999472.921        1798.586          41.000  
G25  24615186.540   129353685.275       -3919.024          38.000    24615182.658   100795043.354       -3053.926          36.000  
> 2025 10 30 06 25 06.5600000  0 22                     
G32  22187395.126                3      -3037.428          26.000    22187394.358    90853669.580       -2366.684          36.000  
G29  23110210.358   121444988.117        -768.457          45.000    23110202.009    94632428.616        -598.631          41.000  
G28  21321224.766   112043795.756       -1254.875          39.000    21321215.086    87306813.110        -977.501          46.000  
G26  20310111.013   106730355.953         530.563          46.000    20310103.739    83166492.898         413.269          43.000  
G31  20616809.902   108342062.674          74.359          44.000    20616798.768    84422345.670          58.009          42.000  
G04  24314501.869   127773552.185        3157.795          42.000    24314498.458    99563836.526        2460.675          45.000  
C33  22548551.175   117416215.911        -865.437          47.000                                                                  
C06  36581917.356   190491646.248        -148.809          40.000    36581900.371   147300153.502        -115.026          44.000  
C14  22802767.538   118739977.164       -2387.536          41.000    22802753.116    91817228.200       -1846.096          43.000  
C16  37011489.836   192728538.143        -177.196          44.000    37011478.054   149029883.551        -136.697          43.000  
C24  21893070.201   114002963.639        -928.226          47.000                                                                  
C26  24574029.064   127963414.653       -2573.186          45.000                                                                  
G03  22900524.619   120343088.238        -311.250          36.000    22900519.499                        -242.331          28.000  
G16  22265931.614   117008236.4992       2880.580          32.000                                                                  
C09  37732770.973   196484420.143        -136.418          36.000    37732757.261   151934179.089        -105.754          44.000  
C25  23561366.416   122690228.282        1517.026          41.000                                                                  
C08  39333676.952                2      -2475.694          27.000    39333664.739                2      -1914.349          28.000  
C10  40444089.262                3        942.452          21.000    40444092.978                2        725.978          31.000  
C35  25935649.897   135053739.442         257.066          42.000                                                                  
C13  38493246.633                3      -2294.040          25.000    38493243.124                       -1770.627          26.000  
C12  26324889.203   137080600.437        2325.673          35.000    26324883.652   105999400.985        1798.498          41.000  
G25  24615216.381   129353842.030       -3918.869          38.000    24615212.474   100795165.502       -3053.828          36.000  
> 2025 10 30 06 25 06.6000000  0 22                     
G32  22187418.327                3      -3038.032          26.000    22187417.448    90853764.256       -2366.824          36.000  
G29  23110216.210   121445018.846        -768.361          45.000    23110207.856    94632452.561        -598.575          41.000  
G28  21321234.310   112043845.931       -1254.623          39.000    21321224.622    87306852.204        -977.377          45.000  
G26  20310106.936   106730334.718         530.782          46.000    20310099.695    83166476.344         413.632          43.000  
G31  20616809.321   108342059.698          74.408          44.000    20616798.202    84422343.344          58.119          42.000  
G04  24314477.822   127773425.878        3157.719          42.000    24314474.433    99563738.102        2460.597          45.000  
C33  22548557.847   117416250.517        -865.282          47.000                                                                  
C06  36581918.493   190491652.203        -148.864          40.000    36581901.554   147300158.104        -115.047          44.000  
C14  22802785.886   118740072.651       -2387.340          41.000    22802771.460    91817302.038       -1846.015          43.000  
C16  37011491.172   192728545.212        -176.896          44.000    37011479.441   149029889.020        -136.703          43.000  
C24  21893077.333   114003000.767        -928.240          47.000                                                                  
C26  24574048.821   127963517.601       -2573.553          45.000                                                                  
G03  22900526.990   120343100.653        -310.618          36.000    22900521.845                        -242.285          28.000  
G16  22265909.859   117008121.2192       2881.375          32.000                                                                  
C09  37732772.006   196484425.615        -136.564          36.000    37732758.293   151934183.322        -105.793          44.000  
C25  23561354.758   122690167.596        1517.070          41.000                                                                  
C08  39333696.537                2      -2475.724          27.000    39333683.926                2      -1913.472          28.000  
C10  40444081.611                3        942.452          21.000    40444085.882                2        725.358          31.000  
C35  25935647.925   135053729.149         257.233          42.000                                                                  
C13  38493264.045                3      -2294.040          25.000    38493260.772                       -1770.536          26.000  
C12  26324871.347   137080507.415        2325.544          35.000    26324865.788   105999329.050        1798.398          41.000  
G25  24615246.193   129353998.795       -3918.974          38.000    24615242.321   100795287.677       -3054.257          36.000  
> 2025 10 30 06 25 06.6400000  0 22                     
G32  22187441.323                2      -3038.031          26.000    22187440.527    90853858.961       -2367.507          36.000  
G29  23110222.042   121445049.584        -768.454          45.000    23110213.714    94632476.519        -598.870          41.000  
G28  21321243.868   112043896.119       -1254.639          39.000    21321234.162    87306891.310        -977.539          45.000  
G26  20310102.889   106730313.492         530.706          46.000    20310095.641    83166459.797         413.686          43.000  
G31  20616808.777   108342056.734          74.180          44.000    20616797.654    84422341.038          57.816          42.000  
G04  24314453.779   127773299.563        3157.771          42.000    24314450.396    99563639.676        2460.594          45.000  
C33  22548564.525   117416285.134        -865.385          47.000                                                                  
C06  36581919.618   190491658.146        -148.722          40.000    36581902.694   147300162.713        -115.185          44.000  
C14  22802804.235   118740168.141       -2387.286          41.000    22802789.780    91817375.874       -1845.946          43.000  
C16  37011492.521   192728552.292        -176.953          44.000    37011480.776   149029894.510        -137.065          43.000  
C24  21893084.460   114003037.891        -928.175          47.000                                                                  
C26  24574068.623   127963620.534       -2573.518          45.000                                                                  
G03  22900529.353   120343113.102        -310.970          36.000    22900524.202                        -242.402          28.000  
G16  22265887.813   117008006.0082       2880.559          31.000                                                                  
C09  37732773.059   196484431.096        -136.922          36.000    37732759.354   151934187.556        -105.818          44.000  
C25  23561343.094   122690106.933        1516.664          41.000                                                                  
C08  39333716.568                2      -2475.834          27.000    39333702.822                2      -1914.082          28.000  
C10  40444074.418                3        942.452          21.000    40444078.671                2        724.530          31.000  
C35  25935645.980   135053718.864         257.145          42.000                                                                  
C13  38493281.395                3      -2294.040          25.000    38493278.363                       -1771.199          26.000  
C12  26324853.471   137080414.363        2326.018          35.000    26324847.929   105999257.115        1798.304          41.000  
G25  24615276.010   129354155.560       -3919.087          38.000    24615272.156   100795409.820       -3053.887          36.000  
> 2025 10 30 06 25 06.6800000  0 22                     
G32  22187464.076                3      -3037.962          26.000    22187463.592    90853953.632       -2367.167          36.000  
G29  23110227.889   121445080.324        -768.522          45.000    23110219.575    94632500.468        -598.793          41.000  
G28  21321253.409   112043946.296       -1254.547          39.000    21321243.692    87306930.407        -977.513          45.000  
G26  20310098.869   106730292.263         530.719          46.000    20310091.599    83166443.262         413.499          43.000  
G31  20616808.237   108342053.765          74.168          44.000    20616797.084    84422338.726          57.712          42.000  
G04  24314429.731   127773173.234        3158.086          42.000    24314426.342    99563541.236        2460.836          45.000  
C33  22548571.157   117416319.752        -865.474          47.000                                                                  
C06  36581920.758   190491664.110        -148.944          40.000    36581903.833   147300167.324        -115.271          44.000  
C14  22802822.571   118740263.625       -2387.187          41.000    22802808.111    91817449.721       -1846.098          43.000  
C16  37011493.855   192728559.383        -177.201          44.000    37011482.151   149029899.991        -137.126          43.000  
C24  21893091.576   114003075.027        -928.331          47.000                                                                  
C26  24574088.378   127963723.466       -2573.412          45.000                                                                  
G03  22900531.719   120343125.548        -311.186          36.000    22900526.603    93773827.720        -242.388          28.000  
G16  22265865.845   117007890.805        2879.985          31.000                                                                  
C09  37732774.093   196484436.589        -137.303          36.000    37732760.411   151934191.799        -106.001          44.000  
C25  23561331.452   122690046.251        1516.857          41.000                                                                  
C08  39333736.307                2      -2475.771          27.000    39333721.705                2      -1914.290          28.000  
C10  40444067.217                3        942.452          21.000    40444071.562                2        725.262          31.000  
C35  25935644.005   135053708.577         257.151          42.000                                                                  
C13  38493298.584                3      -2286.448          25.000    38493295.995                       -1771.204          26.000  
C12  26324835.606   137080321.324        2326.059          34.000    26324830.064   105999185.176        1798.356          41.000  
G25  24615305.871   129354312.336       -3919.346          38.000    24615301.984   100795531.974       -3053.863          36.000  
> 2025 10 30 06 25 06.7200000  0 22                     
G32  22187486.164                2      -3038.107          26.000    22187486.795    90854048.350       -2367.683          36.000  
G29  23110233.752   121445111.065        -768.532          45.000    23110225.434    94632524.420        -598.818          41.000  
G28  21321262.964   112043996.457       -1254.222          39.000    21321253.256    87306969.518        -977.725          45.000  
G26  20310094.822   106730271.027         530.843          46.000    20310087.556    83166426.712         413.680          43.000  
G31  20616807.680   108342050.790          74.273          44.000    20616796.510    84422336.414          57.725          42.000  
G04  24314405.688   127773046.908        3158.155          42.000    24314402.299    99563442.805        2460.796          45.000  
C33  22548577.819   117416354.365        -865.402          47.000                                                                  
C06  36581921.890   190491670.046        -148.553          40.000    36581904.994   147300171.923        -115.099          44.000  
C14  22802840.890   118740359.125       -2387.421          41.000    22802826.455    91817523.562       -1846.085          43.000  
C16  37011495.235   192728566.459        -177.060          44.000    37011483.508   149029905.469        -137.090          43.000  
C24  21893098.692   114003112.156        -928.293          47.000                                                                  
C26  24574108.137   127963826.389       -2573.203          45.000                                                                  
G03  22900534.096   120343138.004        -311.388          36.000    22900528.959    93773837.429        -242.598          28.000  
G16  22265843.810   117007775.543        2880.988          31.000                                                                  
C09  37732775.157   196484442.091        -137.645          36.000    37732761.444   151934196.022        -105.746          44.000  
C25  23561319.773   122689985.564        1517.035          41.000                                                                  
C08  39333754.639                2      -2475.664          27.000    39333741.146                2      -1915.167          28.000  
C10  40444060.252                3        929.653          21.000    40444064.483                2        725.324          31.000  
C35  25935642.025   135053698.290         257.164          42.000                                                                  
C13  38493316.009                3      -2286.448          25.000    38493313.546                       -1771.076          26.000  
C12  26324817.713   137080228.272        2326.301          34.000    26324812.211   105999113.233        1798.512          41.000  
G25  24615335.678   129354469.085       -3918.882          38.000    24615331.793   100795654.116       -3053.561          36.000  
> 2025 10 30 06 25 06.7600000  0 22                     
G32  22187509.376                2      -3037.841          26.000    22187509.943    90854142.996       -2366.662          36.000  
G29  23110239.602   121445141.792        -768.295          45.000    23110231.282    94632548.368        -598.749          41.000  
G28  21321272.506   112044046.623       -1254.149          39.000    21321262.820    87307008.618        -977.618          45.000  
G26  20310090.781   106730249.791         530.904          46.000    20310083.508    83166410.173         413.548          43.000  
G31  20616807.098   108342047.816          74.341          44.000    20616795.941    84422334.091          57.923          42.000  
G04  24314381.670   127772920.592        3157.988          42.000    24314378.256    99563344.389        2460.513          45.000  
C33  22548584.481   117416388.978        -865.371          47.000                                                                  
C06  36581923.046   190491675.996        -148.605          40.000    36581906.139   147300176.516        -114.920          44.000  
C14  22802859.232   118740454.627       -2387.563          41.000    22802844.805    91817597.403       -1846.084          43.000  
C16  37011496.606   192728573.534        -176.958          44.000    37011484.848   149029910.930        -136.731          43.000  
C24  21893105.819   114003149.279        -928.132          48.000                                                                  
C26  24574127.892   127963929.319       -2573.223          45.000                                                                  
G03  22900536.466   120343150.474        -311.794          36.000    22900531.339    93773847.144        -242.795          28.000  
G16  22265821.476   117007660.312        2880.820          31.000                                                                  
C09  37732776.208   196484447.544        -136.788          36.000    37732762.517   151934200.253        -105.748          44.000  
C25  23561308.115   122689924.886        1516.986          41.000                                                                  
C08  39333772.601                2      -2475.563          27.000    39333760.154                2      -1915.281          28.000  
C10  40444053.262                3        929.653          21.000    40444057.153                2        725.602          31.000  
C35  25935640.044   135053688.006         257.095          42.000                                                                  
C13  38493333.149                3      -2286.448          25.000    38493331.118                       -1772.082          26.000  
C12  26324799.847   137080135.233        2326.143          34.000    26324794.329   105999041.279        1798.785          41.000  
G25  24615365.466   129354625.832       -3918.665          38.000    24615361.622   100795776.259       -3053.464          36.000  
> 2025 10 30 06 25 06.8000000  0 22                     
G32  22187533.374                2      -3037.823          26.000    22187532.977    90854237.644       -2366.264          36.000  
G29  23110245.429   121445172.525        -768.272          44.000    23110237.129    94632572.300        -598.414          41.000  
G28  21321282.059   112044096.818       -1254.589          39.000    21321272.377    87307047.713        -977.460          45.000  
G26  20310086.770   106730228.564         530.753          46.000    20310079.472    83166393.630         413.549          43.000  
G31  20616806.520   108342044.827          74.618          44.000    20616795.382    84422331.762          58.119          42.000  
G04  24314357.619   127772794.268        3158.048          42.000    24314354.194    99563245.964        2460.518          45.000  
C33  22548591.136   117416423.587        -865.274          48.000                                                                  
C06  36581924.211   190491681.945        -148.726          40.000    36581907.265   147300181.108        -114.829          44.000  
C14  22802877.570   118740550.111       -2387.279          41.000    22802863.147    91817671.243       -1846.021          42.000  
C16  37011497.956   192728580.594        -176.604          44.000    37011486.225   149029916.401        -136.718          43.000  
C24  21893112.983   114003186.400        -928.038          48.000                                                                  
C26  24574147.672   127964032.246       -2573.198          45.000                                                                  
G03  22900538.839   120343162.905        -311.157          36.000    22900533.700                        -242.900          28.000  
G16  22265799.596   117007545.023        2881.750          31.000                                                                  
C09  37732777.261   196484452.996        -136.286          36.000    37732763.556   151934204.481        -105.686          44.000  
C25  23561296.457   122689864.200        1517.103          41.000                                                                  
C08  39333792.330                2      -2475.732          27.000    39333779.580                2      -1914.966          29.000  
C10  40444046.220                3        929.653          21.000    40444049.630                2        725.703          31.000  
C35  25935638.073   135053677.714         257.254          42.000                                                                  
C13  38493350.581                3      -2286.448          25.000    38493348.713                       -1771.080          26.000  
C12  26324781.985   137080042.208        2325.845          34.000    26324776.455   105998969.348        1798.471          41.000  
G25  24615395.294   129354782.592       -3918.846          38.000    24615391.445   100795898.424       -3053.879          36.000  
> 2025 10 30 06 25 06.8400000  0 22                     
G32  22187556.553                2      -3037.498          26.000    22187556.033    90854332.332       -2366.872          36.000  
G29  23110251.289   121445203.268        -768.523          44.000    23110242.983    94632596.248        -598.553          41.000  
G28  21321291.598   112044146.998       -1254.570          39.000    21321281.935    87307086.802        -977.293          45.000  
G26  20310082.730   106730207.338         530.667          46.000    20310075.427    83166377.083         413.636          43.000  
G31  20616805.968   108342041.848          74.555          44.000    20616794.830    84422329.441          58.087          42.000  
G04  24314333.593   127772667.952        3157.936          42.000    24314330.154    99563147.522        2460.812          45.000  
C33  22548597.805   117416458.195        -865.200          48.000                                                                  
C06  36581925.357   190491687.898        -148.823          40.000    36581908.386   147300185.702        -114.813          44.000  
C14  22802895.906   118740645.599       -2387.237          41.000    22802881.523    91817745.080       -1845.945          42.000  
C16  37011499.328   192728587.675        -176.825          44.000    37011487.591   149029921.869        -136.690          43.000  
C24  21893120.082   114003223.524        -928.062          47.000                                                                  
C26  24574167.443   127964135.172       -2573.146          45.000                                                                  
G03  22900541.213   120343175.337        -310.839          36.000    22900536.088                        -242.655          28.000  
G16  22265777.784   117007429.811        2880.823          32.000                                                                  
C09  37732778.312   196484458.446        -136.117          36.000    37732764.606   151934208.715        -105.829          44.000  
C25  23561284.807   122689803.509        1517.231          41.000                                                                  
C08  39333811.095                2      -2475.854          27.000    39333798.728                2      -1913.119          29.000  
C10  40444038.871                3        929.653          21.000    40444042.143                2        725.090          31.000  
C35  25935636.073   135053667.427         257.220          42.000                                                                  
C13  38493367.815                3      -2281.410          25.000    38493366.286                       -1770.823          26.000  
C12  26324764.103   137079949.185        2325.571          34.000    26324758.576   105998897.399        1798.615          41.000  
G25  24615425.135   129354939.360       -3919.083          38.000    24615421.295   100796020.574       -3053.848          36.000  
> 2025 10 30 06 25 06.8800000  0 22                     
G32  22187579.833                2      -3037.219          26.000    22187579.184    90854427.026       -2367.289          36.000  
G29  23110257.156   121445234.010        -768.590          44.000    23110248.823    94632620.217        -599.058          41.000  
G28  21321301.145   112044197.170       -1254.396          39.000    21321291.515    87307125.910        -977.543          45.000  
G26  20310078.715   106730186.123         530.400          46.000    20310071.404    83166360.555         413.311          43.000  
G31  20616805.416   108342038.878          74.333          44.000    20616794.265    84422327.133          57.816          42.000  
G04  24314309.537   127772541.629        3157.998          42.000    24314306.115    99563049.089        2460.853          45.000  
C33  22548604.428   117416492.817        -865.411          48.000                                                                  
C06  36581926.504   190491693.860        -149.013          40.000    36581909.517   147300190.304        -114.959          44.000  
C14  22802914.237   118740741.103       -2387.605          41.000    22802899.871    91817818.934       -1846.236          42.000  
C16  37011500.641   192728594.762        -177.092          44.000    37011488.928   149029927.339        -136.761          43.000  
C24  21893127.190   114003260.657        -928.259          47.000                                                                  
C26  24574187.200   127964238.101       -2573.197          45.000                                                                  
G03  22900543.612   120343187.810        -311.441          36.000    22900538.435                        -242.598          28.000  
G16  22265755.711   117007314.577        2880.627          32.000                                                                  
C09  37732779.370   196484463.923        -136.576          36.000    37732765.644   151934212.936        -105.682          44.000  
C25  23561273.168   122689742.822        1517.225          41.000                                                                  
C08  39333829.620                2      -2475.603          27.000    39333818.316                2      -1914.495          29.000  
C10  40444031.542                3        929.653          21.000    40444034.646                2        725.383          31.000  
C35  25935634.079   135053657.146         257.037          42.000                                                                  
C13  38493385.454                3      -2281.410          25.000    38493383.832                       -1770.624          26.000  
C12  26324746.258   137079856.159        2325.614          34.000    26324740.712   105998825.460        1798.509          41.000  
G25  24615454.972   129355096.128       -3919.207          38.000    24615451.138   100796142.739       -3054.089          36.000  
> 2025 10 30 06 25 06.9200000  0 22                     
G32  22187602.455                2      -3037.098          27.000    22187602.245    90854521.702       -2367.164          36.000  
G29  23110263.020   121445264.762        -768.813          44.000    23110254.659    94632644.181        -599.204          41.000  
G28  21321310.682   112044247.356       -1254.543          39.000    21321301.064    87307165.018        -977.693          45.000  
G26  20310074.712   106730164.911         530.222          46.000    20310067.331    83166344.014         413.363          43.000  
G31  20616804.882   108342035.909          74.241          44.000    20616793.693    84422324.820          57.724          42.000  
G04  24314285.507   127772415.322        3157.789          42.000    24314282.076    99562950.674        2460.562          45.000  
C33  22548611.052   117416527.447        -865.701          48.000                                                                  
C06  36581927.650   190491699.807        -148.836          40.000    36581910.669   147300194.915        -115.205          44.000  
C14  22802932.577   118740836.619       -2387.920          41.000    22802918.199    91817892.785       -1846.353          42.000  
C16  37011502.021   192728601.845        -177.151          44.000    37011490.290   149029932.810        -136.833          43.000  
C24  21893134.318   114003297.793        -928.417          47.000                                                                  
C26  24574206.968   127964341.045       -2573.506          45.000                                                                  
G03  22900545.992   120343200.299        -312.162          36.000    22900540.789                        -242.685          28.000  
G16  22265733.790   117007199.342        2880.759          32.000                                                                  
C09  37732780.392   196484469.392        -136.768          36.000    37732766.672   151934217.179        -105.988          44.000  
C25  23561261.522   122689682.147        1517.002          41.000                                                                  
C08  39333847.836                2      -2475.842          27.000    39333836.987                2      -1915.104          29.000  
C10  40444024.123                3        929.653          21.000    40444027.405                2        725.010          32.000  
C35  25935632.083   135053646.875         256.813          42.000                                                                  
C13  38493403.297                3      -2281.410          25.000    38493401.429                       -1770.837          26.000  
C12  26324728.359   137079763.131        2325.709          34.000    26324722.865   105998753.525        1798.378          41.000  
G25  24615484.803   129355252.904       -3919.425          38.000    24615480.981   100796264.905       -3054.238          36.000  
> 2025 10 30 06 25 06.9600000  0 22                     
G32  22187625.604                2      -3037.190          27.000    22187625.366    90854616.396       -2367.413          36.000  
G29  23110268.839   121445295.502        -768.654          44.000    23110260.524    94632668.132        -599.008          41.000  
G28  21321320.238   112044297.545       -1254.728          39.000    21321310.622    87307204.121        -977.653          45.000  
G26  20310070.665   106730143.686         530.456          46.000    20310063.284    83166327.478         413.351          43.000  
G31  20616804.315   108342032.935          74.291          44.000    20616793.113    84422322.512          57.645          42.000  
G04  24314261.478   127772289.003        3157.861          42.000    24314258.060    99562852.245        2460.626          45.000  
C33  22548617.701   117416562.071        -865.682          48.000                                                                  
C06  36581928.807   190491705.741        -148.455          40.000    36581911.788   147300199.504        -114.931          44.000  
C14  22802950.933   118740932.110       -2387.562          41.000    22802936.560    91817966.639       -1846.419          42.000  
C16  37011503.389   192728608.905        -176.747          44.000    37011491.668   149029938.291        -137.024          43.000  
C24  21893141.444   114003334.923        -928.359          47.000                                                                  
C26  24574226.738   127964443.982       -2573.523          45.000                                                                  
G03  22900548.365   120343212.746        -311.700          36.000    22900543.182    93773895.665        -242.852          28.000  
G16  22265711.710   117007084.075        2881.268          32.000                                                                  
C09  37732781.433   196484474.847        -136.581          36.000    37732767.704   151934221.397        -105.680          44.000  
C25  23561249.857   122689621.444        1517.416          41.000                                                                  
C08  39333865.804                2      -2475.688          27.000    39333855.724                2      -1914.646          29.000  
C10  40444016.871                3        946.527          21.000    40444019.938                2        725.625          32.000  
C35  25935630.090   135053636.588         256.993          42.000                                                                  
C13  38493420.883                3      -2281.410          24.000    38493419.015                       -1770.474          26.000  
C12  26324710.481   137079670.044        2326.835          34.000    26324704.983   105998681.572        1798.698          41.000  
G25  24615514.645   129355409.662       -3919.222          38.000    24615510.798   100796387.045       -3053.827          36.000  
> 2025 10 30 06 25 07.0000000  0 22                     
G32  22187648.562                2      -3036.513          27.000    22187648.531    90854711.069       -2367.076          36.000  
G29  23110274.647   121445326.233        -768.399          44.000    23110266.364    94632692.076        -598.765          41.000  
G28  21321329.791   112044347.731       -1254.805          39.000    21321320.177    87307243.214        -977.417          45.000  
G26  20310066.624   106730122.460         530.574          46.000    20310059.261    83166310.942         413.371          43.000  
G31  20616803.750   108342029.953          74.445          44.000    20616792.526    84422320.187          57.935          42.000  
G04  24314237.450   127772162.682        3157.946          42.000    24314234.021    99562753.819        2460.629          45.000  
C33  22548624.338   117416596.691        -865.603          47.000                                                                  
C06  36581929.958   190491711.679        -148.328          40.000    36581912.921   147300204.102        -114.970          44.000  
C14  22802969.268   118741027.612       -2387.582          41.000    22802954.865    91818040.477       -1846.146          42.000  
C16  37011504.767   192728615.963        -176.482          44.000    37011493.013   149029943.756        -136.791          43.000  
C24  21893148.594   114003372.046        -928.223          47.000                                                                  
C26  24574246.502   127964546.904       -2573.275          45.000                                                                  
G03  22900550.745   120343225.220        -311.804          36.000    22900545.547                        -243.218          28.000  
G16  22265690.070   117006968.839        2881.078          32.000                                                                  
C09  37732782.471   196484480.309        -136.628          36.000    37732768.751   151934225.614        -105.460          44.000  
C25  23561238.201   122689560.743        1517.594          41.000                                                                  
C08  39333884.967                2      -2475.465          28.000    39333874.329                2      -1913.241          29.000  
C10  40444009.884                3        946.527          21.000    40444012.843                2        725.641          32.000  
C35  25935628.118   135053626.296         257.194          42.000                                                                  
C13  38493438.805                3      -2281.410          24.000    38493436.620                       -1770.553          26.000  
C12  26324692.633   137079576.988        2326.737          34.000    26324687.090   105998609.629        1798.665          41.000  
G25  24615544.464   129355566.407       -3918.802          38.000    24615540.616   100796509.199       -3053.817          36.000  
> 2025 10 30 06 25 07.0400000  0 22                     
G32  22187671.211                2      -3035.213          26.000    22187671.684    90854805.730       -2366.629          35.000  
G29  23110280.480   121445356.967        -768.326          44.000    23110272.237    94632716.039        -598.972          41.000  
G28  21321339.351   112044397.921       -1254.857          39.000    21321329.707    87307282.306        -977.291          45.000  
G26  20310062.549   106730101.231         530.697          46.000    20310055.198    83166294.404         413.422          43.000  
G31  20616803.187   108342026.963          74.697          44.000    20616791.951    84422317.854          58.230          42.000  
G04  24314213.424   127772036.367        3157.856          42.000    24314209.975    99562655.385        2460.789          45.000  
C33  22548630.993   117416631.310        -865.527          47.000                                                                  
C06  36581931.075   190491717.610        -148.215          40.000    36581914.062   147300208.701        -114.989          44.000  
C14  22802987.600   118741123.115       -2387.620          41.000    22802973.209    91818114.313       -1845.947          42.000  
C16  37011506.099   192728623.031        -176.574          44.000    37011494.367   149029949.224        -136.714          43.000  
C24  21893155.722   114003409.166        -928.090          47.000                                                                  
C26  24574266.289   127964649.816       -2572.915          45.000                                                                  
G03  22900553.131   120343237.662        -311.281          36.000    22900547.931                        -242.929          28.000  
G16  22265668.317   117006853.590        2881.219          32.000                                                                  
C09  37732783.514   196484485.720        -135.649          36.000    37732769.825   151934229.837        -105.489          44.000  
C25  23561226.539   122689500.026        1517.950          41.000                                                                  
C08  39333903.126                2      -2475.174          27.000    39333893.652                2      -1913.580          29.000  
C10  40444002.654                3        946.527          21.000    40444005.615                2        724.736          32.000  
C35  25935626.144   135053615.992         257.511          42.000                                                                  
C13  38493456.614                3      -2281.410          24.000    38493454.172                       -1770.076          26.000  
C12  26324674.775   137079484.006        2325.094          34.000    26324669.233   105998537.684        1798.664          41.000  
G25  24615574.267   129355723.140       -3918.403          38.000    24615570.447   100796631.353       -3053.870          36.000  
> 2025 10 30 06 25 07.0800000  0 22                     
G32  22187693.957                2      -3035.718          27.000    22187694.734    90854900.398       -2366.520          35.000  
G29  23110286.318   121445387.702        -768.321          44.000    23110278.091    94632739.985        -598.759          41.000  
G28  21321348.892   112044448.094       -1254.553          39.000    21321339.272    87307321.405        -977.371          45.000  
G26  20310058.506   106730080.000         530.808          46.000    20310051.171    83166277.872         413.321          43.000  
G31  20616802.608   108342023.975          74.776          44.000    20616791.376    84422315.524          58.315          42.000  
G04  24314189.395   127771910.057        3157.755          42.000    24314185.948    99562556.951        2460.875          45.000  
C33  22548637.649   117416665.932        -865.554          47.000                                                                  
C06  36581932.210   190491723.567        -148.697          40.000    36581915.206   147300213.297        -114.944          44.000  
C14  22803005.931   118741218.608       -2387.450          41.000    22802991.552    91818188.147       -1845.831          42.000  
C16  37011507.427   192728630.103        -176.735          44.000    37011495.726   149029954.693        -136.677          43.000  
C24  21893162.843   114003446.292        -928.113          47.000                                                                  
C26  24574286.061   127964752.739       -2572.914          45.000                                                                  
G03  22900555.487   120343250.088        -310.726          38.000    22900550.285                        -243.034          29.000  
G16  22265646.364   117006738.341        2881.222          35.000                                                                  
C09  37732784.552   196484491.154        -135.639          36.000    37732770.864   151934234.056        -105.473          44.000  
C25  23561214.832   122689439.310        1518.084          41.000                                                                  
C08  39333922.062                2      -2475.148          28.000    39333912.435                2      -1913.939          29.000  
C10  40443995.444                3        941.455          21.000    40443998.248                2        725.117          32.000  
C35  25935624.183   135053605.701         257.412          42.000                                                                  
C13  38493474.806                3      -2291.748          24.000    38493471.798                       -1770.193          26.000  
C12  26324656.910   137079391.002        2324.794          34.000    26324651.370   105998465.742        1798.588          42.000  
G25  24615604.093   129355879.898       -3918.651          38.000    24615600.278   100796753.489       -3053.640          36.000  
> 2025 10 30 06 25 07.1200000  0 22                     
G32  22187716.690                2      -3036.588          27.000    22187717.937    90854995.072       -2366.637          35.000  
G29  23110292.177   121445418.449        -768.571          44.000    23110283.944    94632763.939        -598.772          41.000  
G28  21321358.433   112044498.240       -1253.893          39.000    21321348.823    87307360.501        -977.401          45.000  
G26  20310054.479   106730058.779         530.645          46.000    20310047.130    83166261.336         413.302          43.000  
G31  20616802.054   108342020.998          74.553          44.000    20616790.790    84422313.206          58.086          42.000  
G04  24314165.348   127771783.738        3157.858          42.000    24314161.907    99562458.524        2460.778          45.000  
C33  22548644.310   117416700.553        -865.548          47.000                                                                  
C06  36581933.331   190491729.500        -148.516          40.000    36581916.346   147300217.892        -114.877          44.000  
C14  22803024.239   118741314.104       -2387.446          41.000    22803009.894    91818261.991       -1845.972          43.000  
C16  37011508.765   192728637.173        -176.765          44.000    37011497.105   149029960.160        -136.634          43.000  
C24  21893169.969   114003483.416        -928.116          47.000                                                                  
C26  24574305.831   127964855.675       -2573.210          45.000                                                                  
G03  22900557.860   120343262.531        -310.798          40.000    22900552.637                        -242.047          33.000  
G16  22265624.311   117006623.089        2881.270          35.000                                                                  
C09  37732785.600   196484496.610        -136.136          36.000    37732771.932   151934238.278        -105.538          44.000  
C25  23561203.169   122689378.627        1517.465          41.000                                                                  
C08  39333940.427                2      -2475.510          28.000    39333931.576                2      -1914.183          29.000  
C10  40443988.318                3        941.455          21.000    40443991.051                2        725.435          32.000  
C35  25935622.205   135053595.408         257.334          42.000                                                                  
C13  38493493.147                3      -2291.748          24.000    38493489.404                       -1769.397          26.000  
C12  26324639.055   137079297.975        2325.208          34.000    26324633.545   105998393.806        1798.427          42.000  
G25  24615633.936   129356036.674       -3919.219          38.000    24615630.109   100796875.620       -3053.307          36.000  
> 2025 10 30 06 25 07.1600000  0 22                     
G32  22187740.854                2      -3037.769          32.000    22187741.053    90855089.719       -2366.190          35.000  
G29  23110298.004   121445449.189        -768.570          44.000    23110289.816    94632787.895        -598.867          41.000  
G28  21321367.962   112044548.399       -1253.804          39.000    21321358.369    87307399.599        -977.449          45.000  
G26  20310050.433   106730037.564         530.446          46.000    20310043.089    83166244.807         413.210          43.000  
G31  20616801.497   108342018.020          74.449          44.000    20616790.235    84422310.899          57.741          42.000  
G04  24314141.289   127771657.417        3157.985          42.000    24314137.868    99562360.095        2460.736          45.000  
C33  22548650.953   117416735.186        -865.744          47.000                                                                  
C06  36581934.484   190491735.458        -148.862          38.000    36581917.499   147300222.493        -115.006          44.000  
C14  22803042.585   118741409.603       -2387.510          41.000    22803028.222    91818335.841       -1846.173          43.000  
C16  37011510.114   192728644.235        -176.642          44.000    37011498.477   149029965.624        -136.612          43.000  
C24  21893177.096   114003520.543        -928.193          47.000                                                                  
C26  24574325.576   127964958.618       -2573.533          45.000                                                                  
G03  22900560.250   120343274.988        -311.219          40.000    22900554.971    93773944.141        -241.324          33.000  
G16  22265602.409   117006507.844        2881.105          35.000                                                                  
C09  37732786.658   196484502.055        -136.251          36.000    37732772.994   151934242.509        -105.734          43.000  
C25  23561191.520   122689317.952        1516.924          41.000                                                                  
C08  39333959.145                2      -2475.479          28.000    39333950.424                2      -1914.025          30.000  
C10  40443981.149                3        941.455          21.000    40443983.721                2        725.227          32.000  
C35  25935620.202   135053585.123         257.146          42.000                                                                  
C13  38493511.329                3      -2291.748          24.000    38493506.978                       -1769.445          26.000  
C12  26324621.197   137079204.912        2326.180          34.000    26324615.685   105998321.884        1798.105          43.000  
G25  24615663.783   129356193.435       -3919.229          38.000    24615659.947   100796997.773       -3053.578          36.000  
> 2025 10 30 06 25 07.2000000  0 22                     
G32  22187763.951                2      -3038.606          35.000    22187764.115    90855184.395       -2366.573          35.000  
G29  23110303.840   121445479.941        -768.793          44.000    23110295.663    94632811.856        -599.035          41.000  
G28  21321377.491   112044598.578       -1254.167          39.000    21321367.908    87307438.708        -977.699          45.000  
G26  20310046.415   106730016.342         530.434          46.000    20310039.056    83166228.269         413.317          43.000  
G31  20616800.912   108342015.053          74.203          44.000    20616789.661    84422308.588          57.669          42.000  
G04  24314117.250   127771531.099        3158.008          42.000    24314113.812    99562261.669        2460.630          45.000  
C33  22548657.622   117416769.810        -865.717          47.000                                                                  
C06  36581935.634   190491741.416        -149.057          38.000    36581918.634   147300227.089        -114.957          44.000  
C14  22803060.922   118741505.110       -2387.667          41.000    22803046.567    91818409.687       -1846.228          43.000  
C16  37011511.466   192728651.313        -176.862          44.000    37011499.842   149029971.093        -136.679          43.000  
C24  21893184.212   114003557.678        -928.353          47.000                                                                  
C26  24574345.345   127965061.558       -2573.647          45.000                                                                  
G03  22900562.660   120343287.445        -311.430          40.000    22900557.344    93773953.847        -242.139          33.000  
G16  22265580.498   117006392.605        2880.962          35.000                                                                  
C09  37732787.710   196484507.535        -136.972          36.000    37732774.035   151934246.730        -105.670          43.000  
C25  23561179.883   122689257.275        1516.791          41.000                                                                  
C08  39333978.539                2      -2475.607          28.000    39333969.709                2      -1913.984          30.000  
C10  40443973.728                3        938.940          21.000    40443976.530                2        725.925          32.000  
C35  25935618.209   135053574.849         256.859          42.000                                                                  
C13  38493528.992                3      -2288.931          24.000    38493524.590                       -1770.535          26.000  
C12  26324603.322   137079111.870        2326.255          34.000    26324597.815   105998249.956        1798.064          43.000  
G25  24615693.588   129356350.197       -3919.228          38.000    24615689.771   100797119.916       -3053.608          36.000  
> 2025 10 30 06 25 07.2400000  0 22                     
G32  22187787.581                2      -3039.208          38.000    22187787.179    90855279.060       -2366.650          35.000  
G29  23110309.726   121445510.698        -768.946          44.000    23110301.528    94632835.843        -599.574          41.000  
G28  21321387.025   112044648.770       -1254.642          41.000    21321377.454    87307477.816        -977.789          45.000  
G26  20310042.400   106729995.134         530.192          46.000    20310035.031    83166211.740         413.236          43.000  
G31  20616800.349   108342012.094          73.933          44.000    20616789.094    84422306.284          57.528          42.000  
G04  24314093.206   127771404.789        3157.833          42.000    24314089.779    99562163.252        2460.430          45.000  
C33  22548664.266   117416804.451        -865.969          47.000                                                                  
C06  36581936.727   190491747.375        -149.117          38.000    36581919.789   147300231.699        -115.192          44.000  
C14  22803079.267   118741600.616       -2387.720          41.000    22803064.916    91818483.549       -1846.542          43.000  
C16  37011512.812   192728658.397        -177.084          44.000    37011501.184   149029976.575        -136.956          43.000  
C24  21893191.335   114003594.824        -928.640          47.000                                                                  
C26  24574365.124   127965164.496       -2573.596          45.000                                                                  
G03  22900565.046   120343299.912        -311.671          40.000    22900559.733    93773963.561        -242.714          33.000  
G16  22265558.425   117006277.369        2880.817          35.000                                                                  
C09  37732788.779   196484513.031        -137.581          36.000    37732775.104   151934250.976        -106.062          43.000  
C25  23561168.231   122689196.619        1516.325          41.000                                                                  
C08  39333998.668                2      -2475.627          28.000    39333988.459                2      -1914.597          30.000  
C10  40443966.438                3        938.940          22.000    40443969.341                2        725.426          32.000  
C35  25935616.241   135053564.571         256.833          42.000                                                                  
C13  38493546.788                3      -2288.931          24.000    38493542.232                       -1769.917          26.000  
C12  26324585.462   137079018.836        2326.058          34.000    26324579.944   105998178.026        1798.085          43.000  
G25  24615723.413   129356506.970       -3919.343          38.000    24615719.606   100797242.071       -3053.760          36.000  
