     3.04           OBSERVATION DATA    M: Mixed            RINEX VERSION / TYPE
RTKCONV 2.4.3 b34                       20251030 064010 UTC PGM / RUN BY / DATE 
format: u-blox UBX                                          COMMENT             
log: D:\GPdata\10_30\fingure_290_200_10_30_2.ubx            COMMENT             
                                                            MARKER NAME         
                                                            MARKER NUMBER       
                                                            MARKER TYPE         
                                                            OBSERVER / AGENCY   
                                                            REC # / TYPE / VERS 
                                                            ANT # / TYPE        
        0.0000        0.0000        0.0000                  APPROX POSITION XYZ 
        0.0000        0.0000        0.0000                  ANTENNA: DELTA H/E/N
G    8 C1C L1C D1C S1C C2L L2L D2L S2L                      SYS / # / OBS TYPES 
C    8 C2I L2I D2I S2I C7I L7I D7I S7I                      SYS / # / OBS TYPES 
  2025    10    30    06    24   17.5200000     GPS         TIME OF FIRST OBS   
  2025    10    30    06    24   41.9200000     GPS         TIME OF LAST OBS    
G L1C                                                       SYS / PHASE SHIFT   
G L2L  0.00000                                              SYS / PHASE SHIFT   
C L2I                                                       SYS / PHASE SHIFT   
C L7I                                                       SYS / PHASE SHIFT   
  0                                                         GLONASS SLOT / FRQ #
 C1C    0.000 C1P    0.000 C2C    0.000 C2P    0.000        GLONASS COD/PHS/BIS 
                                                            END OF HEADER       
> 2025 10 30 06 24 17.5200000  0 23                     
G32  22159136.344   116447040.7131      -3019.286          45.000    22159130.111    90737917.8241      -2352.835          42.000  
G29  23103174.493   121408011.1831       -739.130          42.000    23103164.898    94603615.3211       -575.877          40.000  
G28  21309559.419   111982491.8891      -1245.007          45.000    21309549.164    87259043.8011       -970.027          46.000  
G26  20315177.012   106756976.5461        555.729          48.000    20315169.901    83187236.1711        432.980          46.000  
G31  20617556.277   108345984.4731         86.265          48.000    20617544.957    84425401.5661         67.296          46.000  
G04  24343980.536   127928466.1731       3160.631          36.000    24343977.860    99684548.4591       2462.535          42.000  
C33  22540523.750   117374416.8771       -838.669          50.000                                                                  
C06  36580496.495   190484245.5621       -152.276          46.000    36580478.926   147294430.8511       -117.743          48.000  
C14  22780377.171   118623384.9871      -2367.097          46.000    22780362.335    91727071.8051      -1830.218          50.000  
C16  37009800.929   192719743.2561       -180.978          48.000    37009789.062   149023082.7941       -139.930          48.000  
C24  21884369.328   113957659.1011       -918.796          50.000                                                                  
C26  24549791.943   127837208.2851      -2573.104          43.000                                                                  
G03  22897761.731   120328573.0031       -280.047          40.000    22897757.600    93762488.2411       -218.384          41.000  
G16  22292883.159   117149965.4941       2897.132          42.000                                                                  
C09  37731461.780   196477600.5941       -140.573          43.000    37731447.715   151928905.7481       -108.792          48.000  
C25  23575687.780   122764805.3631       1525.022          45.000                                                                  
C08  39310359.669   204699327.5621      -2474.836          37.000    39310347.654   158286477.6181      -1913.629          42.000  
C07  39508288.481   205730015.9651       1117.671          36.000    39508278.191   159083460.4461        863.868          41.000  
C10  40452906.495   210648902.4131        935.654          34.000    40452906.903   162887096.2681        723.630          39.000  
C35  25938168.031   135066852.1221        278.488          39.000                                                                  
C13  38471685.588   200332171.8441      -2287.943          40.000    38471680.056   154909519.5981      -1769.161          42.000  
C12  26346768.761   137194540.7321       2321.463          34.000    26346766.464   106087546.6311       1795.137          43.000  
G25  24578635.163   129161603.8031      -3920.656          35.000    24578631.487   100645369.4041      -3054.943          35.000  
> 2025 10 30 06 24 17.5600000  0 23                     
G32  22159159.331   116447161.484       -3019.336          45.000    22159153.087    90738011.915       -2352.492          42.000  
G29  23103180.118   121408040.742        -739.065          42.000    23103170.519    94603638.353        -575.908          40.000  
G28  21309568.868   111982541.689       -1245.083          45.000    21309558.608    87259082.605        -970.115          46.000  
G26  20315172.788   106756954.322         555.605          48.000    20315165.640    83187218.851         432.943          46.000  
G31  20617555.610   108345981.019          86.296          48.000    20617544.305    84425398.875          67.260          46.000  
G04  24343956.485   127928339.741        3160.643          36.000    24343953.804    99684449.943        2462.721          42.000  
C33  22540530.232   117374450.419        -838.615          50.000                                                                  
C06  36580497.670   190484251.651        -152.263          46.000    36580480.108   147294435.562        -117.781          48.000  
C14  22780395.351   118623479.654       -2366.864          46.000    22780380.538    91727145.016       -1830.313          50.000  
C16  37009802.316   192719750.496        -181.047          48.000    37009790.458   149023088.390        -139.935          48.000  
C24  21884376.432   113957695.846        -918.725          50.000                                                                  
C26  24549811.720   127837311.198       -2572.985          43.000                                                                  
G03  22897763.858   120328584.210        -280.151          40.000    22897759.727    93762496.975        -218.402          42.000  
G16  22292861.102   117149849.607        2897.091          42.000                                                                  
C09  37731462.858   196477606.212        -140.504          43.000    37731448.795   151928910.098        -108.821          48.000  
C25  23575676.064   122764744.359        1525.016          45.000                                                                  
C08  39310378.670   204699426.556       -2474.845          37.000    39310366.650   158286554.165       -1913.638          42.000  
C07  39508279.900   205729971.280        1117.379          36.000    39508269.595   159083425.882         863.994          41.000  
C10  40452899.279   210648864.979         935.815          34.000    40452899.727   162887067.326         723.503          39.000  
C35  25938165.875   135066841.005         277.952          39.000                                                                  
C13  38471703.163   200332263.339       -2287.541          40.000    38471697.653   154909590.348       -1768.864          42.000  
C12  26346750.907   137194447.889        2321.099          34.000    26346748.621   106087474.832        1794.971          43.000  
G25  24578665.034   129161760.601       -3920.310          35.000    24578661.325   100645491.563       -3054.263          35.000  
> 2025 10 30 06 24 17.6000000  0 23                     
G32  22159182.325   116447282.264       -3019.479          45.000    22159176.068    90738106.019       -2352.523          42.000  
G29  23103185.735   121408070.293        -738.896          42.000    23103176.148    94603661.392        -576.031          40.000  
G28  21309578.350   111982591.490       -1245.089          45.000    21309568.095    87259121.407        -970.099          46.000  
G26  20315168.546   106756932.097         555.563          48.000    20315161.419    83187201.533         432.926          46.000  
G31  20617554.958   108345977.566          86.284          48.000    20617543.663    84425396.185          67.217          46.000  
G04  24343932.444   127928213.306        3160.800          36.000    24343929.731    99684351.424        2462.894          42.000  
C33  22540536.721   117374483.963        -838.626          50.000                                                                  
C06  36580498.836   190484257.750        -152.466          46.000    36580481.288   147294440.275        -117.879          48.000  
C14  22780413.570   118623574.329       -2366.871          46.000    22780398.731    91727218.229       -1830.367          50.000  
C16  37009803.698   192719757.736        -181.063          48.000    37009791.837   149023093.991        -140.051          48.000  
C24  21884383.527   113957732.594        -918.738          50.000                                                                  
C26  24549831.478   127837414.134       -2573.308          43.000                                                                  
G03  22897765.980   120328595.438        -280.627          40.000    22897761.864    93762505.707        -218.400          42.000  
G16  22292839.042   117149733.718        2897.152          42.000                                                                  
C09  37731463.923   196477611.833        -140.522          43.000    37731449.883   151928914.446        -108.781          48.000  
C25  23575664.348   122764683.353        1525.066          45.000                                                                  
C08  39310397.701   204699525.535       -2474.608          37.000    39310385.700   158286630.730       -1914.007          42.000  
C07  39508271.302   205729926.604        1117.029          36.000    39508261.021   159083391.320         863.990          41.000  
C10  40452892.076   210648827.531         936.105          34.000    40452892.538   162887038.390         723.293          39.000  
C35  25938163.760   135066829.892         277.754          39.000                                                                  
C13  38471720.748   200332354.852       -2287.714          40.000    38471715.210   154909661.107       -1768.920          42.000  
C12  26346733.074   137194355.005        2321.746          34.000    26346730.808   106087403.016        1795.247          43.000  
G25  24578694.872   129161917.407       -3920.169          35.000    24578691.154   100645613.732       -3054.138          35.000  
> 2025 10 30 06 24 17.6400000  0 23                     
G32  22159205.290   116447403.034       -3019.377          45.000    22159199.038    90738200.128       -2352.656          42.000  
G29  23103191.366   121408099.847        -738.842          42.000    23103181.788    94603684.427        -576.012          40.000  
G28  21309587.820   111982641.283       -1244.961          45.000    21309577.574    87259160.214        -970.184          46.000  
G26  20315164.336   106756909.872         555.583          48.000    20315157.195    83187184.212         432.983          46.000  
G31  20617554.283   108345974.111          86.334          48.000    20617543.018    84425393.499          67.149          46.000  
G04  24343908.366   127928086.883        3160.660          36.000    24343905.699    99684252.910        2462.867          42.000  
C33  22540543.162   117374517.513        -838.734          50.000                                                                  
C06  36580499.994   190484263.846        -152.486          46.000    36580482.484   147294444.989        -117.894          48.000  
C14  22780431.743   118623669.008       -2366.975          46.000    22780416.900    91727291.435       -1830.276          50.000  
C16  37009805.111   192719764.977        -181.074          48.000    37009793.223   149023099.589        -140.035          48.000  
C24  21884390.581   113957769.344        -918.777          50.000                                                                  
C26  24549851.250   127837517.056       -2573.232          43.000                                                                  
G03  22897768.143   120328606.642        -280.376          40.000    22897763.978    93762514.436        -218.298          42.000  
G16  22292816.973   117149617.828        2897.203          42.000                                                                  
C09  37731465.015   196477617.458        -140.657          43.000    37731450.965   151928918.796        -108.760          48.000  
C25  23575652.632   122764622.350        1525.035          45.000                                                                  
C08  39310416.709   204699624.540       -2474.895          37.000    39310404.674   158286707.271       -1913.732          42.000  
C07  39508262.716   205729881.924        1116.920          36.000    39508252.431   159083356.767         863.875          41.000  
C10  40452884.910   210648790.102         935.886          34.000    40452885.345   162887009.460         723.181          38.000  
C35  25938161.622   135066818.762         277.972          39.000                                                                  
C13  38471738.323   200332446.363       -2287.788          40.000    38471732.784   154909731.868       -1768.989          42.000  
C12  26346715.195   137194262.117        2322.135          34.000    26346712.960   106087331.206        1795.283          43.000  
G25  24578724.694   129162074.208       -3920.123          35.000    24578721.012   100645735.912       -3054.323          35.000  
> 2025 10 30 06 24 17.6800000  0 23                     
G32  22159228.264   116447523.804       -3019.326          45.000    22159222.029    90738294.239       -2352.783          42.000  
G29  23103196.988   121408129.414        -739.060          42.000    23103187.416    94603707.471        -576.179          40.000  
G28  21309597.301   111982691.083       -1245.006          45.000    21309587.059    87259199.021        -970.220          46.000  
G26  20315160.107   106756887.653         555.465          48.000    20315152.944    83187166.896         432.927          46.000  
G31  20617553.631   108345970.660          86.284          48.000    20617542.352    84425390.811          67.144          46.000  
G04  24343884.308   127927960.470        3160.393          36.000    24343881.650    99684154.389        2462.992          42.000  
C33  22540549.590   117374551.061        -838.750          50.000                                                                  
C06  36580501.167   190484269.934        -152.334          46.000    36580483.668   147294449.698        -117.820          48.000  
C14  22780449.936   118623763.687       -2367.037          46.000    22780435.125    91727364.646       -1830.295          50.000  
C16  37009806.499   192719772.216        -181.033          48.000    37009794.632   149023105.189        -140.052          48.000  
C24  21884397.614   113957806.098        -918.867          50.000                                                                  
C26  24549871.019   127837619.982       -2573.257          43.000                                                                  
G03  22897770.293   120328617.843        -280.154          40.000    22897766.120    93762523.175        -218.430          42.000  
G16  22292794.909   117149501.943        2897.159          42.000                                                                  
C09  37731466.122   196477623.087        -140.770          44.000    37731452.030   151928923.141        -108.685          48.000  
C25  23575640.931   122764561.342        1525.115          45.000                                                                  
C08  39310435.718   204699723.549       -2475.211          37.000    39310423.677   158286783.817       -1913.674          42.000  
C07  39508254.137   205729837.227        1117.151          36.000    39508243.862   159083322.222         863.661          41.000  
C10  40452877.736   210648752.693         935.381          34.000    40452878.176   162886980.526         723.179          39.000  
C35  25938159.465   135066807.635         278.088          39.000                                                                  
C13  38471755.879   200332537.883       -2287.985          40.000    38471750.368   154909802.637       -1769.161          42.000  
C12  26346697.357   137194169.246        2322.051          34.000    26346695.092   106087259.394        1795.288          43.000  
G25  24578754.553   129162231.029       -3920.314          35.000    24578750.854   100645858.130       -3055.044          35.000  
> 2025 10 30 06 24 17.7200000  0 23                     
G32  22159251.252   116447644.587       -3019.534          45.000    22159245.029    90738388.360       -2353.019          42.000  
G29  23103202.633   121408158.981        -739.202          42.000    23103193.044    94603730.491        -575.735          40.000  
G28  21309606.787   111982740.879       -1244.926          45.000    21309596.540    87259237.826        -970.184          46.000  
G26  20315155.889   106756865.434         555.423          48.000    20315148.716    83187149.580         432.877          46.000  
G31  20617553.008   108345967.214          86.130          48.000    20617541.705    84425388.121          67.193          46.000  
G04  24343860.266   127927834.048        3160.456          36.000    24343857.597    99684055.880        2462.843          42.000  
C33  22540556.016   117374584.615        -838.870          50.000                                                                  
C06  36580502.378   190484276.023        -152.297          46.000    36580484.846   147294454.407        -117.766          48.000  
C14  22780468.116   118623858.375       -2367.225          46.000    22780453.297    91727437.862       -1830.383          50.000  
C16  37009807.900   192719779.457        -181.047          48.000    37009796.010   149023110.779        -139.864          48.000  
C24  21884404.658   113957842.852        -918.929          50.000                                                                  
C26  24549890.768   127837722.900       -2573.118          43.000                                                                  
G03  22897772.426   120328629.055        -280.316          40.000    22897768.255    93762531.902        -218.201          42.000  
G16  22292772.847   117149386.056        2897.133          42.000                                                                  
C09  37731467.216   196477628.713        -140.781          44.000    37731453.108   151928927.487        -108.667          48.000  
C25  23575629.195   122764500.346        1524.931          45.000                                                                  
C08  39310454.733   204699822.547       -2475.177          37.000    39310442.679   158286860.373       -1913.765          42.000  
C07  39508245.529   205729792.539        1117.043          36.000    39508235.261   159083287.652         863.988          41.000  
C10  40452870.552   210648715.274         935.313          34.000    40452870.986   162886951.560         723.756          39.000  
C35  25938157.318   135066796.507         278.156          39.000                                                                  
C13  38471773.436   200332629.396       -2287.904          40.000    38471767.930   154909873.408       -1769.271          42.000  
C12  26346679.523   137194076.390        2321.588          34.000    26346677.230   106087187.588        1795.156          43.000  
G25  24578784.358   129162387.789       -3919.354          35.000    24578780.696   100645980.328       -3055.207          35.000  
> 2025 10 30 06 24 17.7600000  0 23                     
G32  22159274.259   116447765.372       -3019.665          45.000    22159268.024    90738482.484       -2353.172          42.000  
G29  23103208.265   121408188.556        -739.413          42.000    23103198.659    94603753.528        -575.843          40.000  
G28  21309616.265   111982790.679       -1245.002          45.000    21309605.999    87259276.635        -970.243          46.000  
G26  20315151.665   106756843.220         555.324          48.000    20315144.495    83187132.273         432.729          46.000  
G31  20617552.374   108345963.769          86.082          48.000    20617541.060    84425385.436          67.125          46.000  
G04  24343836.203   127927707.632        3160.366          36.000    24343833.536    99683957.376        2462.610          42.000  
C33  22540562.484   117374618.168        -838.892          50.000                                                                  
C06  36580503.557   190484282.122        -152.413          46.000    36580486.013   147294459.123        -117.875          48.000  
C14  22780486.314   118623953.061       -2367.253          46.000    22780471.469    91727511.078       -1830.439          50.000  
C16  37009809.304   192719786.698        -181.053          48.000    37009797.401   149023116.380        -139.963          48.000  
C24  21884411.724   113957879.603        -918.867          50.000                                                                  
C26  24549910.539   127837825.822       -2573.098          43.000                                                                  
G03  22897774.569   120328640.273        -280.446          40.000    22897770.373    93762540.642        -218.393          42.000  
G16  22292750.822   117149270.185        2896.872          42.000                                                                  
C09  37731468.314   196477634.334        -140.665          43.000    37731454.170   151928931.838        -108.770          48.000  
C25  23575617.472   122764439.349        1524.857          45.000                                                                  
C08  39310473.745   204699921.529       -2474.908          37.000    39310461.691   158286936.932       -1913.903          42.000  
C07  39508236.965   205729747.850        1117.074          36.000    39508226.683   159083253.104         863.759          41.000  
C10  40452863.381   210648677.815         936.015          34.000    40452863.800   162886922.613         723.796          39.000  
C35  25938155.183   135066785.371         278.330          39.000                                                                  
C13  38471791.004   200332720.913       -2287.947          40.000    38471785.516   154909944.164       -1769.055          42.000  
C12  26346661.694   137193983.539        2321.253          34.000    26346659.377   106087115.786        1795.058          43.000  
G25  24578814.185   129162544.615       -3920.137          35.000    24578810.521   100646102.508       -3054.877          35.000  
> 2025 10 30 06 24 17.8000000  0 23                     
G32  22159297.238   116447886.149       -3019.569          45.000    22159290.986    90738576.602       -2353.086          42.000  
G29  23103213.878   121408218.121        -739.304          42.000    23103204.291    94603776.571        -576.042          40.000  
G28  21309625.785   111982840.489       -1245.214          45.000    21309615.474    87259315.439        -970.168          46.000  
G26  20315147.437   106756821.000         555.362          48.000    20315140.280    83187114.964         432.630          46.000  
G31  20617551.728   108345960.322          86.114          48.000    20617540.408    84425382.754          67.045          46.000  
G04  24343812.133   127927581.198        3160.639          36.000    24343809.471    99683858.871        2462.533          42.000  
C33  22540568.961   117374651.719        -838.853          50.000                                                                  
C06  36580504.742   190484288.217        -152.404          46.000    36580487.203   147294463.836        -117.893          48.000  
C14  22780504.523   118624047.740       -2367.103          46.000    22780489.674    91727584.291       -1830.412          50.000  
C16  37009810.723   192719793.934        -180.949          48.000    37009798.768   149023121.982        -140.054          48.000  
C24  21884418.783   113957916.358        -918.911          50.000                                                                  
C26  24549930.293   127837928.747       -2573.104          43.000                                                                  
G03  22897776.691   120328651.494        -280.575          40.000    22897772.515    93762549.385        -218.536          42.000  
G16  22292728.767   117149154.295        2897.102          42.000                                                                  
C09  37731469.413   196477639.968        -140.823          44.000    37731455.238   151928936.191        -108.845          48.000  
C25  23575605.784   122764378.346        1524.975          45.000                                                                  
C08  39310492.749   204700020.541       -2475.197          37.000    39310480.667   158287013.484       -1913.844          42.000  
C07  39508228.363   205729703.177        1116.779          36.000    39508218.129   159083218.556         863.650          41.000  
C10  40452856.195   210648640.387         935.840          34.000    40452856.616   162886893.679         723.497          39.000  
C35  25938153.052   135066774.266         277.741          39.000                                                                  
C13  38471808.596   200332812.421       -2287.786          40.000    38471803.088   154910014.924       -1769.031          42.000  
C12  26346643.864   137193890.698        2320.832          34.000    26346641.553   106087043.986        1794.966          43.000  
G25  24578844.038   129162701.462       -3920.883          35.000    24578840.378   100646224.714       -3055.102          35.000  
> 2025 10 30 06 24 17.8400000  0 23                     
G32  22159320.217   116448006.926       -3019.504          45.000    22159313.968    90738670.697       -2352.618          42.000  
G29  23103219.491   121408247.691        -739.310          42.000    23103209.909    94603799.601        -575.892          40.000  
G28  21309635.251   111982890.304       -1245.433          45.000    21309624.951    87259354.242        -970.138          46.000  
G26  20315143.202   106756798.781         555.399          48.000    20315136.054    83187097.650         432.744          46.000  
G31  20617551.073   108345956.874          86.176          48.000    20617539.752    84425380.066          67.145          46.000  
G04  24343788.083   127927454.781        3160.532          36.000    24343785.410    99683760.360        2462.625          42.000  
C33  22540575.407   117374685.275        -838.909          50.000                                                                  
C06  36580505.890   190484294.313        -152.416          46.000    36580488.369   147294468.553        -117.983          48.000  
C14  22780522.730   118624142.423       -2367.097          46.000    22780507.868    91727657.505       -1830.405          50.000  
C16  37009812.103   192719801.179        -181.074          48.000    37009800.140   149023127.583        -140.058          48.000  
C24  21884425.851   113957953.113        -918.923          50.000                                                                  
C26  24549950.060   127838031.683       -2573.315          43.000                                                                  
G03  22897778.848   120328662.713        -280.482          40.000    22897774.642    93762558.130        -218.628          42.000  
G16  22292706.714   117149038.421        2896.955          42.000                                                                  
C09  37731470.502   196477645.595        -140.782          44.000    37731456.338   151928940.550        -108.982          48.000  
C25  23575594.068   122764317.347        1524.988          45.000                                                                  
C08  39310511.760   204700119.557       -2475.446          37.000    39310499.694   158287090.037       -1913.826          42.000  
C07  39508219.787   205729658.487        1116.987          36.000    39508209.548   159083184.003         863.698          41.000  
C10  40452849.000   210648602.948         935.989          34.000    40452849.434   162886864.733         723.482          39.000  
C35  25938150.919   135066763.126         278.148          39.000                                                                  
C13  38471826.151   200332903.937       -2287.836          40.000    38471820.663   154910085.680       -1768.907          42.000  
C12  26346626.043   137193797.838        2321.125          34.000    26346623.730   106086972.174        1795.186          43.000  
G25  24578873.869   129162858.274       -3920.604          35.000    24578870.209   100646346.877       -3054.395          35.000  
> 2025 10 30 06 24 17.8800000  0 23                     
G32  22159343.202   116448127.699       -3019.367          45.000    22159336.945    90738764.796       -2352.433          42.000  
G29  23103225.099   121408277.258        -739.246          42.000    23103215.529    94603822.642        -575.997          40.000  
G28  21309644.736   111982940.101       -1245.198          45.000    21309634.427    87259393.053        -970.251          46.000  
G26  20315138.954   106756776.562         555.425          48.000    20315131.823    83187080.340         432.731          46.000  
G31  20617550.385   108345953.425          86.225          48.000    20617539.100    84425377.377          67.212          46.000  
G04  24343764.044   127927328.366        3160.398          36.000    24343761.350    99683661.845        2462.758          42.000  
C33  22540581.857   117374718.829        -838.895          50.000                                                                  
C06  36580507.055   190484300.408        -152.409          46.000    36580489.496   147294473.261        -117.830          48.000  
C14  22780540.939   118624237.099       -2366.990          46.000    22780526.047    91727730.722       -1830.430          50.000  
C16  37009813.515   192719808.419        -181.053          48.000    37009801.512   149023133.179        -140.006          48.000  
C24  21884432.938   113957989.866        -918.909          50.000                                                                  
C26  24549969.819   127838134.612       -2573.273          43.000                                                                  
G03  22897780.988   120328673.921        -280.223          40.000    22897776.786    93762566.872        -218.613          42.000  
G16  22292684.640   117148922.545        2896.912          42.000                                                                  
C09  37731471.579   196477651.221        -140.685          43.000    37731457.385   151928944.895        -108.770          48.000  
C25  23575582.360   122764256.343        1525.037          45.000                                                                  
C08  39310530.780   204700218.573       -2475.537          37.000    39310518.715   158287166.587       -1913.796          42.000  
C07  39508211.185   205729613.766        1117.759          36.000    39508200.953   159083149.437         863.969          41.000  
C10  40452841.845   210648565.558         935.127          34.000    40452842.261   162886835.802         723.322          39.000  
C35  25938148.779   135066752.013         277.923          39.000                                                                  
C13  38471843.714   200332995.443       -2287.707          40.000    38471838.223   154910156.447       -1769.068          42.000  
C12  26346608.202   137193704.948        2321.993          34.000    26346605.872   106086900.358        1795.346          43.000  
G25  24578903.698   129163015.068       -3920.098          35.000    24578900.029   100646469.057       -3054.287          34.000  
> 2025 10 30 06 24 17.9200000  0 23                     
G32  22159366.192   116448248.470       -3019.301          45.000    22159359.933    90738858.903       -2352.526          42.000  
G29  23103230.714   121408306.824        -739.178          42.000    23103221.158    94603845.685        -576.090          40.000  
G28  21309654.213   111982989.892       -1244.900          45.000    21309643.918    87259431.857        -970.189          46.000  
G26  20315134.697   106756754.344         555.431          48.000    20315127.589    83187063.023         432.812          46.000  
G31  20617549.734   108345949.973          86.267          48.000    20617538.428    84425374.688          67.249          46.000  
G04  24343739.990   127927201.927        3160.763          36.000    24343737.319    99683563.330        2462.813          42.000  
C33  22540588.313   117374752.380        -838.832          50.000                                                                  
C06  36580508.196   190484306.492        -152.241          46.000    36580490.630   147294477.967        -117.728          48.000  
C14  22780559.130   118624331.779       -2366.999          46.000    22780544.263    91727803.934       -1830.380          50.000  
C16  37009814.949   192719815.654        -180.949          48.000    37009802.900   149023138.777        -139.967          48.000  
C24  21884440.026   113958026.616        -918.810          50.000                                                                  
C26  24549989.600   127838237.536       -2573.173          43.000                                                                  
G03  22897783.122   120328685.124        -280.044          40.000    22897778.916    93762575.610        -218.525          42.000  
G16  22292662.599   117148806.655        2897.123          42.000                                                                  
C09  37731472.683   196477656.839        -140.503          43.000    37731458.431   151928949.241        -108.669          48.000  
C25  23575570.674   122764195.338        1525.098          45.000                                                                  
C08  39310549.793   204700317.550       -2474.915          37.000    39310537.734   158287243.137       -1913.792          42.000  
C07  39508202.605   205729569.069        1117.771          36.000    39508192.374   159083114.870         864.139          41.000  
C10  40452834.665   210648528.083         936.249          34.000    40452835.071   162886806.851         723.594          39.000  
C35  25938146.661   135066740.890         277.943          39.000                                                                  
C13  38471861.298   200333086.938       -2287.430          40.000    38471855.823   154910227.206       -1769.000          42.000  
C12  26346590.324   137193612.064        2322.318          34.000    26346588.056   106086828.547        1795.307          43.000  
G25  24578933.572   129163171.877       -3920.073          35.000    24578929.850   100646591.264       -3054.873          34.000  
> 2025 10 30 06 24 17.9600000  0 23                     
G32  22159389.169   116448369.241       -3019.272          45.000    22159382.920    90738953.020       -2352.823          42.000  
G29  23103236.325   121408336.382        -739.030          42.000    23103226.788    94603868.734        -576.213          40.000  
G28  21309663.679   111983039.699       -1245.082          45.000    21309653.408    87259470.665        -970.216          46.000  
G26  20315130.456   106756732.123         555.500          48.000    20315123.363    83187045.708         432.855          46.000  
G31  20617549.098   108345946.523          86.273          48.000    20617537.777    84425371.995          67.292          46.000  
G04  24343715.912   127927075.495        3160.764          36.000    24343713.246    99683464.811        2462.943          42.000  
C33  22540594.782   117374785.925        -838.699          50.000                                                                  
C06  36580509.352   190484312.578        -152.174          46.000    36580491.813   147294482.678        -117.757          48.000  
C14  22780577.301   118624426.466       -2367.152          46.000    22780562.464    91727877.144       -1830.304          50.000  
C16  37009816.359   192719822.888        -180.874          48.000    37009804.296   149023144.375        -139.948          48.000  
C24  21884447.106   113958063.364        -918.712          50.000                                                                  
C26  24550009.360   127838340.453       -2573.007          43.000                                                                  
G03  22897785.230   120328696.332        -280.138          40.000    22897781.037    93762584.345        -218.418          42.000  
G16  22292640.542   117148690.767        2897.177          42.000                                                                  
C09  37731473.761   196477662.453        -140.334          43.000    37731459.488   151928953.582        -108.558          48.000  
C25  23575558.948   122764134.334        1525.091          45.000                                                                  
C08  39310568.820   204700416.527       -2474.486          37.000    39310556.749   158287319.681       -1913.710          42.000  
C07  39508193.996   205729524.382        1117.455          36.000    39508183.805   159083080.319         863.912          41.000  
C10  40452827.442   210648490.652         936.029          34.000    40452827.895   162886777.890         723.898          39.000  
C35  25938144.514   135066729.754         278.220          39.000                                                                  
C13  38471878.845   200333178.460       -2287.795          40.000    38471873.357   154910297.965       -1768.963          42.000  
C12  26346572.500   137193519.197        2321.937          34.000    26346570.234   106086756.736        1795.294          43.000  
G25  24578963.425   129163328.680       -3919.996          35.000    24578959.698   100646713.474       -3055.226          35.000  
> 2025 10 30 06 24 18.0000000  0 23                     
G32  22159412.179   116448490.024       -3019.487          45.000    22159405.910    90739047.144       -2353.124          42.000  
G29  23103241.953   121408365.949        -739.144          42.000    23103232.420    94603891.785        -576.318          40.000  
G28  21309673.142   111983089.492       -1244.929          45.000    21309662.869    87259509.468        -970.149          46.000  
G26  20315126.258   106756709.907         555.418          48.000    20315119.139    83187028.395         432.824          46.000  
G31  20617548.431   108345943.073          86.242          48.000    20617537.128    84425369.307          67.236          46.000  
G04  24343691.865   127926949.071        3160.635          36.000    24343689.195    99683366.288        2463.076          42.000  
C33  22540601.202   117374819.479        -838.778          50.000                                                                  
C06  36580510.516   190484318.673        -152.310          46.000    36580492.980   147294487.386        -117.739          48.000  
C14  22780595.490   118624521.144       -2367.075          46.000    22780580.661    91727950.363       -1830.432          50.000  
C16  37009817.780   192719830.120        -180.805          48.000    37009805.664   149023149.964        -139.794          48.000  
C24  21884454.179   113958100.115        -918.738          50.000                                                                  
C26  24550029.141   127838443.369       -2572.914          43.000                                                                  
G03  22897787.385   120328707.564        -280.539          40.000    22897783.168    93762593.077        -218.326          42.000  
G16  22292618.495   117148574.880        2897.181          42.000                                                                  
C09  37731474.826   196477668.075        -140.454          43.000    37731460.530   151928957.927        -108.586          48.000  
C25  23575547.216   122764073.335        1524.986          45.000                                                                  
C08  39310587.831   204700515.518       -2474.587          37.000    39310575.760   158287396.217       -1913.458          42.000  
C07  39508185.421   205729479.707        1116.991          36.000    39508175.203   159083045.769         863.757          41.000  
C10  40452820.258   210648453.236         935.556          34.000    40452820.704   162886748.945         723.742          39.000  
C35  25938142.371   135066718.624         278.268          39.000                                                                  
C13  38471896.431   200333269.961       -2287.634          40.000    38471890.915   154910368.726       -1769.044          42.000  
C12  26346554.663   137193426.317        2321.884          34.000    26346552.389   106086684.915        1795.448          43.000  
G25  24578993.244   129163485.483       -3919.998          35.000    24578989.554   100646835.655       -3054.775          35.000  
> 2025 10 30 06 24 18.0400000  0 23                     
G32  22159435.159   116448610.814       -3019.722          45.000    22159428.880    90739141.260       -2353.109          42.000  
G29  23103247.610   121408395.525        -739.349          42.000    23103238.049    94603914.817        -576.030          40.000  
G28  21309682.616   111983139.290       -1244.919          45.000    21309672.327    87259548.267        -970.060          46.000  
G26  20315122.054   106756687.690         555.387          48.000    20315114.891    83187011.083         432.786          46.000  
G31  20617547.771   108345939.631          86.094          48.000    20617536.457    84425366.621          67.143          46.000  
G04  24343667.826   127926822.662        3160.337          36.000    24343665.144    99683267.776        2462.960          42.000  
C33  22540607.593   117374853.038        -838.949          50.000                                                                  
C06  36580511.662   190484324.766        -152.352          46.000    36580494.161   147294492.095        -117.754          48.000  
C14  22780613.660   118624615.832       -2367.176          46.000    22780598.868    91728023.581       -1830.500          50.000  
C16  37009819.125   192719837.360        -180.925          48.000    37009807.046   149023155.560        -139.864          48.000  
C24  21884461.226   113958136.869        -918.809          50.000                                                                  
C26  24550048.891   127838546.295       -2573.080          43.000                                                                  
G03  22897789.507   120328718.780        -280.478          40.000    22897785.289    93762601.819        -218.498          42.000  
G16  22292596.465   117148458.993        2897.166          42.000                                                                  
C09  37731475.903   196477673.697        -140.570          43.000    37731461.637   151928962.277        -108.683          48.000  
C25  23575535.521   122764012.330        1525.061          45.000                                                                  
C08  39310606.840   204700614.513       -2474.790          37.000    39310594.798   158287472.766       -1913.557          42.000  
C07  39508176.844   205729435.030        1116.813          36.000    39508166.627   159083011.207         863.944          41.000  
C10  40452813.045   210648415.801         935.551          34.000    40452813.511   162886720.005         723.514          39.000  
C35  25938140.238   135066707.508         277.983          39.000                                                                  
C13  38471914.006   200333361.485       -2288.010          40.000    38471908.526   154910439.498       -1769.266          42.000  
C12  26346536.876   137193333.465        2321.323          34.000    26346534.527   106086613.118        1795.099          43.000  
G25  24579023.064   129163642.297       -3920.240          35.000    24579019.378   100646957.791       -3053.733          34.000  
> 2025 10 30 06 24 18.0800000  0 23                     
G32  22159458.131   116448731.591       -3019.601          45.000    22159451.868    90739235.369       -2352.921          42.000  
G29  23103253.218   121408425.103        -739.515          42.000    23103243.664    94603937.853        -575.919          40.000  
G28  21309692.094   111983189.092       -1244.993          45.000    21309681.820    87259587.081        -970.266          46.000  
G26  20315117.808   106756665.471         555.431          48.000    20315110.665    83186993.775         432.700          46.000  
G31  20617547.089   108345936.180          86.175          48.000    20617535.803    84425363.939          67.051          46.000  
G04  24343643.766   127926696.224        3160.746          36.000    24343641.082    99683169.263        2462.859          42.000  
C33  22540614.043   117374886.596        -839.010          50.000                                                                  
C06  36580512.815   190484330.846        -152.122          46.000    36580495.379   147294496.800        -117.681          48.000  
C14  22780631.822   118624710.512       -2367.118          46.000    22780617.054    91728096.793       -1830.397          50.000  
C16  37009820.498   192719844.597        -180.950          48.000    37009808.473   149023161.153        -139.880          48.000  
C24  21884468.317   113958173.622        -918.848          50.000                                                                  
C26  24550068.660   127838649.213       -2573.055          43.000                                                                  
G03  22897791.633   120328729.997        -280.497          40.000    22897787.427    93762610.573        -218.760          42.000  
G16  22292574.428   117148343.121        2896.870          42.000                                                                  
C09  37731476.989   196477679.319        -140.574          43.000    37731462.737   151928966.621        -108.637          48.000  
C25  23575523.789   122763951.329        1525.011          45.000                                                                  
C08  39310625.857   204700713.527       -2475.236          37.000    39310613.804   158287549.330       -1913.928          42.000  
C07  39508168.265   205729390.325        1117.245          36.000    39508158.029   159082976.630         864.303          41.000  
C10  40452805.848   210648378.381         935.296          34.000    40452806.321   162886691.071         723.315          39.000  
C35  25938138.107   135066696.400         277.702          39.000                                                                  
C13  38471931.578   200333452.978       -2287.559          40.000    38471926.110   154910510.252       -1769.024          42.000  
C12  26346519.033   137193240.598        2321.473          34.000    26346516.683   106086541.310        1795.114          43.000  
G25  24579052.933   129163799.114       -3920.287          35.000    24579049.230   100647079.992       -3054.427          34.000  
> 2025 10 30 06 24 18.1200000  0 23                     
G32  22159481.107   116448852.363       -3019.411          45.000    22159474.849    90739329.483       -2352.861          42.000  
G29  23103258.819   121408454.665        -739.296          42.000    23103249.284    94603960.895        -576.027          40.000  
G28  21309701.568   111983238.891       -1244.978          45.000    21309691.299    87259625.889        -970.248          46.000  
G26  20315113.550   106756643.251         555.450          48.000    20315106.445    83186976.459         432.838          46.000  
G31  20617546.425   108345932.729          86.243          48.000    20617535.140    84425361.252          67.101          46.000  
G04  24343619.711   127926569.770        3161.248          36.000    24343617.033    99683070.750        2462.822          42.000  
C33  22540620.505   117374920.149        -838.918          50.000                                                                  
C06  36580513.957   190484336.941        -152.283          46.000    36580496.573   147294501.511        -117.734          48.000  
C14  22780650.011   118624805.199       -2367.180          46.000    22780635.231    91728170.008       -1830.378          50.000  
C16  37009821.881   192719851.833        -180.942          48.000    37009809.877   149023166.750        -139.944          48.000  
C24  21884475.400   113958210.372        -918.801          50.000                                                                  
C26  24550088.436   127838752.126       -2572.915          43.000                                                                  
G03  22897793.771   120328741.215        -280.529          40.000    22897789.563    93762619.310        -218.606          42.000  
G16  22292552.376   117148227.229        2897.107          42.000                                                                  
C09  37731478.055   196477684.936        -140.504          43.000    37731463.798   151928970.970        -108.707          48.000  
C25  23575512.072   122763890.328        1524.981          45.000                                                                  
C08  39310644.881   204700812.501       -2474.779          37.000    39310632.823   158287625.893       -1914.060          42.000  
C07  39508159.691   205729345.624        1117.467          36.000    39508149.430   159082942.068         864.204          41.000  
C10  40452798.686   210648340.946         935.590          34.000    40452799.149   162886662.121         723.545          39.000  
C35  25938135.985   135066685.272         277.952          39.000                                                                  
C13  38471949.142   200333544.492       -2287.720          40.000    38471943.682   154910581.015       -1769.024          42.000  
C12  26346501.216   137193147.726        2321.662          34.000    26346498.832   106086469.494        1795.302          43.000  
G25  24579082.764   129163955.922       -3920.276          35.000    24579079.073   100647202.198       -3054.861          34.000  
> 2025 10 30 06 24 18.1600000  0 23                     
G32  22159504.078   116448973.128       -3019.175          45.000    22159497.838    90739423.588       -2352.697          42.000  
G29  23103264.475   121408484.244        -739.420          42.000    23103254.902    94603983.929        -575.903          40.000  
G28  21309711.026   111983288.693       -1245.045          45.000    21309700.778    87259664.686        -970.056          46.000  
G26  20315109.310   106756621.034         555.431          48.000    20315102.193    83186959.144         432.880          46.000  
G31  20617545.766   108345929.280          86.236          48.000    20617534.471    84425358.560          67.237          46.000  
G04  24343595.680   127926443.361        3160.740          36.000    24343592.989    99682972.241        2462.732          42.000  
C33  22540626.956   117374953.704        -838.912          50.000                                                                  
C06  36580515.143   190484343.023        -152.144          46.000    36580497.753   147294506.221        -117.775          48.000  
C14  22780668.204   118624899.877       -2367.033          46.000    22780653.408    91728243.223       -1830.391          50.000  
C16  37009823.255   192719859.061        -180.760          48.000    37009811.280   149023172.339        -139.833          48.000  
C24  21884482.474   113958247.115        -918.664          50.000                                                                  
C26  24550108.213   127838855.040       -2572.852          43.000                                                                  
G03  22897795.920   120328752.436        -280.559          40.000    22897791.662    93762628.056        -218.650          42.000  
G16  22292530.321   117148111.346        2897.100          42.000                                                                  
C09  37731479.159   196477690.552        -140.448          43.000    37731464.890   151928975.313        -108.630          48.000  
C25  23575500.357   122763829.326        1524.993          45.000                                                                  
C08  39310663.892   204700911.501       -2474.880          37.000    39310651.822   158287702.434       -1913.785          42.000  
C07  39508151.091   205729300.934        1117.445          36.000    39508140.865   159082907.515         863.907          41.000  
C10  40452791.498   210648303.479         936.272          34.000    40452791.961   162886633.172         723.700          39.000  
C35  25938133.869   135066674.138         278.267          39.000                                                                  
C13  38471966.741   200333635.996       -2287.634          40.000    38471961.218   154910651.770       -1768.895          42.000  
C12  26346483.356   137193054.855        2321.729          34.000    26346481.020   106086397.670        1795.569          43.000  
G25  24579112.563   129164112.704       -3919.889          35.000    24579108.901   100647324.385       -3054.833          34.000  
> 2025 10 30 06 24 18.2000000  0 23                     
G32  22159527.068   116449093.898       -3019.162          45.000    22159520.833    90739517.691       -2352.647          42.000  
G29  23103270.084   121408513.808        -739.226          42.000    23103260.534    94604006.982        -576.163          40.000  
G28  21309720.509   111983338.492       -1245.024          45.000    21309710.262    87259703.492        -970.099          46.000  
G26  20315105.107   106756598.819         555.375          48.000    20315097.977    83186941.833         432.792          46.000  
G31  20617545.114   108345925.828          86.273          48.000    20617533.792    84425355.865          67.341          46.000  
G04  24343571.610   127926316.924        3160.944          36.000    24343568.931    99682873.720        2462.886          42.000  
C33  22540633.453   117374987.254        -838.804          50.000                                                                  
C06  36580516.321   190484349.109        -152.148          46.000    36580498.939   147294510.922        -117.610          48.000  
C14  22780686.365   118624994.554       -2366.953          46.000    22780671.578    91728316.430       -1830.252          50.000  
C16  37009824.632   192719866.286        -180.628          48.000    37009812.697   149023177.931        -139.821          48.000  
C24  21884489.550   113958283.859        -918.590          50.000                                                                  
C26  24550127.961   127838957.958       -2572.902          43.000                                                                  
G03  22897798.057   120328763.644        -280.364          40.000    22897793.800    93762636.777        -218.229          42.000  
G16  22292508.265   117147995.470        2896.946          42.000                                                                  
C09  37731480.210   196477696.168        -140.410          43.000    37731465.983   151928979.656        -108.599          48.000  
C25  23575488.660   122763768.308        1525.307          45.000                                                                  
C08  39310682.883   204701010.497       -2474.951          37.000    39310670.833   158287778.966       -1913.420          42.000  
C07  39508142.487   205729256.238        1117.422          36.000    39508132.301   159082872.962         863.776          41.000  
C10  40452784.295   210648266.035         936.262          34.000    40452784.753   162886604.227         723.711          39.000  
C35  25938131.725   135066663.020         278.107          39.000                                                                  
C13  38471984.330   200333727.488       -2287.363          40.000    38471978.800   154910722.530       -1768.921          42.000  
C12  26346465.520   137192961.978        2321.852          34.000    26346463.156   106086325.843        1795.747          43.000  
G25  24579142.394   129164269.494       -3919.788          35.000    24579138.745   100647446.566       -3054.684          34.000  
> 2025 10 30 06 24 18.2400000  0 23                     
G32  22159550.066   116449214.675       -3019.356          45.000    22159543.808    90739611.803       -2352.773          42.000  
G29  23103275.695   121408543.368        -739.066          42.000    23103266.163    94604030.012        -575.869          40.000  
G28  21309729.982   111983388.285       -1244.921          45.000    21309719.738    87259742.292        -970.028          46.000  
G26  20315100.871   106756576.598         555.469          48.000    20315093.757    83186924.525         432.725          46.000  
G31  20617544.441   108345922.367          86.458          48.000    20617533.147    84425353.172          67.334          46.000  
G04  24343547.574   127926190.527        3160.312          36.000    24343544.879    99682775.207        2462.843          42.000  
C33  22540639.878   117375020.806        -838.800          50.000                                                                  
C06  36580517.506   190484355.190        -152.066          46.000    36580500.101   147294515.623        -117.555          48.000  
C14  22780704.522   118625089.236       -2367.011          46.000    22780689.752    91728389.643       -1830.317          50.000  
C16  37009826.015   192719873.512        -180.603          48.000    37009814.061   149023183.519        -139.751          48.000  
C24  21884496.594   113958320.608        -918.680          50.000                                                                  
C26  24550147.728   127839060.882       -2573.076          43.000                                                                  
G03  22897800.188   120328774.879        -280.775          40.000    22897795.931    93762645.524        -218.516          42.000  
G16  22292486.200   117147879.581        2897.094          42.000                                                                  
C09  37731481.287   196477701.781        -140.362          43.000    37731467.058   151928983.994        -108.486          48.000  
C25  23575476.972   122763707.296        1525.355          45.000                                                                  
C08  39310701.901   204701109.470       -2474.590          37.000    39310689.825   158287855.500       -1913.315          42.000  
C07  39508133.881   205729211.553        1117.194          36.000    39508123.706   159082838.397         863.948          41.000  
C10  40452777.089   210648228.603         935.953          34.000    40452777.566   162886575.271         723.881          39.000  
C35  25938129.590   135066651.894         278.176          39.000                                                                  
C13  38472001.912   200333819.002       -2287.660          40.000    38471996.384   154910793.292       -1769.038          42.000  
C12  26346447.676   137192869.097        2321.988          34.000    26346445.332   106086254.024        1795.562          43.000  
G25  24579172.221   129164426.306       -3920.081          35.000    24579168.562   100647568.749       -3054.590          34.000  
> 2025 10 30 06 24 18.2800000  0 23                     
G32  22159573.070   116449335.460       -3019.580          45.000    22159566.792    90739705.921       -2352.945          42.000  
G29  23103281.355   121408572.945        -739.272          42.000    23103271.809    94604053.063        -576.139          40.000  
G28  21309739.461   111983438.077       -1244.817          45.000    21309729.213    87259781.098        -970.089          46.000  
G26  20315096.660   106756554.385         555.357          48.000    20315089.535    83186907.216         432.662          46.000  
G31  20617543.792   108345918.919          86.303          48.000    20617532.481    84425350.491          67.112          46.000  
G04  24343523.506   127926064.088        3160.680          36.000    24343520.833    99682676.685        2462.932          42.000  
C33  22540646.276   117375054.365        -838.947          50.000                                                                  
C06  36580518.672   190484361.275        -152.101          46.000    36580501.291   147294520.335        -117.715          48.000  
C14  22780722.713   118625183.926       -2367.183          46.000    22780707.952    91728462.863       -1830.463          50.000  
C16  37009827.407   192719880.749        -180.820          48.000    37009815.424   149023189.115        -139.890          48.000  
C24  21884503.625   113958357.359        -918.772          50.000                                                                  
C26  24550167.491   127839163.803       -2573.119          43.000                                                                  
G03  22897802.302   120328786.097        -280.684          40.000    22897798.075    93762654.275        -218.754          42.000  
G16  22292464.168   117147763.703        2896.979          42.000                                                                  
C09  37731482.363   196477707.405        -140.541          43.000    37731468.138   151928988.337        -108.540          48.000  
C25  23575465.253   122763646.289        1525.275          45.000                                                                  
C08  39310720.897   204701208.476       -2474.838          37.000    39310708.827   158287932.064       -1913.839          42.000  
C07  39508125.288   205729166.847        1117.512          36.000    39508115.133   159082803.835         864.022          41.000  
C10  40452769.886   210648191.193         935.440          34.000    40452770.389   162886546.324         723.820          39.000  
C35  25938127.414   135066640.775         278.043          39.000                                                                  
C13  38472019.475   200333910.514       -2287.808          40.000    38472013.950   154910864.041       -1768.816          42.000  
C12  26346429.815   137192776.232        2321.763          34.000    26346427.488   106086182.214        1795.325          43.000  
G25  24579202.069   129164583.125       -3920.356          35.000    24579198.409   100647690.938       -3054.630          35.000  
> 2025 10 30 06 24 18.3200000  0 23                     
G32  22159596.068   116449456.252       -3019.826          45.000    22159589.793    90739800.043       -2353.082          42.000  
G29  23103286.985   121408602.519        -739.346          42.000    23103277.436    94604076.102        -576.019          40.000  
G28  21309748.926   111983487.876       -1244.899          45.000    21309738.694    87259819.906        -970.183          46.000  
G26  20315092.408   106756532.170         555.363          48.000    20315085.298    83186889.905         432.713          46.000  
G31  20617543.146   108345915.467          86.297          48.000    20617531.816    84425347.803          67.119          46.000  
G04  24343499.432   127925937.632        3161.223          36.000    24343496.785    99682578.171        2462.886          42.000  
C33  22540652.716   117375087.923        -838.989          50.000                                                                  
C06  36580519.846   190484367.365        -152.212          46.000    36580502.469   147294525.039        -117.675          48.000  
C14  22780740.899   118625278.611       -2367.180          46.000    22780726.154    91728536.078       -1830.456          50.000  
C16  37009828.767   192719887.984        -180.909          48.000    37009816.818   149023194.710        -139.892          48.000  
C24  21884510.694   113958394.113        -918.854          50.000                                                                  
C26  24550187.261   127839266.722       -2573.082          43.000                                                                  
G03  22897804.445   120328797.307        -280.392          40.000    22897800.213    93762663.016        -218.656          42.000  
G16  22292442.130   117147647.816        2897.108          42.000                                                                  
C09  37731483.431   196477713.022        -140.521          43.000    37731469.220   151928992.682        -108.630          48.000  
C25  23575453.511   122763585.285        1525.139          45.000                                                                  
C08  39310739.920   204701307.468       -2474.811          37.000    39310727.859   158288008.605       -1913.713          42.000  
C07  39508116.691   205729122.144        1117.582          36.000    39508106.550   159082769.272         864.052          41.000  
C10  40452762.715   210648153.735         936.010          34.000    40452763.206   162886517.380         723.650          39.000  
C35  25938125.274   135066629.629         278.457          39.000                                                                  
C13  38472037.069   200334002.023       -2287.801          40.000    38472031.526   154910934.796       -1768.854          42.000  
C12  26346412.003   137192683.348        2322.031          34.000    26346409.636   106086110.419        1794.904          43.000  
G25  24579231.916   129164739.937       -3920.437          35.000    24579228.261   100647813.127       -3054.662          35.000  
> 2025 10 30 06 24 18.3600000  0 23                     
G32  22159619.042   116449577.015       -3019.377          45.000    22159612.750    90739894.152       -2352.889          42.000  
G29  23103292.582   121408632.087        -739.296          42.000    23103283.049    94604099.140        -575.957          40.000  
G28  21309758.423   111983537.678       -1244.984          45.000    21309748.167    87259858.705        -970.061          46.000  
G26  20315088.169   106756509.954         555.351          48.000    20315081.064    83186872.588         432.837          46.000  
G31  20617542.489   108345912.017          86.241          48.000    20617531.159    84425345.109          67.286          46.000  
G04  24343475.367   127925811.186        3161.255          36.000    24343472.728    99682479.649        2462.963          42.000  
C33  22540659.184   117375121.480        -838.982          50.000                                                                  
C06  36580521.043   190484373.446        -152.106          46.000    36580503.607   147294529.739        -117.556          48.000  
C14  22780759.109   118625373.286       -2366.969          46.000    22780744.350    91728609.293       -1830.417          50.000  
C16  37009830.192   192719895.210        -180.775          48.000    37009818.173   149023200.298        -139.775          48.000  
C24  21884517.764   113958430.858        -918.740          50.000                                                                  
C26  24550207.042   127839369.633       -2572.881          43.000                                                                  
G03  22897806.583   120328808.519        -280.319          40.000    22897802.341    93762671.753        -218.517          42.000  
G16  22292420.083   117147531.936        2896.996          42.000                                                                  
C09  37731484.501   196477718.626        -140.253          43.000    37731470.336   151928997.021        -108.552          48.000  
C25  23575441.762   122763524.285        1525.016          45.000                                                                  
C08  39310758.938   204701406.442       -2474.434          37.000    39310746.864   158288085.154       -1913.743          42.000  
C07  39508108.111   205729077.448        1117.513          36.000    39508097.980   159082734.704         864.117          41.000  
C10  40452755.542   210648116.283         936.304          34.000    40452755.985   162886488.426         723.781          39.000  
C35  25938123.119   135066618.512         278.140          39.000                                                                  
C13  38472054.650   200334093.531       -2287.751          40.000    38472049.059   154911005.555       -1768.928          42.000  
C12  26346394.159   137192590.465        2322.155          34.000    26346391.810   106086038.602        1795.208          43.000  
G25  24579261.748   129164896.722       -3919.961          35.000    24579258.101   100647935.302       -3054.418          35.000  
> 2025 10 30 06 24 18.4000000  0 23                     
G32  22159642.028   116449697.778       -3019.157          45.000    22159635.717    90739988.263       -2352.846          42.000  
G29  23103298.209   121408661.648        -739.096          42.000    23103288.656    94604122.177        -575.902          40.000  
G28  21309767.907   111983587.466       -1244.805          45.000    21309757.638    87259897.502        -969.977          46.000  
G26  20315083.928   106756487.729         555.538          48.000    20315076.834    83186855.268         432.961          46.000  
G31  20617541.829   108345908.554          86.457          48.000    20617530.499    84425342.408          67.464          46.000  
G04  24343451.321   127925684.762        3160.783          36.000    24343448.684    99682381.137        2462.878          42.000  
C33  22540665.627   117375155.023        -838.728          50.000                                                                  
C06  36580522.244   190484379.521        -151.938          46.000    36580504.736   147294534.440        -117.513          48.000  
C14  22780777.310   118625467.962       -2366.896          46.000    22780762.518    91728682.503       -1830.328          50.000  
C16  37009831.602   192719902.427        -180.538          48.000    37009819.553   149023205.876        -139.539          48.000  
C24  21884524.846   113958467.598        -918.584          50.000                                                                  
C26  24550226.813   127839472.530       -2572.549          43.000                                                                  
G03  22897808.706   120328819.729        -280.240          40.000    22897804.479    93762680.489        -218.405          42.000  
G16  22292398.031   117147416.039        2897.280          42.000                                                                  
C09  37731485.581   196477724.221        -139.965          43.000    37731471.403   151929001.350        -108.311          48.000  
C25  23575430.056   122763463.271        1525.201          45.000                                                                  
C08  39310777.930   204701505.429       -2474.548          37.000    39310765.888   158288161.698       -1913.673          42.000  
C07  39508099.526   205729032.719        1117.971          36.000    39508089.394   159082700.142         864.049          41.000  
C10  40452748.369   210648078.861         935.855          34.000    40452748.810   162886459.465         723.930          39.000  
C35  25938120.978   135066607.380         278.209          39.000                                                                  
C13  38472072.210   200334185.023       -2287.418          40.000    38472066.617   154911076.310       -1768.878          42.000  
C12  26346376.337   137192497.570        2322.434          34.000    26346373.967   106085966.781        1795.381          42.000  
G25  24579291.591   129165053.499       -3919.543          35.000    24579287.929   100648057.472       -3054.192          35.000  
> 2025 10 30 06 24 18.4400000  0 23                     
G32  22159665.010   116449818.551       -3019.250          45.000    22159658.685    90740082.360       -2352.549          42.000  
G29  23103303.839   121408691.211        -739.080          42.000    23103294.283    94604145.228        -576.208          40.000  
G28  21309777.386   111983637.251       -1244.679          45.000    21309767.102    87259936.304        -970.022          46.000  
G26  20315079.690   106756465.506         555.593          48.000    20315072.600    83186837.955         432.873          46.000  
G31  20617541.181   108345905.096          86.469          48.000    20617529.846    84425339.723          67.235          46.000  
G04  24343427.280   127925558.339        3160.547          36.000    24343424.602    99682282.607        2463.131          42.000  
C33  22540672.077   117375188.571        -838.667          50.000                                                                  
C06  36580523.427   190484385.587        -151.713          46.000    36580505.887   147294539.134        -117.393          48.000  
C14  22780795.511   118625562.633       -2366.759          46.000    22780780.698    91728755.711       -1830.248          50.000  
C16  37009833.001   192719909.649        -180.498          48.000    37009820.942   149023211.453        -139.421          48.000  
C24  21884531.921   113958504.338        -918.519          50.000                                                                  
C26  24550246.589   127839575.435       -2572.516          43.000                                                                  
G03  22897810.835   120328830.946        -280.322          40.000    22897806.604    93762689.233        -218.532          42.000  
G16  22292375.978   117147300.140        2897.427          42.000                                                                  
C09  37731486.680   196477729.827        -139.982          43.000    37731472.480   151929005.689        -108.385          48.000  
C25  23575418.365   122763402.252        1525.386          45.000                                                                  
C08  39310796.947   204701604.408       -2474.507          37.000    39310784.893   158288238.227       -1913.402          42.000  
C07  39508090.951   205728988.023        1117.623          36.000    39508080.810   159082665.575         864.080          41.000  
C10  40452741.160   210648041.398         936.366          34.000    40452741.616   162886430.511         723.854          39.000  
C35  25938118.842   135066596.248         278.259          39.000                                                                  
C13  38472089.775   200334276.513       -2287.228          40.000    38472084.220   154911147.067       -1768.916          42.000  
C12  26346358.503   137192404.673        2322.599          34.000    26346356.100   106085894.956        1795.547          42.000  
G25  24579321.448   129165210.288       -3919.609          35.000    24579317.767   100648179.625       -3053.838          35.000  
> 2025 10 30 06 24 18.4800000  0 23                     
G32  22159688.015   116449939.329       -3019.414          45.000    22159681.667    90740176.460       -2352.500          42.000  
G29  23103309.455   121408720.777        -739.169          42.000    23103299.918    94604168.267        -576.088          40.000  
G28  21309786.842   111983687.049       -1244.851          45.000    21309776.575    87259975.096        -969.899          46.000  
G26  20315075.499   106756443.292         555.417          48.000    20315068.399    83186820.649         432.692          46.000  
G31  20617540.558   108345901.644          86.326          48.000    20617529.201    84425337.032          67.223          46.000  
G04  24343403.212   127925431.895        3160.844          36.000    24343400.522    99682184.075        2463.281          42.000  
C33  22540678.511   117375222.126        -838.811          50.000                                                                  
C06  36580524.590   190484391.666        -151.835          46.000    36580507.023   147294543.837        -117.509          48.000  
C14  22780813.666   118625657.315       -2366.953          46.000    22780798.860    91728828.923       -1830.287          50.000  
C16  37009834.364   192719916.875        -180.573          48.000    37009822.329   149023217.043        -139.609          48.000  
C24  21884538.969   113958541.082        -918.576          50.000                                                                  
C26  24550266.341   127839678.348       -2572.684          43.000                                                                  
G03  22897812.964   120328842.161        -280.354          40.000    22897808.725    93762697.976        -218.557          42.000  
G16  22292353.926   117147184.253        2897.248          42.000                                                                  
C09  37731487.741   196477735.444        -140.291          43.000    37731473.540   151929010.031        -108.507          48.000  
C25  23575406.609   122763341.245        1525.243          45.000                                                                  
C08  39310815.945   204701703.382       -2474.414          37.000    39310803.898   158288314.764       -1913.448          42.000  
C07  39508082.362   205728943.349        1117.004          36.000    39508072.248   159082631.009         864.122          41.000  
C10  40452733.965   210648003.965         936.056          34.000    40452734.424   162886401.558         723.823          39.000  
C35  25938116.704   135066585.122         278.118          39.000                                                                  
C13  38472107.365   200334368.012       -2287.328          40.000    38472101.782   154911217.823       -1768.940          42.000  
C12  26346340.681   137192311.814        2321.803          34.000    26346338.268   106085823.141        1795.484          42.000  
G25  24579351.289   129165367.062       -3919.436          35.000    24579347.601   100648301.807       -3054.257          35.000  
> 2025 10 30 06 24 18.5200000  0 23                     
G32  22159710.994   116450060.107       -3019.488          45.000    22159704.668    90740270.568       -2352.620          42.000  
G29  23103315.111   121408750.368        -739.647          42.000    23103305.541    94604191.307        -576.051          40.000  
G28  21309796.328   111983736.855       -1245.099          45.000    21309786.046    87260013.904        -970.105          46.000  
G26  20315071.276   106756421.081         555.269          48.000    20315064.185    83186803.338         432.731          46.000  
G31  20617539.940   108345898.204          86.044          48.000    20617528.577    84425334.349          67.063          46.000  
G04  24343379.151   127925305.464        3160.835          36.000    24343376.457    99682085.563        2462.994          42.000  
C33  22540684.934   117375255.693        -839.127          50.000                                                                  
C06  36580525.738   190484397.762        -152.235          46.000    36580508.178   147294548.544        -117.660          48.000  
C14  22780831.829   118625752.009       -2367.257          46.000    22780817.043    91728902.147       -1830.529          50.000  
C16  37009835.729   192719924.112        -180.852          48.000    37009823.714   149023222.638        -139.830          48.000  
C24  21884545.996   113958577.842        -918.888          50.000                                                                  
C26  24550286.107   127839781.272       -2573.020          43.000                                                                  
G03  22897815.124   120328853.388        -280.586          40.000    22897810.886    93762706.730        -218.795          42.000  
G16  22292331.871   117147068.375        2897.019          42.000                                                                  
C09  37731488.776   196477741.067        -140.562          43.000    37731474.636   151929014.376        -108.646          48.000  
C25  23575394.890   122763280.241        1525.095          45.000                                                                  
C08  39310834.963   204701802.392       -2474.948          37.000    39310822.939   158288391.314       -1913.680          42.000  
C07  39508073.785   205728898.669        1116.849          36.000    39508063.643   159082596.440         864.202          41.000  
C10  40452726.777   210647966.516         935.984          34.000    40452727.218   162886372.607         723.787          39.000  
C35  25938114.563   135066574.017         277.699          39.000                                                                  
C13  38472124.913   200334459.516       -2287.520          40.000    38472119.344   154911288.571       -1768.780          42.000  
C12  26346322.878   137192218.949        2321.489          34.000    26346320.427   106085751.321        1795.490          43.000  
G25  24579381.122   129165523.894       -3920.287          35.000    24579377.448   100648423.989       -3054.434          35.000  
> 2025 10 30 06 24 18.5600000  0 23                     
G32  22159733.973   116450180.906       -3019.884          45.000    22159727.653    90740364.706       -2353.242          42.000  
G29  23103320.777   121408779.962        -739.923          42.000    23103311.167    94604214.364        -576.375          40.000  
G28  21309805.811   111983786.664       -1245.269          45.000    21309795.529    87260052.724        -970.438          46.000  
G26  20315067.079   106756398.883         554.971          48.000    20315059.962    83186786.038         432.514          46.000  
G31  20617539.270   108345894.763          85.934          48.000    20617527.909    84425331.665          67.008          46.000  
G04  24343355.078   127925179.029        3160.908          36.000    24343352.413    99681987.057        2462.723          42.000  
C33  22540691.365   117375289.265        -839.356          50.000                                                                  
C06  36580526.909   190484403.862        -152.527          46.000    36580509.380   147294553.257        -117.859          48.000  
C14  22780849.999   118625846.710       -2367.518          46.000    22780835.220    91728975.376       -1830.767          50.000  
C16  37009837.108   192719931.349        -180.983          48.000    37009825.123   149023228.239        -140.031          48.000  
C24  21884553.072   113958614.601        -919.030          50.000                                                                  
C26  24550305.840   127839884.212       -2573.452          43.000                                                                  
G03  22897817.282   120328864.627        -280.968          40.000    22897813.017    93762715.470        -218.674          42.000  
G16  22292309.829   117146952.508        2896.738          42.000                                                                  
C09  37731489.847   196477746.687        -140.613          43.000    37731475.717   151929018.720        -108.695          48.000  
C25  23575383.170   122763219.243        1524.930          45.000                                                                  
C08  39310853.962   204701901.397       -2475.164          37.000    39310841.946   158288467.869       -1913.899          42.000  
C07  39508065.196   205728853.965        1117.212          36.000    39508055.065   159082561.890         863.904          41.000  
C10  40452719.585   210647929.107         935.355          34.000    40452719.999   162886343.665         723.603          39.000  
C35  25938112.427   135066562.908         277.586          39.000                                                                  
C13  38472142.479   200334551.042       -2288.050          40.000    38472136.939   154911359.333       -1768.984          42.000  
C12  26346305.035   137192126.099        2321.171          34.000    26346302.603   106085679.507        1795.370          44.000  
G25  24579410.956   129165680.701       -3920.313          35.000    24579407.290   100648546.202       -3055.093          35.000  
> 2025 10 30 06 24 18.6000000  0 23                     
G32  22159756.965   116450301.697       -3019.926          45.000    22159750.614    90740458.820       -2353.139          42.000  
G29  23103326.411   121408809.535        -739.595          42.000    23103316.806    94604237.417        -576.435          40.000  
G28  21309815.310   111983836.473       -1245.345          45.000    21309804.984    87260091.529        -970.322          46.000  
G26  20315062.841   106756376.672         555.081          48.000    20315055.731    83186768.736         432.453          46.000  
G31  20617538.602   108345891.316          86.034          48.000    20617527.260    84425328.985          66.904          46.000  
G04  24343330.998   127925052.619        3160.427          36.000    24343328.357    99681888.550        2462.595          42.000  
C33  22540697.821   117375322.832        -839.317          50.000                                                                  
C06  36580528.068   190484409.949        -152.423          46.000    36580510.536   147294557.967        -117.870          48.000  
C14  22780868.186   118625941.401       -2367.480          46.000    22780853.420    91729048.596       -1830.652          50.000  
C16  37009838.505   192719938.581        -180.946          48.000    37009826.524   149023233.831        -139.951          48.000  
C24  21884560.141   113958651.357        -919.022          50.000                                                                  
C26  24550325.594   127839987.135       -2573.356          43.000                                                                  
G03  22897819.385   120328875.849        -280.780          40.000    22897815.155    93762724.224        -218.856          42.000  
G16  22292287.768   117146836.632        2896.758          42.000                                                                  
C09  37731490.945   196477752.309        -140.640          43.000    37731476.777   151929023.070        -108.774          48.000  
C25  23575371.469   122763158.246        1524.863          45.000                                                                  
C08  39310872.988   204702000.402       -2475.214          37.000    39310860.951   158288544.419       -1913.943          42.000  
C07  39508056.600   205728809.233        1118.005          36.000    39508046.484   159082527.329         863.971          41.000  
C10  40452712.425   210647891.665         935.664          34.000    40452712.811   162886314.719         723.534          39.000  
C35  25938110.297   135066551.803         277.542          39.000                                                                  
C13  38472160.050   200334642.551       -2287.955          40.000    38472154.511   154911430.094       -1769.045          42.000  
C12  26346287.177   137192033.239        2321.276          34.000    26346284.739   106085607.686        1795.446          44.000  
G25  24579440.783   129165837.521       -3920.618          35.000    24579437.132   100648668.394       -3054.956          35.000  
> 2025 10 30 06 24 18.6400000  0 23                     
G32  22159779.936   116450422.472       -3019.628          45.000    22159773.599    90740552.945       -2353.237          42.000  
G29  23103332.032   121408839.106        -739.358          42.000    23103322.444    94604260.459        -576.202          40.000  
G28  21309824.778   111983886.265       -1245.021          45.000    21309814.448    87260130.325        -970.094          46.000  
G26  20315058.591   106756354.455         555.306          48.000    20315051.498    83186751.425         432.667          46.000  
G31  20617537.954   108345887.864          86.238          48.000    20617526.597    84425326.286          67.249          46.000  
G04  24343306.923   127924926.196        3160.412          36.000    24343304.294    99681790.027        2462.869          42.000  
C33  22540704.264   117375356.392        -839.122          50.000                                                                  
C06  36580529.227   190484416.024        -152.063          46.000    36580511.731   147294562.661        -117.551          48.000  
C14  22780886.386   118626036.084       -2367.255          46.000    22780871.585    91729121.808       -1830.441          50.000  
C16  37009839.874   192719945.803        -180.694          48.000    37009827.945   149023239.418        -139.794          48.000  
C24  21884567.216   113958688.105        -918.834          50.000                                                                  
C26  24550345.364   127840090.045       -2573.018          43.000                                                                  
G03  22897821.532   120328887.086        -280.941          40.000    22897817.288    93762732.973        -218.815          42.000  
G16  22292265.729   117146720.746        2896.967          42.000                                                                  
C09  37731492.031   196477757.914        -140.268          43.000    37731477.837   151929027.404        -108.524          48.000  
C25  23575359.763   122763097.239        1525.055          45.000                                                                  
C08  39310892.028   204702099.400       -2475.078          37.000    39310879.959   158288620.968       -1913.875          42.000  
C07  39508048.020   205728764.533        1117.861          36.000    39508037.910   159082492.760         864.137          41.000  
C10  40452705.202   210647854.225         935.845          34.000    40452705.642   162886285.772         723.631          39.000  
C35  25938108.159   135066540.673         278.056          39.000                                                                  
C13  38472177.641   200334734.058       -2287.806          40.000    38472172.076   154911500.858       -1769.112          42.000  
C12  26346269.362   137191940.354        2321.902          34.000    26346266.904   106085535.855        1795.701          44.000  
G25  24579470.623   129165994.325       -3920.474          35.000    24579466.959   100648790.574       -3054.667          35.000  
> 2025 10 30 06 24 18.6800000  0 23                     
G32  22159802.935   116450543.228       -3019.114          45.000    22159796.581    90740647.043       -2352.725          42.000  
G29  23103337.659   121408868.667        -739.106          42.000    23103328.065    94604283.495        -575.934          40.000  
G28  21309834.259   111983936.045       -1244.636          45.000    21309823.909    87260169.120        -969.921          46.000  
G26  20315054.345   106756332.222         555.721          48.000    20315047.247    83186734.104         432.946          46.000  
G31  20617537.294   108345884.395          86.625          48.000    20617525.942    84425323.587          67.427          46.000  
G04  24343282.856   127924799.738        3161.072          36.000    24343280.226    99681691.494        2463.193          42.000  
C33  22540710.709   117375389.933        -838.680          50.000                                                                  
C06  36580530.369   190484422.089        -151.690          46.000    36580512.919   147294567.351        -117.323          48.000  
C14  22780904.573   118626130.750       -2366.792          46.000    22780889.780    91729195.012       -1830.145          50.000  
C16  37009841.271   192719953.018        -180.441          48.000    37009829.333   149023244.993        -139.499          48.000  
C24  21884574.240   113958724.831        -918.333          50.000                                                                  
C26  24550365.129   127840192.924       -2572.258          43.000                                                                  
G03  22897823.649   120328898.291        -280.450          40.000    22897819.420    93762741.700        -218.407          42.000  
G16  22292243.686   117146604.846        2897.356          42.000                                                                  
C09  37731493.082   196477763.501        -139.771          43.000    37731478.890   151929031.724        -108.114          48.000  
C25  23575348.053   122763036.216        1525.437          45.000                                                                  
C08  39310911.039   204702198.357       -2474.261          37.000    39310898.973   158288697.503       -1913.547          42.000  
C07  39508039.427   205728719.831        1117.747          36.000    39508029.320   159082458.180         864.408          41.000  
C10  40452698.009   210647816.756         936.492          34.000    40452698.425   162886256.818         723.811          39.000  
C35  25938106.033   135066529.519         278.710          39.000                                                                  
C13  38472195.222   200334825.535       -2287.140          40.000    38472189.629   154911571.604       -1768.797          42.000  
C12  26346251.526   137191847.449        2322.570          34.000    26346249.059   106085464.024        1795.811          44.000  
G25  24579500.447   129166151.102       -3919.807          35.000    24579496.785   100648912.742       -3054.166          35.000  
> 2025 10 30 06 24 18.7200000  0 23                     
G32  22159825.890   116450663.980       -3018.778          45.000    22159819.576    90740741.139       -2352.456          42.000  
G29  23103343.309   121408898.230        -739.021          42.000    23103333.699    94604306.528        -575.794          40.000  
G28  21309843.716   111983985.815       -1244.302          45.000    21309833.385    87260207.906        -969.697          46.000  
G26  20315050.127   106756309.991         555.823          48.000    20315043.019    83186716.778         433.142          46.000  
G31  20617536.623   108345880.925          86.827          48.000    20617525.294    84425320.891          67.445          46.000  
G04  24343258.784   127924673.304        3160.964          36.000    24343256.152    99681592.966        2463.275          42.000  
C33  22540717.131   117375423.468        -838.377          50.000                                                                  
C06  36580531.521   190484428.144        -151.380          46.000    36580514.109   147294572.039        -117.155          48.000  
C14  22780922.744   118626225.412       -2366.515          46.000    22780907.932    91729268.213       -1829.986          50.000  
C16  37009842.651   192719960.224        -180.184          48.000    37009830.700   149023250.568        -139.365          48.000  
C24  21884581.306   113958761.562        -918.177          50.000                                                                  
C26  24550384.872   127840295.823       -2572.272          43.000                                                                  
G03  22897825.771   120328909.505        -280.373          40.000    22897821.539    93762750.441        -218.449          42.000  
G16  22292221.619   117146488.940        2897.662          42.000                                                                  
C09  37731494.168   196477769.090        -139.571          43.000    37731479.988   151929036.046        -107.975          48.000  
C25  23575336.356   122762975.177        1525.916          45.000                                                                  
C08  39310930.030   204702297.329       -2474.200          37.000    39310917.981   158288774.029       -1913.240          42.000  
C07  39508030.836   205728675.115        1117.886          36.000    39508020.765   159082423.598         864.568          41.000  
C10  40452690.814   210647779.300         936.515          34.000    40452691.243   162886227.843         724.275          39.000  
C35  25938103.894   135066518.375         278.768          39.000                                                                  
C13  38472212.745   200334917.015       -2286.909          40.000    38472207.182   154911642.348       -1768.613          42.000  
C12  26346233.656   137191754.534        2323.029          34.000    26346231.223   106085392.189        1795.922          44.000  
G25  24579530.285   129166307.888       -3919.639          35.000    24579526.595   100649034.886       -3053.625          35.000  
> 2025 10 30 06 24 18.7600000  0 23                     
G32  22159848.873   116450784.742       -3018.872          45.000    22159842.556    90740835.232       -2352.299          42.000  
G29  23103348.940   121408927.785        -738.862          42.000    23103339.340    94604329.558        -575.685          40.000  
G28  21309853.219   111984035.595       -1244.320          45.000    21309842.848    87260246.690        -969.556          46.000  
G26  20315045.903   106756287.765         555.789          48.000    20315038.785    83186699.463         433.046          46.000  
G31  20617535.977   108345877.451          86.942          48.000    20617524.604    84425318.181          67.684          46.000  
G04  24343234.720   127924546.831        3161.611          36.000    24343232.098    99681494.427        2463.484          42.000  
C33  22540723.545   117375457.014        -838.469          50.000                                                                  
C06  36580532.684   190484434.197        -151.248          46.000    36580515.299   147294576.725        -117.086          48.000  
C14  22780940.911   118626320.080       -2366.556          46.000    22780926.116    91729341.415       -1829.940          50.000  
C16  37009844.044   192719967.427        -180.021          48.000    37009832.094   149023256.133        -139.120          48.000  
C24  21884588.317   113958798.294        -918.164          50.000                                                                  
C26  24550404.606   127840398.727       -2572.433          43.000                                                                  
G03  22897827.895   120328920.697        -279.936          40.000    22897823.685    93762759.179        -218.483          42.000  
G16  22292199.564   117146373.034        2897.759          42.000                                                                  
C09  37731495.228   196477774.684        -139.664          43.000    37731481.076   151929040.370        -107.982          48.000  
C25  23575324.629   122762914.150        1525.882          45.000                                                                  
C08  39310949.046   204702396.279       -2473.831          37.000    39310936.975   158288850.541       -1912.832          42.000  
C07  39508022.248   205728630.390        1118.110          36.000    39508012.206   159082389.026         864.409          41.000  
C10  40452683.577   210647741.846         936.469          34.000    40452684.052   162886198.879         724.251          39.000  
C35  25938101.761   135066507.249         278.455          39.000                                                                  
C13  38472230.306   200335008.504       -2287.059          40.000    38472224.721   154911713.079       -1768.331          42.000  
C12  26346215.785   137191661.621        2323.064          34.000    26346213.378   106085320.347        1796.081          44.000  
G25  24579560.140   129166464.662       -3919.297          35.000    24579556.452   100649157.038       -3053.562          34.000  
> 2025 10 30 06 24 18.8000000  0 23                     
G32  22159871.859   116450905.514       -3019.124          45.000    22159865.542    90740929.335       -2352.432          42.000  
G29  23103354.576   121408957.354        -739.051          42.000    23103344.944    94604352.599        -575.848          40.000  
G28  21309862.722   111984085.383       -1244.521          45.000    21309852.338    87260285.485        -969.705          46.000  
G26  20315041.676   106756265.541         555.663          48.000    20315034.561    83186682.143         433.033          46.000  
G31  20617535.333   108345873.984          86.786          48.000    20617523.971    84425315.476          67.702          46.000  
G04  24343210.651   127924420.360        3161.908          36.000    24343208.045    99681395.896        2463.406          42.000  
C33  22540729.981   117375490.565        -838.676          50.000                                                                  
C06  36580533.856   190484440.261        -151.410          46.000    36580516.475   147294581.410        -117.068          48.000  
C14  22780959.094   118626414.756       -2366.790          46.000    22780944.251    91729414.624       -1830.084          50.000  
C16  37009845.429   192719974.640        -180.179          48.000    37009833.454   149023261.713        -139.331          48.000  
C24  21884595.339   113958835.024        -918.187          50.000                                                                  
C26  24550424.356   127840501.626       -2572.462          43.000                                                                  
G03  22897830.043   120328931.911        -280.124          40.000    22897825.819    93762767.912        -218.415          42.000  
G16  22292177.524   117146257.133        2897.647          42.000                                                                  
C09  37731496.290   196477780.284        -139.905          43.000    37731482.153   151929044.691        -107.966          48.000  
C25  23575312.924   122762853.137        1525.536          45.000                                                                  
C08  39310968.053   204702495.259       -2474.183          37.000    39310955.977   158288927.083       -1913.228          42.000  
C07  39508013.654   205728585.680        1117.897          36.000    39508003.607   159082354.449         864.364          41.000  
C10  40452676.365   210647704.357         936.993          34.000    40452676.842   162886169.898         724.512          39.000  
C35  25938099.623   135066496.122         278.253          39.000                                                                  
C13  38472247.856   200335099.998       -2287.251          40.000    38472242.287   154911783.813       -1768.265          42.000  
C12  26346197.903   137191568.730        2322.586          34.000    26346195.551   106085248.512        1795.959          44.000  
G25  24579589.952   129166621.430       -3919.093          35.000    24579586.298   100649279.225       -3054.257          35.000  
> 2025 10 30 06 24 18.8400000  0 23                     
G32  22159894.868   116451026.288       -3019.341          45.000    22159888.526    90741023.452       -2352.749          42.000  
G29  23103360.233   121408986.916        -739.076          42.000    23103350.581    94604375.649        -576.160          40.000  
G28  21309872.202   111984135.167       -1244.609          45.000    21309861.825    87260324.279        -969.772          46.000  
G26  20315037.448   106756243.320         555.545          48.000    20315030.321    83186664.825         432.963          46.000  
G31  20617534.687   108345870.527          86.515          48.000    20617523.317    84425312.780          67.497          46.000  
G04  24343186.600   127924293.933        3161.257          36.000    24343183.991    99681297.364        2463.341          42.000  
C33  22540736.390   117375524.121        -838.846          50.000                                                                  
C06  36580534.996   190484446.334        -151.666          46.000    36580517.691   147294586.101        -117.186          48.000  
C14  22780977.257   118626509.435       -2366.979          46.000    22780962.417    91729487.834       -1830.218          50.000  
C16  37009846.796   192719981.848        -180.182          48.000    37009834.810   149023267.289        -139.419          48.000  
C24  21884602.360   113958871.762        -918.349          50.000                                                                  
C26  24550444.104   127840604.523       -2572.408          43.000                                                                  
G03  22897832.178   120328943.151        -280.761          40.000    22897827.940    93762776.643        -218.296          42.000  
G16  22292155.472   117146141.249        2897.254          42.000                                                                  
C09  37731497.356   196477785.885        -140.037          43.000    37731483.247   151929049.020        -108.141          48.000  
C25  23575301.209   122762792.124        1525.308          45.000                                                                  
C08  39310987.041   204702594.230       -2474.271          37.000    39310974.976   158289003.629       -1913.545          42.000  
C07  39508005.093   205728540.958        1118.019          36.000    39507995.032   159082319.895         863.966          41.000  
C10  40452669.179   210647666.901         936.816          34.000    40452669.658   162886140.949         723.948          39.000  
C35  25938097.476   135066484.988         278.313          39.000                                                                  
C13  38472265.428   200335191.491       -2287.331          40.000    38472259.853   154911854.571       -1768.704          42.000  
C12  26346180.048   137191475.834        2322.457          34.000    26346177.701   106085176.687        1795.684          44.000  
G25  24579619.788   129166778.198       -3918.960          35.000    24579616.126   100649401.387       -3054.247          35.000  
> 2025 10 30 06 24 18.8800000  0 23                     
G32  22159917.833   116451147.064       -3019.466          45.000    22159911.524    90741117.564       -2352.855          42.000  
G29  23103365.856   121409016.495        -739.387          42.000    23103356.196    94604398.685        -576.097          40.000  
G28  21309881.649   111984184.955       -1244.705          45.000    21309871.314    87260363.084        -970.028          46.000  
G26  20315033.237   106756221.108         555.334          48.000    20315026.085    83186647.514         432.770          46.000  
G31  20617534.045   108345867.072          86.337          48.000    20617522.672    84425310.089          67.263          46.000  
G04  24343162.545   127924167.518        3160.624          36.000    24343159.921    99681198.838        2463.160          42.000  
C33  22540742.823   117375557.677        -838.957          50.000                                                                  
C06  36580536.165   190484452.413        -151.930          46.000    36580518.841   147294590.800        -117.426          48.000  
C14  22780995.439   118626604.123       -2367.185          46.000    22780980.619    91729561.052       -1830.452          50.000  
C16  37009848.187   192719989.068        -180.442          48.000    37009836.173   149023272.876        -139.636          48.000  
C24  21884609.422   113958908.508        -918.595          50.000                                                                  
C26  24550463.849   127840707.439       -2572.755          43.000                                                                  
G03  22897834.306   120328954.361        -280.522          40.000    22897830.080    93762785.404        -218.799          42.000  
G16  22292133.432   117146025.372        2896.920          42.000                                                                  
C09  37731498.431   196477791.493        -140.244          43.000    37731484.342   151929053.359        -108.411          48.000  
C25  23575289.511   122762731.106        1525.315          45.000                                                                  
C08  39311006.068   204702693.200       -2474.297          37.000    39310993.985   158289080.158       -1913.391          42.000  
C07  39507996.507   205728496.257        1117.635          36.000    39507986.433   159082285.314         864.255          41.000  
C10  40452661.997   210647629.484         935.918          34.000    40452662.466   162886111.986         723.936          39.000  
C35  25938095.291   135066473.861         278.206          39.000                                                                  
C13  38472282.994   200335282.985       -2287.374          40.000    38472277.427   154911925.326       -1768.900          42.000  
C12  26346162.229   137191382.935        2322.446          34.000    26346159.855   106085104.868        1795.425          44.000  
G25  24579649.624   129166935.000       -3919.608          35.000    24579645.956   100649523.579       -3054.705          35.000  
> 2025 10 30 06 24 18.9200000  0 23                     
G32  22159940.789   116451267.836       -3019.446          45.000    22159934.502    90741211.678       -2352.901          42.000  
G29  23103371.489   121409046.072        -739.496          42.000    23103361.832    94604421.737        -576.275          40.000  
G28  21309891.134   111984234.752       -1244.904          45.000    21309880.791    87260401.883        -970.074          46.000  
G26  20315028.995   106756198.889         555.349          48.000    20315021.873    83186630.207         432.622          46.000  
G31  20617533.375   108345863.619          86.245          48.000    20617522.017    84425307.398          67.178          46.000  
G04  24343138.493   127924041.077        3160.791          36.000    24343135.865    99681100.313        2463.036          42.000  
C33  22540749.290   117375591.237        -839.042          50.000                                                                  
C06  36580537.330   190484458.483        -151.889          46.000    36580520.003   147294595.501        -117.562          48.000  
C14  22781013.620   118626698.804       -2367.192          46.000    22780998.822    91729634.269       -1830.511          50.000  
C16  37009849.591   192719996.288        -180.540          48.000    37009837.534   149023278.459        -139.647          48.000  
C24  21884616.482   113958945.252        -918.679          50.000                                                                  
C26  24550483.616   127840810.333       -2572.576          43.000                                                                  
G03  22897836.451   120328965.594        -280.817          40.000    22897832.216    93762794.154        -218.883          42.000  
G16  22292111.380   117145909.487        2896.911          42.000                                                                  
C09  37731499.519   196477797.092        -140.150          43.000    37731485.399   151929057.693        -108.425          48.000  
C25  23575277.820   122762670.091        1525.303          45.000                                                                  
C08  39311025.065   204702792.185       -2474.535          37.000    39311013.009   158289156.700       -1913.563          42.000  
C07  39507987.938   205728451.556        1117.488          36.000    39507977.855   159082250.735         864.385          41.000  
C10  40452654.828   210647592.028         936.075          34.000    40452655.281   162886083.031         723.805          39.000  
C35  25938093.131   135066462.734         278.209          39.000                                                                  
C13  38472300.538   200335374.481       -2287.459          40.000    38472294.991   154911996.071       -1768.782          42.000  
C12  26346144.380   137191290.058        2322.094          34.000    26346142.031   106085033.046        1795.416          44.000  
G25  24579679.457   129167091.807       -3920.074          35.000    24579675.803   100649645.752       -3054.525          34.000  
> 2025 10 30 06 24 18.9600000  0 23                     
G32  22159963.767   116451388.613       -3019.475          45.000    22159957.477    90741305.784       -2352.787          42.000  
G29  23103377.114   121409075.643        -739.401          42.000    23103367.449    94604444.772        -575.992          40.000  
G28  21309900.599   111984284.548       -1244.996          45.000    21309890.254    87260440.680        -970.022          46.000  
G26  20315024.753   106756176.675         555.294          48.000    20315017.614    83186612.891         432.768          46.000  
G31  20617532.725   108345860.156          86.425          48.000    20617521.346    84425304.705          67.229          46.000  
G04  24343114.404   127923914.632        3161.001          36.000    24343111.819    99681001.796        2462.886          42.000  
C33  22540755.737   117375624.793        -839.007          50.000                                                                  
C06  36580538.526   190484464.554        -151.886          46.000    36580521.187   147294600.198        -117.529          48.000  
C14  22781031.810   118626793.485       -2367.125          46.000    22781017.008    91729707.480       -1830.405          50.000  
C16  37009850.992   192720003.512        -180.658          48.000    37009838.925   149023284.039        -139.593          48.000  
C24  21884623.532   113958981.992        -918.620          50.000                                                                  
C26  24550503.373   127840913.237       -2572.610          43.000                                                                  
G03  22897838.592   120328976.805        -280.459          40.000    22897834.345    93762802.899        -218.772          42.000  
G16  22292089.338   117145793.599        2897.012          42.000                                                                  
C09  37731500.630   196477802.687        -139.984          43.000    37731486.476   151929062.030        -108.454          48.000  
C25  23575266.101   122762609.079        1525.273          45.000                                                                  
C08  39311044.086   204702891.191       -2475.033          37.000    39311031.989   158289233.231       -1913.435          42.000  
C07  39507979.358   205728406.866        1117.151          36.000    39507969.281   159082216.151         864.518          41.000  
C10  40452647.647   210647554.572         936.361          34.000    40452648.132   162886054.075         723.832          39.000  
C35  25938090.982   135066451.628         277.854          39.000                                                                  
C13  38472318.110   200335465.984       -2287.588          40.000    38472312.559   154912066.823       -1768.831          42.000  
C12  26346126.541   137191197.178        2321.947          34.000    26346124.171   106084961.203        1795.847          43.000  
G25  24579709.272   129167248.586       -3919.779          35.000    24579705.637   100649767.926       -3054.392          35.000  
> 2025 10 30 06 24 19.0000000  0 23                     
G32  22159986.725   116451509.387       -3019.447          45.000    22159980.450    90741399.892       -2352.756          42.000  
G29  23103382.734   121409105.206        -739.182          42.000    23103373.067    94604467.816        -576.043          40.000  
G28  21309910.071   111984334.336       -1244.890          45.000    21309899.709    87260479.476        -969.960          46.000  
G26  20315020.509   106756154.459         555.314          48.000    20315013.399    83186595.583         432.688          46.000  
G31  20617532.039   108345856.692          86.536          48.000    20617520.665    84425302.006          67.377          46.000  
G04  24343090.336   127923788.162        3161.553          36.000    24343087.729    99680903.271        2462.948          42.000  
C33  22540762.203   117375658.351        -838.999          50.000                                                                  
C06  36580539.710   190484470.616        -151.707          46.000    36580522.344   147294604.887        -117.355          48.000  
C14  22781050.007   118626888.159       -2366.947          46.000    22781035.216    91729780.691       -1830.315          50.000  
C16  37009852.396   192720010.718        -180.355          47.000    37009840.320   149023289.610        -139.372          48.000  
C24  21884630.605   113959018.735        -918.630          50.000                                                                  
C26  24550523.135   127841016.137       -2572.568          43.000                                                                  
G03  22897840.720   120328988.029        -280.511          40.000    22897836.461    93762811.623        -218.307          42.000  
G16  22292067.294   117145677.702        2897.298          42.000                                                                  
C09  37731501.702   196477808.281        -139.889          43.000    37731487.556   151929066.352        -108.205          48.000  
C25  23575254.396   122762548.062        1525.360          45.000                                                                  
C08  39311063.121   204702990.164       -2474.657          37.000    39311050.996   158289309.759       -1913.311          42.000  
C07  39507970.770   205728362.135        1117.744          36.000    39507960.656   159082181.580         864.324          41.000  
C10  40452640.447   210647517.121         936.378          34.000    40452640.920   162886025.111         724.009          39.000  
C35  25938088.838   135066440.488         278.323          39.000                                                                  
C13  38472335.695   200335557.478       -2287.452          40.000    38472330.126   154912137.573       -1768.824          42.000  
C12  26346108.719   137191104.282        2322.218          34.000    26346106.348   106084889.374        1795.814          43.000  
G25  24579739.097   129167405.383       -3919.985          35.000    24579735.461   100649890.099       -3054.298          34.000  
> 2025 10 30 06 24 19.0400000  0 23                     
G32  22160009.702   116451630.156       -3019.317          45.000    22160003.432    90741493.993       -2352.593          42.000  
G29  23103388.359   121409134.778        -739.239          42.000    23103378.698    94604490.863        -576.131          40.000  
G28  21309919.532   111984384.119       -1244.690          45.000    21309909.181    87260518.271        -969.922          46.000  
G26  20315016.261   106756132.240         555.414          48.000    20315009.153    83186578.271         432.744          46.000  
G31  20617531.366   108345853.231          86.530          48.000    20617520.020    84425299.303          67.555          46.000  
G04  24343066.292   127923661.723        3161.279          36.000    24343063.675    99680804.746        2463.040          42.000  
C33  22540768.701   117375691.907        -838.955          50.000                                                                  
C06  36580540.870   190484476.689        -151.788          45.000    36580523.471   147294609.570        -117.136          48.000  
C14  22781068.211   118626982.839       -2366.987          46.000    22781053.411    91729853.900       -1830.247          50.000  
C16  37009853.782   192720017.931        -180.325          47.000    37009841.714   149023295.186        -139.349          48.000  
C24  21884637.677   113959055.467        -918.441          50.000                                                                  
C26  24550542.899   127841119.047       -2572.714          43.000                                                                  
G03  22897842.866   120328999.246        -280.424          40.000    22897838.611    93762820.367        -218.437          42.000  
G16  22292045.236   117145561.802        2897.512          42.000                                                                  
C09  37731502.768   196477813.882        -139.948          43.000    37731488.628   151929070.679        -108.150          48.000  
C25  23575242.664   122762487.038        1525.513          45.000                                                                  
C08  39311082.123   204703089.127       -2474.269          37.000    39311070.026   158289386.287       -1913.226          42.000  
C07  39507962.177   205728317.394        1118.302          36.000    39507952.059   159082147.001         864.373          41.000  
C10  40452633.242   210647479.635         936.868          34.000    40452633.716   162885996.148         724.070          39.000  
C35  25938086.702   135066429.365         278.251          39.000                                                                  
C13  38472353.270   200335648.962       -2287.205          40.000    38472347.686   154912208.316       -1768.646          42.000  
C12  26346090.879   137191011.390        2322.190          34.000    26346088.484   106084817.544        1795.802          43.000  
G25  24579768.919   129167562.172       -3919.956          35.000    24579765.286   100650012.257       -3054.006          34.000  
> 2025 10 30 06 24 19.0800000  0 23                     
G32  22160032.725   116451750.933       -3019.410          45.000    22160026.416    90741588.103       -2352.729          42.000  
G29  23103394.008   121409164.350        -739.283          42.000    23103384.317    94604513.908        -576.143          40.000  
G28  21309928.988   111984433.911       -1244.739          45.000    21309918.653    87260557.067        -969.898          46.000  
G26  20315012.022   106756110.017         555.525          48.000    20315004.921    83186560.960         432.744          46.000  
G31  20617530.699   108345849.766          86.603          48.000    20617519.379    84425296.610          67.407          46.000  
G04  24343042.243   127923535.284        3161.078          36.000    24343039.626    99680706.205        2463.375          42.000  
C33  22540775.144   117375725.461        -838.891          50.000                                                                  
C06  36580542.034   190484482.755        -151.709          45.000    36580524.604   147294614.260        -117.170          48.000  
C14  22781086.357   118627077.523       -2367.083          46.000    22781071.609    91729927.110       -1830.256          50.000  
C16  37009855.156   192720025.135        -180.146          47.000    37009843.118   149023300.765        -139.424          48.000  
C24  21884644.707   113959092.211        -918.536          50.000                                                                  
C26  24550562.628   127841221.953       -2572.725          43.000                                                                  
G03  22897845.001   120329010.471        -280.557          40.000    22897840.765    93762829.120        -218.734          42.000  
G16  22292023.185   117145445.918        2897.303          42.000                                                                  
C09  37731503.840   196477819.474        -139.828          43.000    37731489.724   151929075.007        -108.165          48.000  
C25  23575230.928   122762426.018        1525.500          45.000                                                                  
C08  39311101.124   204703188.094       -2474.150          37.000    39311089.042   158289462.823       -1913.315          42.000  
C07  39507953.593   205728272.675        1118.136          36.000    39507943.501   159082112.435         864.181          41.000  
C10  40452626.040   210647442.189         936.356          34.000    40452626.492   162885967.183         724.098          39.000  
C35  25938084.553   135066418.240         278.238          39.000                                                                  
C13  38472370.818   200335740.456       -2287.286          40.000    38472365.243   154912279.069       -1768.807          42.000  
C12  26346073.040   137190918.495        2322.322          34.000    26346070.628   106084745.716        1795.739          43.000  
G25  24579798.731   129167718.957       -3919.790          35.000    24579795.128   100650134.453       -3054.574          34.000  
> 2025 10 30 06 24 19.1200000  0 23                     
G32  22160055.710   116451871.706       -3019.375          45.000    22160049.384    90741682.215       -2352.805          43.000  
G29  23103399.646   121409193.925        -739.390          42.000    23103389.954    94604536.963        -576.373          40.000  
G28  21309938.448   111984483.695       -1244.663          45.000    21309928.124    87260595.862        -969.900          46.000  
G26  20315007.825   106756087.803         555.394          48.000    20315000.687    83186543.648         432.781          46.000  
G31  20617530.037   108345846.311          86.430          48.000    20617518.736    84425293.913          67.394          46.000  
G04  24343018.205   127923408.846        3160.951          36.000    24343015.571    99680607.674        2463.365          42.000  
C33  22540781.599   117375759.018        -838.918          50.000                                                                  
C06  36580543.218   190484488.827        -151.783          45.000    36580525.730   147294618.958        -117.385          48.000  
C14  22781104.537   118627172.203       -2367.089          46.000    22781089.798    91730000.327       -1830.396          50.000  
C16  37009856.551   192720032.347        -180.244          47.000    37009844.517   149023306.343        -139.423          48.000  
C24  21884651.736   113959128.951        -918.549          50.000                                                                  
C26  24550582.416   127841324.861       -2572.753          43.000                                                                  
G03  22897847.153   120329021.701        -280.713          40.000    22897842.910    93762837.876        -218.938          42.000  
G16  22292001.138   117145330.023        2897.305          42.000                                                                  
C09  37731504.905   196477825.081        -140.058          43.000    37731490.795   151929079.341        -108.293          48.000  
C25  23575219.208   122762365.011        1525.272          45.000                                                                  
C08  39311120.133   204703287.096       -2474.746          37.000    39311108.029   158289539.353       -1913.289          42.000  
C07  39507945.014   205728227.984        1117.532          35.000    39507934.913   159082077.861         864.199          41.000  
C10  40452618.862   210647404.775         935.515          34.000    40452619.291   162885938.226         724.009          39.000  
C35  25938082.405   135066407.127         277.941          39.000                                                                  
C13  38472388.367   200335831.956       -2287.509          40.000    38472382.809   154912349.818       -1768.819          42.000  
C12  26346055.204   137190825.593        2322.488          34.000    26346052.803   106084673.894        1795.589          43.000  
G25  24579828.545   129167875.715       -3919.199          35.000    24579824.941   100650256.595       -3053.977          34.000  
> 2025 10 30 06 24 19.1600000  0 23                     
G32  22160078.712   116451992.491       -3019.577          45.000    22160072.389    90741776.322       -2352.736          43.000  
G29  23103405.269   121409223.516        -739.719          42.000    23103395.586    94604560.015        -576.384          40.000  
G28  21309947.942   111984533.485       -1244.718          45.000    21309937.609    87260634.662        -969.988          46.000  
G26  20315003.625   106756065.598         555.163          48.000    20314996.480    83186526.344         432.651          46.000  
G31  20617529.399   108345842.860          86.264          48.000    20617518.083    84425291.226          67.240          46.000  
G04  24342994.166   127923282.413        3160.790          36.000    24342991.518    99680509.157        2463.077          42.000  
C33  22540788.024   117375792.585        -839.121          50.000                                                                  
C06  36580544.393   190484494.897        -151.808          45.000    36580526.876   147294623.664        -117.649          48.000  
C14  22781122.694   118627266.894       -2367.259          46.000    22781107.968    91730073.552       -1830.603          50.000  
C16  37009857.872   192720039.573        -180.549          47.000    37009845.906   149023311.928        -139.593          48.000  
C24  21884658.785   113959165.697        -918.646          50.000                                                                  
C26  24550602.185   127841427.769       -2572.749          43.000                                                                  
G03  22897849.302   120329032.946        -281.056          40.000    22897845.033    93762846.629        -218.973          42.000  
G16  22291979.095   117145214.159        2896.780          42.000                                                                  
C09  37731505.979   196477830.684        -140.113          43.000    37731491.856   151929083.679        -108.457          48.000  
C25  23575207.499   122762303.993        1525.359          45.000                                                                  
C08  39311139.136   204703386.084       -2474.828          37.000    39311127.094   158289615.896       -1913.536          42.000  
C07  39507936.426   205728183.295        1117.262          35.000    39507926.341   159082043.290         864.219          41.000  
C10  40452611.665   210647367.329         935.657          34.000    40452612.109   162885909.291         723.563          39.000  
C35  25938080.260   135066396.000         278.017          39.000                                                                  
C13  38472405.941   200335923.454       -2287.533          40.000    38472400.380   154912420.572       -1768.899          42.000  
C12  26346037.409   137190732.713        2322.189          34.000    26346034.964   106084602.080        1795.373          43.000  
G25  24579858.374   129168032.517       -3919.690          35.000    24579854.788   100650378.791       -3054.579          34.000  
> 2025 10 30 06 24 19.2000000  0 23                     
G32  22160101.689   116452113.264       -3019.428          45.000    22160095.367    90741870.434       -2352.760          43.000  
G29  23103410.888   121409253.099        -739.690          42.000    23103401.204    94604583.058        -576.189          40.000  
G28  21309957.414   111984583.281       -1244.841          45.000    21309947.110    87260673.466        -970.117          46.000  
G26  20314999.382   106756043.393         555.041          48.000    20314992.243    83186509.034         432.689          46.000  
G31  20617528.732   108345839.407          86.234          48.000    20617517.422    84425288.539          67.167          46.000  
G04  24342970.115   127923155.964        3160.995          36.000    24342967.438    99680410.642        2462.871          42.000  
C33  22540794.468   117375826.151        -839.206          50.000                                                                  
C06  36580545.552   190484500.961        -151.691          45.000    36580528.052   147294628.355        -117.476          48.000  
C14  22781140.882   118627361.574       -2367.136          46.000    22781126.134    91730146.768       -1830.510          50.000  
C16  37009859.255   192720046.800        -180.710          47.000    37009847.309   149023317.507        -139.557          48.000  
C24  21884665.836   113959202.442        -918.668          50.000                                                                  
C26  24550621.952   127841530.670       -2572.595          43.000                                                                  
G03  22897851.437   120329044.170        -280.780          40.000    22897847.175    93762855.369        -218.700          42.000  
G16  22291957.041   117145098.281        2896.745          42.000                                                                  
C09  37731507.051   196477836.284        -140.040          43.000    37731492.975   151929088.012        -108.391          48.000  
C25  23575195.773   122762242.984        1525.230          45.000                                                                  
C08  39311158.140   204703485.059       -2474.615          37.000    39311146.105   158289692.457       -1913.956          41.000  
C07  39507927.859   205728138.575        1117.710          36.000    39507917.749   159082008.726         864.094          41.000  
C10  40452604.464   210647329.863         936.203          34.000    40452604.917   162885880.327         723.817          39.000  
C35  25938078.121   135066384.864         278.275          39.000                                                                  
C13  38472423.504   200336014.961       -2287.674          40.000    38472417.957   154912491.313       -1768.645          42.000  
C12  26346019.565   137190639.799        2322.670          34.000    26346017.141   106084530.255        1795.481          43.000  
G25  24579888.194   129168189.315       -3919.960          35.000    24579884.636   100650500.977       -3054.711          34.000  
> 2025 10 30 06 24 19.2400000  0 23                     
G32  22160124.684   116452234.030       -3019.263          45.000    22160118.344    90741964.556       -2352.967          43.000  
G29  23103416.520   121409282.674        -739.508          42.000    23103406.827    94604606.099        -576.066          40.000  
G28  21309966.897   111984633.073       -1244.866          45.000    21309956.575    87260712.261        -970.007          46.000  
G26  20314995.129   106756021.182         555.142          48.000    20314988.034    83186491.732         432.565          46.000  
G31  20617528.042   108345835.953          86.278          48.000    20617516.769    84425285.842          67.316          46.000  
G04  24342946.059   127923029.526        3160.934          36.000    24342943.370    99680312.116        2462.985          42.000  
C33  22540800.934   117375859.716        -839.198          50.000                                                                  
C06  36580546.699   190484507.029        -151.712          45.000    36580529.244   147294633.042        -117.291          48.000  
C14  22781159.083   118627456.252       -2367.015          46.000    22781144.338    91730219.980       -1830.395          50.000  
C16  37009860.614   192720054.007        -180.405          47.000    37009848.709   149023323.078        -139.375          48.000  
C24  21884672.916   113959239.182        -918.586          50.000                                                                  
C26  24550641.719   127841633.567       -2572.418          43.000                                                                  
G03  22897853.549   120329055.386        -280.492          40.000    22897849.337    93762864.124        -218.821          42.000  
G16  22291934.993   117144982.400        2896.834          42.000                                                                  
C09  37731508.133   196477841.885        -140.040          43.000    37731494.053   151929092.333        -108.161          48.000  
C25  23575184.044   122762181.968        1525.317          45.000                                                                  
C08  39311177.108   204703584.017       -2474.218          37.000    39311165.118   158289768.988       -1913.596          42.000  
C07  39507919.261   205728093.852        1118.037          36.000    39507909.156   159081974.146         864.336          41.000  
C10  40452597.289   210647292.409         936.317          34.000    40452597.721   162885851.375         723.807          39.000  
C35  25938075.992   135066373.751         278.017          39.000                                                                  
C13  38472441.085   200336106.449       -2287.396          40.000    38472435.531   154912562.061       -1768.658          42.000  
C12  26346001.749   137190546.915        2322.343          34.000    26345999.289   106084458.419        1795.723          43.000  
G25  24579918.034   129168346.108       -3920.004          35.000    24579914.469   100650623.136       -3054.171          34.000  
> 2025 10 30 06 24 19.2800000  0 23                     
G32  22160147.675   116452354.817       -3019.585          45.000    22160141.320    90742058.661       -2352.749          43.000  
G29  23103422.139   121409312.245        -739.334          42.000    23103412.447    94604629.141        -576.042          40.000  
G28  21309976.377   111984682.865       -1244.863          45.000    21309966.036    87260751.057        -969.983          46.000  
G26  20314990.905   106755998.968         555.274          48.000    20314983.823    83186474.419         432.741          46.000  
G31  20617527.344   108345832.494          86.389          48.000    20617516.116    84425283.147          67.359          46.000  
G04  24342921.993   127922903.074        3161.174          36.000    24342919.308    99680213.583        2463.191          42.000  
C33  22540807.413   117375893.277        -839.119          50.000                                                                  
C06  36580547.839   190484513.106        -151.889          45.000    36580530.416   147294637.731        -117.216          48.000  
C14  22781177.287   118627550.943       -2367.219          46.000    22781162.521    91730293.192       -1830.307          50.000  
C16  37009861.972   192720061.209        -180.155          47.000    37009850.075   149023328.656        -139.410          48.000  
C24  21884679.989   113959275.923        -918.528          50.000                                                                  
C26  24550661.484   127841736.463       -2572.321          43.000                                                                  
G03  22897855.669   120329066.613        -280.597          40.000    22897851.471    93762872.883        -218.945          42.000  
G16  22291912.938   117144866.504        2897.181          42.000                                                                  
C09  37731509.193   196477847.483        -139.984          43.000    37731495.087   151929096.659        -108.120          48.000  
C25  23575172.330   122762120.952        1525.360          45.000                                                                  
C08  39311196.130   204703682.990       -2474.219          37.000    39311184.119   158289845.518       -1913.353          41.000  
C07  39507910.666   205728049.132        1118.121          36.000    39507900.576   159081939.573         864.338          41.000  
C10  40452590.115   210647254.959         936.333          34.000    40452590.501   162885822.386         724.460          39.000  
C35  25938073.842   135066362.631         277.955          39.000                                                                  
C13  38472458.665   200336197.933       -2287.162          40.000    38472453.123   154912632.817       -1768.868          42.000  
C12  26345983.890   137190454.035        2322.165          34.000    26345981.454   106084386.579        1795.984          43.000  
G25  24579947.874   129168502.895       -3919.822          35.000    24579944.298   100650745.305       -3054.131          34.000  
> 2025 10 30 06 24 19.3200000  0 23                     
G32  22160170.674   116452475.603       -3019.709          45.000    22160164.317    90742152.780       -2352.920          43.000  
G29  23103427.770   121409341.839        -739.697          42.000    23103418.094    94604652.201        -576.393          40.000  
G28  21309985.851   111984732.659       -1244.888          45.000    21309975.536    87260789.862        -970.100          46.000  
G26  20314986.664   106755976.754         555.336          48.000    20314979.588    83186457.114         432.677          46.000  
G31  20617526.673   108345829.039          86.383          48.000    20617515.460    84425280.454          67.334          46.000  
G04  24342897.934   127922776.635        3161.047          36.000    24342895.254    99680115.058        2463.152          42.000  
C33  22540813.872   117375926.842        -839.158          50.000                                                                  
C06  36580549.000   190484519.176        -151.840          45.000    36580531.606   147294642.424        -117.274          48.000  
C14  22781195.478   118627645.630       -2367.224          46.000    22781180.695    91730366.409       -1830.385          50.000  
C16  37009863.324   192720068.424        -180.259          47.000    37009851.449   149023334.236        -139.490          48.000  
C24  21884687.033   113959312.669        -918.636          50.000                                                                  
C26  24550681.241   127841839.374       -2572.593          43.000                                                                  
G03  22897857.829   120329077.857        -281.032          40.000    22897853.593    93762881.619        -218.573          42.000  
G16  22291890.873   117144750.615        2897.201          42.000                                                                  
C09  37731510.256   196477853.077        -139.903          43.000    37731496.177   151929100.990        -108.197          48.000  
C25  23575160.612   122762059.931        1525.489          45.000                                                                  
C08  39311215.121   204703781.979       -2474.540          37.000    39311203.119   158289922.042       -1913.179          41.000  
C07  39507902.083   205728004.447        1117.413          36.000    39507891.997   159081904.988         864.512          41.000  
C10  40452582.914   210647217.496         936.495          34.000    40452583.271   162885793.418         724.383          39.000  
C35  25938071.675   135066351.522         277.776          39.000                                                                  
C13  38472476.239   200336289.432       -2287.336          40.000    38472470.684   154912703.571       -1768.923          42.000  
C12  26345966.032   137190361.145        2322.222          34.000    26345963.617   106084314.754        1795.763          42.000  
G25  24579977.713   129168659.682       -3919.698          34.000    24579974.128   100650867.477       -3054.173          34.000  
> 2025 10 30 06 24 19.3600000  0 23                     
G32  22160193.664   116452596.390       -3019.712          45.000    22160187.309    90742246.895       -2352.897          43.000  
G29  23103433.422   121409371.435        -739.944          42.000    23103423.728    94604675.266        -576.652          40.000  
G28  21309995.329   111984782.464       -1245.092          45.000    21309985.019    87260828.667        -970.170          46.000  
G26  20314982.449   106755954.553         555.092          48.000    20314975.383    83186439.819         432.434          46.000  
G31  20617526.027   108345825.600          86.062          48.000    20617514.807    84425277.774          67.075          46.000  
G04  24342873.871   127922650.190        3161.031          36.000    24342871.198    99680016.537        2463.046          42.000  
C33  22540820.284   117375960.418        -839.360          50.000                                                                  
C06  36580550.147   190484525.249        -151.878          45.000    36580532.758   147294647.116        -117.295          48.000  
C14  22781213.648   118627740.335       -2367.565          46.000    22781198.907    91730439.639       -1830.664          50.000  
C16  37009864.715   192720075.644        -180.415          47.000    37009852.819   149023339.824        -139.691          48.000  
C24  21884694.036   113959349.424        -918.830          50.000                                                                  
C26  24550701.011   127841942.292       -2572.900          43.000                                                                  
G03  22897859.964   120329089.085        -280.902          40.000    22897855.726    93762890.381        -218.883          42.000  
G16  22291868.838   117144634.734        2897.078          42.000                                                                  
C09  37731511.325   196477858.687        -140.165          43.000    37731497.257   151929105.322        -108.267          48.000  
C25  23575148.904   122761998.937        1525.033          45.000                                                                  
C08  39311234.107   204703880.973       -2474.810          37.000    39311222.116   158289998.590       -1913.489          41.000  
C07  39507893.509   205727959.735        1117.596          35.000    39507883.420   159081870.421         864.253          41.000  
C10  40452575.723   210647180.030         936.739          34.000    40452576.111   162885764.488         723.589          39.000  
C35  25938069.540   135066340.407         277.784          39.000                                                                  
C13  38472493.813   200336380.944       -2287.699          40.000    38472488.245   154912774.335       -1769.132          42.000  
C12  26345948.195   137190268.284        2321.643          34.000    26345945.762   106084242.944        1795.371          42.000  
G25  24580007.543   129168816.458       -3919.424          34.000    24580003.951   100650989.650       -3054.249          34.000  
> 2025 10 30 06 24 19.4000000  0 23                     
G32  22160216.635   116452717.175       -3019.697          45.000    22160210.306    90742341.013       -2352.968          43.000  
G29  23103439.036   121409401.030        -739.985          42.000    23103429.353    94604698.328        -576.717          40.000  
G28  21310004.805   111984832.262       -1245.100          45.000    21309994.493    87260867.478        -970.310          46.000  
G26  20314978.239   106755932.364         554.770          48.000    20314971.165    83186422.524         432.299          46.000  
G31  20617525.357   108345822.155          86.045          48.000    20617514.184    84425275.101          66.811          46.000  
G04  24342849.810   127922523.781        3160.471          36.000    24342847.122    99679918.020        2462.958          42.000  
C33  22540826.707   117375993.992        -839.420          50.000                                                                  
C06  36580551.316   190484531.319        -151.829          45.000    36580533.968   147294651.828        -117.666          48.000  
C14  22781231.829   118627835.033       -2367.571          46.000    22781217.084    91730512.872       -1830.896          50.000  
C16  37009866.088   192720082.877        -180.736          47.000    37009854.230   149023345.411        -139.769          48.000  
C24  21884701.054   113959386.180        -918.948          50.000                                                                  
C26  24550720.758   127842045.215       -2573.147          43.000                                                                  
G03  22897862.097   120329100.342        -281.307          40.000    22897857.863    93762899.153        -219.272          42.000  
G16  22291846.798   117144518.872        2896.669          42.000                                                                  
C09  37731512.404   196477864.301        -140.339          43.000    37731498.321   151929109.655        -108.337          48.000  
C25  23575137.190   122761937.944        1524.800          45.000                                                                  
C08  39311253.136   204703979.960       -2474.814          37.000    39311241.144   158290075.138       -1913.675          41.000  
C07  39507884.917   205727915.048        1117.222          36.000    39507874.846   159081835.865         863.921          41.000  
C10  40452568.539   210647142.598         936.223          34.000    40452568.919   162885735.535         723.613          39.000  
C35  25938067.411   135066329.303         277.629          39.000                                                                  
C13  38472511.403   200336472.456       -2287.877          40.000    38472505.823   154912845.094       -1769.119          42.000  
C12  26345930.351   137190175.421        2321.448          34.000    26345927.932   106084171.121        1795.373          42.000  
G25  24580037.356   129168973.254       -3919.674          34.000    24580033.784   100651111.836       -3054.525          34.000  
> 2025 10 30 06 24 19.4400000  0 23                     
G32  22160239.632   116452837.960       -3019.641          45.000    22160233.290    90742435.151       -2353.328          43.000  
G29  23103444.642   121409430.629        -740.070          42.000    23103434.981    94604721.399        -576.870          40.000  
G28  21310014.272   111984882.066       -1245.175          45.000    21310003.953    87260906.289        -970.370          46.000  
G26  20314974.030   106755910.174         554.617          48.000    20314966.959    83186405.233         432.208          46.000  
G31  20617524.706   108345818.712          85.984          48.000    20617513.520    84425272.416          66.917          46.000  
G04  24342825.777   127922397.364        3160.270          36.000    24342823.078    99679819.521        2462.579          42.000  
C33  22540833.109   117376027.575        -839.595          50.000                                                                  
C06  36580552.450   190484537.406        -152.088          45.000    36580535.175   147294656.536        -117.800          48.000  
C14  22781250.021   118627929.734       -2367.612          46.000    22781235.261    91730586.103       -1830.901          50.000  
C16  37009867.502   192720090.104        -180.800          47.000    37009855.612   149023351.004        -139.880          48.000  
C24  21884708.098   113959422.938        -919.033          50.000                                                                  
C26  24550740.537   127842148.124       -2572.998          43.000                                                                  
G03  22897864.216   120329111.586        -281.232          40.000    22897859.995    93762907.917        -219.266          42.000  
G16  22291824.743   117144402.994        2896.760          42.000                                                                  
C09  37731513.468   196477869.919        -140.525          43.000    37731499.403   151929113.996        -108.520          48.000  
C25  23575125.468   122761876.939        1524.943          45.000                                                                  
C08  39311272.177   204704078.951       -2474.853          37.000    39311260.161   158290151.680       -1913.656          41.000  
C07  39507876.321   205727870.340        1117.496          35.000    39507866.257   159081801.312         863.715          41.000  
C10  40452561.330   210647105.178         935.670          34.000    40452561.730   162885706.599         723.385          39.000  
C35  25938065.272   135066318.201         277.519          39.000                                                                  
C13  38472528.974   200336563.957       -2287.734          40.000    38472523.388   154912915.847       -1768.976          42.000  
C12  26345912.476   137190082.504        2322.423          34.000    26345910.071   106084099.305        1795.331          42.000  
G25  24580067.207   129169130.058       -3920.046          34.000    24580063.624   100651234.028       -3054.795          34.000  
> 2025 10 30 06 24 19.4800000  0 23                     
G32  22160262.654   116452958.774       -3020.173          45.000    22160256.291    90742529.294       -2353.671          43.000  
G29  23103450.300   121409460.239        -740.298          42.000    23103440.617    94604744.471        -576.955          40.000  
G28  21310023.797   111984931.886       -1245.491          45.000    21310013.426    87260945.103        -970.459          46.000  
G26  20314969.856   106755887.999         554.296          48.000    20314962.738    83186387.953         431.980          46.000  
G31  20617524.057   108345815.284          85.688          48.000    20617512.872    84425269.739          66.849          46.000  
G04  24342801.723   127922270.944        3160.258          36.000    24342799.012    99679721.021        2462.408          42.000  
C33  22540839.546   117376061.171        -839.901          50.000                                                                  
C06  36580553.620   190484543.494        -152.259          46.000    36580536.387   147294661.246        -117.864          48.000  
C14  22781268.193   118628024.449       -2367.895          46.000    22781253.466    91730659.340       -1831.000          50.000  
C16  37009868.859   192720097.344        -181.013          47.000    37009856.996   149023356.596        -139.906          48.000  
C24  21884715.157   113959459.706        -919.236          50.000                                                                  
C26  24550760.312   127842251.045       -2573.065          43.000                                                                  
G03  22897866.367   120329122.851        -281.537          40.000    22897862.142    93762916.701        -219.603          42.000  
G16  22291802.701   117144287.141        2896.379          42.000                                                                  
C09  37731514.540   196477875.535        -140.565          43.000    37731500.486   151929118.345        -108.738          48.000  
C25  23575113.752   122761815.955        1524.623          45.000                                                                  
C08  39311291.199   204704177.950       -2475.028          37.000    39311279.182   158290228.247       -1914.087          41.000  
C07  39507867.740   205727825.650        1117.255          35.000    39507857.665   159081766.753         863.784          41.000  
C10  40452554.117   210647067.767         935.220          34.000    40452554.554   162885677.640         723.700          39.000  
C35  25938063.144   135066307.100         277.414          39.000                                                                  
C13  38472546.568   200336655.478       -2288.017          40.000    38472540.953   154912986.613       -1769.112          42.000  
C12  26345894.650   137189989.621        2322.306          34.000    26345892.246   106084027.498        1795.096          42.000  
G25  24580097.060   129169286.896       -3920.857          34.000    24580093.457   100651356.215       -3054.879          34.000  
> 2025 10 30 06 24 19.5200000  0 23                     
G32  22160285.676   116453079.592       -3020.497          45.000    22160279.304    90742623.431       -2353.691          43.000  
G29  23103455.943   121409489.855        -740.462          42.000    23103446.257    94604767.556        -577.189          40.000  
G28  21310033.279   111984981.722       -1245.919          45.000    21310022.881    87260983.924        -970.590          46.000  
G26  20314965.636   106755865.827         554.165          48.000    20314958.514    83186370.677         431.822          46.000  
G31  20617523.410   108345811.866          85.419          48.000    20617512.214    84425267.071          66.653          46.000  
G04  24342777.695   127922144.535        3160.095          36.000    24342774.952    99679622.517        2462.443          42.000  
C33  22540845.963   117376094.777        -840.204          50.000                                                                  
C06  36580554.808   190484549.602        -152.661          46.000    36580537.579   147294665.954        -117.842          48.000  
C14  22781286.391   118628119.170       -2368.111          46.000    22781271.668    91730732.579       -1831.052          50.000  
C16  37009870.294   192720104.593        -181.275          47.000    37009858.382   149023362.204        -140.160          48.000  
C24  21884722.178   113959496.487        -919.565          50.000                                                                  
C26  24550780.078   127842353.990       -2573.499          43.000                                                                  
G03  22897868.491   120329134.121        -281.867          40.000    22897864.289    93762925.486        -219.753          42.000  
G16  22291780.639   117144171.297        2896.008          42.000                                                                  
C09  37731515.595   196477881.171        -140.884          43.000    37731501.556   151929122.698        -108.923          48.000  
C25  23575102.056   122761754.979        1524.360          45.000                                                                  
C08  39311310.220   204704276.963       -2475.327          37.000    39311298.184   158290304.803       -1914.070          41.000  
C07  39507859.183   205727780.993        1116.530          35.000    39507849.058   159081732.196         863.838          41.000  
C10  40452546.939   210647030.353         935.152          34.000    40452547.363   162885648.719         723.233          39.000  
C35  25938061.035   135066296.024         277.004          39.000                                                                  
C13  38472564.139   200336746.998       -2288.157          40.000    38472558.521   154913057.391       -1769.438          42.000  
C12  26345876.825   137189896.753        2321.925          34.000    26345874.454   106083955.684        1795.173          42.000  
G25  24580126.908   129169443.713       -3920.859          35.000    24580123.308   100651478.412       -3054.977          34.000  
> 2025 10 30 06 24 19.5600000  0 23                     
G32  22160308.672   116453200.406       -3020.547          45.000    22160302.306    90742717.565       -2353.545          43.000  
G29  23103461.572   121409519.471        -740.490          42.000    23103451.884    94604790.616        -576.819          40.000  
G28  21310042.750   111985031.540       -1245.739          45.000    21310032.360    87261022.750        -970.725          46.000  
G26  20314961.390   106755843.649         554.281          48.000    20314954.281    83186353.395         431.893          46.000  
G31  20617522.742   108345808.445          85.397          48.000    20617511.561    84425264.404          66.580          46.000  
G04  24342753.614   127922018.124        3160.013          36.000    24342750.892    99679523.995        2462.810          42.000  
C33  22540852.410   117376128.375        -840.162          50.000                                                                  
C06  36580555.969   190484555.702        -152.683          46.000    36580538.767   147294670.675        -118.008          48.000  
C14  22781304.599   118628213.894       -2368.237          46.000    22781289.848    91730805.823       -1831.144          50.000  
C16  37009871.710   192720111.832        -181.186          47.000    37009859.773   149023367.800        -140.082          48.000  
C24  21884729.260   113959533.261        -919.538          50.000                                                                  
C26  24550799.871   127842456.926       -2573.546          43.000                                                                  
G03  22897870.641   120329145.391        -281.877          40.000    22897866.429    93762934.249        -219.326          42.000  
G16  22291758.587   117144055.447        2896.043          42.000                                                                  
C09  37731516.673   196477886.792        -140.769          43.000    37731502.614   151929127.049        -108.923          48.000  
C25  23575090.379   122761693.991        1524.479          45.000                                                                  
C08  39311329.240   204704375.976       -2475.450          37.000    39311317.196   158290381.358       -1914.022          41.000  
C07  39507850.593   205727736.311        1116.646          35.000    39507840.467   159081697.634         863.947          41.000  
C10  40452539.777   210646992.903         935.701          34.000    40452540.185   162885619.775         723.367          39.000  
C35  25938058.904   135066284.940         276.960          39.000                                                                  
C13  38472581.706   200336838.534       -2288.402          40.000    38472576.094   154913128.168       -1769.573          42.000  
C12  26345859.001   137189803.908        2321.281          34.000    26345856.613   106083883.866        1795.305          42.000  
G25  24580156.729   129169600.543       -3921.013          35.000    24580153.143   100651600.614       -3055.082          34.000  
> 2025 10 30 06 24 19.6000000  0 23                     
G32  22160331.679   116453321.207       -3020.320          45.000    22160325.287    90742811.689       -2353.284          43.000  
G29  23103467.203   121409549.079        -740.301          42.000    23103457.510    94604813.679        -576.664          40.000  
G28  21310052.216   111985081.353       -1245.520          45.000    21310041.831    87261061.570        -970.657          46.000  
G26  20314957.144   106755821.453         554.693          48.000    20314950.052    83186336.095         432.267          46.000  
G31  20617522.070   108345805.011          85.663          48.000    20617510.906    84425261.728          66.785          46.000  
G04  24342729.526   127921891.702        3160.258          36.000    24342726.827    99679425.484        2462.810          42.000  
C33  22540858.889   117376161.958        -839.789          50.000                                                                  
C06  36580557.153   190484561.779        -152.223          46.000    36580539.954   147294675.376        -117.734          48.000  
C14  22781322.794   118628308.600       -2367.915          46.000    22781308.015    91730879.059       -1831.014          50.000  
C16  37009873.134   192720119.058        -180.851          47.000    37009861.139   149023373.393        -139.928          48.000  
C24  21884736.330   113959570.025        -919.313          50.000                                                                  
C26  24550819.656   127842559.844       -2573.215          43.000                                                                  
G03  22897872.777   120329156.653        -281.704          40.000    22897868.570    93762943.015        -219.164          42.000  
G16  22291736.517   117143939.587        2896.267          42.000                                                                  
C09  37731517.743   196477892.407        -140.558          43.000    37731503.677   151929131.399        -108.862          48.000  
C25  23575078.695   122761632.995        1524.726          45.000                                                                  
C08  39311348.242   204704474.972       -2475.239          37.000    39311336.194   158290457.896       -1913.647          41.000  
C07  39507841.987   205727691.585        1117.573          35.000    39507831.896   159081663.086         863.804          41.000  
C10  40452532.621   210646955.496         935.240          34.000    40452532.975   162885590.834         723.427          39.000  
C35  25938056.780   135066273.849         277.108          39.000                                                                  
C13  38472599.282   200336930.043       -2287.975          40.000    38472593.670   154913198.923       -1769.146          42.000  
C12  26345841.174   137189711.028        2321.685          34.000    26345838.760   106083812.046        1795.436          42.000  
G25  24580186.569   129169757.342       -3920.421          35.000    24580182.976   100651722.812       -3055.069          34.000  
> 2025 10 30 06 24 19.6400000  0 23                     
G32  22160354.658   116453441.990       -3019.802          45.000    22160348.263    90742905.812       -2353.147          43.000  
G29  23103472.840   121409578.674        -739.953          42.000    23103463.144    94604836.746        -576.666          40.000  
G28  21310061.685   111985131.155       -1245.201          45.000    21310051.266    87261100.378        -970.385          46.000  
G26  20314952.888   106755799.250         555.045          48.000    20314945.825    83186318.803         432.339          46.000  
G31  20617521.404   108345801.569          85.958          48.000    20617510.240    84425259.048          66.932          46.000  
G04  24342705.467   127921765.278        3160.548          36.000    24342702.772    99679326.977        2462.708          42.000  
C33  22540865.353   117376195.532        -839.412          50.000                                                                  
C06  36580558.337   190484567.854        -151.929          46.000    36580541.105   147294680.071        -117.469          48.000  
C14  22781340.986   118628403.298       -2367.585          46.000    22781326.197    91730952.286       -1830.766          50.000  
C16  37009874.513   192720126.280        -180.597          48.000    37009862.535   149023378.981        -139.763          48.000  
C24  21884743.372   113959606.776        -918.930          50.000                                                                  
C26  24550839.427   127842662.756       -2572.899          43.000                                                                  
G03  22897874.936   120329167.890        -281.132          40.000    22897870.729    93762951.784        -219.161          42.000  
G16  22291714.465   117143823.706        2896.751          42.000                                                                  
C09  37731518.843   196477898.008        -140.198          43.000    37731504.735   151929135.731        -108.499          48.000  
C25  23575066.963   122761571.988        1525.045          45.000                                                                  
C08  39311367.232   204704573.943       -2474.612          37.000    39311355.183   158290534.440       -1913.557          41.000  
C07  39507833.409   205727646.878        1117.761          36.000    39507823.302   159081628.518         864.089          41.000  
C10  40452525.458   210646918.047         935.805          34.000    40452525.767   162885561.870         723.887          39.000  
C35  25938054.619   135066262.738         277.516          39.000                                                                  
C13  38472616.861   200337021.542       -2287.588          40.000    38472611.282   154913269.675       -1768.863          42.000  
C12  26345823.333   137189618.142        2322.122          34.000    26345820.916   106083740.232        1795.404          42.000  
G25  24580216.374   129169914.147       -3920.231          35.000    24580212.828   100651845.005       -3054.904          34.000  
> 2025 10 30 06 24 19.6800000  0 23                     
G32  22160377.658   116453562.782       -3019.714          45.000    22160371.256    90742999.936       -2353.067          43.000  
G29  23103478.470   121409608.274        -739.925          42.000    23103468.786    94604859.812        -576.698          40.000  
G28  21310071.148   111985180.955       -1245.007          45.000    21310060.736    87261139.183        -970.170          46.000  
G26  20314948.660   106755777.057         554.978          48.000    20314941.598    83186301.511         432.344          46.000  
G31  20617520.732   108345798.122          86.179          48.000    20617509.581    84425256.370          66.931          46.000  
G04  24342681.423   127921638.820        3161.191          36.000    24342678.716    99679228.462        2462.777          42.000  
C33  22540871.765   117376229.112        -839.375          50.000                                                                  
C06  36580559.506   190484573.924        -151.732          46.000    36580542.264   147294684.773        -117.478          48.000  
C14  22781359.186   118628497.997       -2367.452          46.000    22781344.348    91731025.517       -1830.745          50.000  
C16  37009875.900   192720133.502        -180.522          48.000    37009863.931   149023384.562        -139.561          48.000  
C24  21884750.432   113959643.527        -918.758          50.000                                                                  
C26  24550859.192   127842765.668       -2572.761          43.000                                                                  
G03  22897877.088   120329179.132        -280.963          40.000    22897872.846    93762960.546        -219.070          42.000  
G16  22291692.416   117143707.839        2896.735          42.000                                                                  
C09  37731519.928   196477903.616        -140.155          43.000    37731505.822   151929140.064        -108.320          48.000  
C25  23575055.245   122761510.987        1525.112          45.000                                                                  
C08  39311386.236   204704672.916       -2474.340          37.000    39311374.237   158290610.995       -1913.744          41.000  
C07  39507824.811   205727602.156        1118.015          35.000    39507814.736   159081593.953         864.091          41.000  
C10  40452518.254   210646880.581         936.366          34.000    40452518.576   162885532.912         723.967          39.000  
C35  25938052.492   135066251.630         277.758          39.000                                                                  
C13  38472634.424   200337113.053       -2287.639          40.000    38472628.862   154913340.434       -1768.846          42.000  
C12  26345805.509   137189525.260        2322.200          34.000    26345803.069   106083668.423        1795.286          43.000  
G25  24580246.207   129170070.919       -3919.542          35.000    24580242.652   100651967.153       -3054.010          34.000  
> 2025 10 30 06 24 19.7200000  0 23                     
G32  22160400.637   116453683.579       -3019.823          45.000    22160394.260    90743094.065       -2353.115          43.000  
G29  23103484.127   121409637.884        -740.095          42.000    23103474.416    94604882.883        -576.792          40.000  
G28  21310080.640   111985230.764       -1245.133          45.000    21310070.219    87261178.000        -970.278          46.000  
G26  20314944.455   106755754.882         554.572          48.000    20314937.399    83186284.227         432.168          46.000  
G31  20617520.103   108345794.685          86.079          48.000    20617508.929    84425253.689          66.992          46.000  
G04  24342657.360   127921512.394        3160.980          36.000    24342654.674    99679129.948        2462.760          42.000  
C33  22540878.204   117376262.701        -839.576          50.000                                                                  
C06  36580560.669   190484580.010        -151.946          46.000    36580543.466   147294689.473        -117.470          48.000  
C14  22781377.356   118628592.707       -2367.635          46.000    22781362.533    91731098.745       -1830.704          50.000  
C16  37009877.234   192720140.727        -180.529          47.000    37009865.358   149023390.148        -139.581          48.000  
C24  21884757.467   113959680.288        -918.886          50.000                                                                  
C26  24550878.939   127842868.585       -2572.784          43.000                                                                  
G03  22897879.252   120329190.402        -281.471          40.000    22897874.985    93762969.329        -219.418          42.000  
G16  22291670.370   117143591.975        2896.641          42.000                                                                  
C09  37731521.004   196477909.229        -140.239          43.000    37731506.928   151929144.395        -108.237          48.000  
C25  23575043.511   122761449.998        1524.883          45.000                                                                  
C08  39311405.246   204704771.928       -2474.932          37.000    39311393.247   158290687.535       -1913.586          41.000  
C07  39507816.238   205727557.456        1117.709          36.000    39507806.157   159081559.392         864.062          41.000  
C10  40452511.056   210646843.129         936.430          34.000    40452511.389   162885503.961         723.832          39.000  
C35  25938050.367   135066240.535         277.565          39.000                                                                  
C13  38472651.991   200337204.566       -2287.750          40.000    38472646.445   154913411.191       -1768.871          42.000  
C12  26345787.691   137189432.387        2322.073          34.000    26345785.230   106083596.606        1795.342          43.000  
G25  24580276.068   129170227.720       -3919.773          35.000    24580272.496   100652089.338       -3054.399          34.000  
> 2025 10 30 06 24 19.7600000  0 23                     
G32  22160423.634   116453804.394       -3020.231          45.000    22160417.257    90743188.203       -2353.331          43.000  
G29  23103489.781   121409667.498        -740.306          42.000    23103480.060    94604905.959        -576.916          40.000  
G28  21310090.136   111985280.586       -1245.411          45.000    21310079.693    87261216.807        -970.195          46.000  
G26  20314940.251   106755732.705         554.387          48.000    20314933.166    83186266.941         432.101          46.000  
G31  20617519.474   108345791.251          85.893          48.000    20617508.286    84425251.015          66.881          46.000  
G04  24342633.321   127921385.991        3160.321          36.000    24342630.626    99679031.430        2462.847          42.000  
C33  22540884.596   117376296.296        -839.824          50.000                                                                  
C06  36580561.837   190484586.100        -152.185          46.000    36580544.602   147294694.183        -117.656          48.000  
C14  22781395.548   118628687.414       -2367.666          46.000    22781380.725    91731171.984       -1830.883          50.000  
C16  37009878.627   192720147.958        -180.682          47.000    37009866.752   149023395.743        -139.793          48.000  
C24  21884764.493   113959717.058        -919.152          50.000                                                                  
C26  24550898.690   127842971.503       -2572.891          43.000                                                                  
G03  22897881.413   120329201.665        -281.626          40.000    22897877.102    93762978.098        -219.359          42.000  
G16  22291648.314   117143476.107        2896.706          42.000                                                                  
C09  37731522.091   196477914.846        -140.347          43.000    37731507.976   151929148.732        -108.331          48.000  
C25  23575031.794   122761389.003        1524.834          45.000                                                                  
C08  39311424.270   204704870.933       -2475.110          37.000    39311412.271   158290764.078       -1913.528          41.000  
C07  39507807.675   205727512.792        1116.935          35.000    39507797.599   159081524.841         863.835          41.000  
C10  40452503.851   210646805.696         936.138          34.000    40452504.195   162885475.009         723.820          39.000  
C35  25938048.236   135066229.438         277.463          39.000                                                                  
C13  38472669.577   200337296.083       -2287.867          40.000    38472664.030   154913481.962       -1769.161          42.000  
C12  26345769.869   137189339.509        2322.034          34.000    26345767.407   106083524.795        1795.299          43.000  
G25  24580305.905   129170384.529       -3920.044          35.000    24580302.335   100652211.500       -3054.174          34.000  
> 2025 10 30 06 24 19.8000000  0 23                     
G32  22160446.624   116453925.201       -3020.268          45.000    22160440.264    90743282.343       -2353.517          43.000  
G29  23103495.409   121409697.110        -740.361          42.000    23103485.696    94604929.039        -577.089          40.000  
G28  21310099.603   111985330.393       -1245.314          45.000    21310089.138    87261255.626        -970.355          46.000  
G26  20314936.025   106755710.535         554.191          48.000    20314928.955    83186249.658         432.046          46.000  
G31  20617518.854   108345787.824          85.690          48.000    20617507.616    84425248.339          66.838          46.000  
G04  24342609.251   127921259.571        3160.303          36.000    24342606.580    99678932.918        2462.791          42.000  
C33  22540891.069   117376329.896        -840.029          50.000                                                                  
C06  36580563.002   190484592.189        -152.319          46.000    36580545.786   147294698.890        -117.719          48.000  
C14  22781413.744   118628782.132       -2367.887          46.000    22781398.909    91731245.225       -1831.028          50.000  
C16  37009879.979   192720155.194        -180.862          47.000    37009868.155   149023401.340        -139.919          48.000  
C24  21884771.534   113959753.826        -919.257          50.000                                                                  
C26  24550918.443   127843074.439       -2573.252          43.000                                                                  
G03  22897883.546   120329212.929        -281.654          40.000    22897879.241    93762986.875        -219.452          42.000  
G16  22291626.277   117143360.255        2896.430          42.000                                                                  
C09  37731523.170   196477920.466        -140.480          43.000    37731509.051   151929153.082        -108.657          48.000  
C25  23575020.094   122761328.009        1524.803          45.000                                                                  
C08  39311443.295   204704969.942       -2475.181          37.000    39311431.267   158290840.626       -1913.553          41.000  
C07  39507799.108   205727468.125        1116.604          35.000    39507789.003   159081490.286         863.781          41.000  
C10  40452496.650   210646768.255         936.110          34.000    40452497.007   162885446.074         723.488          39.000  
C35  25938046.086   135066218.349         277.295          39.000                                                                  
C13  38472687.144   200337387.591       -2287.812          40.000    38472681.614   154913552.736       -1769.395          42.000  
C12  26345752.046   137189246.651        2321.700          34.000    26345749.594   106083452.967        1795.554          43.000  
G25  24580335.779   129170541.333       -3920.075          35.000    24580332.175   100652333.711       -3055.017          34.000  
> 2025 10 30 06 24 19.8400000  0 23                     
G32  22160469.601   116454045.998       -3020.095          45.000    22160463.257    90743376.474       -2353.455          43.000  
G29  23103501.025   121409726.723        -740.429          42.000    23103491.323    94604952.103        -576.826          40.000  
G28  21310109.061   111985380.214       -1245.504          45.000    21310098.609    87261294.448        -970.512          46.000  
G26  20314931.799   106755688.356         554.312          48.000    20314924.725    83186232.376         432.016          46.000  
G31  20617518.191   108345784.396          85.617          48.000    20617506.968    84425245.666          66.808          46.000  
G04  24342585.203   127921133.146        3160.425          36.000    24342582.532    99678834.414        2462.621          42.000  
C33  22540897.565   117376363.496        -840.088          50.000                                                                  
C06  36580564.183   190484598.277        -152.317          46.000    36580546.915   147294703.588        -117.552          48.000  
C14  22781431.951   118628876.849       -2367.974          46.000    22781417.091    91731318.467       -1831.095          50.000  
C16  37009881.361   192720162.427        -180.910          48.000    37009869.522   149023406.932        -139.909          48.000  
C24  21884778.622   113959790.589        -919.186          50.000                                                                  
C26  24550938.196   127843177.371       -2573.381          43.000                                                                  
G03  22897885.694   120329224.182        -281.502          40.000    22897881.380    93762995.659        -219.627          42.000  
G16  22291604.247   117143244.402        2896.301          42.000                                                                  
C09  37731524.274   196477926.081        -140.452          43.000    37731510.147   151929157.433        -108.809          48.000  
C25  23575008.382   122761267.025        1524.631          45.000                                                                  
C08  39311462.302   204705068.930       -2474.902          37.000    39311450.313   158290917.195       -1913.983          41.000  
C07  39507790.524   205727423.435        1116.925          35.000    39507780.447   159081455.726         863.879          41.000  
C10  40452489.473   210646730.844         935.546          34.000    40452489.833   162885417.135         723.344          39.000  
C35  25938043.957   135066207.264         277.134          39.000                                                                  
C13  38472704.703   200337479.102       -2287.781          40.000    38472699.190   154913623.500       -1769.289          42.000  
C12  26345734.202   137189153.794        2321.408          34.000    26345731.762   106083381.148        1795.546          43.000  
G25  24580365.620   129170698.140       -3920.103          35.000    24580362.038   100652455.928       -3055.481          34.000  
> 2025 10 30 06 24 19.8800000  0 23                     
G32  22160492.581   116454166.799       -3020.056          45.000    22160486.237    90743470.612       -2353.530          43.000  
G29  23103506.682   121409756.331        -740.284          42.000    23103496.961    94604975.183        -576.969          40.000  
G28  21310118.541   111985430.035       -1245.548          45.000    21310108.078    87261333.267        -970.540          46.000  
G26  20314927.556   106755666.165         554.624          48.000    20314920.516    83186215.100         431.892          46.000  
G31  20617517.541   108345780.968          85.618          48.000    20617506.322    84425242.993          66.758          46.000  
G04  24342561.151   127921006.733        3160.345          36.000    24342558.458    99678735.902        2462.693          42.000  
C33  22540904.020   117376397.086        -839.912          50.000                                                                  
C06  36580565.334   190484604.353        -152.076          46.000    36580548.066   147294708.296        -117.665          48.000  
C14  22781450.179   118628971.566       -2367.995          46.000    22781435.263    91731391.705       -1831.060          50.000  
C16  37009882.757   192720169.654        -180.783          48.000    37009870.892   149023412.517        -139.745          48.000  
C24  21884785.667   113959827.362        -919.319          50.000                                                                  
C26  24550957.962   127843280.293       -2573.241          43.000                                                                  
G03  22897887.843   120329235.460        -281.861          40.000    22897883.532    93763004.428        -219.404          42.000  
G16  22291582.221   117143128.546        2896.317          42.000                                                                  
C09  37731525.370   196477931.693        -140.356          43.000    37731511.237   151929161.783        -108.835          48.000  
C25  23574996.656   122761206.041        1524.552          45.000                                                                  
C08  39311481.318   204705167.900       -2474.514          37.000    39311469.289   158290993.739       -1913.812          41.000  
C07  39507781.899   205727378.734        1117.316          35.000    39507771.849   159081421.163         863.999          41.000  
C10  40452482.287   210646693.394         935.898          34.000    40452482.635   162885388.186         723.510          39.000  
C35  25938041.810   135066196.172         277.193          39.000                                                                  
C13  38472722.278   200337570.616       -2287.818          40.000    38472716.779   154913694.265       -1769.233          42.000  
C12  26345716.316   137189060.941        2321.123          34.000    26345713.963   106083309.337        1795.396          43.000  
G25  24580395.458   129170854.958       -3920.352          35.000    24580391.875   100652578.095       -3054.725          34.000  
> 2025 10 30 06 24 19.9200000  0 23                     
G32  22160515.596   116454287.601       -3020.065          45.000    22160509.219    90743564.745       -2353.429          42.000  
G29  23103512.301   121409785.947        -740.409          42.000    23103502.610    94604998.261        -576.993          40.000  
G28  21310127.991   111985479.840       -1245.321          45.000    21310117.558    87261372.081        -970.436          46.000  
G26  20314923.328   106755643.982         554.615          48.000    20314916.294    83186197.815         431.999          46.000  
G31  20617516.885   108345777.530          85.816          48.000    20617505.659    84425240.318          66.802          46.000  
G04  24342537.079   127920880.313        3160.442          36.000    24342534.409    99678637.382        2462.880          42.000  
C33  22540910.480   117376430.675        -839.792          50.000                                                                  
C06  36580566.469   190484610.434        -152.029          46.000    36580549.255   147294712.999        -117.630          48.000  
C14  22781468.368   118629066.275       -2367.860          46.000    22781453.433    91731464.943       -1831.008          50.000  
C16  37009884.184   192720176.877        -180.660          48.000    37009872.260   149023418.103        -139.688          48.000  
C24  21884792.753   113959864.120        -919.081          50.000                                                                  
C26  24550977.740   127843383.200       -2572.891          43.000                                                                  
G03  22897889.995   120329246.734        -281.970          40.000    22897885.682    93763013.215        -219.612          42.000  
G16  22291560.161   117143012.691        2896.287          42.000                                                                  
C09  37731526.429   196477937.305        -140.345          43.000    37731512.331   151929166.119        -108.552          48.000  
C25  23574984.974   122761145.038        1524.898          45.000                                                                  
C08  39311500.348   204705266.898       -2474.803          37.000    39311488.325   158291070.297       -1913.959          41.000  
C07  39507773.299   205727334.009        1117.953          35.000    39507763.229   159081386.612         863.860          41.000  
C10  40452475.077   210646655.979         935.542          34.000    40452475.461   162885359.249         723.402          39.000  
C35  25938039.703   135066185.075         277.358          39.000                                                                  
C13  38472739.859   200337662.136       -2287.972          40.000    38472734.347   154913765.030       -1769.178          42.000  
C12  26345698.469   137188968.035        2322.111          34.000    26345696.149   106083237.521        1795.397          43.000  
G25  24580425.289   129171011.760       -3920.213          35.000    24580421.711   100652700.249       -3053.988          34.000  
> 2025 10 30 06 24 19.9600000  0 23                     
G32  22160538.610   116454408.413       -3020.252          45.000    22160532.177    90743658.873       -2353.272          42.000  
G29  23103517.910   121409815.561        -740.427          42.000    23103508.230    94605021.338        -576.992          40.000  
G28  21310137.495   111985529.648       -1245.248          45.000    21310127.030    87261410.888        -970.273          46.000  
G26  20314919.105   106755621.808         554.409          48.000    20314912.080    83186180.533         432.006          46.000  
G31  20617516.241   108345774.101          85.747          48.000    20617505.012    84425237.651          66.679          46.000  
G04  24342513.005   127920753.862        3160.962          36.000    24342510.369    99678538.876        2462.737          42.000  
C33  22540916.914   117376464.276        -839.960          50.000                                                                  
C06  36580567.598   190484616.519        -152.091          45.000    36580550.437   147294717.708        -117.708          48.000  
C14  22781486.575   118629160.991       -2367.906          46.000    22781471.627    91731538.181       -1830.983          50.000  
C16  37009885.554   192720184.112        -180.785          47.000    37009873.620   149023423.695        -139.762          48.000  
C24  21884799.805   113959900.889        -919.196          50.000                                                                  
C26  24550997.492   127843486.123       -2572.999          43.000                                                                  
G03  22897892.142   120329257.993        -281.735          40.000    22897887.830    93763021.990        -219.522          42.000  
G16  22291538.107   117142896.834        2896.333          42.000                                                                  
C09  37731527.520   196477942.922        -140.435          43.000    37731513.438   151929170.459        -108.511          48.000  
C25  23574973.249   122761084.047        1524.823          45.000                                                                  
C08  39311519.381   204705365.925       -2475.422          37.000    39311507.341   158291146.842       -1913.796          41.000  
C07  39507764.739   205727289.336        1117.286          35.000    39507754.633   159081352.041         864.150          41.000  
C10  40452467.851   210646618.544         935.573          34.000    40452468.290   162885330.303         723.527          39.000  
C35  25938037.587   135066173.997         277.022          39.000                                                                  
C13  38472757.453   200337753.655       -2288.008          40.000    38472751.935   154913835.792       -1769.079          42.000  
C12  26345680.615   137188875.137        2322.499          34.000    26345678.314   106083165.700        1795.491          43.000  
G25  24580455.136   129171168.567       -3920.187          35.000    24580451.551   100652822.433       -3054.253          34.000  
> 2025 10 30 06 24 20.0000000  0 23                     
G32  22160561.625   116454529.227       -3020.378          45.000    22160555.153    90743753.007       -2353.300          42.000  
G29  23103523.527   121409845.181        -740.494          42.000    23103513.870    94605044.425        -577.185          40.000  
G28  21310146.974   111985579.474       -1245.526          45.000    21310136.483    87261449.715        -970.521          46.000  
G26  20314914.935   106755599.636         554.273          48.000    20314907.885    83186163.259         431.881          46.000  
G31  20617515.610   108345770.676          85.624          48.000    20617504.362    84425234.985          66.599          46.000  
G04  24342488.960   127920627.450        3160.594          36.000    24342486.321    99678440.376        2462.568          42.000  
C33  22540923.311   117376497.876        -840.028          50.000                                                                  
C06  36580568.750   190484622.611        -152.266          45.000    36580551.596   147294722.413        -117.681          48.000  
C14  22781504.749   118629255.710       -2368.001          46.000    22781489.834    91731611.422       -1831.040          50.000  
C16  37009886.932   192720191.348        -180.906          47.000    37009875.030   149023429.284        -139.743          48.000  
C24  21884806.840   113959937.662        -919.334          50.000                                                                  
C26  24551017.261   127843589.044       -2573.041          43.000                                                                  
G03  22897894.289   120329269.266        -281.790          40.000    22897889.970    93763030.765        -219.453          42.000  
G16  22291516.096   117142780.976        2896.397          42.000                                                                  
C09  37731528.577   196477948.547        -140.579          43.000    37731514.483   151929174.800        -108.514          48.000  
C25  23574961.511   122761023.063        1524.644          45.000                                                                  
C08  39311538.416   204705464.913       -2475.070          37.000    39311526.348   158291223.394       -1913.823          41.000  
C07  39507756.165   205727244.655        1117.026          35.000    39507746.030   159081317.511         863.530          41.000  
C10  40452460.652   210646581.119         935.493          34.000    40452461.116   162885301.334         724.047          39.000  
C35  25938035.474   135066162.910         277.071          39.000                                                                  
C13  38472775.033   200337845.169       -2287.946          40.000    38472769.516   154913906.555       -1769.073          42.000  
C12  26345662.773   137188782.245        2322.455          34.000    26345660.499   106083093.886        1795.416          43.000  
G25  24580484.970   129171325.363       -3919.990          35.000    24580481.389   100652944.627       -3054.625          34.000  
> 2025 10 30 06 24 20.0400000  0 23                     
G32  22160584.610   116454650.037       -3020.386          45.000    22160578.152    90743847.157       -2353.604          42.000  
G29  23103529.178   121409874.804        -740.605          42.000    23103519.492    94605067.508        -577.170          40.000  
G28  21310156.462   111985629.297       -1245.632          45.000    21310145.969    87261488.538        -970.603          46.000  
G26  20314910.730   106755577.466         554.175          48.000    20314903.656    83186145.974         432.032          46.000  
G31  20617514.968   108345767.255          85.501          48.000    20617503.687    84425232.314          66.698          46.000  
G04  24342464.922   127920501.038        3160.302          36.000    24342462.245    99678341.864        2462.721          42.000  
C33  22540929.749   117376531.484        -840.203          50.000                                                                  
C06  36580569.911   190484628.704        -152.381          45.000    36580552.797   147294727.122        -117.745          48.000  
C14  22781522.922   118629350.425       -2367.967          46.000    22781508.018    91731684.668       -1831.134          50.000  
C16  37009888.342   192720198.583        -180.924          47.000    37009876.385   149023434.884        -139.943          48.000  
C24  21884813.907   113959974.431        -919.322          50.000                                                                  
C26  24551037.010   127843691.983       -2573.335          43.000                                                                  
G03  22897896.419   120329280.518        -281.502          40.000    22897892.113    93763039.545        -219.523          42.000  
G16  22291494.055   117142665.119        2896.410          42.000                                                                  
C09  37731529.684   196477954.160        -140.436          43.000    37731515.558   151929179.140        -108.496          48.000  
C25  23574949.786   122760962.079        1524.583          45.000                                                                  
C08  39311557.415   204705563.902       -2474.880          37.000    39311545.336   158291299.934       -1913.593          41.000  
C07  39507747.581   205727199.971        1117.002          35.000    39507737.420   159081282.938         863.936          41.000  
C10  40452453.480   210646543.676         935.778          34.000    40452453.918   162885272.386         723.888          39.000  
C35  25938033.362   135066151.820         277.198          39.000                                                                  
C13  38472792.588   200337936.695       -2288.113          40.000    38472787.105   154913977.321       -1769.167          42.000  
C12  26345644.977   137188689.390        2321.743          34.000    26345642.648   106083022.069        1795.422          43.000  
G25  24580514.780   129171482.160       -3919.939          35.000    24580511.217   100653066.820       -3054.795          34.000  
> 2025 10 30 06 24 20.0800000  0 23                     
G32  22160607.582   116454770.844       -3020.300          45.000    22160601.130    90743941.302       -2353.711          42.000  
G29  23103534.812   121409904.426        -740.566          42.000    23103525.114    94605090.595        -577.251          40.000  
G28  21310165.915   111985679.119       -1245.640          45.000    21310155.434    87261527.356        -970.540          46.000  
G26  20314906.496   106755555.290         554.251          48.000    20314899.446    83186128.697         431.963          46.000  
G31  20617514.294   108345763.825          85.638          48.000    20617503.015    84425229.641          66.772          46.000  
G04  24342440.856   127920374.609        3160.496          36.000    24342438.178    99678243.352        2462.758          42.000  
C33  22540936.231   117376565.085        -840.142          50.000                                                                  
C06  36580571.077   190484634.794        -152.384          45.000    36580553.977   147294731.829        -117.711          48.000  
C14  22781541.104   118629445.144       -2368.031          46.000    22781526.183    91731757.909       -1831.088          50.000  
C16  37009889.765   192720205.812        -180.804          47.000    37009877.766   149023440.474        -139.848          48.000  
C24  21884820.944   113960011.206        -919.385          50.000                                                                  
C26  24551056.774   127843794.899       -2573.115          43.000                                                                  
G03  22897898.558   120329291.779        -281.492          40.000    22897894.276    93763048.333        -219.718          42.000  
G16  22291471.994   117142549.271        2896.270          42.000                                                                  
C09  37731530.741   196477959.777        -140.431          43.000    37731516.663   151929183.489        -108.695          48.000  
C25  23574938.052   122760901.101        1524.442          45.000                                                                  
C08  39311576.414   204705662.903       -2475.002          37.000    39311564.345   158291376.498       -1913.915          41.000  
C07  39507738.982   205727155.261        1117.505          35.000    39507728.839   159081248.378         863.958          41.000  
C10  40452446.302   210646506.226         936.198          34.000    40452446.696   162885243.421         724.091          39.000  
C35  25938031.235   135066140.741         277.021          39.000                                                                  
C13  38472810.146   200338028.207       -2287.902          40.000    38472804.719   154914048.091       -1769.314          42.000  
C12  26345627.120   137188596.522        2321.648          34.000    26345624.842   106082950.246        1795.502          43.000  
G25  24580544.606   129171638.978       -3920.321          35.000    24580541.067   100653189.036       -3055.159          34.000  
> 2025 10 30 06 24 20.1200000  0 23                     
G32  22160630.550   116454891.648       -3020.169          45.000    22160624.135    90744035.428       -2353.395          42.000  
G29  23103540.437   121409934.047        -740.559          42.000    23103530.756    94605113.672        -577.069          40.000  
G28  21310175.379   111985728.935       -1245.531          45.000    21310164.890    87261566.174        -970.498          46.000  
G26  20314902.290   106755533.113         554.326          48.000    20314895.234    83186111.418         431.982          46.000  
G31  20617513.618   108345760.393          85.736          48.000    20617502.362    84425226.962          66.908          46.000  
G04  24342416.780   127920248.187        3160.469          36.000    24342414.118    99678144.846        2462.639          42.000  
C33  22540942.703   117376598.684        -840.045          50.000                                                                  
C06  36580572.239   190484640.867        -152.053          45.000    36580555.200   147294736.534        -117.656          48.000  
C14  22781559.301   118629539.862       -2367.998          46.000    22781544.387    91731831.156       -1831.170          50.000  
C16  37009891.145   192720213.038        -180.702          47.000    37009879.171   149023446.060        -139.738          48.000  
C24  21884828.029   113960047.972        -919.264          50.000                                                                  
C26  24551076.517   127843897.815       -2572.944          43.000                                                                  
G03  22897900.715   120329303.060        -281.845          40.000    22897896.417    93763057.117        -219.722          42.000  
G16  22291449.957   117142433.407        2896.490          42.000                                                                  
C09  37731531.848   196477965.392        -140.400          43.000    37731517.758   151929187.834        -108.692          48.000  
C25  23574926.345   122760840.110        1524.646          45.000                                                                  
C08  39311595.427   204705761.911       -2475.157          37.000    39311583.377   158291453.051       -1913.951          41.000  
C07  39507730.384   205727110.531        1118.082          35.000    39507720.258   159081213.818         863.939          41.000  
C10  40452439.099   210646468.780         936.393          34.000    40452439.513   162885214.492         723.481          39.000  
C35  25938029.098   135066129.638         277.354          39.000                                                                  
C13  38472827.716   200338119.733       -2288.106          40.000    38472822.269   154914118.858       -1769.295          42.000  
C12  26345609.293   137188503.660        2321.527          34.000    26345606.990   106082878.424        1795.532          43.000  
G25  24580574.446   129171795.782       -3920.261          35.000    24580570.894   100653311.227       -3055.040          34.000  
> 2025 10 30 06 24 20.1600000  0 23                     
G32  22160653.546   116455012.466       -3020.365          45.000    22160647.145    90744129.568       -2353.442          42.000  
G29  23103546.101   121409963.671        -740.596          42.000    23103536.389    94605136.736        -576.740          40.000  
G28  21310184.845   111985778.754       -1245.540          45.000    21310174.365    87261604.994        -970.525          46.000  
G26  20314898.088   106755510.943         554.264          48.000    20314891.020    83186094.137         432.001          46.000  
G31  20617513.020   108345756.970          85.607          48.000    20617501.721    84425224.292          66.802          46.000  
G04  24342392.733   127920121.781        3160.180          36.000    24342390.059    99678046.351        2462.356          42.000  
C33  22540949.128   117376632.290        -840.135          50.000                                                                  
C06  36580573.421   190484646.947        -151.986          45.000    36580556.346   147294741.236        -117.608          48.000  
C14  22781577.478   118629634.579       -2367.971          46.000    22781562.569    91731904.398       -1831.124          50.000  
C16  37009892.558   192720220.274        -180.816          47.000    37009880.598   149023451.656        -139.849          48.000  
C24  21884835.121   113960084.735        -919.128          50.000                                                                  
C26  24551096.313   127844000.743       -2573.109          43.000                                                                  
G03  22897902.858   120329314.341        -282.107          40.000    22897898.580    93763065.900        -219.663          42.000  
G16  22291427.922   117142317.560        2896.249          42.000                                                                  
C09  37731532.940   196477971.017        -140.592          43.000    37731518.826   151929192.179        -108.684          48.000  
C25  23574914.627   122760779.121        1524.702          45.000                                                                  
C08  39311614.438   204705860.919       -2475.244          37.000    39311602.368   158291529.599       -1913.799          41.000  
C07  39507721.803   205727065.840        1117.650          35.000    39507711.686   159081179.260         863.912          41.000  
C10  40452431.948   210646431.340         936.275          34.000    40452432.334   162885185.565         723.158          39.000  
C35  25938026.954   135066118.549         277.244          39.000                                                                  
C13  38472845.297   200338211.246       -2287.958          40.000    38472839.854   154914189.630       -1769.294          42.000  
C12  26345591.439   137188410.790        2321.686          34.000    26345589.151   106082806.603        1795.544          43.000  
G25  24580604.282   129171952.616       -3920.787          35.000    24580600.738   100653433.388       -3054.335          34.000  
> 2025 10 30 06 24 20.2000000  0 23                     
G32  22160676.522   116455133.282       -3020.454          45.000    22160670.110    90744223.695       -2353.251          42.000  
G29  23103551.733   121409993.296        -740.621          42.000    23103542.045    94605159.830        -577.141          40.000  
G28  21310194.321   111985828.570       -1245.475          45.000    21310183.860    87261643.820        -970.631          46.000  
G26  20314893.889   106755488.776         554.159          48.000    20314886.815    83186076.865         431.832          46.000  
G31  20617512.344   108345753.543          85.601          48.000    20617501.089    84425221.630          66.574          46.000  
G04  24342368.664   127919995.364        3160.214          36.000    24342365.997    99677947.851        2462.356          42.000  
C33  22540955.601   117376665.895        -840.153          50.000                                                                  
C06  36580574.605   190484653.030        -152.011          45.000    36580557.488   147294745.937        -117.544          48.000  
C14  22781595.656   118629729.308       -2368.193          46.000    22781580.786    91731977.642       -1831.138          50.000  
C16  37009893.946   192720227.501        -180.764          47.000    37009882.017   149023457.245        -139.790          48.000  
C24  21884842.166   113960121.504        -919.186          50.000                                                                  
C26  24551116.042   127844103.674       -2573.253          43.000                                                                  
G03  22897904.995   120329325.624        -282.222          40.000    22897900.720    93763074.682        -219.580          42.000  
G16  22291405.891   117142201.712        2896.156          42.000                                                                  
C09  37731534.023   196477976.635        -140.571          43.000    37731519.910   151929196.530        -108.779          48.000  
C25  23574902.913   122760718.139        1524.571          45.000                                                                  
C08  39311633.426   204705959.924       -2475.283          37.000    39311621.382   158291606.152       -1913.793          41.000  
C07  39507713.228   205727021.165        1117.112          35.000    39507703.106   159081144.686         864.147          41.000  
C10  40452424.791   210646393.895         936.304          34.000    40452425.128   162885156.614         723.450          39.000  
C35  25938024.800   135066107.476         276.891          39.000                                                                  
C13  38472862.899   200338302.772       -2288.100          40.000    38472857.446   154914260.399       -1769.269          42.000  
C12  26345573.618   137188317.907        2321.972          35.000    26345571.292   106082734.788        1795.426          43.000  
G25  24580634.106   129172109.422       -3920.582          35.000    24580630.550   100653555.571       -3054.493          34.000  
> 2025 10 30 06 24 20.2400000  0 23                     
G32  22160699.506   116455254.128       -3021.038          45.000    22160693.114    90744317.862       -2353.936          42.000  
G29  23103557.378   121410022.951        -741.230          42.000    23103547.710    94605182.937        -577.631          40.000  
G28  21310203.814   111985878.419       -1246.062          45.000    21310193.364    87261682.665        -971.057          46.000  
G26  20314889.676   106755466.632         553.681          48.000    20314882.605    83186059.617         431.254          46.000  
G31  20617511.693   108345750.150          84.966          48.000    20617500.456    84425218.983          66.199          46.000  
G04  24342344.585   127919868.955        3160.127          36.000    24342341.934    99677849.352        2462.377          42.000  
C33  22540962.006   117376699.531        -840.749          50.000                                                                  
C06  36580575.757   190484659.144        -152.650          45.000    36580558.639   147294750.665        -118.024          48.000  
C14  22781613.837   118629824.064       -2368.793          46.000    22781598.990    91732050.907       -1831.544          50.000  
C16  37009895.348   192720234.761        -181.307          47.000    37009883.394   149023462.858        -140.205          48.000  
C24  21884849.221   113960158.303        -919.801          50.000                                                                  
C26  24551135.799   127844206.625       -2573.717          43.000                                                                  
G03  22897907.153   120329336.926        -282.659          40.000    22897902.865    93763083.487        -219.996          42.000  
G16  22291383.862   117142085.891        2895.594          42.000                                                                  
C09  37731535.109   196477982.277        -141.002          43.000    37731521.015   151929200.885        -108.916          48.000  
C25  23574891.205   122760657.174        1524.171          45.000                                                                  
C08  39311652.437   204706058.945       -2475.541          37.000    39311640.371   158291682.741       -1914.431          41.000  
C07  39507704.652   205726976.543        1115.726          35.000    39507694.510   159081110.165         863.282          41.000  
C10  40452417.594   210646356.497         935.445          34.000    40452417.940   162885127.691         723.090          39.000  
C35  25938022.676   135066096.430         276.120          39.000                                                                  
C13  38472880.470   200338394.320       -2288.642          40.000    38472874.995   154914331.193       -1769.769          42.000  
C12  26345555.745   137188225.046        2321.708          35.000    26345553.447   106082662.997        1794.885          43.000  
G25  24580663.948   129172266.238       -3920.514          35.000    24580660.407   100653677.795       -3055.216          34.000  
> 2025 10 30 06 24 20.2800000  0 23                     
G32  22160722.479   116455374.975       -3021.313          45.000    22160716.125    90744412.042       -2354.464          42.000  
G29  23103563.026   121410052.609        -741.542          42.000    23103553.367    94605206.064        -578.199          40.000  
G28  21310213.316   111985928.282       -1246.542          45.000    21310202.863    87261721.512        -971.244          46.000  
G26  20314885.479   106755444.495         553.343          48.000    20314878.401    83186042.370         431.035          46.000  
G31  20617511.053   108345746.762          84.617          48.000    20617499.829    84425216.345          65.906          46.000  
G04  24342320.553   127919742.583        3159.576          36.000    24342317.872    99677750.861        2462.291          42.000  
C33  22540968.464   117376733.171        -841.101          50.000                                                                  
C06  36580576.919   190484665.279        -153.304          45.000    36580559.790   147294755.403        -118.422          48.000  
C14  22781632.031   118629918.825       -2369.136          46.000    22781617.183    91732124.185       -1831.974          50.000  
C16  37009896.736   192720242.036        -181.872          48.000    37009884.852   149023468.481        -140.569          48.000  
C24  21884856.247   113960195.118        -920.345          50.000                                                                  
C26  24551155.589   127844309.584       -2574.012          43.000                                                                  
G03  22897909.322   120329348.233        -282.819          40.000    22897905.031    93763092.294        -220.262          42.000  
G16  22291361.834   117141970.074        2895.346          42.000                                                                  
C09  37731536.196   196477987.927        -141.323          43.000    37731522.089   151929205.259        -109.299          48.000  
C25  23574879.491   122760596.226        1523.717          45.000                                                                  
C08  39311671.424   204706157.980       -2475.806          37.000    39311659.388   158291759.313       -1914.480          41.000  
C07  39507696.076   205726931.885        1115.812          35.000    39507685.935   159081075.643         862.908          41.000  
C10  40452410.406   210646319.095         935.046          34.000    40452410.751   162885098.767         722.949          39.000  
C35  25938020.558   135066085.375         276.012          39.000                                                                  
C13  38472898.036   200338485.882       -2289.114          40.000    38472892.596   154914401.991       -1770.013          42.000  
C12  26345537.953   137188132.217        2320.975          35.000    26345535.616   106082591.208        1794.647          43.000  
G25  24580693.786   129172423.071       -3920.815          35.000    24580690.252   100653799.999       -3055.314          34.000  
> 2025 10 30 06 24 20.3200000  0 23                     
G32  22160745.459   116455495.808       -3021.082          45.000    22160739.125    90744506.205       -2354.372          42.000  
G29  23103568.653   121410082.248        -741.269          42.000    23103559.018    94605229.169        -577.979          40.000  
G28  21310222.805   111985978.127       -1246.438          45.000    21310212.331    87261760.352        -971.167          46.000  
G26  20314881.265   106755422.353         553.329          48.000    20314874.193    83186025.110         431.227          46.000  
G31  20617510.403   108345743.358          84.818          48.000    20617499.187    84425213.695          66.019          46.000  
G04  24342296.493   127919616.185        3159.663          36.000    24342293.814    99677652.365        2462.335          42.000  
C33  22540974.960   117376766.799        -840.961          50.000                                                                  
C06  36580578.108   190484671.388        -153.127          45.000    36580560.918   147294760.129        -118.353          48.000  
C14  22781650.227   118630013.571       -2368.945          46.000    22781635.394    91732197.451       -1831.913          50.000  
C16  37009898.115   192720249.289        -181.682          48.000    37009886.265   149023474.088        -140.400          48.000  
C24  21884863.329   113960231.914        -920.255          50.000                                                                  
C26  24551175.341   127844412.533       -2573.918          43.000                                                                  
G03  22897911.462   120329359.528        -282.618          40.000    22897907.200    93763101.111        -220.520          42.000  
G16  22291339.776   117141854.243        2895.506          42.000                                                                  
C09  37731537.280   196477993.566        -141.218          43.000    37731523.172   151929209.620        -109.215          48.000  
C25  23574867.796   122760535.267        1523.744          45.000                                                                  
C08  39311690.429   204706256.992       -2475.548          37.000    39311678.393   158291835.884       -1914.442          41.000  
C07  39507687.490   205726887.213        1116.362          35.000    39507677.350   159081041.106         863.093          41.000  
C10  40452403.208   210646281.708         934.586          34.000    40452403.573   162885069.840         723.016          39.000  
C35  25938018.446   135066074.312         276.261          39.000                                                                  
C13  38472915.607   200338577.418       -2288.809          40.000    38472910.179   154914472.779       -1769.894          42.000  
C12  26345520.114   137188039.371        2320.899          35.000    26345517.787   106082519.408        1794.764          43.000  
G25  24580723.616   129172579.918       -3921.173          35.000    24580720.115   100653922.211       -3055.365          34.000  
> 2025 10 30 06 24 20.3600000  0 23                     
G32  22160768.435   116455616.627       -3020.690          45.000    22160762.118    90744600.348       -2353.884          42.000  
G29  23103574.296   121410111.885        -741.088          42.000    23103564.656    94605252.248        -577.242          40.000  
G28  21310232.276   111986027.945       -1245.847          45.000    21310221.792    87261799.172        -970.746          46.000  
G26  20314877.045   106755400.190         553.787          48.000    20314869.979    83186007.841         431.540          46.000  
G31  20617509.733   108345739.936          85.287          48.000    20617498.530    84425211.024          66.500          46.000  
G04  24342272.429   127919489.763        3160.170          36.000    24342269.739    99677553.872        2462.286          42.000  
C33  22540981.422   117376800.412        -840.563          50.000                                                                  
C06  36580579.302   190484677.482        -152.637          45.000    36580562.059   147294764.832        -117.883          48.000  
C14  22781668.419   118630108.290       -2368.314          46.000    22781653.619    91732270.707       -1831.629          50.000  
C16  37009899.510   192720256.520        -181.072          48.000    37009887.639   149023479.676        -139.950          48.000  
C24  21884870.412   113960268.687        -919.681          50.000                                                                  
C26  24551195.093   127844515.455       -2573.391          43.000                                                                  
G03  22897913.623   120329370.811        -282.283          40.000    22897909.331    93763109.904        -220.149          42.000  
G16  22291317.718   117141738.404        2895.780          42.000                                                                  
C09  37731538.348   196477999.184        -140.739          43.000    37731524.239   151929213.963        -108.805          48.000  
C25  23574856.086   122760474.279        1524.387          45.000                                                                  
C08  39311709.436   204706355.988       -2475.072          37.000    39311697.391   158291912.435       -1914.080          41.000  
C07  39507678.899   205726842.519        1117.091          35.000    39507668.758   159081006.553         863.524          41.000  
C10  40452396.021   210646244.289         934.952          34.000    40452396.367   162885040.895         723.372          39.000  
C35  25938016.311   135066063.232         276.741          39.000                                                                  
C13  38472933.186   200338668.932       -2288.167          40.000    38472927.731   154914543.537       -1769.221          42.000  
C12  26345502.261   137187946.496        2321.501          35.000    26345499.914   106082447.598        1795.103          43.000  
G25  24580753.432   129172736.726       -3920.678          35.000    24580749.951   100654044.384       -3054.678          34.000  
> 2025 10 30 06 24 20.4000000  0 23                     
G32  22160791.417   116455737.440       -3020.386          45.000    22160785.117    90744694.474       -2353.321          42.000  
G29  23103579.947   121410141.515        -740.828          42.000    23103570.273    94605275.317        -576.768          40.000  
G28  21310241.746   111986077.756       -1245.349          45.000    21310231.274    87261837.992        -970.509          46.000  
G26  20314872.812   106755378.025         554.084          48.000    20314865.749    83185990.565         431.836          46.000  
G31  20617509.062   108345736.508          85.656          48.000    20617497.874    84425208.353          66.727          46.000  
G04  24342248.400   127919363.341        3160.421          36.000    24342245.684    99677455.366        2462.509          42.000  
C33  22540987.905   117376834.013        -840.129          50.000                                                                  
C06  36580580.475   190484683.551        -151.918          45.000    36580563.212   147294769.538        -117.703          48.000  
C14  22781686.623   118630203.014       -2368.048          46.000    22781671.811    91732343.952       -1831.269          50.000  
C16  37009900.890   192720263.741        -180.603          48.000    37009889.008   149023485.268        -139.756          48.000  
C24  21884877.495   113960305.454        -919.265          50.000                                                                  
C26  24551214.842   127844618.391       -2573.344          43.000                                                                  
G03  22897915.741   120329382.087        -281.965          40.000    22897911.491    93763118.686        -219.684          42.000  
G16  22291295.676   117141622.548        2896.291          42.000                                                                  
C09  37731539.423   196478004.792        -140.306          43.000    37731525.310   151929218.299        -108.422          48.000  
C25  23574844.365   122760413.280        1524.934          45.000                                                                  
C08  39311728.452   204706454.977       -2474.680          37.000    39311716.407   158291988.986       -1913.855          41.000  
C07  39507670.311   205726797.826        1117.540          35.000    39507660.192   159080971.989         864.006          41.000  
C10  40452388.875   210646206.837         935.968          34.000    40452389.181   162885011.930         723.969          38.000  
C35  25938014.182   135066052.150         277.039          39.000                                                                  
C13  38472950.766   200338760.443       -2287.719          40.000    38472945.289   154914614.297       -1768.971          42.000  
C12  26345484.420   137187853.609        2322.096          35.000    26345482.064   106082375.786        1795.306          43.000  
G25  24580783.277   129172893.532       -3920.377          35.000    24580779.787   100654166.559       -3054.407          34.000  
> 2025 10 30 06 24 20.4400000  0 23                     
G32  22160814.420   116455858.255       -3020.275          45.000    22160808.104    90744788.611       -2353.273          42.000  
G29  23103585.585   121410171.138        -740.588          42.000    23103575.903    94605298.393        -576.693          40.000  
G28  21310251.221   111986127.568       -1245.181          45.000    21310240.745    87261876.808        -970.338          46.000  
G26  20314868.556   106755355.858         554.224          48.000    20314861.544    83185973.285         432.026          46.000  
G31  20617508.402   108345733.077          85.856          48.000    20617497.245    84425205.682          66.843          46.000  
G04  24342224.352   127919236.927        3160.410          36.000    24342221.633    99677356.842        2462.971          42.000  
C33  22540994.353   117376867.618        -840.031          50.000                                                                  
C06  36580581.662   190484689.618        -151.569          45.000    36580564.361   147294774.239        -117.530          48.000  
C14  22781704.839   118630297.730       -2367.834          46.000    22781690.027    91732417.200       -1831.180          50.000  
C16  37009902.265   192720270.968        -180.522          48.000    37009890.380   149023490.856        -139.643          48.000  
C24  21884884.562   113960342.217        -919.007          50.000                                                                  
C26  24551234.605   127844721.310       -2573.057          43.000                                                                  
G03  22897917.859   120329393.369        -281.965          40.000    22897913.644    93763127.471        -219.590          42.000  
G16  22291273.623   117141506.692        2896.471          42.000                                                                  
C09  37731540.488   196478010.399        -140.100          43.000    37731526.401   151929222.633        -108.226          48.000  
C25  23574832.615   122760352.291        1524.912          45.000                                                                  
C08  39311747.475   204706553.975       -2474.744          37.000    39311735.391   158292065.533       -1913.682          41.000  
C07  39507661.725   205726753.105        1118.068          35.000    39507651.582   159080937.419         864.297          41.000  
C10  40452381.646   210646169.390         936.326          34.000    40452381.991   162884982.978         723.981          38.000  
C35  25938012.076   135066041.069         277.134          39.000                                                                  
C13  38472968.334   200338851.955       -2287.623          40.000    38472962.863   154914685.070       -1769.127          42.000  
C12  26345466.575   137187760.736        2322.085          35.000    26345464.220   106082303.970        1795.478          43.000  
G25  24580813.101   129173050.362       -3920.581          35.000    24580809.649   100654288.770       -3054.923          34.000  
> 2025 10 30 06 24 20.4800000  0 23                     
G32  22160837.423   116455979.075       -3020.360          45.000    22160831.105    90744882.754       -2353.406          42.000  
G29  23103591.247   121410200.777        -740.796          42.000    23103581.537    94605321.497        -577.232          40.000  
G28  21310260.721   111986177.401       -1245.522          45.000    21310250.226    87261915.622        -970.288          46.000  
G26  20314864.371   106755333.695         554.177          48.000    20314857.336    83185956.015         431.885          46.000  
G31  20617507.779   108345729.664          85.565          48.000    20617496.595    84425203.020          66.687          46.000  
G04  24342200.324   127919110.527        3160.183          36.000    24342197.585    99677258.330        2462.955          42.000  
C33  22541000.783   117376901.235        -840.233          50.000                                                                  
C06  36580582.836   190484695.710        -151.904          45.000    36580565.559   147294778.943        -117.546          48.000  
C14  22781723.032   118630392.461       -2368.071          46.000    22781708.227    91732490.452       -1831.210          50.000  
C16  37009903.644   192720278.202        -180.664          48.000    37009891.786   149023496.446        -139.666          48.000  
C24  21884891.616   113960378.994        -919.192          50.000                                                                  
C26  24551254.384   127844824.235       -2573.037          43.000                                                                  
G03  22897920.016   120329404.663        -282.206          40.000    22897915.797    93763136.271        -219.813          42.000  
G16  22291251.566   117141390.839        2896.406          42.000                                                                  
C09  37731541.538   196478016.020        -140.305          43.000    37731527.466   151929226.982        -108.475          48.000  
C25  23574820.900   122760291.314        1524.615          45.000                                                                  
C08  39311766.503   204706652.991       -2475.186          37.000    39311754.403   158292142.082       -1913.666          42.000  
C07  39507653.162   205726708.420        1117.646          35.000    39507643.014   159080902.859         864.218          41.000  
C10  40452374.459   210646131.967         935.931          34.000    40452374.813   162884954.068         723.167          38.000  
C35  25938009.931   135066029.995         276.978          39.000                                                                  
C13  38472985.934   200338943.475       -2287.804          40.000    38472980.435   154914755.847       -1769.337          42.000  
C12  26345448.729   137187667.866        2321.970          35.000    26345446.400   106082232.158        1795.381          43.000  
G25  24580842.940   129173207.162       -3920.177          35.000    24580839.484   100654410.969       -3055.061          34.000  
> 2025 10 30 06 24 20.5200000  0 23                     
G32  22160860.416   116456099.910       -3020.727          45.000    22160854.092    90744976.915       -2353.837          42.000  
G29  23103596.893   121410230.417        -740.939          42.000    23103587.178    94605344.610        -577.722          40.000  
G28  21310270.203   111986227.243       -1245.925          45.000    21310259.734    87261954.459        -970.707          46.000  
G26  20314860.163   106755311.539         553.989          48.000    20314853.135    83185938.758         431.549          46.000  
G31  20617507.152   108345726.258          85.232          48.000    20617495.950    84425200.364          66.434          46.000  
G04  24342176.250   127918984.094        3160.599          36.000    24342173.534    99677159.840        2462.510          42.000  
C33  22541007.202   117376934.858        -840.501          50.000                                                                  
C06  36580584.015   190484701.809        -152.226          45.000    36580566.724   147294783.667        -117.894          48.000  
C14  22781741.214   118630487.208       -2368.510          46.000    22781726.424    91732563.712       -1831.416          50.000  
C16  37009905.042   192720285.445        -180.925          48.000    37009893.184   149023502.052        -139.993          48.000  
C24  21884898.664   113960415.783        -919.577          50.000                                                                  
C26  24551274.161   127844927.172       -2573.270          43.000                                                                  
G03  22897922.170   120329415.949        -282.192          40.000    22897917.945    93763145.075        -220.027          42.000  
G16  22291229.545   117141274.998        2896.139          42.000                                                                  
C09  37731542.630   196478021.658        -140.803          43.000    37731528.529   151929231.340        -108.820          48.000  
C25  23574809.177   122760230.351        1524.202          45.000                                                                  
C08  39311785.525   204706752.003       -2475.271          37.000    39311773.400   158292218.638       -1913.812          42.000  
C07  39507644.579   205726663.731        1117.401          35.000    39507634.412   159080868.327         863.628          41.000  
C10  40452367.248   210646094.534         935.904          34.000    40452367.638   162884925.133         723.197          36.000  
C35  25938007.804   135066018.942         276.487          39.000                                                                  
C13  38473003.486   200339035.012       -2288.230          40.000    38472998.012   154914826.632       -1769.584          42.000  
C12  26345430.885   137187575.009        2321.626          35.000    26345428.562   106082160.356        1795.162          43.000  
G25  24580872.781   129173363.975       -3920.267          35.000    24580869.334   100654533.161       -3054.910          34.000  
> 2025 10 30 06 24 20.5600000  0 23                     
G32  22160883.417   116456220.743       -3020.870          45.000    22160877.096    90745071.075       -2354.028          42.000  
G29  23103602.556   121410260.066        -741.181          42.000    23103592.824    94605367.713        -577.660          40.000  
G28  21310279.679   111986277.080       -1246.025          45.000    21310269.238    87261993.297        -970.929          46.000  
G26  20314855.934   106755289.384         553.878          48.000    20314848.918    83185921.504         431.314          46.000  
G31  20617506.497   108345722.845          85.227          48.000    20617495.319    84425197.713          66.256          46.000  
G04  24342152.159   127918857.692        3160.281          36.000    24342149.490    99677061.358        2462.128          42.000  
C33  22541013.640   117376968.489        -840.745          50.000                                                                  
C06  36580585.164   190484707.918        -152.579          45.000    36580567.917   147294788.382        -117.961          48.000  
C14  22781759.403   118630581.952       -2368.662          46.000    22781744.587    91732636.974       -1831.553          51.000  
C16  37009906.428   192720292.689        -181.097          48.000    37009894.561   149023507.657        -140.163          48.000  
C24  21884905.721   113960452.574        -919.799          50.000                                                                  
C26  24551293.939   127845030.104       -2573.348          43.000                                                                  
G03  22897924.356   120329427.244        -282.297          40.000    22897920.091    93763153.880        -220.149          42.000  
G16  22291207.499   117141159.177        2895.649          42.000                                                                  
C09  37731543.709   196478027.292        -140.928          43.000    37731529.619   151929235.696        -108.948          48.000  
C25  23574797.473   122760169.382        1524.111          45.000                                                                  
C08  39311804.547   204706851.010       -2475.291          37.000    39311792.407   158292295.205       -1914.109          42.000  
C07  39507636.003   205726619.079        1116.630          35.000    39507625.826   159080833.786         863.427          41.000  
C10  40452360.072   210646057.124         935.535          34.000    40452360.453   162884896.207         723.113          36.000  
C35  25938005.666   135066007.865         276.712          39.000                                                                  
C13  38473021.058   200339126.552       -2288.444          39.000    38473015.595   154914897.412       -1769.589          42.000  
C12  26345413.052   137187482.164        2321.237          35.000    26345410.709   106082088.560        1794.915          43.000  
G25  24580902.636   129173520.807       -3920.637          35.000    24580899.158   100654655.337       -3054.526          34.000  
> 2025 10 30 06 24 20.6000000  0 23                     
G32  22160906.413   116456341.565       -3020.742          45.000    22160900.088    90745165.234       -2354.083          42.000  
G29  23103608.184   121410289.708        -741.185          42.000    23103598.436    94605390.794        -577.254          40.000  
G28  21310289.139   111986326.905       -1245.833          45.000    21310278.712    87262032.133        -970.990          46.000  
G26  20314851.721   106755267.229         553.836          48.000    20314844.687    83185904.242         431.367          46.000  
G31  20617505.834   108345719.436          85.172          48.000    20617494.643    84425195.052          66.393          46.000  
G04  24342128.126   127918731.283        3160.211          36.000    24342125.459    99676962.865        2462.137          42.000  
C33  22541020.121   117377002.104        -840.581          50.000                                                                  
C06  36580586.301   190484714.010        -152.470          45.000    36580569.098   147294793.094        -117.904          48.000  
C14  22781777.611   118630676.695       -2368.681          46.000    22781762.768    91732710.228       -1831.479          51.000  
C16  37009907.854   192720299.928        -181.091          48.000    37009895.978   149023513.249        -139.989          48.000  
C24  21884912.787   113960489.355        -919.717          50.000                                                                  
C26  24551313.712   127845133.040       -2573.438          43.000                                                                  
G03  22897926.526   120329438.532        -282.252          40.000    22897922.230    93763162.677        -220.060          42.000  
G16  22291185.436   117141043.336        2895.782          42.000                                                                  
C09  37731544.823   196478032.915        -140.770          43.000    37731530.674   151929240.048        -108.906          48.000  
C25  23574785.755   122760108.401        1524.328          45.000                                                                  
C08  39311823.557   204706950.005       -2474.991          37.000    39311811.405   158292371.766       -1914.137          42.000  
C07  39507627.433   205726574.400        1116.683          35.000    39507617.246   159080799.242         863.456          41.000  
C10  40452352.877   210646019.700         935.480          34.000    40452353.260   162884867.273         723.260          36.000  
C35  25938003.534   135065996.794         276.784          39.000                                                                  
C13  38473038.647   200339218.084       -2288.443          39.000    38473033.196   154914968.193       -1769.575          42.000  
C12  26345395.193   137187389.312        2321.171          35.000    26345392.856   106082016.752        1795.041          43.000  
G25  24580932.481   129173677.612       -3920.375          35.000    24580928.999   100654777.532       -3054.661          34.000  
> 2025 10 30 06 24 20.6400000  0 23                     
G32  22160929.407   116456462.391       -3020.694          45.000    22160923.078    90745259.385       -2353.950          42.000  
G29  23103613.826   121410319.346        -741.041          42.000    23103604.083    94605413.893        -577.387          40.000  
G28  21310298.625   111986376.737       -1245.830          45.000    21310288.203    87262070.958        -970.811          46.000  
G26  20314847.495   106755245.078         553.743          48.000    20314840.462    83185886.981         431.418          46.000  
G31  20617505.173   108345716.020          85.290          48.000    20617493.964    84425192.384          66.621          46.000  
G04  24342104.054   127918604.867        3160.320          36.000    24342101.403    99676864.349        2462.622          42.000  
C33  22541026.615   117377035.720        -840.479          50.000                                                                  
C06  36580587.479   190484720.101        -152.357          45.000    36580570.276   147294797.799        -117.732          48.000  
C14  22781795.778   118630771.426       -2368.450          46.000    22781780.992    91732783.477       -1831.315          51.000  
C16  37009909.261   192720307.164        -180.997          48.000    37009897.373   149023518.846        -139.949          48.000  
C24  21884919.896   113960526.137        -919.640          50.000                                                                  
C26  24551333.460   127845235.964       -2573.210          43.000                                                                  
G03  22897928.671   120329449.830        -282.416          40.000    22897924.376    93763171.471        -219.927          42.000  
G16  22291163.374   117140927.509        2895.685          42.000                                                                  
C09  37731545.930   196478038.532        -140.548          43.000    37731531.743   151929244.398        -108.854          48.000  
C25  23574774.048   122760047.420        1524.464          45.000                                                                  
C08  39311842.546   204707049.023       -2475.381          37.000    39311830.405   158292448.317       -1913.948          42.000  
C07  39507618.847   205726529.702        1117.130          35.000    39507608.645   159080764.694         863.560          41.000  
C10  40452345.683   210645982.277         935.477          34.000    40452346.076   162884838.309         723.833          36.000  
C35  25938001.392   135065985.715         276.946          39.000                                                                  
C13  38473056.216   200339309.602       -2288.096          39.000    38473050.789   154915038.968       -1769.514          42.000  
C12  26345377.371   137187296.418        2321.964          35.000    26345375.032   106081944.941        1795.166          43.000  
G25  24580962.324   129173834.430       -3920.486          35.000    24580958.830   100654899.711       -3054.427          34.000  
> 2025 10 30 06 24 20.6800000  0 23                     
G32  22160952.372   116456583.211       -3020.578          45.000    22160946.060    90745353.534       -2353.839          42.000  
G29  23103619.448   121410348.988        -741.072          42.000    23103609.714    94605436.987        -577.350          40.000  
G28  21310308.093   111986426.570       -1245.858          45.000    21310297.671    87262109.778        -970.628          46.000  
G26  20314843.263   106755222.924         553.782          48.000    20314836.243    83185869.716         431.543          46.000  
G31  20617504.519   108345712.602          85.382          48.000    20617493.305    84425189.723          66.602          46.000  
G04  24342080.006   127918478.466        3160.037          36.000    24342077.339    99676765.846        2462.640          42.000  
C33  22541033.059   117377069.342        -840.536          50.000                                                                  
C06  36580588.627   190484726.188        -152.228          45.000    36580571.459   147294802.507        -117.696          48.000  
C14  22781813.964   118630866.155       -2368.300          46.000    22781799.182    91732856.729       -1831.292          51.000  
C16  37009910.654   192720314.397        -180.872          48.000    37009898.727   149023524.431        -139.730          48.000  
C24  21884926.978   113960562.912        -919.469          50.000                                                                  
C26  24551353.217   127845338.901       -2573.325          43.000                                                                  
G03  22897930.808   120329461.103        -282.018          40.000    22897926.533    93763180.277        -220.104          42.000  
G16  22291141.331   117140811.684        2895.587          42.000                                                                  
C09  37731547.006   196478044.139        -140.246          43.000    37731532.836   151929248.743        -108.734          48.000  
C25  23574762.343   122759986.438        1524.581          45.000                                                                  
C08  39311861.554   204707148.024       -2475.265          37.000    39311849.437   158292524.863       -1913.746          42.000  
C07  39507610.289   205726485.012        1117.220          35.000    39507600.076   159080730.127         863.990          41.000  
C10  40452338.499   210645944.848         935.580          34.000    40452338.909   162884809.361         723.917          36.000  
C35  25937999.248   135065974.640         276.938          39.000                                                                  
C13  38473073.797   200339401.127       -2288.048          39.000    38473068.349   154915109.732       -1769.224          42.000  
C12  26345359.539   137187203.537        2322.064          35.000    26345357.187   106081873.122        1795.390          43.000  
G25  24580992.154   129173991.231       -3920.212          35.000    24580988.672   100655021.921       -3054.900          34.000  
> 2025 10 30 06 24 20.7200000  0 23                     
G32  22160975.383   116456704.033       -3020.569          45.000    22160969.043    90745447.676       -2353.593          42.000  
G29  23103625.084   121410378.628        -741.060          42.000    23103615.368    94605460.098        -577.642          40.000  
G28  21310317.563   111986476.397       -1245.758          45.000    21310307.156    87262148.603        -970.609          46.000  
G26  20314839.040   106755200.764         553.913          48.000    20314832.031    83185852.450         431.642          46.000  
G31  20617503.850   108345709.179          85.530          48.000    20617492.647    84425187.061          66.596          46.000  
G04  24342055.950   127918352.064        3159.953          36.000    24342053.288    99676667.340        2462.686          42.000  
C33  22541039.549   117377102.961        -840.523          50.000                                                                  
C06  36580589.772   190484732.280        -152.231          45.000    36580572.671   147294807.211        -117.607          48.000  
C14  22781832.143   118630960.886       -2368.278          46.000    22781817.358    91732929.981       -1831.300          51.000  
C16  37009912.051   192720321.627        -180.759          47.000    37009900.145   149023530.028        -139.812          48.000  
C24  21884934.063   113960599.687        -919.369          50.000                                                                  
C26  24551372.962   127845441.815       -2573.032          43.000                                                                  
G03  22897932.954   120329472.407        -282.425          40.000    22897928.676    93763189.074        -220.009          42.000  
G16  22291119.263   117140695.830        2896.091          42.000                                                                  
C09  37731548.077   196478049.758        -140.341          43.000    37731533.896   151929253.081        -108.507          48.000  
C25  23574750.627   122759925.455        1524.573          45.000                                                                  
C08  39311880.558   204707247.020       -2475.057          37.000    39311868.448   158292601.435       -1914.099          42.000  
C07  39507601.707   205726440.329        1117.137          35.000    39507591.508   159080695.581         863.813          41.000  
C10  40452331.313   210645907.426         935.589          34.000    40452331.701   162884780.439         723.396          36.000  
C35  25937997.122   135065963.575         276.696          39.000                                                                  
C13  38473091.392   200339492.642       -2287.895          39.000    38473085.893   154915180.495       -1769.034          42.000  
C12  26345341.724   137187110.650        2322.103          35.000    26345339.366   106081801.306        1795.450          43.000  
G25  24581022.004   129174148.040       -3920.134          35.000    24581018.510   100655144.115       -3055.013          34.000  
> 2025 10 30 06 24 20.7600000  0 23                     
G32  22160998.388   116456824.859       -3020.647          45.000    22160992.039    90745541.826       -2353.617          42.000  
G29  23103630.718   121410408.274        -741.197          42.000    23103621.010    94605483.202        -577.691          40.000  
G28  21310327.053   111986526.219       -1245.621          45.000    21310316.643    87262187.425        -970.579          46.000  
G26  20314834.838   106755178.612         553.832          48.000    20314827.826    83185835.183         431.672          46.000  
G31  20617503.191   108345705.765          85.431          48.000    20617491.997    84425184.403          66.490          46.000  
G04  24342031.891   127918225.652        3160.041          36.000    24342029.230    99676568.836        2462.627          42.000  
C33  22541045.977   117377136.585        -840.580          50.000                                                                  
C06  36580590.945   190484738.371        -152.252          45.000    36580573.858   147294811.925        -117.789          48.000  
C14  22781850.326   118631055.624       -2368.400          46.000    22781835.567    91733003.232       -1831.307          51.000  
C16  37009913.403   192720328.860        -180.784          47.000    37009901.515   149023535.621        -139.841          48.000  
C24  21884941.101   113960636.466        -919.412          50.000                                                                  
C26  24551392.730   127845544.751       -2573.251          43.000                                                                  
G03  22897935.099   120329483.709        -282.650          40.000    22897930.808    93763197.870        -219.991          42.000  
G16  22291097.225   117140579.985        2896.206          42.000                                                                  
C09  37731549.150   196478055.380        -140.509          43.000    37731534.982   151929257.415        -108.333          48.000  
C25  23574738.912   122759864.487        1524.295          45.000                                                                  
C08  39311899.562   204707346.017       -2474.990          37.000    39311887.466   158292677.994       -1914.067          41.000  
C07  39507593.126   205726395.621        1117.488          35.000    39507582.917   159080661.034         863.698          41.000  
C10  40452324.097   210645870.003         935.543          33.000    40452324.488   162884751.520         723.015          36.000  
C35  25937994.989   135065952.528         276.291          39.000                                                                  
C13  38473108.934   200339584.169       -2288.087          40.000    38473103.446   154915251.259       -1769.017          42.000  
C12  26345323.895   137187017.778        2321.884          35.000    26345321.532   106081729.486        1795.497          43.000  
G25  24581051.845   129174304.841       -3920.067          35.000    24581048.361   100655266.337       -3055.399          34.000  
> 2025 10 30 06 24 20.8000000  0 23                     
G32  22161021.391   116456945.681       -3020.616          45.000    22161015.044    90745635.985       -2353.868          42.000  
G29  23103636.375   121410437.927        -741.326          42.000    23103626.626    94605506.293        -577.453          40.000  
G28  21310336.544   111986576.054       -1245.800          45.000    21310326.090    87262226.251        -970.620          46.000  
G26  20314830.629   106755156.462         553.744          48.000    20314823.602    83185817.922         431.559          46.000  
G31  20617502.562   108345702.353          85.326          48.000    20617491.375    84425181.746          66.398          46.000  
G04  24342007.823   127918099.228        3160.404          36.000    24342005.165    99676470.337        2462.485          42.000  
C33  22541052.444   117377170.210        -840.649          50.000                                                                  
C06  36580592.092   190484744.463        -152.300          45.000    36580574.993   147294816.633        -117.741          48.000  
C14  22781868.521   118631150.370       -2368.615          46.000    22781853.774    91733076.489       -1831.395          51.000  
C16  37009914.772   192720336.099        -180.956          47.000    37009902.936   149023541.216        -139.893          48.000  
C24  21884948.131   113960673.248        -919.521          50.000                                                                  
C26  24551412.494   127845647.686       -2573.374          43.000                                                                  
G03  22897937.243   120329495.025        -282.971          40.000    22897932.954    93763206.666        -219.928          42.000  
G16  22291075.164   117140464.153        2895.981          42.000                                                                  
C09  37731550.223   196478061.007        -140.646          43.000    37731536.064   151929261.754        -108.375          48.000  
C25  23574727.189   122759803.517        1524.204          45.000                                                                  
C08  39311918.554   204707445.027       -2475.209          37.000    39311906.482   158292754.561       -1914.191          41.000  
C07  39507584.544   205726350.949        1117.087          35.000    39507574.326   159080626.484         863.688          41.000  
C10  40452316.929   210645832.574         935.583          33.000    40452317.310   162884722.561         723.533          36.000  
C35  25937992.880   135065941.449         276.622          39.000                                                                  
C13  38473126.516   200339675.694       -2288.136          40.000    38473121.024   154915322.033       -1769.240          42.000  
C12  26345306.028   137186924.893        2322.104          35.000    26345303.693   106081657.675        1795.353          43.000  
G25  24581081.697   129174461.633       -3919.774          35.000    24581078.199   100655388.531       -3055.115          34.000  
> 2025 10 30 06 24 20.8400000  0 23                     
G32  22161044.415   116457066.517       -3020.834          45.000    22161038.068    90745730.151       -2354.139          42.000  
G29  23103642.019   121410467.578        -741.324          42.000    23103632.282    94605529.402        -577.615          40.000  
G28  21310346.031   111986625.884       -1245.825          45.000    21310335.596    87262265.092        -970.903          46.000  
G26  20314826.417   106755134.318         553.590          48.000    20314819.372    83185800.665         431.435          46.000  
G31  20617501.929   108345698.944          85.215          48.000    20617490.725    84425179.094          66.251          46.000  
G04  24341983.741   127917972.822        3160.258          36.000    24341981.125    99676371.834        2462.496          42.000  
C33  22541058.855   117377203.837        -840.711          50.000                                                                  
C06  36580593.254   190484750.556        -152.360          45.000    36580576.185   147294821.348        -117.859          48.000  
C14  22781886.692   118631245.111       -2368.631          46.000    22781871.962    91733149.755       -1831.641          51.000  
C16  37009916.154   192720343.338        -181.032          47.000    37009904.316   149023546.816        -140.009          48.000  
C24  21884955.175   113960710.037        -919.689          50.000                                                                  
C26  24551432.275   127845750.623       -2573.461          43.000                                                                  
G03  22897939.391   120329506.309        -282.482          40.000    22897935.094    93763215.471        -220.053          42.000  
G16  22291053.123   117140348.314        2895.996          42.000                                                                  
C09  37731551.312   196478066.629        -140.643          43.000    37731537.166   151929266.103        -108.593          48.000  
C25  23574715.471   122759742.538        1524.371          45.000                                                                  
C08  39311937.586   204707544.060       -2475.731          37.000    39311925.500   158292831.121       -1914.077          41.000  
C07  39507575.974   205726306.257        1117.238          35.000    39507565.714   159080591.921         863.954          41.000  
C10  40452309.719   210645795.141         935.692          33.000    40452310.091   162884693.616         723.532          36.000  
C35  25937990.751   135065930.386         276.572          39.000                                                                  
C13  38473144.080   200339767.225       -2288.284          40.000    38473138.591   154915392.800       -1769.215          42.000  
C12  26345288.186   137186832.037        2321.592          35.000    26345285.877   106081585.861        1795.310          43.000  
G25  24581111.499   129174618.465       -3920.471          35.000    24581108.028   100655510.712       -3054.777          34.000  
> 2025 10 30 06 24 20.8800000  0 23                     
G32  22161067.395   116457187.352       -3020.920          45.000    22161061.075    90745824.299       -2353.930          42.000  
G29  23103647.659   121410497.228        -741.298          42.000    23103637.914    94605552.491        -577.335          40.000  
G28  21310355.537   111986675.722       -1245.961          45.000    21310345.078    87262303.929        -970.973          46.000  
G26  20314822.206   106755112.167         553.672          48.000    20314815.165    83185783.409         431.399          46.000  
G31  20617501.296   108345695.538          85.111          48.000    20617490.068    84425176.431          66.412          46.000  
G04  24341959.671   127917846.415        3160.170          36.000    24341957.065    99676273.343        2462.286          42.000  
C33  22541065.322   117377237.468        -840.804          50.000                                                                  
C06  36580594.407   190484756.650        -152.389          45.000    36580577.357   147294826.059        -117.836          48.000  
C14  22781904.876   118631339.858       -2368.704          46.000    22781890.133    91733223.017       -1831.637          51.000  
C16  37009917.525   192720350.584        -181.190          47.000    37009905.692   149023552.422        -140.187          48.000  
C24  21884962.263   113960746.826        -919.768          50.000                                                                  
C26  24551452.062   127845853.549       -2573.278          43.000                                                                  
G03  22897941.527   120329517.613        -282.513          40.000    22897937.243    93763224.282        -220.274          42.000  
G16  22291031.094   117140232.487        2895.779          42.000                                                                  
C09  37731552.391   196478072.247        -140.527          43.000    37731538.253   151929270.460        -108.864          48.000  
C25  23574703.740   122759681.560        1524.408          45.000                                                                  
C08  39311956.593   204707643.067       -2475.549          37.000    39311944.508   158292907.683       -1914.077          41.000  
C07  39507567.394   205726261.578        1117.051          35.000    39507557.156   159080557.380         863.699          41.000  
C10  40452302.553   210645757.725         935.575          33.000    40452302.907   162884664.689         723.271          36.000  
C35  25937988.606   135065919.314         276.788          39.000                                                                  
C13  38473161.640   200339858.760       -2288.431          40.000    38473156.172   154915463.577       -1769.399          42.000  
C12  26345270.346   137186739.180        2321.301          35.000    26345268.031   106081514.062        1795.018          42.000  
G25  24581141.356   129174775.293       -3920.732          35.000    24581137.846   100655632.877       -3054.343          34.000  
> 2025 10 30 06 24 20.9200000  0 23                     
G32  22161090.376   116457308.170       -3020.643          45.000    22161084.047    90745918.446       -2353.788          42.000  
G29  23103653.296   121410526.869        -741.098          42.000    23103643.575    94605575.592        -577.455          40.000  
G28  21310365.004   111986725.549       -1245.809          45.000    21310354.562    87262342.763        -970.940          46.000  
G26  20314818.004   106755090.011         553.835          48.000    20314810.936    83185766.149         431.457          46.000  
G31  20617500.644   108345692.121          85.291          48.000    20617489.412    84425173.767          66.535          46.000  
G04  24341935.599   127917719.982        3160.663          36.000    24341933.023    99676174.853        2462.180          42.000  
C33  22541071.786   117377271.094        -840.745          50.000                                                                  
C06  36580595.600   190484762.742        -152.341          45.000    36580578.518   147294830.769        -117.801          48.000  
C14  22781923.082   118631434.595       -2368.555          46.000    22781908.332    91733296.273       -1831.527          51.000  
C16  37009918.937   192720357.819        -181.034          47.000    37009907.059   149023558.011        -139.927          48.000  
C24  21884969.359   113960783.610        -919.697          50.000                                                                  
C26  24551471.852   127845956.488       -2573.411          43.000                                                                  
G03  22897943.669   120329528.912        -282.482          40.000    22897939.390    93763233.084        -220.189          42.000  
G16  22291009.048   117140116.642        2895.973          42.000                                                                  
C09  37731553.473   196478077.869        -140.501          43.000    37731539.323   151929274.807        -108.815          48.000  
C25  23574692.036   122759620.578        1524.531          45.000                                                                  
C08  39311975.598   204707742.053       -2474.961          37.000    39311963.497   158292984.224       -1913.690          41.000  
C07  39507558.804   205726216.912        1116.720          35.000    39507548.545   159080522.820         863.843          41.000  
C10  40452295.351   210645720.337         934.921          33.000    40452295.744   162884635.762         723.141          36.000  
C35  25937986.468   135065908.252         276.660          39.000                                                                  
C13  38473179.202   200339950.272       -2288.030          40.000    38473173.741   154915534.354       -1769.479          42.000  
C12  26345252.506   137186646.311        2321.423          35.000    26345250.186   106081442.239        1795.338          42.000  
G25  24581171.208   129174932.101       -3920.460          35.000    24581167.691   100655755.076       -3054.751          34.000  
> 2025 10 30 06 24 20.9600000  0 23                     
G32  22161113.359   116457428.999       -3020.685          45.000    22161107.036    90746012.581       -2353.452          42.000  
G29  23103658.939   121410556.510        -741.032          42.000    23103649.204    94605598.703        -577.716          40.000  
G28  21310374.489   111986775.378       -1245.786          45.000    21310364.038    87262381.587        -970.732          46.000  
G26  20314813.785   106755067.856         553.903          48.000    20314806.696    83185748.889         431.475          46.000  
G31  20617499.999   108345688.704          85.395          48.000    20617488.776    84425171.109          66.472          46.000  
G04  24341911.538   127917593.548        3160.886          36.000    24341908.949    99676076.330        2462.721          42.000  
C33  22541078.278   117377304.713        -840.567          50.000                                                                  
C06  36580596.813   190484768.822        -152.140          45.000    36580579.654   147294835.472        -117.631          48.000  
C14  22781941.290   118631529.327       -2368.359          46.000    22781926.534    91733369.525       -1831.387          51.000  
C16  37009920.360   192720365.052        -180.886          47.000    37009908.426   149023563.604        -139.852          48.000  
C24  21884976.460   113960820.380        -919.416          50.000                                                                  
C26  24551491.631   127846059.419       -2573.328          43.000                                                                  
G03  22897945.808   120329540.195        -282.149          40.000    22897941.534    93763241.887        -220.176          42.000  
G16  22290986.995   117140000.800        2895.989          42.000                                                                  
C09  37731554.553   196478083.485        -140.400          43.000    37731540.380   151929279.154        -108.769          48.000  
C25  23574680.311   122759559.600        1524.481          45.000                                                                  
C08  39311994.613   204707841.059       -2475.076          37.000    39311982.505   158293060.783       -1913.777          41.000  
C07  39507550.215   205726172.203        1117.295          35.000    39507539.980   159080488.261         863.898          41.000  
C10  40452288.163   210645682.875         936.054          33.000    40452288.541   162884606.819         723.356          37.000  
C35  25937984.371   135065897.186         276.647          39.000                                                                  
C13  38473196.774   200340041.787       -2287.857          40.000    38473191.314   154915605.115       -1769.220          42.000  
C12  26345234.642   137186553.436        2321.718          35.000    26345232.325   106081370.413        1795.573          42.000  
G25  24581201.024   129175088.906       -3920.249          35.000    24581197.526   100655877.249       -3054.512          34.000  
> 2025 10 30 06 24 21.0000000  0 23                     
G32  22161136.354   116457549.821       -3020.596          45.000    22161129.995    90746106.716       -2353.299          42.000  
G29  23103664.595   121410586.156        -741.089          42.000    23103654.862    94605621.803        -577.615          40.000  
G28  21310383.962   111986825.206       -1245.775          45.000    21310373.481    87262420.406        -970.526          46.000  
G26  20314809.573   106755045.702         553.901          48.000    20314802.467    83185731.619         431.662          46.000  
G31  20617499.371   108345685.291          85.351          48.000    20617488.106    84425168.444          66.559          46.000  
G04  24341887.489   127917467.154        3160.287          36.000    24341884.882    99675977.811        2462.963          42.000  
C33  22541084.738   117377338.335        -840.544          50.000                                                                  
C06  36580598.009   190484774.902        -151.987          45.000    36580580.786   147294840.176        -117.596          48.000  
C14  22781959.469   118631624.066       -2368.420          46.000    22781944.708    91733442.781       -1831.383          51.000  
C16  37009921.739   192720372.274        -180.623          47.000    37009909.814   149023569.184        -139.577          48.000  
C24  21884983.496   113960857.155        -919.353          50.000                                                                  
C26  24551511.426   127846162.335       -2573.040          43.000                                                                  
G03  22897947.964   120329551.502        -282.514          40.000    22897943.689    93763250.693        -220.156          42.000  
G16  22290964.948   117139884.961        2895.975          42.000                                                                  
C09  37731555.630   196478089.101        -140.378          43.000    37731541.477   151929283.499        -108.659          48.000  
C25  23574668.615   122759498.621        1524.487          45.000                                                                  
C08  39312013.639   204707940.044       -2474.708          37.000    39312001.514   158293137.342       -1913.846          41.000  
C07  39507541.635   205726127.530        1117.030          35.000    39507531.391   159080453.704         863.939          41.000  
C10  40452280.973   210645645.446         936.169          33.000    40452281.338   162884577.861         723.758          37.000  
C35  25937982.251   135065886.117         276.723          39.000                                                                  
C13  38473214.366   200340133.307       -2287.946          40.000    38473208.873   154915675.874       -1769.035          42.000  
C12  26345216.812   137186460.563        2321.836          35.000    26345214.507   106081298.599        1795.472          42.000  
G25  24581230.840   129175245.715       -3920.203          35.000    24581227.374   100655999.466       -3055.111          34.000  
> 2025 10 30 06 24 21.0400000  0 23                     
G32  22161159.359   116457670.646       -3020.614          45.000    22161152.977    90746200.885       -2353.897          42.000  
G29  23103670.216   121410615.788        -740.840          42.000    23103660.489    94605644.895        -577.415          40.000  
G28  21310393.455   111986875.030       -1245.642          45.000    21310382.960    87262459.228        -970.483          46.000  
G26  20314805.372   106755023.549         553.870          48.000    20314798.254    83185714.364         431.518          46.000  
G31  20617498.713   108345681.868          85.493          48.000    20617487.450    84425165.783          66.521          46.000  
G04  24341863.438   127917340.778        3159.556          36.000    24341860.796    99675879.307        2462.792          42.000  
C33  22541091.171   117377371.956        -840.540          50.000                                                                  
C06  36580599.183   190484780.991        -152.113          45.000    36580581.922   147294844.876        -117.488          48.000  
C14  22781977.664   118631718.797       -2368.326          46.000    22781962.922    91733516.038       -1831.397          51.000  
C16  37009923.155   192720379.500        -180.566          47.000    37009911.183   149023574.772        -139.604          48.000  
C24  21884990.536   113960893.934        -919.409          50.000                                                                  
C26  24551531.190   127846265.264       -2573.094          43.000                                                                  
G03  22897950.103   120329562.793        -282.425          40.000    22897945.829    93763259.493        -220.074          42.000  
G16  22290942.897   117139769.117        2896.052          42.000                                                                  
C09  37731556.725   196478094.712        -140.284          43.000    37731542.547   151929287.842        -108.604          48.000  
C25  23574656.898   122759437.635        1524.585          45.000                                                                  
C08  39312032.655   204708039.061       -2475.103          37.000    39312020.522   158293213.885       -1913.651          41.000  
C07  39507533.044   205726082.827        1117.402          35.000    39507522.808   159080419.137         864.148          41.000  
C10  40452273.791   210645608.023         935.951          33.000    40452274.182   162884548.922         723.569          37.000  
C35  25937980.146   135065875.034         276.978          39.000                                                                  
C13  38473231.937   200340224.822       -2287.896          40.000    38473226.468   154915746.639       -1769.079          42.000  
C12  26345198.976   137186367.689        2321.884          35.000    26345196.663   106081226.778        1795.489          42.000  
G25  24581260.675   129175402.527       -3920.287          35.000    24581257.198   100656121.644       -3054.791          34.000  
> 2025 10 30 06 24 21.0800000  0 23                     
G32  22161182.366   116457791.472       -3020.646          45.000    22161175.979    90746295.035       -2353.904          42.000  
G29  23103675.863   121410645.439        -741.135          42.000    23103666.119    94605667.982        -577.173          40.000  
G28  21310402.925   111986924.851       -1245.562          45.000    21310392.455    87262498.050        -970.490          46.000  
G26  20314801.151   106755001.394         553.869          48.000    20314794.032    83185697.094         431.680          46.000  
G31  20617498.094   108345678.449          85.498          48.000    20617486.797    84425163.111          66.719          46.000  
G04  24341839.375   127917214.337        3160.403          36.000    24341836.716    99675780.801        2462.708          42.000  
C33  22541097.642   117377405.577        -840.528          50.000                                                                  
C06  36580600.332   190484787.066        -151.973          45.000    36580583.070   147294849.577        -117.496          48.000  
C14  22781995.842   118631813.536       -2368.423          46.000    22781981.130    91733589.289       -1831.335          51.000  
C16  37009924.542   192720386.722        -180.521          47.000    37009912.542   149023580.356        -139.570          48.000  
C24  21884997.598   113960930.708        -919.365          50.000                                                                  
C26  24551550.945   127846368.178       -2572.880          43.000                                                                  
G03  22897952.267   120329574.083        -282.311          40.000    22897947.981    93763268.288        -219.944          42.000  
G16  22290920.822   117139653.270        2896.140          42.000                                                                  
C09  37731557.815   196478100.319        -140.193          43.000    37731543.627   151929292.169        -108.282          48.000  
C25  23574645.176   122759376.655        1524.542          45.000                                                                  
C08  39312051.688   204708138.049       -2474.800          37.000    39312039.540   158293290.432       -1913.605          41.000  
C07  39507524.455   205726038.136        1117.323          35.000    39507514.219   159080384.577         864.084          41.000  
C10  40452266.589   210645570.597         935.777          33.000    40452266.952   162884519.952         724.041          37.000  
C35  25937977.970   135065863.965         276.850          39.000                                                                  
C13  38473249.519   200340316.327       -2287.681          40.000    38473244.018   154915817.414       -1769.283          42.000  
C12  26345181.144   137186274.798        2322.205          35.000    26345178.809   106081154.962        1795.414          42.000  
G25  24581290.508   129175559.332       -3920.231          35.000    24581287.032   100656243.826       -3054.653          34.000  
> 2025 10 30 06 24 21.1200000  0 23                     
G32  22161205.368   116457912.300       -3020.710          45.000    22161198.963    90746389.184       -2353.868          42.000  
G29  23103681.490   121410675.075        -741.004          42.000    23103671.744    94605691.080        -577.332          40.000  
G28  21310412.405   111986974.675       -1245.544          45.000    21310401.957    87262536.874        -970.566          46.000  
G26  20314796.913   106754979.237         553.925          48.000    20314789.825    83185679.832         431.623          46.000  
G31  20617497.434   108345675.027          85.535          48.000    20617486.167    84425160.447          66.650          46.000  
G04  24341815.302   127917087.902        3160.792          35.000    24341812.642    99675682.293        2462.654          42.000  
C33  22541104.107   117377439.194        -840.452          50.000                                                                  
C06  36580601.509   190484793.139        -151.873          45.000    36580584.230   147294854.278        -117.524          48.000  
C14  22782014.039   118631908.267       -2368.334          46.000    22781999.328    91733662.541       -1831.310          50.000  
C16  37009925.928   192720393.950        -180.616          47.000    37009913.898   149023585.947        -139.710          48.000  
C24  21885004.650   113960967.485        -919.412          50.000                                                                  
C26  24551570.711   127846471.100       -2572.965          43.000                                                                  
G03  22897954.402   120329585.369        -282.193          40.000    22897950.123    93763277.084        -219.869          42.000  
G16  22290898.754   117139537.423        2896.190          42.000                                                                  
C09  37731558.887   196478105.932        -140.253          43.000    37731544.705   151929296.508        -108.358          48.000  
C25  23574633.466   122759315.668        1524.653          45.000                                                                  
C08  39312070.682   204708237.053       -2474.908          37.000    39312058.557   158293366.991       -1913.806          41.000  
C07  39507515.858   205725993.410        1117.869          35.000    39507505.624   159080350.015         864.039          41.000  
C10  40452259.419   210645533.109         936.754          33.000    40452259.776   162884491.018         723.576          37.000  
C35  25937975.833   135065852.907         276.560          39.000                                                                  
C13  38473267.092   200340407.842       -2287.750          40.000    38473261.555   154915888.194       -1769.479          42.000  
C12  26345163.313   137186181.917        2322.166          35.000    26345160.978   106081083.152        1795.265          42.000  
G25  24581320.352   129175716.112       -3919.768          35.000    24581316.879   100656366.013       -3054.698          34.000  
> 2025 10 30 06 24 21.1600000  0 23                     
G32  22161228.342   116458033.121       -3020.577          45.000    22161221.959    90746483.334       -2353.881          42.000  
G29  23103687.152   121410704.724        -741.153          42.000    23103677.398    94605714.174        -577.383          40.000  
G28  21310421.884   111987024.503       -1245.669          45.000    21310411.451    87262575.707        -970.756          46.000  
G26  20314792.709   106754957.085         553.819          48.000    20314785.595    83185662.565         431.641          46.000  
G31  20617496.802   108345671.609          85.467          48.000    20617485.518    84425157.782          66.613          46.000  
G04  24341791.267   127916961.480        3160.743          35.000    24341788.562    99675583.776        2462.822          42.000  
C33  22541110.540   117377472.817        -840.537          50.000                                                                  
C06  36580602.667   190484799.216        -151.897          45.000    36580585.385   147294858.991        -117.726          48.000  
C14  22782032.229   118632002.999       -2368.290          46.000    22782017.507    91733735.802       -1831.464          50.000  
C16  37009927.336   192720401.178        -180.669          47.000    37009915.297   149023591.538        -139.807          48.000  
C24  21885011.734   113961004.263        -919.465          50.000                                                                  
C26  24551590.467   127846574.027       -2573.162          43.000                                                                  
G03  22897956.552   120329596.668        -282.364          40.000    22897952.265    93763285.888        -219.990          42.000  
G16  22290876.712   117139421.578        2896.175          42.000                                                                  
C09  37731559.978   196478111.549        -140.380          43.000    37731545.763   151929300.848        -108.436          48.000  
C25  23574621.729   122759254.685        1524.603          45.000                                                                  
C08  39312089.714   204708336.036       -2474.669          37.000    39312077.580   158293443.538       -1913.740          41.000  
C07  39507507.260   205725948.730        1117.345          35.000    39507497.060   159080315.441         864.272          41.000  
C10  40452252.211   210645495.651         936.838          33.000    40452252.614   162884462.078         723.487          37.000  
C35  25937973.741   135065841.844         276.480          39.000                                                                  
C13  38473284.643   200340499.376       -2288.138          40.000    38473279.151   154915958.961       -1769.324          42.000  
C12  26345145.462   137186089.024        2322.370          34.000    26345143.142   106081011.323        1795.559          42.000  
G25  24581350.203   129175872.930       -3920.146          35.000    24581346.721   100656488.212       -3054.951          34.000  
> 2025 10 30 06 24 21.2000000  0 23                     
G32  22161251.308   116458153.947       -3020.633          45.000    22161244.955    90746577.474       -2353.659          42.000  
G29  23103692.810   121410734.364        -741.026          42.000    23103683.029    94605737.281        -577.638          40.000  
G28  21310431.372   111987074.329       -1245.709          45.000    21310420.943    87262614.537        -970.825          46.000  
G26  20314788.503   106754934.937         553.707          48.000    20314781.407    83185645.303         431.546          46.000  
G31  20617496.162   108345668.190          85.442          47.000    20617484.887    84425155.128          66.397          46.000  
G04  24341767.233   127916835.075        3160.345          35.000    24341764.494    99675485.273        2462.675          42.000  
C33  22541116.990   117377506.445        -840.688          50.000                                                                  
C06  36580603.825   190484805.304        -152.120          45.000    36580586.590   147294863.695        -117.705          48.000  
C14  22782050.404   118632097.742       -2368.488          46.000    22782035.711    91733809.055       -1831.405          50.000  
C16  37009928.710   192720408.406        -180.719          47.000    37009916.700   149023597.130        -139.849          48.000  
C24  21885018.809   113961041.041        -919.483          50.000                                                                  
C26  24551610.223   127846676.964       -2573.394          43.000                                                                  
G03  22897958.700   120329607.957        -282.217          40.000    22897954.430    93763294.703        -220.260          42.000  
G16  22290854.682   117139305.743        2895.942          42.000                                                                  
C09  37731561.047   196478117.160        -140.328          43.000    37731546.835   151929305.191        -108.544          48.000  
C25  23574609.993   122759193.706        1524.510          45.000                                                                  
C08  39312108.740   204708435.048       -2475.046          37.000    39312096.626   158293520.094       -1913.838          41.000  
C07  39507498.704   205725904.037        1117.281          35.000    39507488.455   159080280.902         863.730          41.000  
C10  40452245.028   210645458.244         935.847          33.000    40452245.445   162884433.127         723.604          37.000  
C35  25937971.606   135065830.773         276.583          39.000                                                                  
C13  38473302.225   200340590.897       -2288.149          40.000    38473296.698   154916029.719       -1769.059          42.000  
C12  26345127.646   137185996.160        2321.735          34.000    26345125.303   106080939.505        1795.527          42.000  
G25  24581380.040   129176029.729       -3920.022          35.000    24581376.570   100656610.381       -3054.594          34.000  
> 2025 10 30 06 24 21.2400000  0 23                     
G32  22161274.309   116458274.775       -3020.698          45.000    22161267.946    90746671.622       -2353.680          42.000  
G29  23103698.449   121410764.014        -741.164          42.000    23103688.662    94605760.402        -577.977          40.000  
G28  21310440.863   111987124.156       -1245.719          45.000    21310430.425    87262653.364        -970.794          46.000  
G26  20314784.285   106754912.777         553.895          48.000    20314777.179    83185628.045         431.435          46.000  
G31  20617495.518   108345664.774          85.381          47.000    20617484.238    84425152.463          66.497          46.000  
G04  24341743.182   127916708.667        3160.195          35.000    24341740.429    99675386.781        2462.380          42.000  
C33  22541123.486   117377540.070        -840.685          50.000                                                                  
C06  36580604.950   190484811.393        -152.226          45.000    36580587.757   147294868.389        -117.480          48.000  
C14  22782068.587   118632192.480       -2368.493          46.000    22782053.892    91733882.312       -1831.430          50.000  
C16  37009930.083   192720415.634        -180.744          47.000    37009918.104   149023602.717        -139.774          48.000  
C24  21885025.862   113961077.820        -919.508          50.000                                                                  
C26  24551630.000   127846779.894       -2573.345          43.000                                                                  
G03  22897960.857   120329619.271        -282.659          40.000    22897956.601    93763303.513        -220.294          42.000  
G16  22290832.652   117139189.905        2895.874          42.000                                                                  
C09  37731562.112   196478122.777        -140.424          43.000    37731547.898   151929309.529        -108.518          48.000  
C25  23574598.268   122759132.731        1524.363          45.000                                                                  
C08  39312127.765   204708534.057       -2475.248          37.000    39312115.646   158293596.640       -1913.696          41.000  
C07  39507490.156   205725859.342        1117.190          35.000    39507479.908   159080246.346         863.741          41.000  
C10  40452237.853   210645420.819         935.581          33.000    40452238.247   162884404.171         723.770          37.000  
C35  25937969.461   135065819.696         276.784          39.000                                                                  
C13  38473319.813   200340682.410       -2287.945          40.000    38473314.281   154916100.463       -1768.691          42.000  
C12  26345109.798   137185903.285        2321.658          34.000    26345107.453   106080867.680        1795.594          42.000  
G25  24581409.873   129176186.538       -3920.143          35.000    24581406.387   100656732.563       -3054.585          34.000  
> 2025 10 30 06 24 21.2800000  0 23                     
G32  22161297.300   116458395.597       -3020.632          45.000    22161290.933    90746765.770       -2353.653          42.000  
G29  23103704.095   121410793.660        -741.195          42.000    23103694.311    94605783.494        -577.612          40.000  
G28  21310450.343   111987173.978       -1245.653          45.000    21310439.902    87262692.178        -970.522          46.000  
G26  20314780.078   106754890.626         553.794          48.000    20314772.944    83185610.786         431.418          46.000  
G31  20617494.839   108345661.358          85.369          47.000    20617483.588    84425149.793          66.657          46.000  
G04  24341719.111   127916582.207        3161.057          35.000    24341716.366    99675288.273        2462.510          42.000  
C33  22541129.927   117377573.700        -840.773          50.000                                                                  
C06  36580606.136   190484817.480        -152.253          45.000    36580588.956   147294873.085        -117.413          48.000  
C14  22782086.761   118632287.214       -2368.415          46.000    22782072.068    91733955.567       -1831.431          50.000  
C16  37009931.468   192720422.859        -180.677          47.000    37009919.483   149023608.298        -139.620          48.000  
C24  21885032.959   113961114.594        -919.429          50.000                                                                  
C26  24551649.760   127846882.810       -2573.065          43.000                                                                  
G03  22897963.020   120329630.588        -282.931          40.000    22897958.765    93763312.307        -219.971          42.000  
G16  22290810.587   117139074.065        2895.917          42.000                                                                  
C09  37731563.186   196478128.383        -140.264          43.000    37731548.978   151929313.871        -108.562          48.000  
C25  23574586.556   122759071.752        1524.369          45.000                                                                  
C08  39312146.799   204708633.066       -2475.353          37.000    39312134.673   158293673.185       -1913.613          41.000  
C07  39507481.605   205725814.653        1117.178          35.000    39507471.331   159080211.797         863.669          41.000  
C10  40452230.682   210645383.427         934.807          33.000    40452231.042   162884375.220         723.786          36.000  
C35  25937967.328   135065808.628         276.733          39.000                                                                  
C13  38473337.405   200340773.931       -2288.026          40.000    38473331.877   154916171.233       -1768.988          42.000  
C12  26345091.967   137185810.387        2322.160          34.000    26345089.603   106080795.868        1795.388          42.000  
G25  24581439.716   129176343.353       -3920.254          35.000    24581436.216   100656854.738       -3054.528          34.000  
> 2025 10 30 06 24 21.3200000  0 23                     
G32  22161320.282   116458516.417       -3020.562          45.000    22161313.909    90746859.914       -2353.604          42.000  
G29  23103709.745   121410823.320        -741.444          42.000    23103699.963    94605806.587        -577.357          40.000  
G28  21310459.826   111987223.804       -1245.671          45.000    21310449.386    87262730.997        -970.476          46.000  
G26  20314775.902   106754868.481         553.639          48.000    20314768.725    83185593.521         431.530          46.000  
G31  20617494.184   108345657.939          85.418          47.000    20617482.926    84425147.123          66.724          45.000  
G04  24341695.059   127916455.795        3160.614          36.000    24341692.311    99675189.754        2462.850          42.000  
C33  22541136.412   117377607.321        -840.657          50.000                                                                  
C06  36580607.308   190484823.543        -151.785          45.000    36580590.141   147294877.787        -117.502          48.000  
C14  22782104.951   118632381.954       -2368.498          46.000    22782090.236    91734028.826       -1831.494          50.000  
C16  37009932.853   192720430.078        -180.550          47.000    37009920.885   149023613.886        -139.655          48.000  
C24  21885040.057   113961151.364        -919.313          50.000                                                                  
C26  24551669.527   127846985.713       -2572.656          43.000                                                                  
G03  22897965.149   120329641.883        -282.604          40.000    22897960.905    93763321.109        -220.000          42.000  
G16  22290788.540   117138958.224        2896.024          42.000                                                                  
C09  37731564.280   196478133.989        -140.184          43.000    37731550.058   151929318.202        -108.377          48.000  
C25  23574574.874   122759010.768        1524.493          45.000                                                                  
C08  39312165.807   204708732.071       -2475.292          37.000    39312153.678   158293749.739       -1913.756          41.000  
C07  39507473.023   205725770.006        1116.306          35.000    39507462.748   159080177.235         863.867          41.000  
C10  40452223.492   210645345.979         935.484          33.000    40452223.825   162884346.301         723.189          36.000  
C35  25937965.203   135065797.572         276.468          39.000                                                                  
C13  38473354.975   200340865.445       -2287.871          40.000    38473349.462   154916242.009       -1769.253          42.000  
C12  26345074.144   137185717.471        2322.875          34.000    26345071.755   106080724.042        1795.564          42.000  
G25  24581469.560   129176500.158       -3920.228          35.000    24581466.053   100656976.930       -3054.616          34.000  
