     3.04           OBSERVATION DATA    M: Mixed            RINEX VERSION / TYPE
RTKCONV 2.4.3 b34                       20251030 063747 UTC PGM / RUN BY / DATE 
format: u-blox UBX                                          COMMENT             
log: D:\GPdata\10_30\fingure_230_10_30_1.ubx                COMMENT             
                                                            MARKER NAME         
                                                            MARKER NUMBER       
                                                            MARKER TYPE         
                                                            OBSERVER / AGENCY   
                                                            REC # / TYPE / VERS 
                                                            ANT # / TYPE        
        0.0000        0.0000        0.0000                  APPROX POSITION XYZ 
        0.0000        0.0000        0.0000                  ANTENNA: DELTA H/E/N
G    8 C1C L1C D1C S1C C2L L2L D2L S2L                      SYS / # / OBS TYPES 
C    8 C2I L2I D2I S2I C7I L7I D7I S7I                      SYS / # / OBS TYPES 
  2025    10    30    06    19   08.8800000     GPS         TIME OF FIRST OBS   
  2025    10    30    06    19   32.3200000     GPS         TIME OF LAST OBS    
G L1C                                                       SYS / PHASE SHIFT   
G L2L  0.00000                                              SYS / PHASE SHIFT   
C L2I                                                       SYS / PHASE SHIFT   
C L7I                                                       SYS / PHASE SHIFT   
  0                                                         GLONASS SLOT / FRQ #
 C1C    0.000 C1P    0.000 C2C    0.000 C2P    0.000        GLONASS COD/PHS/BIS 
                                                            END OF HEADER       
> 2025 10 30 06 19 08.8800000  0 23                     
G32  21985599.246   115535101.4551      -2888.311          45.000    21985593.221    90027328.4531      -2250.738          43.000  
G29  23065551.913   121210303.6301       -541.404          41.000    23065543.451    94449556.7771       -421.821          41.000  
G28  21238547.242   111609318.2591      -1172.536          45.000    21238536.277    86968259.0281       -913.755          46.000  
G26  20352771.486   106954535.5851        725.473          47.000    20352764.521    83341177.7261        565.222          47.000  
G31  20625180.851   108386054.7691        174.073          47.000    20625169.638    84456625.0121        135.540          46.000  
G04  24530376.964                        3186.326          30.000    24530375.740   100447800.0331       2482.933          35.000  
C33  22496161.167   117143411.1231       -657.379          50.000                                                                  
C06  36571164.064   190435650.6871       -161.859          45.000    36571147.339   147256854.0921       -125.072          48.000  
C14  22644318.664   117914896.6811      -2222.422          45.000    22644304.430    91179224.1071      -1718.488          51.000  
C16  36998683.770   192661853.1761       -193.382          48.000    36998672.075   148978318.4861       -149.511          48.000  
C24  21832071.901   113685331.4641       -844.572          49.000                                                                  
C26  24397697.951   127045212.7751      -2557.933          44.000                                                                  
G03  22887396.852   120274074.9601        -71.719          39.000    22887390.891    93720034.9381        -55.783          39.000  
G16  22466321.581   118061325.2091       3008.509          41.000                                                                  
C09  37722783.143   196432433.1771       -151.519          43.000    37722769.303   151893959.9491       -116.926          48.000  
C25  23667946.805   123245219.2621       1588.683          44.000                                                                  
C13  38337016.783   199630902.0901      -2254.924          41.000    38337010.976   154367255.5271      -1743.897          43.000  
C08  39164226.421   203938400.3811      -2454.595          36.000    39164214.750   157698061.7791      -1898.380          43.000  
C10  40508288.012   210937292.3001        933.301          34.000    40508289.283   163110072.8651        721.518          38.000  
C35  25958882.722   135174720.5381        420.855          38.000                                                                  
C07  39574618.508   206075427.9561       1121.270          38.000    39574608.360   159350541.8821        867.072          41.000  
C12  26483850.220   137908407.9951       2303.158          35.000    26483850.540   106639500.7881       1780.675          42.000  
G25  24348616.086   127952850.1151      -3910.559          34.000    24348610.119    99703483.5311      -3047.248          34.000  
> 2025 10 30 06 19 08.9200000  0 23                     
G32  21985621.219   115535216.985       -2888.235          45.000    21985615.201    90027418.470       -2250.547          43.000  
G29  23065556.017   121210325.274        -541.167          41.000    23065547.574    94449573.645        -421.653          41.000  
G28  21238556.146   111609365.152       -1172.383          45.000    21238545.182    86968295.561        -913.485          46.000  
G26  20352765.951   106954506.555         725.701          47.000    20352758.996    83341155.104         565.470          47.000  
G31  20625179.520   108386047.798         174.208          47.000    20625168.302    84456619.584         135.601          46.000  
G04  24530352.691                        3186.353          30.000    24530351.485   100447700.735        2482.747          35.000  
C33  22496166.263   117143437.413        -657.284          50.000                                                                  
C06  36571165.314   190435657.149        -161.630          45.000    36571148.597   147256859.088        -124.926          48.000  
C14  22644335.754   117914985.566       -2222.183          46.000    22644321.522    91179292.843       -1718.431          51.000  
C16  36998685.262   192661860.897        -193.082          47.000    36998673.561   148978324.461        -149.393          48.000  
C24  21832078.393   113685365.240        -844.440          49.000                                                                  
C26  24397717.592   127045315.085       -2557.793          44.000                                                                  
G03  22887397.387   120274077.833         -71.732          39.000    22887391.447    93720037.173         -55.783          39.000  
G16  22466298.682   118061204.857        3008.726          41.000                                                                  
C09  37722784.312   196432439.228        -151.369          43.000    37722770.501   151893964.635        -117.069          48.000  
C25  23667934.627   123245155.700        1588.955          44.000                                                                  
C13  38337034.114   199630992.299       -2255.096          41.000    38337028.307   154367325.273       -1743.717          43.000  
C08  39164245.290   203938498.584       -2454.833          36.000    39164233.595   157698137.687       -1897.948          43.000  
C10  40508280.858   210937254.973         933.171          34.000    40508282.113   163110043.998         721.584          38.000  
C35  25958879.472   135174703.695         421.079          38.000                                                                  
C07  39574609.880   206075383.073        1121.892          38.000    39574599.745   159350507.204         866.951          41.000  
C12  26483832.543   137908315.873        2303.138          35.000    26483832.841   106639429.544        1781.015          42.000  
G25  24348645.843   127953006.526       -3910.339          34.000    24348639.872    99703605.436       -3047.542          35.000  
> 2025 10 30 06 19 08.9600000  0 23                     
G32  21985643.199   115535332.530       -2888.500          45.000    21985637.204    90027508.510       -2250.849          42.000  
G29  23065560.131   121210346.933        -541.366          41.000    23065551.692    94449590.514        -421.638          41.000  
G28  21238565.053   111609412.047       -1172.370          45.000    21238554.129    86968332.104        -913.512          46.000  
G26  20352760.428   106954477.532         725.668          47.000    20352753.460    83341132.486         565.493          47.000  
G31  20625178.209   108386040.831         174.195          47.000    20625166.982    84456614.161         135.570          46.000  
G04  24530328.433                        3187.263          30.000    24530327.223   100447601.434        2482.533          35.000  
C33  22496171.320   117143463.706        -657.305          50.000                                                                  
C06  36571166.570   190435663.611        -161.526          45.000    36571149.880   147256864.082        -124.827          48.000  
C14  22644352.808   117915074.462       -2222.290          45.000    22644338.583    91179361.584       -1718.489          51.000  
C16  36998686.729   192661868.627        -193.125          47.000    36998675.058   148978330.436        -149.353          48.000  
C24  21832084.874   113685399.025        -844.537          49.000                                                                  
C26  24397737.243   127045417.396       -2557.755          44.000                                                                  
G03  22887397.928   120274080.701         -71.683          39.000    22887392.000    93720039.414         -55.936          39.000  
G16  22466275.787   118061084.515        3008.651          41.000                                                                  
C09  37722785.487   196432445.266        -151.055          43.000    37722771.649   151893969.317        -117.075          48.000  
C25  23667922.435   123245092.132        1589.194          44.000                                                                  
C13  38337051.449   199631082.507       -2255.197          41.000    38337045.633   154367395.030       -1743.837          43.000  
C08  39164264.153   203938596.752       -2454.380          36.000    39164252.470   157698213.619       -1898.095          43.000  
C10  40508273.653   210937217.627         933.346          34.000    40508274.937   163110015.122         721.801          38.000  
C35  25958876.255   135174686.849         421.180          38.000                                                                  
C07  39574601.255   206075338.199        1121.995          38.000    39574591.148   159350472.513         867.148          41.000  
C12  26483814.853   137908223.740        2303.242          35.000    26483815.152   106639358.302        1781.125          42.000  
G25  24348675.621   127953162.959       -3910.638          34.000    24348669.638    99703727.346       -3047.781          35.000  
> 2025 10 30 06 19 09.0000000  0 23                     
G32  21985665.174   115535448.071       -2888.560          45.000    21985659.184    90027598.542       -2250.857          42.000  
G29  23065564.255   121210368.591        -541.434          41.000    23065555.802    94449607.393        -421.867          41.000  
G28  21238574.013   111609458.952       -1172.539          45.000    21238563.077    86968368.658        -913.724          46.000  
G26  20352754.906   106954448.510         725.579          48.000    20352747.946    83341109.876         565.349          47.000  
G31  20625176.918   108386033.871         174.059          47.000    20625165.650    84456608.728         135.725          46.000  
G04  24530304.210                        3186.816          30.000    24530302.993   100447502.132        2482.449          35.000  
C33  22496176.364   117143489.997        -657.294          50.000                                                                  
C06  36571167.805   190435670.080        -161.626          45.000    36571151.122   147256869.087        -125.004          48.000  
C14  22644369.875   117915163.355       -2222.309          46.000    22644355.647    91179430.327       -1718.546          51.000  
C16  36998688.186   192661876.356        -193.182          47.000    36998676.564   148978336.409        -149.333          48.000  
C24  21832091.347   113685432.813        -844.676          49.000                                                                  
C26  24397756.883   127045519.712       -2557.826          44.000                                                                  
G03  22887398.483   120274083.555         -71.389          39.000    22887392.566    93720041.653         -55.940          39.000  
G16  22466252.870   118060964.165        3008.725          41.000                                                                  
C09  37722786.645   196432451.306        -150.941          43.000    37722772.800   151893973.991        -116.941          48.000  
C25  23667910.229   123245028.573        1589.075          44.000                                                                  
C13  38337068.738   199631172.715       -2255.259          41.000    38337062.970   154367464.783       -1743.843          43.000  
C08  39164283.016   203938694.965       -2454.929          36.000    39164271.330   157698289.541       -1898.082          43.000  
C10  40508266.443   210937180.264         933.880          34.000    40508267.758   163109986.236         722.076          38.000  
C35  25958873.043   135174670.009         421.128          38.000                                                                  
C07  39574592.641   206075293.375        1121.141          38.000    39574582.515   159350437.823         867.215          41.000  
C12  26483797.161   137908131.601        2303.389          35.000    26483797.455   106639287.062        1781.105          42.000  
G25  24348705.385   127953319.394       -3910.894          34.000    24348699.418    99703849.232       -3047.472          35.000  
> 2025 10 30 06 19 09.0400000  0 23                     
G32  21985687.164   115535563.609       -2888.505          45.000    21985681.170    90027688.580       -2250.950          43.000  
G29  23065568.392   121210390.263        -541.754          41.000    23065559.928    94449624.275        -422.107          41.000  
G28  21238582.933   111609505.845       -1172.409          45.000    21238572.001    86968405.196        -913.603          46.000  
G26  20352749.405   106954419.491         725.479          48.000    20352742.437    83341087.266         565.237          47.000  
G31  20625175.598   108386026.915         173.911          47.000    20625164.334    84456603.303         135.656          46.000  
G04  24530279.993                        3186.017          30.000    24530278.731   100447402.814        2482.646          35.000  
C33  22496181.381   117143516.290        -657.313          50.000                                                                  
C06  36571169.059   190435676.546        -161.649          45.000    36571152.377   147256874.089        -125.043          48.000  
C14  22644386.936   117915252.250       -2222.353          46.000    22644372.726    91179499.065       -1718.521          51.000  
C16  36998689.649   192661884.088        -193.281          47.000    36998678.079   148978342.385        -149.387          48.000  
C24  21832097.824   113685466.598        -844.659          49.000                                                                  
C26  24397776.529   127045622.028       -2557.920          44.000                                                                  
G03  22887399.026   120274086.430         -71.677          39.000    22887393.122    93720043.879         -55.771          39.000  
G16  22466229.972   118060843.818        3008.676          41.000                                                                  
C09  37722787.804   196432457.360        -151.182          43.000    37722773.925   151893978.668        -116.912          48.000  
C25  23667898.008   123244965.016        1588.926          44.000                                                                  
C13  38337086.071   199631262.912       -2255.002          41.000    38337080.296   154367534.539       -1743.905          43.000  
C08  39164301.886   203938793.161       -2455.005          36.000    39164290.189   157698365.470       -1898.201          43.000  
C10  40508259.312   210937142.945         933.314          34.000    40508260.585   163109957.369         721.823          38.000  
C35  25958869.828   135174653.191         420.642          38.000                                                                  
C07  39574584.017   206075248.518        1121.195          38.000    39574573.945   159350403.135         867.248          41.000  
C12  26483779.493   137908039.482        2303.067          35.000    26483779.767   106639215.829        1780.901          42.000  
G25  24348735.160   127953475.810       -3910.555          34.000    24348729.170    99703971.082       -3046.652          35.000  
> 2025 10 30 06 19 09.0800000  0 23                     
G32  21985709.110   115535679.150       -2888.524          45.000    21985703.128    90027778.602       -2250.675          43.000  
G29  23065572.502   121210411.919        -541.606          41.000    23065564.041    94449641.164        -422.265          41.000  
G28  21238591.850   111609552.746       -1172.464          45.000    21238580.927    86968441.752        -913.836          46.000  
G26  20352743.919   106954390.482         725.256          48.000    20352736.920    83341064.660         565.126          47.000  
G31  20625174.257   108386019.954         173.930          47.000    20625163.020    84456597.878         135.601          46.000  
G04  24530255.756                        3185.957          30.000    24530254.467   100447303.498        2482.664          35.000  
C33  22496186.412   117143542.587        -657.383          50.000                                                                  
C06  36571170.306   190435683.018        -161.788          45.000    36571153.613   147256879.092        -125.110          48.000  
C14  22644404.028   117915341.153       -2222.544          46.000    22644389.806    91179567.806       -1718.553          51.000  
C16  36998691.101   192661891.828        -193.493          48.000    36998679.575   148978348.374        -149.667          48.000  
C24  21832104.296   113685500.387        -844.751          49.000                                                                  
C26  24397796.194   127045724.341       -2557.914          44.000                                                                  
G03  22887399.585   120274089.307         -71.896          39.000    22887393.662    93720046.134         -56.168          39.000  
G16  22466207.068   118060723.486        3008.401          41.000                                                                  
C09  37722788.960   196432463.414        -151.306          43.000    37722775.078   151893983.352        -117.072          48.000  
C25  23667885.801   123244901.466        1588.736          44.000                                                                  
C13  38337103.375   199631353.124       -2255.215          41.000    38337097.623   154367604.299       -1744.030          43.000  
C08  39164320.753   203938891.340       -2454.830          36.000    39164309.062   157698441.406       -1898.425          43.000  
C10  40508252.149   210937105.606         933.362          34.000    40508253.379   163109928.508         721.517          38.000  
C35  25958866.586   135174636.369         420.457          38.000                                                                  
C07  39574575.395   206075203.644        1121.593          38.000    39574565.318   159350368.451         867.125          41.000  
C12  26483761.821   137907947.377        2302.587          35.000    26483762.081   106639144.594        1780.858          42.000  
G25  24348764.920   127953632.245       -3910.780          34.000    24348758.930    99704092.994       -3047.340          35.000  
> 2025 10 30 06 19 09.1200000  0 23                     
G32  21985731.121   115535794.699       -2888.691          45.000    21985725.105    90027868.636       -2250.790          43.000  
G29  23065576.643   121210433.581        -541.579          41.000    23065568.170    94449658.047        -422.229          41.000  
G28  21238600.797   111609599.659       -1172.716          45.000    21238589.848    86968478.301        -913.787          46.000  
G26  20352738.380   106954361.474         725.121          48.000    20352731.391    83341042.056         565.046          47.000  
G31  20625172.922   108386012.996         173.918          47.000    20625161.708    84456592.462         135.428          46.000  
G04  24530231.522                        3185.680          30.000    24530230.227   100447204.189        2482.604          35.000  
C33  22496191.465   117143568.892        -657.592          50.000                                                                  
C06  36571171.547   190435689.488        -161.825          45.000    36571154.859   147256884.099        -125.171          48.000  
C14  22644421.092   117915430.059       -2222.720          46.000    22644406.867    91179636.551       -1718.660          51.000  
C16  36998692.554   192661899.572        -193.609          48.000    36998681.065   148978354.357        -149.712          48.000  
C24  21832110.747   113685534.180        -844.852          49.000                                                                  
C26  24397815.847   127045826.659       -2557.963          44.000                                                                  
G03  22887400.113   120274092.182         -71.968          39.000    22887394.211    93720048.371         -56.064          39.000  
G16  22466184.181   118060603.151        3008.284          41.000                                                                  
C09  37722790.144   196432469.478        -151.558          43.000    37722776.240   151893988.043        -117.247          48.000  
C25  23667873.578   123244837.923        1588.552          44.000                                                                  
C13  38337120.686   199631443.348       -2255.512          41.000    38337114.921   154367674.066       -1744.196          43.000  
C08  39164339.605   203938989.537       -2455.048          36.000    39164327.918   157698517.344       -1898.544          43.000  
C10  40508245.004   210937068.290         933.069          34.000    40508246.198   163109899.641         721.443          38.000  
C35  25958863.354   135174619.552         420.305          38.000                                                                  
C07  39574566.782   206075158.788        1121.448          38.000    39574556.712   159350333.774         866.999          41.000  
C12  26483744.111   137907855.264        2302.633          35.000    26483744.389   106639073.369        1780.643          42.000  
G25  24348794.713   127953788.649       -3910.420          34.000    24348788.690    99704214.891       -3047.502          35.000  
> 2025 10 30 06 19 09.1600000  0 23                     
G32  21985753.108   115535910.246       -2888.746          45.000    21985747.100    90027958.672       -2250.894          43.000  
G29  23065580.771   121210455.250        -541.704          41.000    23065572.280    94449674.925        -422.116          41.000  
G28  21238609.706   111609646.569       -1172.802          45.000    21238598.755    86968514.851        -913.795          46.000  
G26  20352732.838   106954332.468         725.061          48.000    20352725.887    83341019.453         564.992          47.000  
G31  20625171.590   108386006.041         173.845          47.000    20625160.402    84456587.043         135.398          46.000  
G04  24530207.295                        3185.133          31.000    24530205.974   100447104.926        2481.780          35.000  
C33  22496196.533   117143595.199        -657.721          50.000                                                                  
C06  36571172.817   190435695.974        -162.103          45.000    36571156.094   147256889.108        -125.259          48.000  
C14  22644438.159   117915518.965       -2222.766          46.000    22644423.931    91179705.294       -1718.646          51.000  
C16  36998694.014   192661907.308        -193.547          48.000    36998682.519   148978360.347        -149.796          48.000  
C24  21832117.272   113685567.971        -844.847          49.000                                                                  
C26  24397835.490   127045928.992       -2558.257          44.000                                                                  
G03  22887400.650   120274095.069         -72.167          39.000    22887394.752    93720050.608         -56.040          39.000  
G16  22466161.300   118060482.825        3008.145          41.000                                                                  
C09  37722791.323   196432475.544        -151.705          43.000    37722777.398   151893992.728        -117.224          48.000  
C25  23667861.359   123244774.386        1588.381          44.000                                                                  
C13  38337138.025   199631533.561       -2255.448          41.000    38337132.237   154367743.816       -1743.945          43.000  
C08  39164358.472   203939087.769       -2455.656          36.000    39164346.785   157698593.268       -1898.305          43.000  
C10  40508237.839   210937030.960         933.137          34.000    40508239.023   163109870.774         721.473          38.000  
C35  25958860.106   135174602.716         420.636          38.000                                                                  
C07  39574558.167   206075113.950        1121.113          38.000    39574548.098   159350299.099         866.871          41.000  
C12  26483726.432   137907763.139        2302.905          35.000    26483726.705   106639002.138        1780.668          42.000  
G25  24348824.465   127953945.080       -3910.629          34.000    24348818.463    99704336.780       -3047.422          35.000  
> 2025 10 30 06 19 09.2000000  0 23                     
G32  21985775.081   115536025.788       -2888.657          45.000    21985769.088    90028048.718       -2251.145          42.000  
G29  23065584.906   121210476.921        -541.803          41.000    23065576.409    94449691.808        -422.129          41.000  
G28  21238618.634   111609693.477       -1172.793          45.000    21238607.700    86968551.400        -913.754          46.000  
G26  20352727.304   106954303.458         725.125          48.000    20352720.366    83340996.850         565.025          47.000  
G31  20625170.220   108385999.088         173.796          47.000    20625159.082    84456581.630         135.263          46.000  
G04  24530183.019                        3186.843          30.000    24530181.715   100447005.612        2482.291          35.000  
C33  22496201.608   117143621.503        -657.711          50.000                                                                  
C06  36571174.071   190435702.440        -161.860          45.000    36571157.309   147256894.112        -125.182          48.000  
C14  22644455.251   117915607.869       -2222.731          46.000    22644440.991    91179774.044       -1718.784          51.000  
C16  36998695.501   192661915.040        -193.408          48.000    36998684.001   148978366.328        -149.674          48.000  
C24  21832123.771   113685601.767        -844.923          49.000                                                                  
C26  24397855.107   127046031.310       -2558.129          44.000                                                                  
G03  22887401.195   120274097.954         -72.245          39.000    22887395.299    93720052.865         -56.354          39.000  
G16  22466138.387   118060362.493        3008.162          41.000                                                                  
C09  37722792.486   196432481.603        -151.643          43.000    37722778.547   151893997.416        -117.261          48.000  
C25  23667849.159   123244710.839        1588.487          44.000                                                                  
C13  38337155.336   199631623.776       -2255.390          41.000    38337149.582   154367813.570       -1743.839          43.000  
C08  39164377.330   203939185.941       -2454.877          36.000    39164365.619   157698669.199       -1898.294          43.000  
C10  40508230.653   210936993.601         933.794          34.000    40508231.847   163109841.909         721.541          38.000  
C35  25958856.852   135174585.906         420.347          38.000                                                                  
C07  39574549.555   206075069.102        1121.082          38.000    39574539.479   159350264.428         866.769          41.000  
C12  26483708.751   137907670.998        2303.429          35.000    26483709.025   106638930.904        1780.773          42.000  
G25  24348854.248   127954101.519       -3910.918          34.000    24348848.242    99704458.671       -3047.407          35.000  
> 2025 10 30 06 19 09.2400000  0 23                     
G32  21985797.045   115536141.336       -2888.696          45.000    21985791.068    90028138.758       -2251.152          42.000  
G29  23065589.040   121210498.596        -541.915          41.000    23065580.533    94449708.703        -422.328          41.000  
G28  21238627.549   111609740.386       -1172.795          45.000    21238616.613    86968587.952        -913.808          46.000  
G26  20352721.773   106954274.452         725.094          48.000    20352714.823    83340974.241         565.150          47.000  
G31  20625168.879   108385992.127         173.938          47.000    20625157.764    84456576.207         135.412          46.000  
G04  24530158.744                        3186.540          30.000    24530157.461   100446906.298        2482.587          35.000  
C33  22496206.671   117143647.811        -657.753          50.000                                                                  
C06  36571175.320   190435708.918        -161.956          45.000    36571158.538   147256899.119        -125.194          48.000  
C14  22644472.337   117915696.777       -2222.767          46.000    22644458.063    91179842.797       -1718.864          51.000  
C16  36998697.002   192661922.773        -193.345          48.000    36998685.458   148978372.304        -149.507          48.000  
C24  21832130.295   113685635.557        -844.855          49.000                                                                  
C26  24397874.787   127046133.623       -2557.955          44.000                                                                  
G03  22887401.729   120274100.826         -71.991          39.000    22887395.856    93720055.112         -56.298          39.000  
G16  22466115.485   118060242.165        3008.120          41.000                                                                  
C09  37722793.686   196432487.655        -151.399          43.000    37722779.695   151894002.099        -117.171          48.000  
C25  23667836.952   123244647.289        1588.616          44.000                                                                  
C13  38337172.666   199631713.981       -2255.236          41.000    38337166.905   154367883.326       -1743.859          43.000  
C08  39164396.178   203939284.139       -2454.872          36.000    39164384.487   157698745.129       -1898.282          43.000  
C10  40508223.472   210936956.272         933.517          34.000    40508224.692   163109813.049         721.386          38.000  
C35  25958853.645   135174569.097         420.160          38.000                                                                  
C07  39574540.963   206075024.243        1121.302          38.000    39574530.832   159350229.729         867.244          41.000  
C12  26483691.022   137907578.867        2303.440          35.000    26483691.324   106638859.672        1780.755          42.000  
G25  24348884.030   127954257.971       -3911.320          34.000    24348878.015    99704580.540       -3046.904          35.000  
> 2025 10 30 06 19 09.2800000  0 23                     
G32  21985819.032   115536256.890       -2888.837          45.000    21985813.049    90028228.795       -2251.105          42.000  
G29  23065593.185   121210520.270        -541.976          41.000    23065584.669    94449725.587        -422.200          41.000  
G28  21238636.460   111609787.292       -1172.728          45.000    21238625.550    86968624.508        -913.929          46.000  
G26  20352716.243   106954245.448         725.064          48.000    20352709.312    83340951.639         565.030          47.000  
G31  20625167.537   108385985.172         173.870          47.000    20625156.438    84456570.785         135.486          46.000  
G04  24530134.497                        3186.395          30.000    24530133.198   100446806.978        2482.855          35.000  
C33  22496211.724   117143674.122        -657.833          50.000                                                                  
C06  36571176.558   190435715.390        -161.881          45.000    36571159.768   147256904.129        -125.261          48.000  
C14  22644489.432   117915785.679       -2222.631          46.000    22644475.176    91179911.544       -1718.797          51.000  
C16  36998698.499   192661930.510        -193.400          48.000    36998686.931   148978378.286        -149.517          48.000  
C24  21832136.779   113685669.351        -844.887          49.000                                                                  
C26  24397894.433   127046235.952       -2558.136          44.000                                                                  
G03  22887402.261   120274103.717         -72.244          39.000    22887396.400    93720057.359         -56.240          39.000  
G16  22466092.564   118060121.823        3008.352          41.000                                                                  
C09  37722794.834   196432493.709        -151.339          43.000    37722780.878   151894006.783        -117.128          48.000  
C25  23667824.749   123244583.732        1588.869          44.000                                                                  
C13  38337189.975   199631804.203       -2255.492          41.000    38337184.230   154367953.083       -1743.885          43.000  
C08  39164415.023   203939382.318       -2454.561          36.000    39164403.355   157698821.071       -1898.481          43.000  
C10  40508216.317   210936918.969         932.698          34.000    40508217.536   163109784.178         721.580          38.000  
C35  25958850.417   135174552.276         420.308          38.000                                                                  
C07  39574532.341   206074979.396        1121.250          38.000    39574522.229   159350195.035         867.391          41.000  
C12  26483673.316   137907486.756        2302.950          35.000    26483673.623   106638788.445        1780.625          42.000  
G25  24348913.818   127954414.403       -3911.011          34.000    24348907.759    99704702.445       -3047.321          35.000  
> 2025 10 30 06 19 09.3200000  0 23                     
G32  21985841.038   115536372.452       -2889.054          45.000    21985835.058    90028318.834       -2251.057          42.000  
G29  23065597.297   121210541.941        -541.904          41.000    23065588.796    94449742.470        -422.112          41.000  
G28  21238645.368   111609834.201       -1172.741          45.000    21238634.489    86968661.059        -913.898          46.000  
G26  20352710.718   106954216.441         725.089          48.000    20352703.792    83340929.044         564.862          47.000  
G31  20625166.230   108385978.220         173.778          47.000    20625155.120    84456565.365         135.492          46.000  
G04  24530110.266                        3186.930          30.000    24530108.941   100446707.674        2482.714          35.000  
C33  22496216.781   117143700.433        -657.837          50.000                                                                  
C06  36571177.813   190435721.862        -161.835          45.000    36571161.026   147256909.137        -125.286          48.000  
C14  22644506.516   117915874.587       -2222.670          46.000    22644492.254    91179980.294       -1718.784          51.000  
C16  36998699.985   192661938.253        -193.554          48.000    36998688.386   148978384.272        -149.616          48.000  
C24  21832143.283   113685703.147        -844.916          49.000                                                                  
C26  24397914.092   127046338.271       -2558.074          44.000                                                                  
G03  22887402.828   120274106.605         -72.336          39.000    22887396.955    93720059.603         -56.165          39.000  
G16  22466069.659   118060001.492        3008.292          41.000                                                                  
C09  37722795.972   196432499.774        -151.552          43.000    37722782.028   151894011.465        -117.103          48.000  
C25  23667812.529   123244520.191        1588.665          44.000                                                                  
C13  38337207.322   199631894.423       -2255.572          41.000    38337201.571   154368022.846       -1744.034          43.000  
C08  39164433.892   203939480.532       -2455.002          36.000    39164422.217   157698897.008       -1898.509          43.000  
C10  40508209.157   210936881.644         932.774          34.000    40508210.371   163109755.311         721.683          38.000  
C35  25958847.161   135174535.452         420.407          38.000                                                                  
C07  39574523.727   206074934.556        1120.991          38.000    39574513.641   159350160.369         866.912          41.000  
C12  26483655.631   137907394.649        2302.687          35.000    26483655.941   106638717.210        1780.761          42.000  
G25  24348943.563   127954570.806       -3910.400          34.000    24348937.540    99704824.363       -3047.760          35.000  
> 2025 10 30 06 19 09.3600000  0 23                     
G32  21985863.038   115536488.007       -2888.992          45.000    21985857.055    90028408.873       -2251.056          43.000  
G29  23065601.431   121210563.619        -541.986          41.000    23065592.914    94449759.364        -422.257          41.000  
G28  21238654.318   111609881.113       -1172.793          45.000    21238643.429    86968697.615        -913.941          46.000  
G26  20352705.207   106954187.436         725.077          48.000    20352698.294    83340906.447         564.814          47.000  
G31  20625164.899   108385971.271         173.704          47.000    20625153.801    84456559.947         135.455          46.000  
G04  24530085.987                        3186.189          30.000    24530084.698   100446608.384        2482.363          35.000  
C33  22496221.857   117143726.738        -657.714          50.000                                                                  
C06  36571179.055   190435728.345        -162.028          45.000    36571162.285   147256914.141        -125.199          48.000  
C14  22644523.579   117915963.497       -2222.753          46.000    22644509.314    91180049.042       -1718.746          51.000  
C16  36998701.480   192661945.995        -193.590          48.000    36998689.865   148978390.259        -149.712          48.000  
C24  21832149.793   113685736.944        -844.941          49.000                                                                  
C26  24397933.740   127046440.599       -2558.157          44.000                                                                  
G03  22887403.345   120274109.492         -72.264          39.000    22887397.529    93720061.864         -56.507          39.000  
G16  22466046.776   118059881.165        3008.176          41.000                                                                  
C09  37722797.126   196432505.841        -151.743          43.000    37722783.195   151894016.159        -117.274          48.000  
C25  23667800.290   123244456.647        1588.585          44.000                                                                  
C13  38337224.658   199631984.627       -2255.328          41.000    38337218.900   154368092.617       -1744.232          43.000  
C08  39164452.764   203939578.744       -2455.182          36.000    39164441.088   157698972.940       -1898.441          43.000  
C10  40508201.999   210936844.324         932.806          34.000    40508203.164   163109726.443         721.699          38.000  
C35  25958843.935   135174518.632         420.504          38.000                                                                  
C07  39574515.115   206074889.702        1121.112          38.000    39574505.020   159350125.711         866.527          41.000  
C12  26483637.937   137907302.539        2302.702          35.000    26483638.284   106638645.977        1780.829          42.000  
G25  24348973.287   127954727.246       -3910.812          34.000    24348967.315    99704946.257       -3047.510          35.000  
> 2025 10 30 06 19 09.4000000  0 23                     
G32  21985885.012   115536603.555       -2888.863          45.000    21985879.051    90028498.916       -2251.114          42.000  
G29  23065605.566   121210585.299        -542.008          41.000    23065597.035    94449776.259        -422.375          41.000  
G28  21238663.244   111609928.027       -1172.843          45.000    21238652.347    86968734.170        -913.923          46.000  
G26  20352699.693   106954158.438         724.940          48.000    20352692.781    83340883.843         564.953          47.000  
G31  20625163.578   108385964.323         173.643          47.000    20625152.491    84456554.535         135.332          46.000  
G04  24530061.749                        3185.089          30.000    24530060.448   100446509.078        2482.465          35.000  
C33  22496226.907   117143753.053        -657.843          50.000                                                                  
C06  36571180.309   190435734.821        -161.976          45.000    36571163.517   147256919.142        -125.101          48.000  
C14  22644540.640   117916052.405       -2222.733          46.000    22644526.393    91180117.788       -1718.701          51.000  
C16  36998702.980   192661953.737        -193.626          48.000    36998691.344   148978396.243        -149.677          48.000  
C24  21832156.298   113685770.739        -844.919          49.000                                                                  
C26  24397953.419   127046542.923       -2558.127          44.000                                                                  
G03  22887403.894   120274112.387         -72.349          39.000    22887398.079    93720064.109         -56.327          39.000  
G16  22466023.887   118059760.836        3008.186          41.000                                                                  
C09  37722798.298   196432511.903        -151.692          43.000    37722784.369   151894020.846        -117.240          48.000  
C25  23667788.067   123244393.114        1588.364          44.000                                                                  
C13  38337241.997   199632074.845       -2255.473          41.000    38337236.216   154368162.376       -1744.093          43.000  
C08  39164471.639   203939676.960       -2455.361          36.000    39164459.950   157699048.872       -1898.381          43.000  
C10  40508194.790   210936806.990         933.167          34.000    40508195.980   163109697.565         721.921          38.000  
C35  25958840.736   135174501.816         420.433          38.000                                                                  
C07  39574506.484   206074844.861        1120.969          38.000    39574496.433   159350091.028         866.768          41.000  
C12  26483620.256   137907210.404        2303.177          35.000    26483620.575   106638574.752        1780.699          42.000  
G25  24349003.075   127954883.693       -3911.202          34.000    24348997.081    99705068.132       -3047.045          35.000  
> 2025 10 30 06 19 09.4400000  0 23                     
G32  21985907.003   115536719.100       -2888.689          45.000    21985901.042    90028588.958       -2251.064          42.000  
G29  23065609.664   121210606.967        -541.839          42.000    23065601.160    94449793.162        -422.523          41.000  
G28  21238672.144   111609974.931       -1172.686          45.000    21238661.262    86968770.723        -913.876          46.000  
G26  20352694.168   106954129.432         725.067          48.000    20352687.253    83340861.238         565.070          47.000  
G31  20625162.258   108385957.368         173.785          47.000    20625151.180    84456549.116         135.412          46.000  
G04  24530037.484                        3185.009          30.000    24530036.177   100446409.768        2482.496          35.000  
C33  22496231.998   117143779.357        -657.689          50.000                                                                  
C06  36571181.549   190435741.289        -161.791          45.000    36571164.759   147256924.141        -124.990          48.000  
C14  22644557.735   117916141.317       -2222.789          46.000    22644543.452    91180186.541       -1718.784          51.000  
C16  36998704.506   192661961.468        -193.409          48.000    36998692.851   148978402.230        -149.687          48.000  
C24  21832162.807   113685804.529        -844.808          49.000                                                                  
C26  24397973.103   127046645.236       -2557.930          44.000                                                                  
G03  22887404.413   120274115.262         -72.021          39.000    22887398.646    93720066.359         -56.295          39.000  
G16  22466000.985   118059640.504        3008.284          41.000                                                                  
C09  37722799.468   196432517.953        -151.385          43.000    37722785.527   151894025.529        -117.150          48.000  
C25  23667775.873   123244329.568        1588.513          44.000                                                                  
C13  38337259.339   199632165.063       -2255.503          41.000    38337253.523   154368232.132       -1743.968          43.000  
C08  39164490.492   203939775.138       -2454.816          36.000    39164478.803   157699124.810       -1898.441          43.000  
C10  40508187.634   210936769.629         933.822          34.000    40508188.802   163109668.696         721.834          38.000  
C35  25958837.502   135174484.991         420.533          38.000                                                                  
C07  39574497.878   206074800.007        1121.208          38.000    39574487.812   159350056.338         867.021          41.000  
C12  26483602.554   137907118.282        2303.213          35.000    26483602.869   106638503.512        1780.853          42.000  
G25  24349032.837   127955040.107       -3910.688          34.000    24349026.860    99705190.021       -3047.087          35.000  
> 2025 10 30 06 19 09.4800000  0 23                     
G32  21985928.978   115536834.644       -2888.610          45.000    21985923.025    90028678.979       -2250.697          42.000  
G29  23065613.781   121210628.628        -541.615          42.000    23065605.276    94449810.037        -422.106          41.000  
G28  21238681.048   111610021.838       -1172.657          45.000    21238670.179    86968807.273        -913.797          46.000  
G26  20352688.653   106954100.420         725.215          48.000    20352681.717    83340838.632         565.125          47.000  
G31  20625160.950   108385950.409         173.915          47.000    20625149.844    84456543.693         135.517          46.000  
G04  24530013.267                        3185.628          30.000    24530011.901   100446310.451        2482.730          35.000  
C33  22496237.046   117143805.666        -657.697          50.000                                                                  
C06  36571182.763   190435747.751        -161.632          45.000    36571166.000   147256929.147        -125.073          48.000  
C14  22644574.820   117916230.224       -2222.764          46.000    22644560.543    91180255.289       -1718.746          51.000  
C16  36998705.994   192661969.192        -193.187          48.000    36998694.345   148978408.204        -149.460          48.000  
C24  21832169.285   113685838.318        -844.734          49.000                                                                  
C26  24397992.785   127046747.548       -2557.820          44.000                                                                  
G03  22887404.966   120274118.148         -72.114          39.000    22887399.181    93720068.606         -56.278          39.000  
G16  22465978.077   118059520.163        3008.461          41.000                                                                  
C09  37722800.626   196432523.992        -151.059          43.000    37722786.693   151894030.205        -116.962          48.000  
C25  23667763.673   123244266.008        1588.857          44.000                                                                  
C13  38337276.674   199632255.275       -2255.352          41.000    38337270.863   154368301.887       -1743.939          43.000  
C08  39164509.340   203939873.320       -2454.476          36.000    39164497.670   157699200.727       -1898.128          43.000  
C10  40508180.432   210936732.278         933.937          34.000    40508181.621   163109639.824         721.780          38.000  
C35  25958834.270   135174468.184         420.229          38.000                                                                  
C07  39574489.264   206074755.171        1121.004          39.000    39574479.193   159350021.640         867.350          41.000  
C12  26483584.844   137907026.149        2303.335          35.000    26483585.186   106638432.269        1781.001          42.000  
G25  24349062.612   127955196.538       -3910.586          34.000    24349056.631    99705311.917       -3047.207          35.000  
> 2025 10 30 06 19 09.5200000  0 23                     
G32  21985950.969   115536950.193       -2888.679          45.000    21985945.019    90028769.022       -2250.919          42.000  
G29  23065617.909   121210650.311        -541.912          42.000    23065609.397    94449826.920        -421.996          41.000  
G28  21238689.988   111610068.750       -1172.734          45.000    21238679.115    86968843.823        -913.753          46.000  
G26  20352683.116   106954071.417         725.127          48.000    20352676.210    83340816.033         565.044          47.000  
G31  20625159.631   108385943.455         173.889          47.000    20625148.523    84456538.280         135.374          45.000  
G04  24529988.982                        3186.873          30.000    24529987.657   100446211.161        2482.384          35.000  
C33  22496242.081   117143831.976        -657.748          50.000                                                                  
C06  36571183.997   190435754.224        -161.730          45.000    36571167.288   147256934.152        -125.107          48.000  
C14  22644591.878   117916319.139       -2222.897          46.000    22644577.616    91180324.040       -1718.790          51.000  
C16  36998707.466   192661976.931        -193.336          48.000    36998695.865   148978414.180        -149.401          48.000  
C24  21832175.782   113685872.114        -844.843          49.000                                                                  
C26  24398012.406   127046849.873       -2557.996          44.000                                                                  
G03  22887405.513   120274121.037         -72.190          39.000    22887399.731    93720070.856         -56.270          39.000  
G16  22465955.151   118059399.830        3008.385          41.000                                                                  
C09  37722801.775   196432530.046        -151.187          43.000    37722787.844   151894034.884        -116.953          48.000  
C25  23667751.459   123244202.464        1588.721          44.000                                                                  
C13  38337293.982   199632345.493       -2255.421          41.000    38337288.190   154368371.649       -1744.052          43.000  
C08  39164528.195   203939971.505       -2454.492          36.000    39164516.521   157699276.669       -1898.392          43.000  
C10  40508173.230   210936694.960         933.351          34.000    40508174.451   163109610.969         721.424          38.000  
C35  25958831.052   135174451.363         420.332          38.000                                                                  
C07  39574480.671   206074710.298        1121.573          38.000    39574470.552   159349986.968         867.056          41.000  
C12  26483567.167   137906934.017        2303.402          35.000    26483567.496   106638361.042        1780.753          42.000  
G25  24349092.378   127955352.971       -3910.616          34.000    24349086.425    99705433.825       -3047.575          35.000  
> 2025 10 30 06 19 09.5600000  0 23                     
G32  21985972.991   115537065.752       -2888.893          45.000    21985967.014    90028859.063       -2250.982          42.000  
G29  23065622.051   121210671.990        -541.998          42.000    23065613.508    94449843.805        -422.070          41.000  
G28  21238698.896   111610115.653       -1172.640          45.000    21238688.033    86968880.368        -913.650          46.000  
G26  20352677.619   106954042.416         725.072          48.000    20352670.716    83340793.438         564.914          47.000  
G31  20625158.325   108385936.506         173.784          47.000    20625147.227    84456532.863         135.344          45.000  
G04  24529964.745                        3187.322          30.000    24529963.405   100446111.841        2482.799          35.000  
C33  22496247.115   117143858.291        -657.868          50.000                                                                  
C06  36571185.253   190435760.700        -161.815          45.000    36571168.548   147256939.154        -125.088          48.000  
C14  22644608.970   117916408.040       -2222.666          46.000    22644594.688    91180392.790       -1718.770          51.000  
C16  36998708.921   192661984.671        -193.460          48.000    36998697.357   148978420.162        -149.490          48.000  
C24  21832182.263   113685905.907        -844.875          49.000                                                                  
C26  24398032.089   127046952.190       -2557.968          44.000                                                                  
G03  22887406.069   120274123.932         -72.398          39.000    22887400.259    93720073.098         -56.152          39.000  
G16  22465932.260   118059279.493        3008.411          41.000                                                                  
C09  37722802.945   196432536.112        -151.486          43.000    37722788.997   151894039.562        -116.955          48.000  
C25  23667739.260   123244138.919        1588.634          44.000                                                                  
C13  38337311.326   199632435.703       -2255.296          41.000    38337305.514   154368441.413       -1744.151          43.000  
C08  39164547.033   203940069.712       -2454.938          36.000    39164535.404   157699352.600       -1898.362          43.000  
C10  40508166.065   210936657.615         933.555          34.000    40508167.283   163109582.102         721.467          38.000  
C35  25958827.831   135174434.544         420.403          38.000                                                                  
C07  39574472.066   206074665.449        1121.432          38.000    39574461.957   159349952.278         867.165          41.000  
C12  26483549.481   137906841.899        2303.148          35.000    26483549.801   106638289.815        1780.662          42.000  
G25  24349122.132   127955509.398       -3910.625          34.000    24349116.215    99705555.710       -3047.412          35.000  
> 2025 10 30 06 19 09.6000000  0 23                     
G32  21985994.965   115537181.300       -2888.812          45.000    21985989.015    90028949.112       -2251.174          42.000  
G29  23065626.177   121210693.670        -542.060          42.000    23065617.646    94449860.705        -422.424          41.000  
G28  21238707.850   111610162.564       -1172.723          45.000    21238696.958    86968916.922        -913.790          46.000  
G26  20352672.107   106954013.408         725.159          48.000    20352665.194    83340770.837         564.952          47.000  
G31  20625156.999   108385929.551         173.840          47.000    20625145.908    84456527.443         135.387          46.000  
G04  24529940.515                        3185.936          30.000    24529939.151   100446012.539        2482.649          35.000  
C33  22496252.213   117143884.603        -657.874          50.000                                                                  
C06  36571186.497   190435767.164        -161.676          45.000    36571169.782   147256944.159        -125.122          48.000  
C14  22644626.060   117916496.945       -2222.623          46.000    22644611.759    91180461.540       -1718.770          51.000  
C16  36998710.406   192661992.408        -193.491          48.000    36998698.844   148978426.147        -149.620          48.000  
C24  21832188.762   113685939.701        -844.880          49.000                                                                  
C26  24398051.756   127047054.502       -2557.863          44.000                                                                  
G03  22887406.604   120274126.812         -72.220          39.000    22887400.809    93720075.350         -56.266          39.000  
G16  22465909.389   118059159.174        3008.096          41.000                                                                  
C09  37722804.121   196432542.167        -151.431          43.000    37722790.174   151894044.242        -117.014          48.000  
C25  23667727.066   123244075.366        1588.751          44.000                                                                  
C13  38337328.649   199632525.913       -2255.248          41.000    38337322.837   154368511.174       -1744.113          43.000  
C08  39164565.895   203940167.924       -2455.203          36.000    39164554.256   157699428.535       -1898.391          43.000  
C10  40508158.904   210936620.304         933.001          34.000    40508160.089   163109553.234         721.526          38.000  
C35  25958824.600   135174417.718         420.591          38.000                                                                  
C07  39574463.427   206074620.583        1121.544          38.000    39574453.350   159349917.595         867.112          41.000  
C12  26483531.783   137906749.779        2303.025          35.000    26483532.105   106638218.580        1780.767          42.000  
G25  24349151.884   127955665.807       -3910.214          34.000    24349145.989    99705677.605       -3047.456          35.000  
> 2025 10 30 06 19 09.6400000  0 23                     
G32  21986016.951   115537296.854       -2888.861          45.000    21986010.994    90029039.150       -2251.066          42.000  
G29  23065630.308   121210715.343        -541.932          42.000    23065621.791    94449877.601        -422.489          41.000  
G28  21238716.775   111610209.476       -1172.788          45.000    21238705.907    86968953.478        -913.881          46.000  
G26  20352666.606   106953984.408         725.034          48.000    20352659.645    83340748.239         564.933          47.000  
G31  20625155.672   108385922.594         173.883          47.000    20625144.594    84456522.024         135.406          46.000  
G04  24529916.227                        3185.397          30.000    24529914.899   100445913.231        2482.683          35.000  
C33  22496257.273   117143910.912        -657.783          50.000                                                                  
C06  36571187.764   190435773.634        -161.722          45.000    36571171.002   147256949.169        -125.205          48.000  
C14  22644643.128   117916585.858       -2222.745          46.000    22644628.848    91180530.290       -1718.776          51.000  
C16  36998711.880   192662000.141        -193.397          48.000    36998700.359   148978432.132        -149.655          48.000  
C24  21832195.260   113685973.491        -844.806          49.000                                                                  
C26  24398071.387   127047156.828       -2558.058          44.000                                                                  
G03  22887407.148   120274129.710         -72.400          39.000    22887401.370    93720077.627         -56.793          39.000  
G16  22465886.491   118059038.844        3008.153          41.000                                                                  
C09  37722805.291   196432548.230        -151.544          43.000    37722791.331   151894048.926        -117.070          48.000  
C25  23667714.860   123244011.824        1588.634          44.000                                                                  
C13  38337345.983   199632616.124       -2255.223          41.000    38337340.139   154368580.928       -1743.956          43.000  
C08  39164584.757   203940266.115       -2454.950          36.000    39164573.113   157699504.462       -1898.279          43.000  
C10  40508151.742   210936582.973         933.149          34.000    40508152.914   163109524.377         721.388          38.000  
C35  25958821.379   135174400.908         420.395          38.000                                                                  
C07  39574454.818   206074575.724        1121.417          38.000    39574444.733   159349882.912         867.080          41.000  
C12  26483514.106   137906657.660        2302.934          35.000    26483514.396   106638147.344        1780.847          42.000  
G25  24349181.663   127955822.245       -3910.582          34.000    24349175.756    99705799.514       -3047.740          35.000  
> 2025 10 30 06 19 09.6800000  0 23                     
G32  21986038.948   115537412.404       -2888.796          45.000    21986032.965    90029129.185       -2250.942          42.000  
G29  23065634.446   121210737.013        -541.800          42.000    23065625.912    94449894.486        -422.330          41.000  
G28  21238725.692   111610256.380       -1172.700          45.000    21238714.836    86968990.031        -913.912          46.000  
G26  20352661.051   106953955.406         725.016          48.000    20352654.121    83340725.638         564.971          47.000  
G31  20625154.346   108385915.644         173.765          47.000    20625143.267    84456516.601         135.542          46.000  
G04  24529892.011                        3185.737          30.000    24529890.659   100445813.927        2482.557          35.000  
C33  22496262.332   117143937.221        -657.745          50.000                                                                  
C06  36571189.009   190435780.095        -161.639          45.000    36571172.216   147256954.162        -124.979          48.000  
C14  22644660.212   117916674.767       -2222.777          46.000    22644645.922    91180599.038       -1718.726          51.000  
C16  36998713.394   192662007.867        -193.222          48.000    36998701.837   148978438.105        -149.432          48.000  
C24  21832201.745   113686007.287        -844.864          49.000                                                                  
C26  24398091.029   127047259.144       -2557.987          44.000                                                                  
G03  22887407.699   120274132.601         -72.329          39.000    22887401.917    93720079.864         -56.296          39.000  
G16  22465863.577   118058918.510        3008.250          41.000                                                                  
C09  37722806.435   196432554.275        -151.296          43.000    37722792.497   151894053.606        -117.057          48.000  
C25  23667702.703   123243948.277        1588.641          44.000                                                                  
C13  38337363.289   199632706.333       -2255.212          41.000    38337357.437   154368650.672       -1743.665          43.000  
C08  39164603.639   203940364.313       -2454.892          36.000    39164591.970   157699580.384       -1898.114          43.000  
C10  40508144.563   210936545.596         934.070          34.000    40508145.738   163109495.491         721.899          38.000  
C35  25958818.158   135174384.096         420.263          38.000                                                                  
C07  39574446.212   206074530.876        1121.177          38.000    39574436.130   159349848.229         867.024          41.000  
C12  26483496.401   137906565.560        2302.496          35.000    26483496.709   106638076.110        1780.834          42.000  
G25  24349211.432   127955978.701       -3911.120          34.000    24349205.497    99705921.380       -3047.083          35.000  
> 2025 10 30 06 19 09.7200000  0 23                     
G32  21986060.944   115537527.961       -2888.921          45.000    21986054.939    90029219.226       -2250.984          42.000  
G29  23065638.580   121210758.693        -541.934          42.000    23065630.044    94449911.378        -422.368          41.000  
G28  21238734.612   111610303.288       -1172.717          45.000    21238723.747    86969026.585        -913.936          46.000  
G26  20352655.508   106953926.400         725.091          48.000    20352648.596    83340703.039         564.939          47.000  
G31  20625153.029   108385908.693         173.735          47.000    20625141.956    84456511.180         135.553          46.000  
G04  24529867.790                        3186.688          30.000    24529866.423   100445714.648        2482.090          35.000  
C33  22496267.370   117143963.532        -657.784          50.000                                                                  
C06  36571190.262   190435786.564        -161.694          45.000    36571173.435   147256959.164        -125.005          48.000  
C14  22644677.263   117916763.680       -2222.826          46.000    22644662.981    91180667.788       -1718.752          51.000  
C16  36998714.891   192662015.594        -193.157          48.000    36998703.267   148978444.081        -149.404          48.000  
C24  21832208.210   113686041.083        -844.903          49.000                                                                  
C26  24398110.663   127047361.467       -2558.046          44.000                                                                  
G03  22887408.243   120274135.482         -72.115          39.000    22887402.452    93720082.102         -56.002          39.000  
G16  22465840.682   118058798.172        3008.364          41.000                                                                  
C09  37722807.579   196432560.327        -151.267          43.000    37722793.662   151894058.289        -117.114          48.000  
C25  23667690.497   123243884.732        1588.616          44.000                                                                  
C13  38337380.618   199632796.550       -2255.349          41.000    38337374.766   154368720.437       -1743.979          43.000  
C08  39164622.492   203940462.503       -2454.788          36.000    39164610.828   157699656.321       -1898.313          43.000  
C10  40508137.399   210936508.310         932.806          34.000    40508138.561   163109466.613         721.962          38.000  
C35  25958814.918   135174367.280         420.290          38.000                                                                  
C07  39574437.607   206074486.020        1121.265          39.000    39574427.517   159349813.551         866.922          41.000  
C12  26483478.721   137906473.428        2302.998          36.000    26483479.019   106638004.866        1781.013          42.000  
G25  24349241.217   127956135.099       -3910.467          34.000    24349235.245    99706043.264       -3047.008          35.000  
> 2025 10 30 06 19 09.7600000  0 23                     
G32  21986082.935   115537643.512       -2888.846          45.000    21986076.927    90029309.275       -2251.186          42.000  
G29  23065642.718   121210780.378        -542.084          42.000    23065634.175    94449928.279        -422.570          41.000  
G28  21238743.549   111610350.199       -1172.762          45.000    21238732.675    86969063.135        -913.847          46.000  
G26  20352650.011   106953897.402         725.017          48.000    20352643.082    83340680.443         564.884          47.000  
G31  20625151.690   108385901.739         173.760          47.000    20625140.652    84456505.764         135.442          46.000  
G04  24529843.540                        3186.212          30.000    24529842.178   100445615.349        2482.166          35.000  
C33  22496272.385   117143989.849        -657.892          50.000                                                                  
C06  36571191.511   190435793.043        -161.930          45.000    36571174.651   147256964.168        -125.059          48.000  
C14  22644694.340   117916852.593       -2222.844          46.000    22644680.051    91180736.543       -1718.846          51.000  
C16  36998716.365   192662023.331        -193.309          48.000    36998704.740   148978450.057        -149.408          48.000  
C24  21832214.756   113686074.875        -844.850          50.000                                                                  
C26  24398130.330   127047463.787       -2558.016          44.000                                                                  
G03  22887408.797   120274138.379         -72.305          39.000    22887403.016    93720084.366         -56.319          39.000  
G16  22465817.798   118058677.850        3008.145          41.000                                                                  
C09  37722808.747   196432566.372        -151.155          43.000    37722794.826   151894062.972        -117.119          48.000  
C25  23667678.302   123243821.185        1588.647          44.000                                                                  
C13  38337397.960   199632886.761       -2255.311          41.000    38337392.085   154368790.201       -1744.134          43.000  
C08  39164641.346   203940560.704       -2454.997          36.000    39164629.685   157699732.251       -1898.278          43.000  
C10  40508130.218   210936470.957         933.310          34.000    40508131.399   163109437.744         721.824          38.000  
C35  25958811.695   135174350.467         420.297          38.000                                                                  
C07  39574428.979   206074441.180        1120.999          39.000    39574418.885   159349778.873         866.895          41.000  
C12  26483461.033   137906381.277        2303.545          35.000    26483461.329   106637933.634        1780.908          42.000  
G25  24349270.992   127956291.549       -3910.990          34.000    24349264.996    99706165.164       -3047.258          35.000  
> 2025 10 30 06 19 09.8000000  0 23                     
G32  21986104.925   115537759.061       -2888.769          45.000    21986098.923    90029399.310       -2251.034          42.000  
G29  23065646.845   121210802.056        -542.031          42.000    23065638.294    94449945.162        -422.270          41.000  
G28  21238752.473   111610397.106       -1172.735          45.000    21238741.587    86969099.686        -913.808          46.000  
G26  20352644.485   106953868.407         724.911          48.000    20352637.556    83340657.845         564.903          47.000  
G31  20625150.341   108385894.787         173.779          47.000    20625139.336    84456500.351         135.319          46.000  
G04  24529819.305                        3186.332          30.000    24529817.916   100445516.022        2482.716          35.000  
C33  22496277.452   117144016.164        -657.916          50.000                                                                  
C06  36571192.765   190435799.511        -161.844          45.000    36571175.901   147256969.167        -125.026          48.000  
C14  22644711.414   117916941.502       -2222.766          46.000    22644697.140    91180805.298       -1718.903          51.000  
C16  36998717.867   192662031.069        -193.425          48.000    36998706.199   148978456.037        -149.468          48.000  
C24  21832221.239   113686108.667        -844.825          50.000                                                                  
C26  24398149.966   127047566.098       -2557.860          44.000                                                                  
G03  22887409.356   120274141.260         -72.123          39.000    22887403.557    93720086.614         -56.230          39.000  
G16  22465794.871   118058557.516        3008.189          41.000                                                                  
C09  37722809.912   196432572.429        -151.355          43.000    37722795.990   151894067.652        -117.074          48.000  
C25  23667666.081   123243757.637        1588.678          44.000                                                                  
C13  38337415.298   199632976.968       -2255.206          41.000    38337409.433   154368859.956       -1744.040          43.000  
C08  39164660.201   203940658.877       -2454.649          36.000    39164648.566   157699808.186       -1898.384          43.000  
C10  40508123.015   210936433.618         933.465          34.000    40508124.230   163109408.868         721.803          38.000  
C35  25958808.444   135174333.638         420.523          38.000                                                                  
C07  39574420.374   206074396.320        1121.262          39.000    39574410.247   159349744.169         867.382          41.000  
C12  26483443.331   137906289.150        2303.414          35.000    26483443.683   106637862.404        1780.784          42.000  
G25  24349300.721   127956447.970       -3910.802          34.000    24349294.755    99706287.063       -3047.356          35.000  
> 2025 10 30 06 19 09.8400000  0 23                     
G32  21986126.917   115537874.614       -2888.809          45.000    21986120.911    90029489.356       -2251.111          42.000  
G29  23065650.949   121210823.734        -541.980          42.000    23065642.414    94449962.042        -422.045          41.000  
G28  21238761.411   111610444.019       -1172.814          45.000    21238750.493    86969136.235        -913.763          46.000  
G26  20352638.954   106953839.404         724.968          48.000    20352632.032    83340635.248         564.897          47.000  
G31  20625149.004   108385887.830         173.871          47.000    20625138.006    84456494.934         135.332          46.000  
G04  24529795.052                        3185.380          30.000    24529793.675   100445416.686        2483.385          35.000  
C33  22496282.547   117144042.475        -657.845          50.000                                                                  
C06  36571194.010   190435805.980        -161.790          45.000    36571177.141   147256974.173        -125.106          48.000  
C14  22644728.491   117917030.414       -2222.779          46.000    22644714.210    91180874.047       -1718.832          51.000  
C16  36998719.362   192662038.791        -193.196          48.000    36998707.649   148978462.018        -149.524          48.000  
C24  21832227.712   113686142.458        -844.822          50.000                                                                  
C26  24398169.609   127047668.411       -2557.826          44.000                                                                  
G03  22887409.904   120274144.161         -72.400          39.000    22887404.095    93720088.866         -56.282          39.000  
G16  22465771.969   118058437.185        3008.163          41.000                                                                  
C09  37722811.073   196432578.479        -151.335          43.000    37722797.149   151894072.329        -116.998          48.000  
C25  23667653.871   123243694.091        1588.634          44.000                                                                  
C13  38337432.620   199633067.190       -2255.481          41.000    38337426.753   154368929.714       -1744.021          43.000  
C08  39164679.059   203940757.104       -2455.328          36.000    39164667.440   157699884.107       -1898.212          43.000  
C10  40508115.845   210936396.247         934.004          34.000    40508117.069   163109380.005         721.608          38.000  
C35  25958805.208   135174316.807         420.780          38.000                                                                  
C07  39574411.760   206074351.469        1121.241          39.000    39574401.629   159349709.487         867.207          41.000  
C12  26483425.642   137906197.027        2303.185          35.000    26483425.996   106637791.158        1780.982          42.000  
G25  24349330.478   127956604.377       -3910.385          34.000    24349324.526    99706408.931       -3046.907          35.000  
> 2025 10 30 06 19 09.8800000  0 23                     
G32  21986148.907   115537990.170       -2888.893          46.000    21986142.923    90029579.402       -2251.175          42.000  
G29  23065655.092   121210845.418        -542.069          42.000    23065646.540    94449978.956        -422.627          41.000  
G28  21238770.319   111610490.915       -1172.560          45.000    21238759.399    86969172.790        -913.846          46.000  
G26  20352633.453   106953810.402         725.011          48.000    20352626.491    83340612.653         564.866          47.000  
G31  20625147.669   108385880.872         173.951          47.000    20625136.675    84456489.520         135.283          45.000  
G04  24529770.809                        3185.953          30.000    24529769.410   100445317.358        2483.469          35.000  
C33  22496287.592   117144068.793        -657.940          50.000                                                                  
C06  36571195.255   190435812.447        -161.732          45.000    36571178.389   147256979.173        -125.072          48.000  
C14  22644745.554   117917119.327       -2222.823          46.000    22644731.296    91180942.798       -1718.826          51.000  
C16  36998720.860   192662046.524        -193.277          48.000    36998709.120   148978467.997        -149.523          48.000  
C24  21832234.189   113686176.250        -844.816          50.000                                                                  
C26  24398189.257   127047770.727       -2557.883          44.000                                                                  
G03  22887410.465   120274147.055         -72.430          39.000    22887404.654    93720091.122         -56.285          39.000  
G16  22465749.074   118058316.862        3008.004          41.000                                                                  
C09  37722812.237   196432584.522        -151.182          43.000    37722798.307   151894077.004        -116.918          48.000  
C25  23667641.682   123243630.544        1588.641          45.000                                                                  
C13  38337449.952   199633157.406       -2255.491          41.000    38337444.093   154368999.475       -1744.071          43.000  
C08  39164697.917   203940855.265       -2454.483          36.000    39164686.284   157699960.036       -1898.198          43.000  
C10  40508108.693   210936358.929         933.322          34.000    40508109.906   163109351.125         721.866          38.000  
C35  25958801.968   135174300.001         420.367          38.000                                                                  
C07  39574403.124   206074306.602        1121.479          39.000    39574393.002   159349674.815         866.847          41.000  
C12  26483407.934   137906104.896        2303.234          35.000    26483408.286   106637719.920        1780.963          42.000  
G25  24349360.217   127956760.802       -3910.481          34.000    24349354.278    99706530.834       -3047.466          35.000  
> 2025 10 30 06 19 09.9200000  0 23                     
G32  21986170.903   115538105.725       -2888.911          46.000    21986164.922    90029669.449       -2251.212          42.000  
G29  23065659.215   121210867.106        -542.213          42.000    23065650.659    94449995.852        -422.546          41.000  
G28  21238779.249   111610537.828       -1172.697          45.000    21238768.329    86969209.347        -913.965          46.000  
G26  20352627.931   106953781.410         724.862          48.000    20352620.961    83340590.057         564.860          47.000  
G31  20625146.354   108385873.921         173.846          47.000    20625135.340    84456484.103         135.332          46.000  
G04  24529746.571                        3186.293          30.000    24529745.165   100445218.088        2482.421          35.000  
C33  22496292.648   117144095.111        -657.990          50.000                                                                  
C06  36571196.479   190435818.908        -161.582          45.000    36571179.620   147256984.175        -125.063          48.000  
C14  22644762.635   117917208.235       -2222.734          46.000    22644748.374    91181011.559       -1718.984          51.000  
C16  36998722.329   192662054.264        -193.438          48.000    36998710.602   148978473.974        -149.478          48.000  
C24  21832240.668   113686210.047        -844.893          50.000                                                                  
C26  24398208.894   127047873.048       -2557.994          44.000                                                                  
G03  22887411.033   120274149.964         -72.705          39.000    22887405.203    93720093.383         -56.475          39.000  
G16  22465726.205   118058196.532        3008.145          41.000                                                                  
C09  37722813.414   196432590.578        -151.310          43.000    37722799.468   151894081.682        -116.958          48.000  
C25  23667629.480   123243566.991        1588.752          45.000                                                                  
C13  38337467.290   199633247.610       -2255.228          41.000    38337461.413   154369069.232       -1744.021          43.000  
C08  39164716.786   203940953.477       -2454.973          36.000    39164705.153   157700035.965       -1898.207          43.000  
C10  40508101.522   210936321.588         933.312          34.000    40508102.720   163109322.253         721.899          38.000  
C35  25958798.731   135174283.200         420.054          38.000                                                                  
C07  39574394.512   206074261.729        1121.740          39.000    39574384.400   159349640.121         867.078          41.000  
C12  26483390.260   137906012.784        2302.833          35.000    26483390.577   106637648.680        1780.994          42.000  
G25  24349389.975   127956917.216       -3910.427          34.000    24349384.058    99706652.761       -3048.142          35.000  
> 2025 10 30 06 19 09.9600000  0 23                     
G32  21986192.896   115538221.280       -2888.937          46.000    21986186.907    90029759.486       -2251.062          42.000  
G29  23065663.354   121210888.777        -541.953          42.000    23065654.789    94450012.750        -422.525          41.000  
G28  21238788.184   111610584.736       -1172.732          45.000    21238777.240    86969245.893        -913.802          46.000  
G26  20352622.377   106953752.412         724.876          48.000    20352615.434    83340567.466         564.754          47.000  
G31  20625145.061   108385866.972         173.729          47.000    20625134.021    84456478.671         135.671          46.000  
G04  24529722.302                        3186.937          30.000    24529720.910   100445118.784        2482.338          35.000  
C33  22496297.691   117144121.423        -657.886          50.000                                                                  
C06  36571197.692   190435825.373        -161.615          45.000    36571180.862   147256989.170        -124.939          48.000  
C14  22644779.730   117917297.144       -2222.730          46.000    22644765.454    91181080.307       -1718.811          51.000  
C16  36998723.820   192662061.989        -193.274          48.000    36998712.107   148978479.947        -149.388          48.000  
C24  21832247.157   113686243.839        -844.859          50.000                                                                  
C26  24398228.514   127047975.364       -2557.981          44.000                                                                  
G03  22887411.574   120274152.860         -72.589          39.000    22887405.761    93720095.642         -56.537          39.000  
G16  22465703.317   118058076.188        3008.465          41.000                                                                  
C09  37722814.563   196432596.632        -151.361          43.000    37722800.637   151894086.364        -117.033          48.000  
C25  23667617.274   123243503.440        1588.776          45.000                                                                  
C13  38337484.606   199633337.809       -2254.993          41.000    38337478.760   154369138.982       -1743.846          43.000  
C08  39164735.634   203941051.668       -2454.875          36.000    39164724.051   157700111.891       -1898.153          43.000  
C10  40508094.360   210936284.251         933.323          34.000    40508095.567   163109293.378         721.915          38.000  
C35  25958795.487   135174266.397         419.965          38.000                                                                  
C07  39574385.907   206074216.889        1121.236          39.000    39574375.765   159349605.437         867.079          41.000  
C12  26483372.554   137905920.653        2303.075          36.000    26483372.887   106637577.437        1781.049          42.000  
G25  24349419.730   127957073.623       -3910.260          34.000    24349413.830    99706774.640       -3047.590          35.000  
> 2025 10 30 06 19 10.0000000  0 23                     
G32  21986214.896   115538336.830       -2888.810          46.000    21986208.891    90029849.511       -2250.706          42.000  
G29  23065667.491   121210910.455        -541.923          42.000    23065658.898    94450029.636        -422.299          41.000  
G28  21238797.105   111610631.640       -1172.671          45.000    21238786.157    86969282.439        -913.703          46.000  
G26  20352616.847   106953723.407         725.006          48.000    20352609.905    83340544.864         564.917          47.000  
G31  20625143.728   108385860.012         173.908          47.000    20625132.719    84456473.244         135.732          46.000  
G04  24529698.052                        3186.532          30.000    24529696.663   100445019.481        2482.407          35.000  
C33  22496302.792   117144147.737        -657.881          50.000                                                                  
C06  36571198.912   190435831.834        -161.543          45.000    36571182.092   147256994.162        -124.810          48.000  
C14  22644796.781   117917386.051       -2222.698          46.000    22644782.547    91181149.053       -1718.678          51.000  
C16  36998725.320   192662069.709        -193.074          48.000    36998713.593   148978485.919        -149.325          48.000  
C24  21832253.662   113686277.628        -844.760          50.000                                                                  
C26  24398248.179   127048077.669       -2557.783          44.000                                                                  
G03  22887412.132   120274155.750         -72.419          39.000    22887406.311    93720097.905         -56.636          39.000  
G16  22465680.411   118057955.858        3008.384          41.000                                                                  
C09  37722815.750   196432602.678        -151.239          43.000    37722801.809   151894091.041        -116.955          48.000  
C25  23667605.087   123243439.889        1588.800          45.000                                                                  
C13  38337501.904   199633428.012       -2254.970          41.000    38337496.090   154369208.733       -1743.772          43.000  
C08  39164754.489   203941149.867       -2454.889          36.000    39164742.911   157700187.827       -1898.301          43.000  
C10  40508087.181   210936246.898         933.802          34.000    40508088.375   163109264.512         721.722          38.000  
C35  25958792.270   135174249.574         420.263          38.000                                                                  
C07  39574377.266   206074172.023        1121.394          38.000    39574367.174   159349570.746         867.217          41.000  
C12  26483354.858   137905828.525        2303.156          36.000    26483355.196   106637506.198        1780.993          42.000  
G25  24349449.515   127957230.059       -3910.582          34.000    24349443.582    99706896.520       -3047.278          35.000  
> 2025 10 30 06 19 10.0400000  0 23                     
G32  21986236.883   115538452.380       -2888.761          46.000    21986230.858    90029939.548       -2250.800          42.000  
G29  23065671.602   121210932.139        -542.076          42.000    23065663.021    94450046.532        -422.365          41.000  
G28  21238806.022   111610678.547       -1172.673          45.000    21238795.078    86969318.984        -913.647          46.000  
G26  20352611.318   106953694.399         725.148          48.000    20352604.391    83340522.262         565.022          47.000  
G31  20625142.401   108385853.059         173.840          47.000    20625131.397    84456467.823         135.595          46.000  
G04  24529673.803                        3185.752          30.000    24529672.412   100444920.171        2482.656          35.000  
C33  22496307.840   117144174.050        -657.869          50.000                                                                  
C06  36571200.142   190435838.298        -161.567          45.000    36571183.343   147256999.154        -124.757          48.000  
C14  22644813.862   117917474.963       -2222.782          46.000    22644799.621    91181217.795       -1718.580          51.000  
C16  36998726.777   192662077.426        -192.917          48.000    36998715.103   148978491.890        -149.290          48.000  
C24  21832260.149   113686311.417        -844.751          50.000                                                                  
C26  24398267.807   127048179.975       -2557.654          44.000                                                                  
G03  22887412.695   120274158.642         -72.396          39.000    22887406.873    93720100.130         -55.942          39.000  
G16  22465657.498   118057835.517        3008.516          41.000                                                                  
C09  37722816.921   196432608.716        -151.030          44.000    37722802.966   151894095.711        -116.798          48.000  
C25  23667592.889   123243376.337        1588.800          45.000                                                                  
C13  38337519.244   199633518.225       -2255.196          41.000    38337513.420   154369278.476       -1743.587          43.000  
C08  39164773.344   203941248.042       -2454.475          36.000    39164761.771   157700263.753       -1898.218          43.000  
C10  40508080.034   210936209.554         933.813          34.000    40508081.206   163109235.621         722.092          38.000  
C35  25958789.039   135174232.750         420.521          38.000                                                                  
C07  39574368.644   206074127.159        1121.551          38.000    39574358.526   159349536.051         867.322          41.000  
C12  26483337.198   137905736.380        2303.469          36.000    26483337.495   106637434.967        1780.789          42.000  
G25  24349479.268   127957386.497       -3910.938          34.000    24349473.341    99707018.343       -3046.002          35.000  
> 2025 10 30 06 19 10.0800000  0 23                     
G32  21986258.859   115538567.925       -2888.673          46.000    21986252.843    90030029.607       -2251.283          42.000  
G29  23065675.742   121210953.822        -542.087          42.000    23065667.153    94450063.430        -422.440          41.000  
G28  21238814.947   111610725.449       -1172.600          45.000    21238804.018    86969355.540        -913.834          46.000  
G26  20352605.790   106953665.405         724.948          48.000    20352598.857    83340499.662         565.015          47.000  
G31  20625141.096   108385846.103         173.864          47.000    20625130.076    84456462.416         135.237          46.000  
G04  24529649.563                        3185.598          30.000    24529648.135   100444820.849        2482.975          35.000  
C33  22496312.873   117144200.364        -657.863          50.000                                                                  
C06  36571201.357   190435844.762        -161.609          45.000    36571184.600   147257004.154        -124.895          48.000  
C14  22644830.943   117917563.881       -2222.908          46.000    22644816.685    91181286.552       -1718.798          51.000  
C16  36998728.263   192662085.151        -193.017          48.000    36998716.588   148978497.863        -149.324          48.000  
C24  21832266.639   113686345.205        -844.719          50.000                                                                  
C26  24398287.460   127048282.289       -2557.766          44.000                                                                  
G03  22887413.255   120274161.538         -72.428          39.000    22887407.428    93720102.402         -56.510          39.000  
G16  22465634.596   118057715.192        3008.230          41.000                                                                  
C09  37722818.074   196432614.765        -151.156          43.000    37722804.114   151894100.391        -116.908          48.000  
C25  23667580.670   123243312.787        1588.769          45.000                                                                  
C13  38337536.560   199633608.438       -2255.308          41.000    38337530.749   154369348.234       -1743.838          43.000  
C08  39164792.195   203941346.222       -2454.537          36.000    39164780.640   157700339.674       -1898.082          43.000  
C10  40508072.853   210936172.229         933.370          34.000    40508074.037   163109206.758         721.810          38.000  
C35  25958785.820   135174215.918         420.794          38.000                                                                  
C07  39574360.035   206074082.300        1121.522          38.000    39574349.910   159349501.366         867.194          41.000  
C12  26483319.496   137905644.232        2303.702          36.000    26483319.813   106637363.733        1780.741          42.000  
G25  24349509.026   127957542.942       -3911.224          34.000    24349503.111    99707140.239       -3046.614          35.000  
> 2025 10 30 06 19 10.1200000  0 23                     
G32  21986280.860   115538683.488       -2888.948          45.000    21986274.837    90030119.650       -2251.262          42.000  
G29  23065679.881   121210975.506        -542.137          42.000    23065671.279    94450080.319        -422.333          41.000  
G28  21238823.871   111610772.355       -1172.627          45.000    21238812.962    86969392.098        -913.962          46.000  
G26  20352600.278   106953636.411         724.831          48.000    20352593.350    83340477.067         564.915          47.000  
G31  20625139.780   108385839.147         173.901          47.000    20625128.754    84456457.008         135.122          46.000  
G04  24529625.310                        3186.041          30.000    24529623.883   100444721.539        2482.823          35.000  
C33  22496317.915   117144226.680        -657.921          50.000                                                                  
C06  36571202.560   190435851.229        -161.688          45.000    36571185.872   147257009.162        -125.138          48.000  
C14  22644847.986   117917652.800       -2223.027          46.000    22644833.753    91181355.312       -1718.988          51.000  
C16  36998729.725   192662092.885        -193.285          48.000    36998718.061   148978503.843        -149.448          48.000  
C24  21832273.110   113686378.999        -844.819          50.000                                                                  
C26  24398307.108   127048384.620       -2558.156          44.000                                                                  
G03  22887413.812   120274164.445         -72.653          39.000    22887408.002    93720104.670         -56.720          39.000  
G16  22465611.724   118057594.869        3008.066          41.000                                                                  
C09  37722819.224   196432620.823        -151.411          44.000    37722805.266   151894105.076        -117.099          48.000  
C25  23667568.459   123243249.236        1588.744          45.000                                                                  
C13  38337553.879   199633698.651       -2255.382          41.000    38337548.091   154369417.999       -1744.112          43.000  
C08  39164811.053   203941444.419       -2454.794          36.000    39164799.483   157700415.601       -1898.132          43.000  
C10  40508065.656   210936134.889         933.372          34.000    40508066.858   163109177.893         721.659          38.000  
C35  25958782.585   135174199.118         420.287          38.000                                                                  
C07  39574351.421   206074037.434        1121.591          38.000    39574341.262   159349466.676         867.241          41.000  
C12  26483301.801   137905552.093        2303.552          36.000    26483302.109   106637292.492        1780.889          42.000  
G25  24349538.800   127957699.350       -3910.762          34.000    24349532.878    99707262.141       -3047.195          35.000  
> 2025 10 30 06 19 10.1600000  0 23                     
G32  21986302.848   115538799.058       -2889.200          46.000    21986296.829    90030209.704       -2251.412          42.000  
G29  23065684.004   121210997.194        -542.191          42.000    23065675.406    94450097.217        -422.474          41.000  
G28  21238832.812   111610819.273       -1172.855          45.000    21238821.889    86969428.642        -913.786          46.000  
G26  20352594.772   106953607.419         724.732          48.000    20352587.844    83340454.477         564.760          47.000  
G31  20625138.485   108385832.198         173.753          47.000    20625127.419    84456451.589         135.289          46.000  
G04  24529601.045                        3185.886          30.000    24529599.625   100444622.218        2482.947          35.000  
C33  22496322.935   117144253.009        -658.187          50.000                                                                  
C06  36571203.815   190435857.696        -161.682          45.000    36571187.142   147257014.169        -125.222          48.000  
C14  22644865.073   117917741.716       -2223.025          46.000    22644850.851    91181424.070       -1719.041          51.000  
C16  36998731.177   192662100.626        -193.546          48.000    36998719.538   148978509.826        -149.581          48.000  
C24  21832279.589   113686412.798        -844.941          50.000                                                                  
C26  24398326.777   127048486.934       -2558.054          44.000                                                                  
G03  22887414.361   120274167.337         -72.442          39.000    22887408.568    93720106.939         -56.816          39.000  
G16  22465588.835   118057474.549        3007.923          41.000                                                                  
C09  37722820.376   196432626.875        -151.426          44.000    37722806.458   151894109.758        -117.123          48.000  
C25  23667556.256   123243185.697        1588.516          45.000                                                                  
C13  38337571.186   199633788.862       -2255.355          41.000    38337565.412   154369487.764       -1744.259          43.000  
C08  39164829.933   203941542.616       -2454.974          36.000    39164818.347   157700491.527       -1898.164          43.000  
C10  40508058.511   210936097.551         933.361          34.000    40508059.686   163109149.016         721.794          38.000  
C35  25958779.349   135174182.310         420.137          38.000                                                                  
C07  39574342.820   206073992.592        1121.203          38.000    39574332.625   159349431.987         867.228          41.000  
C12  26483284.099   137905459.979        2303.047          36.000    26483284.400   106637221.255        1780.889          42.000  
G25  24349568.557   127957855.797       -3911.227          34.000    24349562.656    99707384.080       -3048.179          35.000  
> 2025 10 30 06 19 10.2000000  0 23                     
G32  21986324.827   115538914.619       -2889.154          46.000    21986318.820    90030299.753       -2251.374          42.000  
G29  23065688.112   121211018.885        -542.297          42.000    23065679.541    94450114.120        -422.604          41.000  
G28  21238841.756   111610866.186       -1172.909          45.000    21238830.825    86969465.198        -913.877          46.000  
G26  20352589.269   106953578.428         724.690          48.000    20352582.340    83340431.885         564.737          47.000  
G31  20625137.187   108385825.254         173.587          47.000    20625126.096    84456446.179         135.209          46.000  
G04  24529576.789                        3186.606          30.000    24529575.394   100444522.953        2482.043          35.000  
C33  22496327.955   117144279.341        -658.366          50.000                                                                  
C06  36571205.070   190435864.166        -161.759          45.000    36571188.406   147257019.172        -125.183          48.000  
C14  22644882.126   117917830.640       -2223.137          46.000    22644867.958    91181492.831       -1719.108          51.000  
C16  36998732.703   192662108.357        -193.472          48.000    36998721.023   148978515.805        -149.564          48.000  
C24  21832286.058   113686446.598        -845.042          50.000                                                                  
C26  24398346.434   127048589.259       -2558.141          44.000                                                                  
G03  22887414.907   120274170.249         -72.707          39.000    22887409.133    93720109.206         -56.755          39.000  
G16  22465565.948   118057354.229        3007.911          41.000                                                                  
C09  37722821.562   196432632.927        -151.378          44.000    37722807.637   151894114.436        -117.070          48.000  
C25  23667544.045   123243122.157        1588.462          45.000                                                                  
C13  38337588.494   199633879.081       -2255.498          41.000    38337582.731   154369557.519       -1744.044          43.000  
C08  39164848.790   203941640.827       -2455.312          36.000    39164837.224   157700567.462       -1898.363          43.000  
C10  40508051.330   210936060.241         932.863          34.000    40508052.524   163109120.156         721.565          38.000  
C35  25958776.099   135174165.508         419.932          38.000                                                                  
C07  39574334.214   206073947.722        1121.505          38.000    39574324.032   159349397.317         866.868          41.000  
C12  26483266.416   137905367.850        2303.030          36.000    26483266.724   106637150.020        1780.852          42.000  
G25  24349598.339   127958012.218       -3910.806          34.000    24349592.449    99707505.956       -3047.554          35.000  
> 2025 10 30 06 19 10.2400000  0 23                     
G32  21986346.810   115539030.171       -2888.964          46.000    21986340.813    90030389.791       -2251.132          42.000  
G29  23065692.236   121211040.579        -542.351          42.000    23065683.646    94450131.023        -422.652          41.000  
G28  21238850.669   111610913.096       -1172.872          45.000    21238839.718    86969501.754        -913.921          46.000  
G26  20352583.728   106953549.439         724.654          48.000    20352576.837    83340409.298         564.650          47.000  
G31  20625135.863   108385818.305         173.594          47.000    20625124.769    84456440.758         135.395          46.000  
G04  24529552.555                        3185.959          30.000    24529551.143   100444423.659        2482.081          35.000  
C33  22496333.030   117144305.660        -658.170          50.000                                                                  
C06  36571206.325   190435870.637        -161.796          45.000    36571189.671   147257024.162        -124.896          48.000  
C14  22644899.205   117917919.555       -2223.020          46.000    22644885.043    91181561.586       -1719.003          51.000  
C16  36998734.215   192662116.088        -193.376          48.000    36998722.497   148978521.776        -149.386          48.000  
C24  21832292.580   113686480.394        -844.998          50.000                                                                  
C26  24398366.084   127048691.576       -2558.079          44.000                                                                  
G03  22887415.456   120274173.128         -72.253          39.000    22887409.681    93720111.449         -56.231          39.000  
G16  22465543.052   118057233.897        3008.132          41.000                                                                  
C09  37722822.697   196432638.975        -151.296          44.000    37722808.814   151894119.110        -116.929          48.000  
C25  23667531.847   123243058.616        1588.475          45.000                                                                  
C13  38337605.838   199633969.293       -2255.428          41.000    38337600.023   154369627.272       -1743.920          43.000  
C08  39164867.653   203941739.035       -2455.336          36.000    39164856.058   157700643.389       -1898.254          43.000  
C10  40508044.140   210936022.886         933.355          34.000    40508045.327   163109091.267         722.014          38.000  
C35  25958772.872   135174148.701         420.006          38.000                                                                  
C07  39574325.613   206073902.872        1121.278          38.000    39574315.443   159349362.641         866.785          41.000  
C12  26483248.743   137905275.742        2302.592          36.000    26483249.056   106637078.778        1780.976          42.000  
G25  24349628.100   127958168.637       -3910.650          34.000    24349622.199    99707627.863       -3047.688          35.000  
> 2025 10 30 06 19 10.2800000  0 23                     
G32  21986368.780   115539145.722       -2888.851          46.000    21986362.777    90030479.823       -2250.855          42.000  
G29  23065696.367   121211062.266        -542.242          42.000    23065687.747    94450147.920        -422.522          41.000  
G28  21238859.577   111610960.009       -1172.881          45.000    21238848.647    86969538.311        -913.967          46.000  
G26  20352578.208   106953520.449         724.655          48.000    20352571.338    83340386.716         564.527          47.000  
G31  20625134.500   108385811.356         173.638          47.000    20625123.457    84456435.346         135.345          46.000  
G04  24529528.293                        3186.810          30.000    24529526.871   100444324.325        2482.927          35.000  
C33  22496338.116   117144331.979        -658.042          50.000                                                                  
C06  36571207.578   190435877.094        -161.569          45.000    36571190.898   147257029.166        -125.013          48.000  
C14  22644916.275   117918008.469       -2222.911          46.000    22644902.091    91181630.342       -1718.966          51.000  
C16  36998735.712   192662123.814        -193.233          48.000    36998723.958   148978527.755        -149.427          48.000  
C24  21832299.083   113686514.186        -844.885          50.000                                                                  
C26  24398385.727   127048793.889       -2557.926          44.000                                                                  
G03  22887416.019   120274176.041         -72.633          39.000    22887410.227    93720113.712         -56.439          39.000  
G16  22465520.145   118057113.563        3008.310          41.000                                                                  
C09  37722823.838   196432645.033        -151.436          44.000    37722809.984   151894123.794        -117.052          48.000  
C25  23667519.645   123242995.071        1588.549          45.000                                                                  
C13  38337623.149   199634059.503       -2255.366          41.000    38337617.361   154369697.032       -1743.983          43.000  
C08  39164886.504   203941837.213       -2454.780          36.000    39164874.914   157700719.329       -1898.459          43.000  
C10  40508036.989   210935985.548         933.450          34.000    40508038.152   163109062.387         722.059          38.000  
C35  25958769.630   135174131.910         419.756          38.000                                                                  
C07  39574316.999   206073858.018        1121.250          38.000    39574306.828   159349327.942         867.177          41.000  
C12  26483231.058   137905183.616        2302.792          36.000    26483231.344   106637007.522        1781.277          42.000  
G25  24349657.876   127958325.058       -3910.465          34.000    24349651.933    99707749.727       -3047.008          35.000  
> 2025 10 30 06 19 10.3200000  0 23                     
G32  21986390.795   115539261.296       -2889.203          46.000    21986384.780    90030569.885       -2251.305          42.000  
G29  23065700.481   121211083.955        -542.244          42.000    23065691.894    94450164.840        -422.881          41.000  
G28  21238868.503   111611006.927       -1172.958          45.000    21238857.566    86969574.869        -913.997          46.000  
G26  20352572.695   106953491.467         724.544          48.000    20352565.811    83340364.127         564.578          47.000  
G31  20625133.189   108385804.415         173.508          47.000    20625122.163    84456429.931         135.345          46.000  
G04  24529504.018                        3185.404          30.000    24529502.627   100444225.028        2482.709          35.000  
C33  22496343.169   117144358.304        -658.088          50.000                                                                  
C06  36571208.806   190435883.564        -161.666          45.000    36571192.135   147257034.169        -125.055          48.000  
C14  22644933.358   117918097.392       -2223.020          46.000    22644919.163    91181699.102       -1719.004          51.000  
C16  36998737.212   192662131.538        -193.121          48.000    36998725.425   148978533.734        -149.467          48.000  
C24  21832305.551   113686547.989        -845.030          50.000                                                                  
C26  24398405.376   127048896.201       -2557.866          44.000                                                                  
G03  22887416.563   120274178.960         -72.933          39.000    22887410.782    93720115.969         -56.518          39.000  
G16  22465497.247   118056993.244        3008.114          41.000                                                                  
C09  37722825.011   196432651.081        -151.327          44.000    37722811.136   151894128.480        -117.158          48.000  
C25  23667507.412   123242931.531        1588.531          45.000                                                                  
C13  38337640.464   199634149.721       -2255.454          41.000    38337634.672   154369766.792       -1744.021          43.000  
C08  39164905.361   203941935.403       -2454.721          36.000    39164893.754   157700795.266       -1898.493          43.000  
C10  40508029.798   210935948.191         933.763          34.000    40508030.987   163109033.528         721.649          38.000  
C35  25958766.415   135174115.101         420.012          38.000                                                                  
C07  39574308.389   206073813.186        1120.862          38.000    39574298.202   159349293.256         867.144          41.000  
C12  26483213.356   137905091.494        2302.873          36.000    26483213.650   106636936.282        1781.115          42.000  
G25  24349687.623   127958481.473       -3910.309          34.000    24349681.700    99707871.618       -3047.209          35.000  
> 2025 10 30 06 19 10.3600000  0 23                     
G32  21986412.782   115539376.878       -2889.539          46.000    21986406.783    90030659.945       -2251.505          42.000  
G29  23065704.598   121211105.653        -542.407          42.000    23065696.052    94450181.754        -422.940          41.000  
G28  21238877.439   111611053.844       -1172.988          45.000    21238866.498    86969611.429        -914.038          46.000  
G26  20352567.159   106953462.483         724.539          48.000    20352560.299    83340341.545         564.504          47.000  
G31  20625131.862   108385797.472         173.490          47.000    20625120.844    84456424.521         135.252          46.000  
G04  24529479.752                        3185.481          30.000    24529478.371   100444125.723        2482.596          35.000  
C33  22496348.175   117144384.642        -658.348          50.000                                                                  
C06  36571210.079   190435890.042        -161.912          45.000    36571193.341   147257039.174        -125.140          48.000  
C14  22644950.411   117918186.329       -2223.330          46.000    22644936.204    91181767.869       -1719.162          51.000  
C16  36998738.669   192662139.273        -193.293          48.000    36998726.893   148978539.717        -149.556          48.000  
C24  21832312.053   113686581.795        -845.145          50.000                                                                  
C26  24398425.012   127048998.530       -2558.168          44.000                                                                  
G03  22887417.148   120274181.891         -73.292          39.000    22887411.315    93720118.246         -56.816          39.000  
G16  22465474.365   118056872.931        3007.869          41.000                                                                  
C09  37722826.182   196432657.134        -151.359          44.000    37722812.292   151894133.163        -117.137          48.000  
C25  23667495.226   123242867.994        1588.420          45.000                                                                  
C13  38337657.793   199634239.942       -2255.514          41.000    38337652.002   154369836.558       -1744.164          43.000  
C08  39164924.232   203942033.602       -2454.914          36.000    39164912.622   157700871.191       -1898.288          43.000  
C10  40508022.634   210935910.849         933.636          34.000    40508023.811   163109004.673         721.361          38.000  
C35  25958763.191   135174098.288         420.167          38.000                                                                  
C07  39574299.788   206073768.314        1121.411          38.000    39574289.593   159349258.574         867.066          41.000  
C12  26483195.672   137904999.361        2303.176          36.000    26483195.940   106636865.052        1780.869          42.000  
G25  24349717.393   127958637.887       -3910.132          34.000    24349711.472    99707993.514       -3047.418          35.000  
> 2025 10 30 06 19 10.4000000  0 23                     
G32  21986434.757   115539492.450       -2889.496          46.000    21986428.785    90030749.996       -2251.418          42.000  
G29  23065708.746   121211127.360        -542.663          42.000    23065700.177    94450198.667        -422.917          41.000  
G28  21238886.373   111611100.765       -1173.051          45.000    21238875.397    86969647.991        -914.075          46.000  
G26  20352561.664   106953433.495         724.595          48.000    20352554.784    83340318.964         564.455          47.000  
G31  20625130.542   108385790.527         173.522          47.000    20625119.522    84456419.113         135.172          46.000  
G04  24529455.484                        3185.885          30.000    24529454.123   100444026.435        2482.275          35.000  
C33  22496353.224   117144410.975        -658.414          50.000                                                                  
C06  36571211.326   190435896.523        -162.063          45.000    36571194.538   147257044.177        -125.125          48.000  
C14  22644967.488   117918275.250       -2223.192          46.000    22644953.291    91181836.637       -1719.255          51.000  
C16  36998740.149   192662147.011        -193.441          48.000    36998728.372   148978545.703        -149.644          48.000  
C24  21832318.537   113686615.601        -845.197          50.000                                                                  
C26  24398444.658   127049100.844       -2558.029          44.000                                                                  
G03  22887417.687   120274184.790         -72.826          39.000    22887411.871    93720120.528         -57.070          39.000  
G16  22465451.466   118056752.618        3007.740          41.000                                                                  
C09  37722827.337   196432663.191        -151.461          44.000    37722813.426   151894137.841        -117.041          48.000  
C25  23667483.041   123242804.453        1588.476          45.000                                                                  
C13  38337675.105   199634330.155       -2255.427          41.000    38337669.340   154369906.322       -1744.212          43.000  
C08  39164943.084   203942131.808       -2455.204          36.000    39164931.492   157700947.130       -1898.418          43.000  
C10  40508015.447   210935873.501         933.700          34.000    40508016.644   163108975.800         721.610          38.000  
C35  25958759.959   135174081.486         419.974          38.000                                                                  
C07  39574291.171   206073723.467        1121.372          38.000    39574280.949   159349223.892         867.054          41.000  
C12  26483177.986   137904907.211        2303.649          36.000    26483178.241   106636793.831        1780.525          42.000  
G25  24349747.143   127958794.349       -3911.029          34.000    24349741.230    99708115.411       -3047.545          35.000  
> 2025 10 30 06 19 10.4400000  0 23                     
G32  21986456.732   115539608.020       -2889.400          46.000    21986450.776    90030840.056       -2251.506          43.000  
G29  23065712.878   121211149.070        -542.816          42.000    23065704.301    94450215.560        -422.553          41.000  
G28  21238895.301   111611147.687       -1173.106          45.000    21238884.317    86969684.554        -914.133          46.000  
G26  20352556.165   106953404.525         724.322          48.000    20352549.269    83340296.378         564.531          47.000  
G31  20625129.227   108385783.590         173.430          47.000    20625118.199    84456413.709         135.075          46.000  
G04  24529431.215                        3186.069          30.000    24529429.867   100443927.105        2482.833          35.000  
C33  22496358.286   117144437.316        -658.557          50.000                                                                  
C06  36571212.600   190435902.993        -161.949          45.000    36571195.755   147257049.189        -125.309          48.000  
C14  22644984.574   117918364.179       -2223.262          46.000    22644970.376    91181905.403       -1719.251          51.000  
C16  36998741.648   192662154.750        -193.540          48.000    36998729.874   148978551.688        -149.708          48.000  
C24  21832325.053   113686649.404        -845.160          50.000                                                                  
C26  24398464.329   127049203.172       -2558.201          44.000                                                                  
G03  22887418.228   120274187.701         -72.809          39.000    22887412.435    93720122.805         -57.032          39.000  
G16  22465428.567   118056632.293        3007.918          41.000                                                                  
C09  37722828.518   196432669.250        -151.535          44.000    37722814.574   151894142.528        -117.124          48.000  
C25  23667470.853   123242740.923        1588.291          45.000                                                                  
C13  38337692.412   199634420.380       -2255.582          41.000    38337686.692   154369976.093       -1744.304          43.000  
C08  39164961.932   203942229.995       -2454.924          36.000    39164950.354   157701023.076       -1898.636          43.000  
C10  40508008.270   210935836.194         932.957          34.000    40508009.485   163108946.925         721.794          38.000  
C35  25958756.726   135174064.681         419.956          38.000                                                                  
C07  39574282.564   206073678.615        1121.340          38.000    39574272.364   159349189.207         867.025          41.000  
C12  26483160.294   137904815.088        2303.382          36.000    26483160.586   106636722.605        1780.520          42.000  
G25  24349776.900   127958950.777       -3910.879          34.000    24349771.007    99708237.345       -3048.228          35.000  
> 2025 10 30 06 19 10.4800000  0 23                     
G32  21986478.701   115539723.588       -2889.295          46.000    21986472.751    90030930.101       -2251.285          42.000  
G29  23065717.001   121211170.770        -542.686          42.000    23065708.436    94450232.481        -422.870          41.000  
G28  21238904.240   111611194.611       -1173.163          45.000    21238893.268    86969721.118        -914.154          46.000  
G26  20352550.637   106953375.542         724.417          48.000    20352543.773    83340273.802         564.394          47.000  
G31  20625127.930   108385776.652         173.412          47.000    20625116.891    84456408.303         135.075          46.000  
G04  24529406.938                        3186.640          30.000    24529405.619   100443827.799        2482.709          35.000  
C33  22496363.366   117144463.655        -658.553          50.000                                                                  
C06  36571213.837   190435909.457        -161.714          45.000    36571196.960   147257054.196        -125.288          48.000  
C14  22645001.612   117918453.113       -2223.366          46.000    22644987.441    91181974.171       -1719.243          51.000  
C16  36998743.142   192662162.496        -193.665          48.000    36998731.373   148978557.675        -149.756          48.000  
C24  21832331.537   113686683.215        -845.264          50.000                                                                  
C26  24398483.988   127049305.493       -2558.134          44.000                                                                  
G03  22887418.776   120274190.620         -72.903          39.000    22887412.992    93720125.092         -57.180          39.000  
G16  22465405.675   118056511.984        3007.772          41.000                                                                  
C09  37722829.672   196432675.308        -151.520          44.000    37722815.715   151894147.210        -117.098          48.000  
C25  23667458.671   123242677.388        1588.273          45.000                                                                  
C13  38337709.716   199634510.610       -2255.737          41.000    38337704.021   154370045.863       -1744.359          43.000  
C08  39164980.795   203942328.223       -2455.518          36.000    39164969.223   157701099.018       -1898.654          43.000  
C10  40508001.098   210935798.878         932.804          34.000    40508002.317   163108918.069         721.571          38.000  
C35  25958753.491   135174047.894         419.695          38.000                                                                  
C07  39574273.947   206073633.767        1121.233          38.000    39574263.771   159349154.538         866.760          41.000  
C12  26483142.603   137904722.979        2302.845          36.000    26483142.897   106636651.356        1780.959          42.000  
G25  24349806.656   127959107.213       -3910.947          34.000    24349800.753    99708359.210       -3047.312          35.000  
> 2025 10 30 06 19 10.5200000  0 23                     
G32  21986500.704   115539839.153       -2889.181          46.000    21986494.738    90031020.156       -2251.381          42.000  
G29  23065721.130   121211192.479        -542.761          42.000    23065712.563    94450249.392        -422.901          41.000  
G28  21238913.154   111611241.529       -1173.072          45.000    21238902.205    86969757.680        -914.126          46.000  
G26  20352545.125   106953346.565         724.374          48.000    20352538.279    83340251.223         564.420          47.000  
G31  20625126.615   108385769.714         173.412          47.000    20625115.549    84456402.900         135.051          46.000  
G04  24529382.718                        3185.835          30.000    24529381.375   100443728.544        2481.643          35.000  
C33  22496368.445   117144489.989        -658.461          50.000                                                                  
C06  36571215.055   190435915.936        -161.859          45.000    36571198.218   147257059.200        -125.206          48.000  
C14  22645018.699   117918542.049       -2223.400          46.000    22645004.526    91182042.941       -1719.281          51.000  
C16  36998744.619   192662170.234        -193.594          48.000    36998732.882   148978563.657        -149.648          48.000  
C24  21832338.037   113686717.023        -845.281          50.000                                                                  
C26  24398503.650   127049407.824       -2558.262          44.000                                                                  
G03  22887419.322   120274193.538         -72.978          39.000    22887413.543    93720127.358         -56.857          39.000  
G16  22465382.790   118056391.671        3007.769          41.000                                                                  
C09  37722830.844   196432681.367        -151.524          44.000    37722816.854   151894151.898        -117.181          48.000  
C25  23667446.461   123242613.858        1588.218          45.000                                                                  
C13  38337727.040   199634600.843       -2255.859          41.000    38337721.316   154370115.619       -1744.059          43.000  
C08  39164999.664   203942426.407       -2455.012          36.000    39164988.089   157701174.952       -1898.536          43.000  
C10  40507993.953   210935761.540         933.246          34.000    40507995.148   163108889.196         721.685          38.000  
C35  25958750.278   135174031.107         419.548          38.000                                                                  
C07  39574265.329   206073588.924        1121.097          38.000    39574255.166   159349119.853         866.958          41.000  
C12  26483124.904   137904630.845        2303.124          36.000    26483125.190   106636580.115        1781.088          42.000  
G25  24349836.441   127959263.647       -3910.892          34.000    24349830.525    99708481.095       -3047.081          35.000  
> 2025 10 30 06 19 10.5600000  0 23                     
G32  21986522.705   115539954.727       -2889.306          46.000    21986516.721    90031110.222       -2251.597          42.000  
G29  23065725.251   121211214.183        -542.716          42.000    23065716.697    94450266.306        -422.905          41.000  
G28  21238922.068   111611288.455       -1173.145          45.000    21238911.115    86969794.246        -914.171          46.000  
G26  20352539.608   106953317.593         724.275          48.000    20352532.767    83340228.646         564.377          47.000  
G31  20625125.315   108385762.783         173.270          47.000    20625114.233    84456397.495         135.064          46.000  
G04  24529358.468                        3185.338          30.000    24529357.129   100443629.235        2482.117          35.000  
C33  22496373.518   117144516.332        -658.537          50.000                                                                  
C06  36571216.290   190435922.418        -162.045          45.000    36571199.448   147257064.212        -125.278          48.000  
C14  22645035.804   117918630.989       -2223.507          46.000    22645021.624    91182111.711       -1719.304          51.000  
C16  36998746.073   192662177.974        -193.560          48.000    36998734.400   148978569.635        -149.500          48.000  
C24  21832344.499   113686750.835        -845.316          50.000                                                                  
C26  24398523.299   127049510.157       -2558.342          44.000                                                                  
G03  22887419.895   120274196.467         -73.197          39.000    22887414.088    93720129.614         -56.527          39.000  
G16  22465359.891   118056271.372        3007.487          41.000                                                                  
C09  37722831.996   196432687.439        -151.751          44.000    37722818.024   151894156.586        -117.242          48.000  
C25  23667434.280   123242550.325        1588.262          45.000                                                                  
C13  38337744.364   199634691.062       -2255.646          41.000    38337738.627   154370185.387       -1744.135          43.000  
C08  39165018.519   203942524.639       -2455.634          36.000    39165006.957   157701250.887       -1898.457          43.000  
C10  40507986.815   210935724.215         933.231          34.000    40507987.991   163108860.345         721.433          38.000  
C35  25958747.036   135174014.307         419.799          38.000                                                                  
C07  39574256.712   206073544.077        1121.116          38.000    39574246.551   159349085.185         866.783          41.000  
C12  26483107.194   137904538.745        2302.669          36.000    26483107.499   106636508.890        1780.766          42.000  
G25  24349866.239   127959420.108       -3911.339          34.000    24349860.283    99708603.014       -3047.694          35.000  
> 2025 10 30 06 19 10.6000000  0 23                     
G32  21986544.704   115540070.310       -2889.532          46.000    21986538.728    90031200.282       -2251.552          42.000  
G29  23065729.404   121211235.898        -542.847          42.000    23065720.828    94450283.226        -423.056          41.000  
G28  21238931.004   111611335.386       -1173.281          45.000    21238920.056    86969830.813        -914.230          46.000  
G26  20352534.094   106953288.625         724.184          48.000    20352527.263    83340206.070         564.353          47.000  
G31  20625124.002   108385755.845         173.357          47.000    20625112.912    84456392.090         135.113          46.000  
G04  24529334.222                        3185.648          30.000    24529332.894   100443529.945        2482.196          35.000  
C33  22496378.540   117144542.680        -658.695          50.000                                                                  
C06  36571217.527   190435928.897        -162.085          45.000    36571200.722   147257069.225        -125.383          48.000  
C14  22645052.908   117918719.925       -2223.486          46.000    22645038.691    91182180.482       -1719.316          51.000  
C16  36998747.524   192662185.712        -193.501          48.000    36998735.896   148978575.621        -149.601          48.000  
C24  21832350.988   113686784.650        -845.407          50.000                                                                  
C26  24398542.982   127049612.489       -2558.342          44.000                                                                  
G03  22887420.448   120274199.393         -73.270          39.000    22887414.649    93720131.888         -56.688          39.000  
G16  22465337.000   118056151.061        3007.590          41.000                                                                  
C09  37722833.151   196432693.499        -151.633          44.000    37722819.213   151894161.275        -117.286          48.000  
C25  23667422.089   123242486.799        1588.170          45.000                                                                  
C13  38337761.662   199634781.281       -2255.534          41.000    38337755.996   154370255.158       -1744.254          43.000  
C08  39165037.363   203942622.845       -2455.426          36.000    39165025.836   157701326.823       -1898.410          43.000  
C10  40507979.634   210935686.884         933.273          34.000    40507980.801   163108831.483         721.460          38.000  
C35  25958743.815   135173997.520         419.685          38.000                                                                  
C07  39574248.085   206073499.230        1121.160          38.000    39574237.954   159349050.503         866.931          41.000  
C12  26483089.499   137904446.638        2302.510          36.000    26483089.815   106636437.659        1780.736          42.000  
G25  24349896.012   127959576.545       -3911.069          34.000    24349890.037    99708724.915       -3047.689          35.000  
> 2025 10 30 06 19 10.6400000  0 23                     
G32  21986566.709   115540185.902       -2889.812          46.000    21986560.741    90031290.349       -2251.658          42.000  
G29  23065733.545   121211257.618        -543.041          42.000    23065724.956    94450300.143        -422.996          41.000  
G28  21238939.936   111611382.315       -1173.310          45.000    21238928.967    86969867.376        -914.196          46.000  
G26  20352528.576   106953259.655         724.172          48.000    20352521.744    83340183.502         564.178          47.000  
G31  20625122.718   108385748.922         173.123          47.000    20625111.596    84456386.688         135.039          46.000  
G04  24529309.967                        3185.498          30.000    24529308.632   100443430.621        2482.864          35.000  
C33  22496383.606   117144569.024        -658.692          50.000                                                                  
C06  36571218.751   190435935.373        -161.986          45.000    36571201.954   147257074.233        -125.306          48.000  
C14  22645070.002   117918808.860       -2223.441          46.000    22645055.748    91182249.255       -1719.346          51.000  
C16  36998749.002   192662193.449        -193.456          48.000    36998737.373   148978581.613        -149.776          48.000  
C24  21832357.515   113686818.464        -845.449          50.000                                                                  
C26  24398562.642   127049714.817       -2558.259          44.000                                                                  
G03  22887421.025   120274202.325         -73.361          39.000    22887415.207    93720134.193         -57.367          39.000  
G16  22465314.108   118056030.761        3007.471          41.000                                                                  
C09  37722834.313   196432699.559        -151.569          44.000    37722820.380   151894165.970        -117.412          48.000  
C25  23667409.898   123242423.271        1588.139          45.000                                                                  
C13  38337778.980   199634871.499       -2255.492          41.000    38337773.301   154370324.931       -1744.339          43.000  
C08  39165056.216   203942721.062       -2455.533          36.000    39165044.715   157701402.770       -1898.592          43.000  
C10  40507972.458   210935649.530         933.761          34.000    40507973.596   163108802.615         721.622          38.000  
C35  25958740.605   135173980.741         419.479          38.000                                                                  
C07  39574239.454   206073454.408        1120.736          38.000    39574229.335   159349015.834         866.773          41.000  
C12  26483071.809   137904354.528        2302.567          36.000    26483072.121   106636366.432        1780.650          42.000  
G25  24349925.776   127959733.003       -3911.241          34.000    24349919.799    99708846.815       -3047.623          35.000  
> 2025 10 30 06 19 10.6800000  0 23                     
G32  21986588.675   115540301.490       -2889.867          46.000    21986582.736    90031380.418       -2251.760          42.000  
G29  23065737.675   121211279.329        -542.962          42.000    23065729.094    94450317.076        -423.271          41.000  
G28  21238948.878   111611429.246       -1173.346          45.000    21238937.902    86969903.951        -914.374          46.000  
G26  20352523.080   106953230.694         724.005          48.000    20352516.227    83340160.924         564.286          47.000  
G31  20625121.385   108385741.992         173.143          47.000    20625110.270    84456381.290         134.903          46.000  
G04  24529285.697                        3185.801          30.000    24529284.360   100443331.337        2482.385          35.000  
C33  22496388.658   117144595.376        -658.824          50.000                                                                  
C06  36571219.964   190435941.855        -162.023          45.000    36571203.226   147257079.240        -125.267          48.000  
C14  22645087.076   117918897.802       -2223.561          46.000    22645072.817    91182318.031       -1719.434          51.000  
C16  36998750.443   192662201.194        -193.587          48.000    36998738.863   148978587.595        -149.689          48.000  
C24  21832364.042   113686852.279        -845.438          50.000                                                                  
C26  24398582.295   127049817.142       -2558.184          44.000                                                                  
G03  22887421.584   120274205.271         -73.647          39.000    22887415.748    93720136.483         -57.436          39.000  
G16  22465291.199   118055910.453        3007.589          41.000                                                                  
C09  37722835.481   196432705.627        -151.659          44.000    37722821.528   151894170.658        -117.325          48.000  
C25  23667397.709   123242359.742        1588.133          45.000                                                                  
C13  38337796.301   199634961.733       -2255.742          41.000    38337790.637   154370394.703       -1744.370          43.000  
C08  39165075.082   203942819.251       -2455.003          36.000    39165063.599   157701478.706       -1898.509          43.000  
C10  40507965.299   210935612.215         933.167          34.000    40507966.437   163108773.761         721.469          38.000  
C35  25958737.407   135173963.951         419.608          38.000                                                                  
C07  39574230.841   206073409.561        1120.906          38.000    39574220.731   159348981.173         866.561          41.000  
C12  26483054.112   137904262.412        2302.715          36.000    26483054.411   106636295.194        1780.835          42.000  
G25  24349955.519   127959889.419       -3910.620          34.000    24349949.570    99708968.689       -3047.045          35.000  
> 2025 10 30 06 19 10.7200000  0 23                     
G32  21986610.655   115540417.070       -2889.705          46.000    21986604.728    90031470.488       -2251.833          42.000  
G29  23065741.820   121211301.050        -543.049          42.000    23065733.230    94450334.002        -423.229          41.000  
G28  21238957.812   111611476.177       -1173.361          45.000    21238946.827    86969940.528        -914.488          46.000  
G26  20352517.569   106953201.717         724.206          48.000    20352510.702    83340138.351         564.286          47.000  
G31  20625120.047   108385735.065         173.143          47.000    20625108.950    84456375.890         134.923          46.000  
G04  24529261.459                        3186.225          30.000    24529260.098   100443232.055        2482.141          35.000  
C33  22496393.745   117144621.725        -658.795          50.000                                                                  
C06  36571221.220   190435948.337        -162.076          45.000    36571204.500   147257084.253        -125.326          48.000  
C14  22645104.152   117918986.752       -2223.750          46.000    22645089.931    91182386.812       -1719.560          51.000  
C16  36998751.929   192662208.940        -193.656          48.000    36998740.335   148978593.585        -149.746          48.000  
C24  21832370.542   113686886.101        -845.568          50.000                                                                  
C26  24398601.954   127049919.473       -2558.236          44.000                                                                  
G03  22887422.149   120274208.201         -73.446          39.000    22887416.304    93720138.768         -57.280          39.000  
G16  22465268.299   118055790.151        3007.511          41.000                                                                  
C09  37722836.635   196432711.686        -151.524          44.000    37722822.690   151894175.341        -117.166          48.000  
C25  23667385.519   123242296.212        1588.177          45.000                                                                  
C13  38337813.643   199635051.955       -2255.634          41.000    38337807.976   154370464.471       -1744.282          43.000  
C08  39165093.948   203942917.463       -2455.185          36.000    39165082.454   157701554.644       -1898.468          43.000  
C10  40507958.152   210935574.938         932.222          34.000    40507959.254   163108744.899         721.509          38.000  
C35  25958734.161   135173947.161         419.657          38.000                                                                  
C07  39574222.234   206073364.706        1121.201          38.000    39574212.110   159348946.496         866.729          41.000  
C12  26483036.409   137904170.293        2302.838          36.000    26483036.741   106636223.973        1780.638          42.000  
G25  24349985.282   127960045.861       -3910.788          34.000    24349979.311    99709090.594       -3047.396          35.000  
> 2025 10 30 06 19 10.7600000  0 23                     
G32  21986632.636   115540532.648       -2889.555          46.000    21986626.705    90031560.542       -2251.552          42.000  
G29  23065745.945   121211322.767        -542.989          42.000    23065737.373    94450350.917        -423.008          41.000  
G28  21238966.741   111611523.102       -1173.231          45.000    21238955.734    86969977.093        -914.341          46.000  
G26  20352512.074   106953172.754         724.081          48.000    20352505.210    83340115.783         564.212          47.000  
G31  20625118.701   108385728.127         173.353          47.000    20625107.613    84456370.487         134.991          46.000  
G04  24529237.183                        3186.046          30.000    24529235.864   100443132.774        2481.906          35.000  
C33  22496398.828   117144648.075        -658.800          50.000                                                                  
C06  36571222.464   190435954.817        -162.047          45.000    36571205.743   147257089.265        -125.344          48.000  
C14  22645121.272   117919075.694       -2223.695          46.000    22645107.008    91182455.585       -1719.469          51.000  
C16  36998753.399   192662216.693        -193.821          48.000    36998741.825   148978599.575        -149.782          48.000  
C24  21832377.013   113686919.911        -845.406          50.000                                                                  
C26  24398621.611   127050021.812       -2558.429          44.000                                                                  
G03  22887422.704   120274211.129         -73.263          39.000    22887416.857    93720141.035         -56.845          39.000  
G16  22465245.408   118055669.837        3007.671          41.000                                                                  
C09  37722837.809   196432717.746        -151.474          44.000    37722823.885   151894180.031        -117.226          48.000  
C25  23667373.324   123242232.689        1588.053          45.000                                                                  
C13  38337830.960   199635142.195       -2255.876          41.000    38337825.323   154370534.239       -1744.245          43.000  
C08  39165112.800   203943015.669       -2455.195          36.000    39165101.342   157701630.593       -1898.670          43.000  
C10  40507950.985   210935537.599         932.936          34.000    40507952.105   163108716.040         721.437          38.000  
C35  25958730.927   135173930.372         419.670          38.000                                                                  
C07  39574213.623   206073319.869        1121.097          38.000    39574203.476   159348911.810         866.998          41.000  
C12  26483018.697   137904078.161        2303.164          36.000    26483019.032   106636152.745        1780.695          42.000  
G25  24350015.043   127960202.282       -3910.588          34.000    24350009.079    99709212.520       -3047.974          35.000  
> 2025 10 30 06 19 10.8000000  0 23                     
G32  21986654.626   115540648.240       -2889.759          45.000    21986648.691    90031650.610       -2251.646          42.000  
G29  23065750.083   121211344.485        -542.983          42.000    23065741.494    94450367.839        -423.016          41.000  
G28  21238975.658   111611570.033       -1173.272          45.000    21238964.697    86970013.667        -914.395          46.000  
G26  20352506.564   106953143.791         724.019          48.000    20352499.688    83340093.216         564.138          47.000  
G31  20625117.370   108385721.207         173.100          47.000    20625106.302    84456365.095         134.831          46.000  
G04  24529212.920                        3186.074          30.000    24529211.621   100443033.469        2482.253          35.000  
C33  22496403.853   117144674.433        -658.958          50.000                                                                  
C06  36571223.717   190435961.300        -162.094          45.000    36571206.998   147257094.274        -125.283          48.000  
C14  22645138.363   117919164.644       -2223.795          46.000    22645124.058    91182524.365       -1719.531          51.000  
C16  36998754.900   192662224.443        -193.821          48.000    36998743.313   148978605.568        -149.858          48.000  
C24  21832383.481   113686953.731        -845.486          50.000                                                                  
C26  24398641.265   127050124.152       -2558.550          44.000                                                                  
G03  22887423.236   120274214.052         -73.089          39.000    22887417.397    93720143.328         -57.112          39.000  
G16  22465222.514   118055549.542        3007.438          41.000                                                                  
C09  37722838.981   196432723.815        -151.641          44.000    37722825.068   151894184.728        -117.392          48.000  
C25  23667361.153   123242169.162        1588.115          45.000                                                                  
C13  38337848.301   199635232.435       -2256.063          41.000    38337842.659   154370604.019       -1744.463          43.000  
C08  39165131.683   203943113.907       -2455.620          36.000    39165120.183   157701706.542       -1898.778          43.000  
C10  40507943.807   210935500.273         933.126          34.000    40507944.955   163108687.183         721.432          38.000  
C35  25958727.710   135173913.590         419.543          38.000                                                                  
C07  39574205.007   206073275.025        1121.065          39.000    39574194.884   159348877.132         867.005          41.000  
C12  26483001.016   137903986.040        2303.039          36.000    26483001.361   106636081.525        1780.552          42.000  
G25  24350044.827   127960358.723       -3910.847          34.000    24350038.855    99709334.421       -3047.817          35.000  
> 2025 10 30 06 19 10.8400000  0 23                     
G32  21986676.614   115540763.830       -2889.822          45.000    21986670.702    90031740.690       -2251.951          42.000  
G29  23065754.248   121211366.208        -543.090          42.000    23065745.624    94450384.755        -422.916          41.000  
G28  21238984.597   111611616.980       -1173.557          45.000    21238973.629    86970050.242        -914.453          46.000  
G26  20352501.085   106953114.842         723.747          48.000    20352494.173    83340070.651         564.071          47.000  
G31  20625116.041   108385714.287         172.971          47.000    20625104.983    84456359.701         134.782          46.000  
G04  24529188.661                        3183.836          30.000    24529187.352   100442934.153        2482.656          35.000  
C33  22496408.868   117144700.794        -659.075          50.000                                                                  
C06  36571224.961   190435967.793        -162.303          45.000    36571208.239   147257099.295        -125.461          48.000  
C14  22645155.458   117919253.594       -2223.817          46.000    22645141.086    91182593.145       -1719.561          51.000  
C16  36998756.453   192662232.191        -193.773          48.000    36998744.782   148978611.559        -149.836          48.000  
C24  21832389.958   113686987.557        -845.625          50.000                                                                  
C26  24398660.923   127050226.494       -2558.627          44.000                                                                  
G03  22887423.803   120274216.983         -73.194          39.000    22887417.946    93720145.624         -57.306          39.000  
G16  22465199.655   118055429.258        3007.143          41.000                                                                  
C09  37722840.145   196432729.898        -151.981          44.000    37722826.251   151894189.430        -117.579          48.000  
C25  23667348.925   123242105.646        1587.912          45.000                                                                  
C13  38337865.662   199635322.668       -2255.954          41.000    38337860.005   154370673.798       -1744.543          43.000  
C08  39165150.554   203943212.124       -2455.554          36.000    39165139.062   157701782.494       -1898.877          43.000  
C10  40507936.636   210935462.975         932.658          34.000    40507937.788   163108658.331         721.299          38.000  
C35  25958724.502   135173896.817         419.345          38.000                                                                  
C07  39574196.409   206073230.191        1120.917          39.000    39574186.275   159348842.464         866.799          41.000  
C12  26482983.321   137903893.934        2302.700          36.000    26482983.671   106636010.304        1780.516          42.000  
G25  24350074.598   127960515.198       -3911.644          34.000    24350068.631    99709456.308       -3047.408          35.000  
> 2025 10 30 06 19 10.8800000  0 23                     
G32  21986698.636   115540879.425       -2889.934          45.000    21986692.707    90031830.771       -2252.099          42.000  
G29  23065758.385   121211387.942        -543.308          42.000    23065749.758    94450401.705        -423.534          41.000  
G28  21238993.537   111611663.925       -1173.708          45.000    21238982.569    86970086.823        -914.582          46.000  
G26  20352495.590   106953085.894         723.594          48.000    20352488.676    83340048.096         563.886          47.000  
G31  20625114.723   108385707.372         172.830          47.000    20625103.672    84456354.313         134.659          46.000  
G04  24529164.434                        3184.794          30.000    24529163.119   100442834.877        2482.200          35.000  
C33  22496413.918   117144727.159        -659.186          50.000                                                                  
C06  36571226.230   190435974.283        -162.335          45.000    36571209.480   147257104.320        -125.647          48.000  
C14  22645172.540   117919342.554       -2224.006          46.000    22645158.188    91182661.937       -1719.769          51.000  
C16  36998757.985   192662239.937        -193.694          48.000    36998746.223   148978617.560        -150.022          48.000  
C24  21832396.412   113687021.389        -845.805          50.000                                                                  
C26  24398680.585   127050328.840       -2558.699          44.000                                                                  
G03  22887424.379   120274219.930         -73.552          39.000    22887418.513    93720147.924         -57.524          39.000  
G16  22465176.752   118055308.965        3007.144          41.000                                                                  
C09  37722841.300   196432735.974        -152.046          44.000    37722827.381   151894194.126        -117.531          48.000  
C25  23667336.715   123242042.141        1587.636          45.000                                                                  
C13  38337882.968   199635412.915       -2256.209          41.000    38337877.339   154370743.580       -1744.692          43.000  
C08  39165169.404   203943310.340       -2455.551          36.000    39165157.897   157701858.457       -1899.084          43.000  
C10  40507929.474   210935425.646         933.032          34.000    40507930.610   163108629.474         721.346          38.000  
C35  25958721.285   135173880.049         419.185          38.000                                                                  
C07  39574187.801   206073185.375        1120.546          38.000    39574177.669   159348807.817         866.313          41.000  
C12  26482965.637   137903801.849        2302.177          36.000    26482965.953   106635939.086        1780.399          42.000  
G25  24350104.392   127960671.656       -3911.685          34.000    24350098.401    99709578.238       -3047.976          35.000  
> 2025 10 30 06 19 10.9200000  0 23                     
G32  21986720.638   115540995.029       -2890.129          45.000    21986714.701    90031920.848       -2252.072          42.000  
G29  23065762.522   121211409.684        -543.588          42.000    23065753.913    94450418.655        -423.862          41.000  
G28  21239002.485   111611710.876       -1173.871          45.000    21238991.535    86970123.405        -914.634          46.000  
G26  20352490.077   106953056.949         723.503          48.000    20352483.173    83340025.541         563.794          47.000  
G31  20625113.407   108385700.460         172.708          47.000    20625102.344    84456348.929         134.561          46.000  
G04  24529140.184                        3186.616          30.000    24529138.882   100442735.589        2482.142          35.000  
C33  22496418.976   117144753.525        -659.245          50.000                                                                  
C06  36571227.507   190435980.780        -162.474          45.000    36571210.713   147257109.340        -125.613          48.000  
C14  22645189.623   117919431.509       -2223.983          46.000    22645175.259    91182730.729       -1719.873          51.000  
C16  36998759.495   192662247.692        -193.860          48.000    36998747.711   148978623.557        -150.010          48.000  
C24  21832402.888   113687055.223        -845.922          50.000                                                                  
C26  24398700.233   127050431.185       -2558.721          44.000                                                                  
G03  22887424.951   120274222.889         -73.944          39.000    22887419.079    93720150.234         -57.771          39.000  
G16  22465153.870   118055188.681        3007.060          41.000                                                                  
C09  37722842.481   196432742.051        -152.022          44.000    37722828.520   151894198.823        -117.523          48.000  
C25  23667324.527   123241978.632        1587.594          45.000                                                                  
C13  38337900.306   199635503.154       -2256.157          41.000    38337894.691   154370813.364       -1744.783          43.000  
C08  39165188.268   203943408.559       -2455.503          36.000    39165176.762   157701934.404       -1898.857          43.000  
C10  40507922.307   210935388.353         932.521          34.000    40507923.440   163108600.628         721.103          38.000  
C35  25958718.070   135173863.273         419.290          38.000                                                                  
C07  39574179.194   206073140.573        1120.102          38.000    39574169.085   159348773.150         866.445          41.000  
C12  26482947.935   137903709.737        2302.445          36.000    26482948.271   106635867.862        1780.480          42.000  
G25  24350134.166   127960828.109       -3911.668          34.000    24350128.170    99709700.136       -3047.644          35.000  
> 2025 10 30 06 19 10.9600000  0 23                     
G32  21986742.639   115541110.626       -2890.049          46.000    21986736.695    90032010.920       -2251.904          42.000  
G29  23065766.658   121211431.423        -543.601          42.000    23065758.058    94450435.584        -423.539          41.000  
G28  21239011.429   111611757.820       -1173.773          45.000    21239000.464    86970159.983        -914.568          46.000  
G26  20352484.558   106953028.005         723.474          48.000    20352477.667    83340002.986         563.759          47.000  
G31  20625112.081   108385693.550         172.653          47.000    20625101.018    84456343.548         134.439          46.000  
G04  24529115.954                        3185.557          30.000    24529114.658   100442636.340        2481.479          35.000  
C33  22496424.055   117144779.895        -659.318          50.000                                                                  
C06  36571228.766   190435987.281        -162.572          45.000    36571211.954   147257114.360        -125.576          48.000  
C14  22645206.686   117919520.474       -2224.125          46.000    22645192.336    91182799.518       -1719.831          51.000  
C16  36998760.997   192662255.454        -194.042          48.000    36998749.209   148978629.551        -149.956          48.000  
C24  21832409.406   113687089.056        -845.933          50.000                                                                  
C26  24398719.896   127050533.530       -2558.729          44.000                                                                  
G03  22887425.518   120274225.852         -74.170          39.000    22887419.648    93720152.516         -57.339          39.000  
G16  22465130.971   118055068.392        3007.082          41.000                                                                  
C09  37722843.609   196432748.133        -152.109          44.000    37722829.687   151894203.518        -117.458          48.000  
C25  23667312.331   123241915.118        1587.688          45.000                                                                  
C13  38337917.635   199635593.397       -2256.169          41.000    38337912.020   154370883.142       -1744.638          43.000  
C08  39165207.129   203943506.783       -2455.569          36.000    39165195.588   157702010.350       -1898.701          43.000  
C10  40507915.178   210935351.037         932.777          34.000    40507916.255   163108571.790         720.939          38.000  
C35  25958714.857   135173846.518         418.919          38.000                                                                  
C07  39574170.570   206073095.737        1120.530          38.000    39574160.478   159348738.492         866.391          41.000  
C12  26482930.250   137903617.647        2302.292          36.000    26482930.570   106635796.641        1780.498          42.000  
G25  24350163.927   127960984.573       -3911.893          34.000    24350157.950    99709822.067       -3048.146          35.000  
> 2025 10 30 06 19 11.0000000  0 23                     
G32  21986764.617   115541226.223       -2890.014          46.000    21986758.692    90032100.996       -2251.938          42.000  
G29  23065770.806   121211453.168        -543.679          42.000    23065762.177    94450452.527        -423.588          41.000  
G28  21239020.344   111611804.770       -1173.807          45.000    21239009.405    86970196.567        -914.653          46.000  
G26  20352479.042   106952999.060         723.514          48.000    20352472.148    83339980.429         563.797          47.000  
G31  20625110.743   108385686.639         172.685          47.000    20625099.713    84456338.159         134.582          46.000  
G04  24529091.675                        3185.142          30.000    24529090.412   100442537.059        2481.736          35.000  
C33  22496429.135   117144806.266        -659.346          50.000                                                                  
C06  36571230.014   190435993.765        -162.314          45.000    36571213.194   147257119.382        -125.588          48.000  
C14  22645223.776   117919609.432       -2224.058          46.000    22645209.408    91182868.307       -1719.797          51.000  
C16  36998762.497   192662263.216        -194.122          48.000    36998750.706   148978635.552        -150.000          48.000  
C24  21832415.900   113687122.887        -845.876          50.000                                                                  
C26  24398739.557   127050635.868       -2558.567          44.000                                                                  
G03  22887426.093   120274228.822         -74.370          39.000    22887420.212    93720154.832         -57.724          39.000  
G16  22465108.070   118054948.099        3007.200          41.000                                                                  
C09  37722844.789   196432754.206        -152.001          44.000    37722830.850   151894208.217        -117.490          48.000  
C25  23667300.124   123241851.607        1587.713          45.000                                                                  
C13  38337934.980   199635683.651       -2256.354          41.000    38337929.319   154370952.925       -1744.650          43.000  
C08  39165225.989   203943605.033       -2456.084          36.000    39165214.455   157702086.302       -1898.748          43.000  
C10  40507907.998   210935313.710         933.080          34.000    40507909.120   163108542.959         720.754          38.000  
C35  25958711.624   135173829.754         418.949          38.000                                                                  
C07  39574161.958   206073050.910        1120.544          38.000    39574151.870   159348703.823         866.585          41.000  
C12  26482912.556   137903525.542        2302.465          35.000    26482912.870   106635725.426        1780.369          42.000  
G25  24350193.688   127961141.005       -3911.318          34.000    24350187.741    99709944.006       -3048.523          35.000  
> 2025 10 30 06 19 11.0400000  0 23                     
G32  21986786.629   115541341.829       -2890.143          46.000    21986780.689    90032191.078       -2252.070          42.000  
G29  23065774.930   121211474.909        -543.664          42.000    23065766.329    94450469.459        -423.411          41.000  
G28  21239029.289   111611851.722       -1173.857          45.000    21239018.309    86970233.146        -914.569          46.000  
G26  20352473.495   106952970.112         723.621          48.000    20352466.631    83339957.884         563.649          47.000  
G31  20625109.409   108385679.728         172.698          47.000    20625098.393    84456332.771         134.644          46.000  
G04  24529067.414                        3184.451          30.000    24529066.162   100442437.754        2482.335          35.000  
C33  22496434.215   117144832.638        -659.383          50.000                                                                  
C06  36571231.254   190436000.259        -162.329          45.000    36571214.412   147257124.405        -125.627          48.000  
C14  22645240.842   117919698.399       -2224.185          46.000    22645226.517    91182937.102       -1719.866          51.000  
C16  36998763.992   192662270.978        -194.141          48.000    36998752.208   148978641.549        -149.965          48.000  
C24  21832422.402   113687156.724        -845.933          50.000                                                                  
C26  24398759.217   127050738.223       -2558.795          44.000                                                                  
G03  22887426.656   120274231.764         -73.945          39.000    22887420.779    93720157.113         -57.321          39.000  
G16  22465085.174   118054827.823        3007.016          41.000                                                                  
C09  37722845.968   196432760.287        -152.070          44.000    37722832.012   151894212.921        -117.611          48.000  
C25  23667287.912   123241788.110        1587.503          45.000                                                                  
C13  38337952.327   199635773.903       -2256.370          41.000    38337946.649   154371022.708       -1744.656          43.000  
C08  39165244.846   203943703.256       -2455.951          36.000    39165233.304   157702162.257       -1898.793          43.000  
C10  40507900.866   210935276.406         932.789          34.000    40507901.929   163108514.087         721.451          38.000  
C35  25958708.425   135173812.982         419.121          38.000                                                                  
C07  39574153.343   206073006.058        1121.016          38.000    39574143.279   159348669.139         866.932          41.000  
C12  26482894.886   137903433.431        2302.662          35.000    26482895.174   106635654.206        1780.456          42.000  
G25  24350223.473   127961297.459       -3911.485          34.000    24350217.512    99710065.912       -3048.090          35.000  
> 2025 10 30 06 19 11.0800000  0 23                     
G32  21986808.607   115541457.430       -2890.086          46.000    21986802.663    90032281.160       -2252.118          42.000  
G29  23065779.054   121211496.647        -543.569          42.000    23065770.450    94450486.396        -423.380          41.000  
G28  21239038.221   111611898.663       -1173.673          45.000    21239027.253    86970269.728        -914.597          46.000  
G26  20352467.965   106952941.160         723.750          48.000    20352461.153    83339935.326         563.799          47.000  
G31  20625108.099   108385672.815         172.791          47.000    20625097.053    84456327.387         134.625          46.000  
G04  24529043.199                        3184.695          30.000    24529041.911   100442338.459        2482.520          35.000  
C33  22496439.292   117144859.007        -659.298          50.000                                                                  
C06  36571232.484   190436006.753        -162.314          45.000    36571215.641   147257129.424        -125.543          48.000  
C14  22645257.917   117919787.360       -2224.119          46.000    22645243.603    91183005.896       -1719.903          51.000  
C16  36998765.467   192662278.731        -193.936          48.000    36998753.704   148978647.549        -150.004          48.000  
C24  21832428.926   113687190.556        -845.877          50.000                                                                  
C26  24398778.906   127050840.567       -2558.705          44.000                                                                  
G03  22887427.212   120274234.709         -73.751          39.000    22887421.348    93720159.430         -57.744          39.000  
G16  22465062.260   118054707.529        3007.178          41.000                                                                  
C09  37722847.145   196432766.365        -152.050          44.000    37722833.190   151894217.620        -117.550          48.000  
C25  23667275.707   123241724.597        1587.689          45.000                                                                  
C13  38337969.668   199635864.148       -2256.239          41.000    38337963.978   154371092.498       -1744.768          43.000  
C08  39165263.707   203943801.455       -2455.269          36.000    39165252.192   157702238.215       -1898.912          43.000  
C10  40507893.692   210935239.096         932.667          34.000    40507894.756   163108485.206         721.977          38.000  
C35  25958705.206   135173796.219         419.122          38.000                                                                  
C07  39574144.750   206072961.232        1120.831          38.000    39574134.658   159348634.472         866.825          41.000  
C12  26482877.219   137903341.311        2302.964          35.000    26482877.479   106635582.988        1780.456          42.000  
G25  24350253.252   127961453.957       -3912.205          34.000    24350247.294    99710187.813       -3047.794          35.000  
> 2025 10 30 06 19 11.1200000  0 23                     
G32  21986830.584   115541573.030       -2890.047          46.000    21986824.658    90032371.236       -2251.992          42.000  
G29  23065783.196   121211518.387        -543.557          42.000    23065774.574    94450503.333        -423.381          41.000  
G28  21239047.158   111611945.604       -1173.571          45.000    21239036.175    86970306.304        -914.474          46.000  
G26  20352462.465   106952912.211         723.750          48.000    20352455.629    83339912.760         564.060          47.000  
G31  20625106.783   108385665.897         172.914          47.000    20625095.730    84456322.000         134.625          46.000  
G04  24529018.943                        3185.823          30.000    24529017.661   100442239.195        2481.957          35.000  
C33  22496444.353   117144885.377        -659.305          50.000                                                                  
C06  36571233.737   190436013.245        -162.290          45.000    36571216.885   147257134.443        -125.499          48.000  
C14  22645275.022   117919876.328       -2224.220          46.000    22645260.693    91183074.684       -1719.787          51.000  
C16  36998766.960   192662286.484        -193.814          48.000    36998755.193   148978653.538        -149.803          48.000  
C24  21832435.442   113687224.385        -845.779          50.000                                                                  
C26  24398798.562   127050942.912       -2558.684          44.000                                                                  
G03  22887427.775   120274237.654         -73.634          39.000    22887421.892    93720161.735         -57.740          39.000  
G16  22465039.362   118054587.234        3007.310          41.000                                                                  
C09  37722848.329   196432772.433        -151.840          44.000    37722834.350   151894222.316        -117.449          48.000  
C25  23667263.533   123241661.084        1587.807          45.000                                                                  
C13  38337987.012   199635954.376       -2255.872          41.000    38337981.307   154371162.278       -1744.585          43.000  
C08  39165282.563   203943899.686       -2455.515          36.000    39165271.084   157702314.174       -1898.999          43.000  
C10  40507886.558   210935201.781         932.753          34.000    40507887.602   163108456.369         721.362          38.000  
C35  25958701.993   135173779.451         419.139          38.000                                                                  
C07  39574136.156   206072916.399        1120.865          38.000    39574126.057   159348599.813         866.568          41.000  
C12  26482859.528   137903249.205        2302.783          35.000    26482859.777   106635511.773        1780.426          42.000  
G25  24350283.029   127961610.409       -3911.780          34.000    24350277.059    99710309.705       -3047.426          35.000  
> 2025 10 30 06 19 11.1600000  0 23                     
G32  21986852.584   115541688.637       -2890.150          46.000    21986846.657    90032461.314       -2252.020          42.000  
G29  23065787.346   121211540.122        -543.424          42.000    23065778.710    94450520.279        -423.591          41.000  
G28  21239056.077   111611992.552       -1173.648          45.000    21239045.096    86970342.892        -914.645          46.000  
G26  20352456.955   106952883.268         723.631          48.000    20352450.152    83339890.208         563.896          47.000  
G31  20625105.488   108385658.988         172.777          47.000    20625094.420    84456316.616         134.575          46.000  
G04  24528994.731                        3185.500          30.000    24528993.438   100442139.938        2481.536          35.000  
C33  22496449.420   117144911.747        -659.279          50.000                                                                  
C06  36571234.969   190436019.735        -162.280          45.000    36571218.136   147257139.462        -125.483          48.000  
C14  22645292.109   117919965.286       -2224.052          46.000    22645277.814    91183143.473       -1719.744          51.000  
C16  36998768.462   192662294.239        -193.846          48.000    36998756.705   148978659.535        -149.886          48.000  
C24  21832441.947   113687258.216        -845.762          50.000                                                                  
C26  24398818.217   127051045.262       -2558.771          44.000                                                                  
G03  22887428.334   120274240.620         -74.001          39.000    22887422.465    93720164.045         -57.865          39.000  
G16  22465016.488   118054466.951        3007.141          41.000                                                                  
C09  37722849.509   196432778.510        -151.867          44.000    37722835.531   151894227.017        -117.487          48.000  
C25  23667251.328   123241597.575        1587.769          45.000                                                                  
C13  38338004.327   199636044.619       -2255.955          41.000    38337998.641   154371232.057       -1744.518          43.000  
C08  39165301.412   203943997.907       -2455.560          36.000    39165289.954   157702390.122       -1898.848          43.000  
C10  40507879.412   210935164.470         932.742          34.000    40507880.448   163108427.521         721.239          38.000  
C35  25958698.789   135173762.677         419.265          38.000                                                                  
C07  39574127.556   206072871.572        1120.774          38.000    39574117.438   159348565.161         866.304          41.000  
C12  26482841.844   137903157.107        2302.487          35.000    26482842.080   106635440.553        1780.450          42.000  
G25  24350312.812   127961766.836       -3911.084          34.000    24350306.823    99710431.631       -3047.861          35.000  
> 2025 10 30 06 19 11.2000000  0 23                     
G32  21986874.608   115541804.251       -2890.336          46.000    21986868.654    90032551.401       -2252.142          42.000  
G29  23065791.502   121211561.867        -543.558          42.000    23065782.855    94450537.212        -423.483          41.000  
G28  21239065.024   111612039.503       -1173.763          45.000    21239054.041    86970379.476        -914.676          46.000  
G26  20352451.455   106952854.333         723.400          48.000    20352444.673    83339867.660         563.716          47.000  
G31  20625104.186   108385652.085         172.561          47.000    20625093.127    84456311.237         134.470          46.000  
G04  24528970.450                        3185.975          30.000    24528969.180   100442040.638        2482.048          35.000  
C33  22496454.463   117144938.125        -659.432          50.000                                                                  
C06  36571236.173   190436026.233        -162.422          45.000    36571219.390   147257144.487        -125.603          48.000  
C14  22645309.182   117920054.251       -2224.105          46.000    22645294.896    91183212.265       -1719.803          51.000  
C16  36998769.938   192662301.996        -193.900          48.000    36998758.187   148978665.539        -150.042          48.000  
C24  21832448.437   113687292.053        -845.896          50.000                                                                  
C26  24398837.865   127051147.617       -2558.871          44.000                                                                  
G03  22887428.908   120274243.588         -74.206          39.000    22887423.017    93720166.359         -57.989          39.000  
G16  22464993.613   118054346.681        3006.830          41.000                                                                  
C09  37722850.637   196432784.590        -152.003          44.000    37722836.686   151894231.715        -117.469          48.000  
C25  23667239.160   123241534.063        1587.787          45.000                                                                  
C13  38338021.666   199636134.870       -2256.174          41.000    38338015.988   154371301.834       -1744.444          43.000  
C08  39165320.287   203944096.151       -2455.922          36.000    39165308.833   157702466.081       -1898.921          43.000  
C10  40507872.243   210935127.169         932.427          34.000    40507873.282   163108398.675         721.093          38.000  
C35  25958695.590   135173745.917         419.113          38.000                                                                  
C07  39574118.960   206072826.768        1120.292          38.000    39574108.832   159348530.512         866.132          41.000  
C12  26482824.136   137903065.003        2302.544          35.000    26482824.374   106635369.329        1780.492          42.000  
G25  24350342.561   127961923.280       -3910.953          34.000    24350336.588    99710553.524       -3047.570          35.000  
> 2025 10 30 06 19 11.2400000  0 23                     
G32  21986896.620   115541919.866       -2890.408          46.000    21986890.659    90032641.495       -2252.351          42.000  
G29  23065795.615   121211583.617        -543.765          42.000    23065786.995    94450554.186        -424.135          41.000  
G28  21239073.956   111612086.467       -1174.023          45.000    21239062.974    86970416.067        -914.805          46.000  
G26  20352445.975   106952825.409         723.092          48.000    20352439.179    83339845.120         563.499          47.000  
G31  20625102.890   108385645.183         172.470          47.000    20625091.809    84456305.855         134.471          46.000  
G04  24528946.212                        3185.500          30.000    24528944.929   100441941.347        2482.144          35.000  
C33  22496459.471   117144964.510        -659.633          50.000                                                                  
C06  36571237.427   190436032.738        -162.572          45.000    36571220.665   147257149.516        -125.718          48.000  
C14  22645326.253   117920143.231       -2224.390          46.000    22645311.986    91183281.066       -1719.993          51.000  
C16  36998771.420   192662309.762        -194.107          48.000    36998759.658   148978671.543        -150.129          48.000  
C24  21832454.924   113687325.900        -846.135          50.000                                                                  
C26  24398857.525   127051249.969       -2558.873          44.000                                                                  
G03  22887429.459   120274246.557         -74.244          39.000    22887423.579    93720168.672         -57.980          39.000  
G16  22464970.724   118054226.413        3006.644          41.000                                                                  
C09  37722851.810   196432790.683        -152.305          44.000    37722837.868   151894236.415        -117.501          48.000  
C25  23667226.941   123241470.565        1587.509          45.000                                                                  
C13  38338039.017   199636225.139       -2256.666          41.000    38338033.322   154371371.624       -1744.701          43.000  
C08  39165339.160   203944194.393       -2456.122          36.000    39165327.703   157702542.045       -1899.072          43.000  
C10  40507865.052   210935089.860         932.522          34.000    40507866.136   163108369.844         720.767          38.000  
C35  25958692.366   135173729.170         418.761          38.000                                                                  
C07  39574110.361   206072781.955        1120.200          38.000    39574100.227   159348495.852         866.320          41.000  
C12  26482806.445   137902972.908        2302.465          35.000    26482806.672   106635298.118        1780.320          42.000  
G25  24350372.318   127962079.730       -3910.989          34.000    24350366.372    99710675.477       -3048.413          35.000  
> 2025 10 30 06 19 11.2800000  0 23                     
G32  21986918.616   115542035.475       -2890.325          46.000    21986912.644    90032731.586       -2252.390          42.000  
G29  23065799.744   121211605.367        -543.780          42.000    23065791.117    94450571.132        -423.926          41.000  
G28  21239082.899   111612133.422       -1174.027          45.000    21239071.934    86970452.656        -914.805          46.000  
G26  20352440.482   106952796.474         723.214          48.000    20352433.679    83339822.576         563.465          47.000  
G31  20625101.561   108385638.283         172.447          47.000    20625090.482    84456300.474         134.465          46.000  
G04  24528921.968                        3185.055          30.000    24528920.684   100441842.072        2481.958          35.000  
C33  22496464.534   117144990.898        -659.768          50.000                                                                  
C06  36571238.682   190436039.234        -162.523          45.000    36571221.940   147257154.542        -125.729          48.000  
C14  22645343.341   117920232.204       -2224.437          46.000    22645329.062    91183349.868       -1720.092          51.000  
C16  36998772.939   192662317.526        -194.167          48.000    36998761.137   148978677.553        -150.282          48.000  
C24  21832461.439   113687359.743        -846.167          50.000                                                                  
C26  24398877.184   127051352.319       -2558.804          44.000                                                                  
G03  22887430.025   120274249.528         -74.291          39.000    22887424.141    93720170.968         -57.658          39.000  
G16  22464947.822   118054106.132        3006.810          41.000                                                                  
C09  37722852.982   196432796.761        -152.174          44.000    37722839.043   151894241.116        -117.532          48.000  
C25  23667214.741   123241407.065        1587.449          45.000                                                                  
C13  38338056.353   199636315.387       -2256.538          41.000    38338050.638   154371441.418       -1744.893          43.000  
C08  39165357.996   203944292.601       -2455.521          36.000    39165346.569   157702617.999       -1898.967          43.000  
C10  40507857.879   210935052.560         932.443          34.000    40507858.952   163108341.005         720.814          38.000  
C35  25958689.143   135173712.425         418.488          38.000                                                                  
C07  39574101.745   206072737.136        1120.243          38.000    39574091.599   159348461.187         866.455          41.000  
C12  26482788.763   137902880.817        2302.317          35.000    26482789.010   106635226.911        1780.167          42.000  
G25  24350402.100   127962236.215       -3911.865          34.000    24350396.144    99710797.380       -3047.949          35.000  
> 2025 10 30 06 19 11.3200000  0 23                     
G32  21986940.612   115542151.083       -2890.252          46.000    21986934.637    90032821.669       -2252.197          42.000  
G29  23065803.878   121211627.121        -543.904          42.000    23065795.263    94450588.087        -423.904          41.000  
G28  21239091.844   111612180.380       -1174.063          45.000    21239080.873    86970489.254        -914.968          46.000  
G26  20352434.954   106952767.538         723.302          48.000    20352428.174    83339800.035         563.429          47.000  
G31  20625100.247   108385631.377         172.546          47.000    20625089.167    84456295.102         134.324          46.000  
G04  24528897.704                        3184.742          30.000    24528896.447   100441742.798        2481.807          35.000  
C33  22496469.626   117145017.286        -659.814          50.000                                                                  
C06  36571239.913   190436045.747        -162.813          45.000    36571223.215   147257159.570        -125.778          48.000  
C14  22645360.422   117920321.184       -2224.554          46.000    22645346.143    91183418.673       -1720.209          51.000  
C16  36998774.426   192662325.298        -194.338          48.000    36998762.600   148978683.554        -150.164          48.000  
C24  21832467.952   113687393.588        -846.215          50.000                                                                  
C26  24398896.814   127051454.674       -2558.872          44.000                                                                  
G03  22887430.598   120274252.494         -74.259          39.000    22887424.691    93720173.298         -58.106          39.000  
G16  22464924.932   118053985.860        3006.715          41.000                                                                  
C09  37722854.155   196432802.849        -152.261          44.000    37722840.227   151894245.819        -117.583          48.000  
C25  23667202.544   123241343.567        1587.394          45.000                                                                  
C13  38338073.684   199636405.640       -2256.429          41.000    38338067.993   154371511.217       -1745.027          43.000  
C08  39165376.885   203944390.843       -2455.891          36.000    39165365.416   157702693.953       -1898.938          43.000  
C10  40507850.742   210935015.255         932.502          34.000    40507851.782   163108312.155         721.025          38.000  
C35  25958685.929   135173695.673         418.576          38.000                                                                  
C07  39574093.120   206072692.286        1120.924          38.000    39574082.995   159348426.524         866.524          41.000  
C12  26482771.087   137902788.718        2302.342          35.000    26482771.320   106635155.705        1780.112          42.000  
G25  24350431.888   127962392.719       -3912.721          34.000    24350425.916    99710919.316       -3048.208          35.000  
> 2025 10 30 06 19 11.3600000  0 23                     
G32  21986962.648   115542266.711       -2890.590          46.000    21986956.636    90032911.743       -2251.947          42.000  
G29  23065808.032   121211648.892        -544.279          42.000    23065799.418    94450605.032        -423.664          41.000  
G28  21239100.817   111612227.349       -1174.227          45.000    21239089.801    86970525.846        -914.906          46.000  
G26  20352429.456   106952738.608         723.220          48.000    20352422.660    83339777.494         563.430          47.000  
G31  20625098.933   108385624.481         172.447          47.000    20625087.852    84456289.730         134.250          46.000  
G04  24528873.435                        3185.129          30.000    24528872.219   100441643.552        2481.255          35.000  
C33  22496474.713   117145043.675        -659.823          50.000                                                                  
C06  36571241.183   190436052.250        -162.736          45.000    36571224.466   147257164.605        -125.894          48.000  
C14  22645377.527   117920410.164       -2224.581          46.000    22645363.231    91183487.478       -1720.211          51.000  
C16  36998775.942   192662333.064        -194.300          48.000    36998764.054   148978689.562        -150.235          48.000  
C24  21832474.469   113687427.437        -846.260          50.000                                                                  
C26  24398916.446   127051557.037       -2559.047          44.000                                                                  
G03  22887431.169   120274255.468         -74.333          39.000    22887425.269    93720175.604         -57.817          39.000  
G16  22464902.055   118053865.587        3006.737          41.000                                                                  
C09  37722855.336   196432808.937        -152.304          44.000    37722841.384   151894250.535        -117.849          48.000  
C25  23667190.377   123241280.071        1587.364          45.000                                                                  
C13  38338091.047   199636495.906       -2256.698          41.000    38338085.353   154371581.008       -1744.912          43.000  
C08  39165395.752   203944489.082       -2455.970          36.000    39165384.283   157702769.916       -1899.049          43.000  
C10  40507843.557   210934977.964         932.288          34.000    40507844.614   163108283.295         721.354          38.000  
C35  25958682.726   135173678.939         418.347          38.000                                                                  
C07  39574084.514   206072647.462        1120.799          38.000    39574074.381   159348391.873         866.366          41.000  
C12  26482753.418   137902696.636        2302.072          35.000    26482753.604   106635084.490        1780.249          42.000  
G25  24350461.675   127962549.208       -3912.561          34.000    24350455.666    99711041.244       -3048.317          35.000  
> 2025 10 30 06 19 11.4000000  0 23                     
G32  21986984.621   115542382.327       -2890.558          46.000    21986978.612    90033001.829       -2252.043          42.000  
G29  23065812.183   121211670.654        -544.230          42.000    23065803.561    94450621.981        -423.679          41.000  
G28  21239109.720   111612274.307       -1174.105          45.000    21239098.745    86970562.440        -914.922          46.000  
G26  20352423.953   106952709.688         722.997          48.000    20352417.158    83339754.953         563.475          47.000  
G31  20625097.610   108385617.579         172.472          47.000    20625086.540    84456284.350         134.393          46.000  
G04  24528849.211                        3185.301          30.000    24528847.982   100441544.258        2481.860          35.000  
C33  22496479.788   117145070.058        -659.700          50.000                                                                  
C06  36571242.432   190436058.744        -162.513          45.000    36571225.725   147257169.637        -125.886          48.000  
C14  22645394.610   117920499.131       -2224.351          46.000    22645380.318    91183556.283       -1720.209          51.000  
C16  36998777.468   192662340.829        -194.205          48.000    36998765.561   148978695.566        -150.202          48.000  
C24  21832480.976   113687461.282        -846.210          50.000                                                                  
C26  24398936.080   127051659.402       -2559.144          44.000                                                                  
G03  22887431.740   120274258.440         -74.351          39.000    22887425.812    93720177.902         -57.510          39.000  
G16  22464879.178   118053745.318        3006.693          41.000                                                                  
C09  37722856.509   196432815.024        -152.303          44.000    37722842.549   151894255.243        -117.812          48.000  
C25  23667178.198   123241216.569        1587.476          45.000                                                                  
C13  38338108.390   199636586.155       -2256.490          41.000    38338102.705   154371650.806       -1744.974          43.000  
C08  39165414.626   203944587.330       -2456.232          36.000    39165403.149   157702845.882       -1899.166          43.000  
C10  40507836.396   210934940.645         932.695          34.000    40507837.454   163108254.463         720.986          38.000  
C35  25958679.510   135173662.166         418.941          38.000                                                                  
C07  39574075.900   206072602.650        1120.473          38.000    39574065.777   159348357.218         866.344          41.000  
C12  26482735.743   137902604.539        2302.258          35.000    26482735.916   106635013.275        1780.328          42.000  
G25  24350491.435   127962705.611       -3910.989          34.000    24350485.451    99711163.157       -3048.086          35.000  
> 2025 10 30 06 19 11.4400000  0 23                     
G32  21987006.620   115542497.953       -2890.678          46.000    21987000.624    90033091.934       -2252.479          42.000  
G29  23065816.318   121211692.404        -543.963          42.000    23065807.692    94450638.933        -423.718          41.000  
G28  21239118.624   111612321.258       -1173.912          45.000    21239107.671    86970599.037        -914.931          46.000  
G26  20352418.457   106952680.763         723.000          48.000    20352411.642    83339732.408         563.569          47.000  
G31  20625096.302   108385610.684         172.411          47.000    20625085.220    84456278.974         134.387          46.000  
G04  24528824.955                        3184.883          30.000    24528823.732   100441445.011        2481.368          35.000  
C33  22496484.843   117145096.443        -659.644          50.000                                                                  
C06  36571243.691   190436065.246        -162.538          45.000    36571226.993   147257174.656        -125.653          48.000  
C14  22645411.695   117920588.108       -2224.404          46.000    22645397.404    91183625.082       -1720.087          51.000  
C16  36998778.966   192662348.583        -193.979          48.000    36998767.056   148978701.568        -150.116          48.000  
C24  21832487.510   113687495.128        -846.197          50.000                                                                  
C26  24398955.752   127051761.753       -2558.954          44.000                                                                  
G03  22887432.331   120274261.420         -74.520          39.000    22887426.398    93720180.230         -57.967          39.000  
G16  22464856.274   118053625.054        3006.580          41.000                                                                  
C09  37722857.680   196432821.105        -152.169          44.000    37722843.717   151894259.947        -117.728          48.000  
C25  23667165.993   123241153.073        1587.438          45.000                                                                  
C13  38338125.704   199636676.408       -2256.409          41.000    38338120.051   154371720.590       -1744.712          43.000  
C08  39165433.498   203944685.575       -2456.319          36.000    39165422.029   157702921.852       -1899.271          43.000  
C10  40507829.234   210934903.357         932.317          34.000    40507830.323   163108225.617         721.040          38.000  
C35  25958676.296   135173645.427         418.654          38.000                                                                  
C07  39574067.296   206072557.856        1119.999          38.000    39574057.156   159348322.569         866.228          41.000  
C12  26482718.037   137902512.432        2302.609          35.000    26482718.239   106634942.065        1780.273          42.000  
G25  24350521.200   127962862.053       -3910.718          34.000    24350515.210    99711285.046       -3047.402          35.000  
> 2025 10 30 06 19 11.4800000  0 23                     
G32  21987028.605   115542613.571       -2890.590          46.000    21987022.633    90033182.032       -2252.533          42.000  
G29  23065820.449   121211714.153        -543.846          42.000    23065811.825    94450655.885        -423.795          41.000  
G28  21239127.556   111612368.213       -1173.864          45.000    21239116.606    86970635.608        -914.505          46.000  
G26  20352412.938   106952651.830         723.194          48.000    20352406.109    83339709.852         563.830          47.000  
G31  20625095.006   108385603.782         172.504          47.000    20625083.918    84456273.594         134.442          46.000  
G04  24528800.700                        3185.176          30.000    24528799.495   100441345.718        2481.967          35.000  
C33  22496489.927   117145122.829        -659.637          50.000                                                                  
C06  36571244.942   190436071.744        -162.458          45.000    36571228.264   147257179.671        -125.439          48.000  
C14  22645428.787   117920677.084       -2224.424          46.000    22645414.494    91183693.883       -1720.050          51.000  
C16  36998780.480   192662356.336        -193.809          48.000    36998768.552   148978707.565        -149.990          48.000  
C24  21832494.049   113687528.964        -846.015          50.000                                                                  
C26  24398975.416   127051864.098       -2558.711          44.000                                                                  
G03  22887432.878   120274264.396         -74.492          39.000    22887426.972    93720182.543         -57.875          39.000  
G16  22464833.387   118053504.772        3006.865          41.000                                                                  
C09  37722858.851   196432827.183        -152.016          44.000    37722844.889   151894264.646        -117.563          48.000  
C25  23667153.795   123241089.567        1587.605          45.000                                                                  
C13  38338143.031   199636766.640       -2255.968          41.000    38338137.383   154371790.374       -1744.608          43.000  
C08  39165452.361   203944783.800       -2455.963          36.000    39165440.884   157702997.815       -1899.213          43.000  
C10  40507822.072   210934866.061         932.271          34.000    40507823.165   163108196.772         721.100          38.000  
C35  25958673.089   135173628.680         418.571          38.000                                                                  
C07  39574058.688   206072513.036        1120.250          38.000    39574048.553   159348287.909         866.381          41.000  
C12  26482700.329   137902420.314        2302.909          35.000    26482700.559   106634870.841        1780.544          42.000  
G25  24350550.992   127963018.509       -3911.008          34.000    24350544.979    99711406.957       -3047.502          35.000  
> 2025 10 30 06 19 11.5200000  0 23                     
G32  21987050.601   115542729.181       -2890.374          46.000    21987044.628    90033272.124       -2252.416          42.000  
G29  23065824.619   121211735.906        -543.835          42.000    23065815.992    94450672.847        -424.072          41.000  
G28  21239136.507   111612415.164       -1173.776          45.000    21239125.544    86970672.190        -914.451          46.000  
G26  20352407.426   106952622.887         723.511          48.000    20352400.625    83339687.315         563.616          47.000  
G31  20625093.702   108385596.877         172.602          47.000    20625082.613    84456268.218         134.417          45.000  
G04  24528776.466                        3185.619          30.000    24528775.238   100441246.442        2481.998          35.000  
C33  22496495.012   117145149.210        -659.563          50.000                                                                  
C06  36571246.215   190436078.235        -162.332          45.000    36571229.479   147257184.699        -125.559          48.000  
C14  22645445.878   117920766.060       -2224.417          46.000    22645431.598    91183762.680       -1719.962          51.000  
C16  36998781.930   192662364.102        -193.996          48.000    36998770.059   148978713.565        -150.000          48.000  
C24  21832500.569   113687562.801        -845.948          50.000                                                                  
C26  24398995.095   127051966.445       -2558.615          44.000                                                                  
G03  22887433.442   120274267.363         -74.309          39.000    22887427.546    93720184.860         -57.912          39.000  
G16  22464810.494   118053384.482        3007.177          41.000                                                                  
C09  37722860.005   196432833.274        -152.170          44.000    37722846.077   151894269.341        -117.401          48.000  
C25  23667141.584   123241026.068        1587.543          45.000                                                                  
C13  38338160.381   199636856.883       -2256.029          41.000    38338154.698   154371860.159       -1744.603          43.000  
C08  39165471.229   203944882.013       -2455.477          36.000    39165459.775   157703073.764       -1898.949          43.000  
C10  40507814.910   210934828.743         932.777          34.000    40507816.013   163108167.931         721.081          38.000  
C35  25958669.861   135173611.907         419.083          38.000                                                                  
C07  39574050.082   206072468.205        1120.575          38.000    39574039.936   159348253.257         866.308          41.000  
C12  26482682.643   137902328.205        2302.864          35.000    26482682.878   106634799.620        1780.580          42.000  
G25  24350580.772   127963174.979       -3911.485          34.000    24350574.762    99711528.902       -3048.217          35.000  
> 2025 10 30 06 19 11.5600000  0 23                     
G32  21987072.580   115542844.776       -2889.991          46.000    21987066.597    90033362.197       -2252.049          42.000  
G29  23065828.772   121211757.653        -543.698          42.000    23065820.133    94450689.784        -423.646          41.000  
G28  21239145.439   111612462.113       -1173.722          45.000    21239134.488    86970708.782        -914.654          46.000  
G26  20352401.925   106952593.950         723.514          48.000    20352395.130    83339664.764         563.697          47.000  
G31  20625092.371   108385589.968         172.712          47.000    20625081.320    84456262.839         134.429          46.000  
G04  24528752.185                        3185.730          30.000    24528750.987   100441147.134        2482.506          35.000  
C33  22496500.050   117145175.593        -659.532          50.000                                                                  
C06  36571247.476   190436084.728        -162.312          45.000    36571230.739   147257189.723        -125.574          48.000  
C14  22645462.952   117920855.030       -2224.321          46.000    22645448.674    91183831.483       -1720.034          51.000  
C16  36998783.437   192662371.854        -193.855          48.000    36998771.564   148978719.556        -149.840          48.000  
C24  21832507.039   113687596.638        -845.913          50.000                                                                  
C26  24399014.720   127052068.789       -2558.579          44.000                                                                  
G03  22887434.027   120274270.329         -74.178          39.000    22887428.130    93720187.168         -57.734          39.000  
G16  22464787.633   118053264.200        3007.162          41.000                                                                  
C09  37722861.199   196432839.346        -151.917          44.000    37722847.251   151894274.045        -117.512          48.000  
C25  23667129.376   123240962.567        1587.543          45.000                                                                  
C13  38338177.712   199636947.149       -2256.452          41.000    38338172.056   154371929.944       -1744.592          43.000  
C08  39165490.076   203944980.232       -2455.385          36.000    39165478.629   157703149.712       -1898.757          43.000  
C10  40507807.713   210934791.428         932.877          34.000    40507808.878   163108139.070         721.457          38.000  
C35  25958666.629   135173595.144         419.193          38.000                                                                  
C07  39574041.467   206072423.355        1121.090          38.000    39574031.320   159348218.591         866.525          41.000  
C12  26482664.952   137902236.149        2301.779          35.000    26482665.178   106634728.402        1780.493          42.000  
G25  24350610.545   127963331.480       -3912.289          34.000    24350604.534    99711650.830       -3048.361          35.000  
> 2025 10 30 06 19 11.6000000  0 23                     
G32  21987094.584   115542960.391       -2890.184          46.000    21987088.625    90033452.290       -2252.171          42.000  
G29  23065832.913   121211779.402        -543.687          42.000    23065824.265    94450706.748        -423.957          41.000  
G28  21239154.382   111612509.076       -1173.946          45.000    21239143.444    86970745.383        -914.931          46.000  
G26  20352396.420   106952565.023         723.295          48.000    20352389.622    83339642.226         563.515          47.000  
G31  20625091.054   108385583.062         172.681          47.000    20625079.986    84456257.454         134.578          46.000  
G04  24528727.950                        3185.508          30.000    24528726.733   100441047.840        2482.421          35.000  
C33  22496505.093   117145201.986        -659.755          50.000                                                                  
C06  36571248.740   190436091.227        -162.386          45.000    36571231.988   147257194.748        -125.630          48.000  
C14  22645480.043   117920944.006       -2224.373          46.000    22645465.775    91183900.287       -1720.111          51.000  
C16  36998784.895   192662379.612        -193.903          48.000    36998773.069   148978725.560        -150.012          48.000  
C24  21832513.504   113687630.485        -846.104          50.000                                                                  
C26  24399034.367   127052171.144       -2558.746          44.000                                                                  
G03  22887434.603   120274273.289         -73.972          39.000    22887428.683    93720189.485         -57.799          39.000  
G16  22464764.748   118053143.931        3006.875          41.000                                                                  
C09  37722862.374   196432845.422        -151.849          44.000    37722848.397   151894278.748        -117.569          48.000  
C25  23667117.182   123240899.066        1587.524          45.000                                                                  
C13  38338195.039   199637037.396       -2256.332          41.000    38338189.388   154371999.729       -1744.636          43.000  
C08  39165508.949   203945078.487       -2455.987          36.000    39165497.468   157703225.667       -1898.806          43.000  
C10  40507800.530   210934754.093         933.336          34.000    40507801.693   163108110.219         721.399          38.000  
C35  25958663.426   135173578.373         419.321          38.000                                                                  
C07  39574032.841   206072378.547        1120.604          38.000    39574022.721   159348183.924         866.682          41.000  
C12  26482647.278   137902144.039        2302.294          35.000    26482647.491   106634657.193        1780.308          42.000  
G25  24350640.329   127963487.929       -3911.918          34.000    24350634.310    99711772.735       -3047.980          35.000  
> 2025 10 30 06 19 11.6400000  0 23                     
G32  21987116.596   115543076.005       -2890.301          46.000    21987110.625    90033542.369       -2252.058          42.000  
G29  23065837.055   121211801.169        -544.014          42.000    23065828.403    94450723.693        -423.721          41.000  
G28  21239163.324   111612556.033       -1173.955          45.000    21239152.371    86970781.973        -914.883          46.000  
G26  20352390.912   106952536.091         723.283          48.000    20352384.114    83339619.683         563.516          47.000  
G31  20625089.778   108385576.160         172.594          47.000    20625078.671    84456252.069         134.651          45.000  
G04  24528703.719                        3185.461          31.000    24528702.504   100440948.576        2481.869          35.000  
C33  22496510.166   117145228.373        -659.734          50.000                                                                  
C06  36571249.985   190436097.723        -162.406          45.000    36571233.222   147257199.767        -125.551          48.000  
C14  22645497.129   117921032.981       -2224.373          46.000    22645482.852    91183969.087       -1720.052          51.000  
C16  36998786.388   192662387.370        -193.922          48.000    36998774.558   148978731.564        -150.095          48.000  
C24  21832520.043   113687664.323        -846.010          50.000                                                                  
C26  24399053.981   127052273.502       -2558.923          44.000                                                                  
G03  22887435.143   120274276.250         -73.976          39.000    22887429.248    93720191.797         -57.762          39.000  
G16  22464741.850   118053023.656        3006.814          41.000                                                                  
C09  37722863.525   196432851.495        -151.782          44.000    37722849.552   151894283.450        -117.574          48.000  
C25  23667104.986   123240835.556        1587.703          45.000                                                                  
C13  38338212.367   199637127.643       -2256.238          41.000    38338206.721   154372069.509       -1744.530          43.000  
C08  39165527.852   203945176.702       -2455.551          36.000    39165516.356   157703301.613       -1898.682          43.000  
C10  40507793.353   210934716.806         932.643          34.000    40507794.541   163108081.364         721.395          38.000  
C35  25958660.198   135173561.630         418.833          38.000                                                                  
C07  39574024.242   206072333.724        1120.534          39.000    39574014.097   159348149.257         866.715          41.000  
C12  26482629.581   137902051.920        2302.781          35.000    26482629.777   106634585.970        1780.431          42.000  
G25  24350670.085   127963644.370       -3911.371          34.000    24350664.063    99711894.640       -3047.747          35.000  
> 2025 10 30 06 19 11.6800000  0 23                     
G32  21987138.598   115543191.625       -2890.482          46.000    21987132.611    90033632.452       -2252.041          42.000  
G29  23065841.186   121211822.916        -543.829          42.000    23065832.528    94450740.633        -423.521          41.000  
G28  21239172.249   111612602.980       -1173.800          45.000    21239161.287    86970818.551        -914.627          46.000  
G26  20352385.378   106952507.154         723.371          48.000    20352378.606    83339597.137         563.599          47.000  
G31  20625088.453   108385569.253         172.638          47.000    20625077.343    84456246.692         134.484          45.000  
G04  24528679.452                        3185.634          31.000    24528678.267   100440849.344        2481.023          35.000  
C33  22496515.236   117145254.752        -659.587          50.000                                                                  
C06  36571251.212   190436104.210        -162.269          45.000    36571234.423   147257204.785        -125.479          48.000  
C14  22645514.225   117921121.951       -2224.297          46.000    22645499.940    91184037.883       -1719.970          51.000  
C16  36998787.877   192662395.121        -193.820          48.000    36998776.060   148978737.563        -150.032          48.000  
C24  21832526.552   113687698.157        -845.926          50.000                                                                  
C26  24399073.622   127052375.852       -2558.853          44.000                                                                  
G03  22887435.700   120274279.218         -74.079          39.000    22887429.814    93720194.117         -57.887          39.000  
G16  22464718.933   118052903.384        3006.745          41.000                                                                  
C09  37722864.692   196432857.570        -151.843          44.000    37722850.726   151894288.143        -117.423          48.000  
C25  23667092.826   123240772.042        1587.844          45.000                                                                  
C13  38338229.687   199637217.874       -2255.972          41.000    38338224.083   154372139.290       -1744.512          43.000  
C08  39165546.714   203945274.910       -2455.211          36.000    39165535.227   157703377.572       -1898.832          43.000  
C10  40507786.179   210934679.519         932.221          34.000    40507787.388   163108052.506         721.371          38.000  
C35  25958656.995   135173544.888         418.533          38.000                                                                  
C07  39574015.639   206072288.883        1120.807          39.000    39574005.511   159348114.591         866.704          41.000  
C12  26482611.893   137901959.819        2302.711          35.000    26482612.082   106634514.742        1780.616          42.000  
G25  24350699.859   127963800.821       -3911.205          34.000    24350693.833    99712016.558       -3047.831          35.000  
> 2025 10 30 06 19 11.7200000  0 23                     
G32  21987160.591   115543307.226       -2890.199          46.000    21987154.602    90033722.545       -2252.258          42.000  
G29  23065845.320   121211844.663        -543.730          42.000    23065836.665    94450757.585        -423.657          41.000  
G28  21239181.177   111612649.923       -1173.637          45.000    21239170.206    86970855.124        -914.381          46.000  
G26  20352379.858   106952478.215         723.445          48.000    20352373.099    83339574.585         563.748          47.000  
G31  20625087.139   108385562.342         172.717          47.000    20625076.027    84456241.300         134.724          46.000  
G04  24528655.170                        3185.397          31.000    24528654.019   100440750.039        2481.914          35.000  
C33  22496520.304   117145281.127        -659.411          50.000                                                                  
C06  36571252.465   190436110.690        -162.076          45.000    36571235.647   147257209.799        -125.364          48.000  
C14  22645531.322   117921210.922       -2224.293          46.000    22645516.997    91184106.678       -1719.915          51.000  
C16  36998789.384   192662402.870        -193.752          48.000    36998777.547   148978743.553        -149.839          48.000  
C24  21832533.078   113687731.984        -845.726          50.000                                                                  
C26  24399093.296   127052478.183       -2558.469          44.000                                                                  
G03  22887436.276   120274282.199         -74.438          39.000    22887430.374    93720196.418         -57.649          39.000  
G16  22464696.038   118052783.103        3006.889          41.000                                                                  
C09  37722865.841   196432863.634        -151.647          44.000    37722851.888   151894292.830        -117.221          48.000  
C25  23667080.632   123240708.531        1587.830          45.000                                                                  
C13  38338247.009   199637308.121       -2256.067          41.000    38338241.405   154372209.062       -1744.358          43.000  
C08  39165565.567   203945373.115       -2454.938          36.000    39165554.091   157703453.521       -1898.743          43.000  
C10  40507779.028   210934642.178         933.141          34.000    40507780.238   163108023.658         721.213          38.000  
C35  25958653.770   135173528.142         418.559          38.000                                                                  
C07  39574007.020   206072244.034        1121.087          39.000    39573996.896   159348079.927         866.678          41.000  
C12  26482594.189   137901867.691        2303.080          35.000    26482594.391   106634443.513        1780.727          42.000  
G25  24350729.614   127963957.292       -3911.426          34.000    24350723.577    99712138.447       -3047.313          35.000  
> 2025 10 30 06 19 11.7600000  0 23                     
G32  21987182.574   115543422.827       -2890.074          46.000    21987176.596    90033812.628       -2252.164          42.000  
G29  23065849.477   121211866.412        -543.713          42.000    23065840.809    94450774.536        -423.700          41.000  
G28  21239190.123   111612696.864       -1173.547          45.000    21239179.130    86970891.702        -914.372          46.000  
G26  20352374.365   106952449.277         723.475          48.000    20352367.585    83339552.028         563.895          47.000  
G31  20625085.806   108385555.427         172.828          47.000    20625074.718    84456235.912         134.754          45.000  
G04  24528630.935                        3185.294          31.000    24528629.759   100440650.714        2482.723          35.000  
C33  22496525.369   117145307.503        -659.377          50.000                                                                  
C06  36571253.675   190436117.179        -162.158          45.000    36571236.875   147257214.804        -125.184          48.000  
C14  22645548.417   117921299.885       -2224.154          46.000    22645534.108    91184175.469       -1719.802          51.000  
C16  36998790.913   192662410.612        -193.573          48.000    36998779.001   148978749.534        -149.586          48.000  
C24  21832539.580   113687765.816        -845.720          50.000                                                                  
C26  24399112.969   127052580.516       -2558.302          44.000                                                                  
G03  22887436.831   120274285.165         -74.314          39.000    22887430.934    93720198.726         -57.645          39.000  
G16  22464673.133   118052662.813        3007.124          41.000                                                                  
C09  37722867.010   196432869.705        -151.682          44.000    37722853.047   151894297.526        -117.295          48.000  
C25  23667068.423   123240645.023        1587.725          45.000                                                                  
C13  38338264.363   199637398.353       -2255.849          41.000    38338258.744   154372278.843       -1744.459          43.000  
C08  39165584.443   203945471.361       -2455.627          36.000    39165572.931   157703529.472       -1898.776          43.000  
C10  40507771.864   210934604.888         932.630          34.000    40507773.064   163107994.791         721.474          38.000  
C35  25958650.549   135173511.371         419.039          38.000                                                                  
C07  39573998.415   206072199.194        1121.072          39.000    39573988.310   159348045.268         866.531          41.000  
C12  26482576.501   137901775.564        2303.288          35.000    26482576.676   106634372.285        1780.719          42.000  
G25  24350759.365   127964113.722       -3910.916          34.000    24350753.341    99712260.349       -3047.294          35.000  
> 2025 10 30 06 19 11.8000000  0 23                     
G32  21987204.577   115543538.427       -2889.995          46.000    21987198.596    90033902.719       -2252.269          42.000  
G29  23065853.601   121211888.156        -543.626          42.000    23065844.951    94450791.486        -423.758          41.000  
G28  21239199.073   111612743.807       -1173.550          45.000    21239188.061    86970928.286        -914.520          46.000  
G26  20352368.873   106952420.336         723.543          48.000    20352362.090    83339529.479         563.800          47.000  
G31  20625084.499   108385548.513         172.858          47.000    20625073.381    84456230.525         134.729          45.000  
G04  24528606.689                        3185.099          31.000    24528605.515   100440551.444        2482.161          35.000  
C33  22496530.421   117145333.881        -659.412          50.000                                                                  
C06  36571254.910   190436123.662        -162.101          45.000    36571238.120   147257219.812        -125.154          48.000  
C14  22645565.523   117921388.847       -2224.055          46.000    22645551.195    91184244.263       -1719.812          51.000  
C16  36998792.415   192662418.355        -193.541          48.000    36998780.480   148978755.526        -149.698          48.000  
C24  21832546.035   113687799.648        -845.763          50.000                                                                  
C26  24399132.624   127052682.848       -2558.228          44.000                                                                  
G03  22887437.391   120274288.131         -74.225          39.000    22887431.505    93720201.049         -57.923          39.000  
G16  22464650.230   118052542.521        3007.273          41.000                                                                  
C09  37722868.193   196432875.775        -151.695          44.000    37722854.201   151894302.225        -117.410          48.000  
C25  23667056.195   123240581.510        1587.818          45.000                                                                  
C13  38338281.683   199637488.600       -2256.057          41.000    38338276.045   154372348.617       -1744.365          43.000  
C08  39165603.304   203945569.573       -2455.516          36.000    39165591.790   157703605.423       -1898.790          43.000  
C10  40507764.721   210934567.549         933.195          35.000    40507765.887   163107965.949         721.128          38.000  
C35  25958647.317   135173494.596         419.291          38.000                                                                  
C07  39573989.793   206072154.367        1120.819          39.000    39573979.705   159348010.602         866.566          41.000  
C12  26482558.799   137901683.452        2303.077          35.000    26482558.988   106634301.050        1780.792          42.000  
G25  24350789.120   127964270.190       -3911.453          34.000    24350783.108    99712382.260       -3047.633          35.000  
> 2025 10 30 06 19 11.8400000  0 23                     
G32  21987226.568   115543654.025       -2889.928          46.000    21987220.607    90033992.800       -2252.170          42.000  
G29  23065857.709   121211909.896        -543.469          42.000    23065849.078    94450808.426        -423.574          41.000  
G28  21239208.006   111612790.751       -1173.587          45.000    21239197.002    86970964.861        -914.440          46.000  
G26  20352363.354   106952391.393         723.579          48.000    20352356.581    83339506.938         563.601          47.000  
G31  20625083.188   108385541.596         172.926          47.000    20625072.067    84456225.137         134.710          45.000  
G04  24528582.429                        3186.012          31.000    24528581.282   100440452.174        2481.857          35.000  
C33  22496535.474   117145360.262        -659.481          50.000                                                                  
C06  36571256.164   190436130.143        -162.051          45.000    36571239.381   147257224.828        -125.298          48.000  
C14  22645582.598   117921477.813       -2224.083          46.000    22645568.252    91184313.058       -1719.863          51.000  
C16  36998793.919   192662426.104        -193.616          48.000    36998781.947   148978761.511        -149.635          48.000  
C24  21832552.514   113687833.479        -845.758          50.000                                                                  
C26  24399152.274   127052785.185       -2558.293          44.000                                                                  
G03  22887437.953   120274291.092         -74.056          39.000    22887432.049    93720203.347         -57.625          39.000  
G16  22464627.328   118052422.232        3007.287          41.000                                                                  
C09  37722869.388   196432881.834        -151.512          44.000    37722855.378   151894306.917        -117.354          48.000  
C25  23667044.019   123240517.989        1587.978          45.000                                                                  
C13  38338298.992   199637578.826       -2255.745          41.000    38338293.374   154372418.403       -1744.502          43.000  
C08  39165622.168   203945667.809       -2455.870          36.000    39165610.652   157703681.374       -1898.782          43.000  
C10  40507757.532   210934530.200         933.715          34.000    40507758.756   163107937.096         721.150          38.000  
C35  25958644.088   135173477.828         419.351          38.000                                                                  
C07  39573981.172   206072109.527        1120.887          39.000    39573971.099   159347975.922         866.852          41.000  
C12  26482541.088   137901591.319        2303.261          35.000    26482541.292   106634229.817        1780.848          41.000  
G25  24350818.881   127964426.614       -3911.029          34.000    24350812.868    99712504.186       -3048.108          35.000  
> 2025 10 30 06 19 11.8800000  0 23                     
G32  21987248.563   115543769.633       -2890.114          46.000    21987242.610    90034082.874       -2251.943          42.000  
G29  23065861.852   121211931.645        -543.545          42.000    23065853.233    94450825.384        -423.841          41.000  
G28  21239216.942   111612837.694       -1173.581          45.000    21239205.950    86971001.444        -914.536          46.000  
G26  20352357.850   106952362.456         723.479          48.000    20352351.075    83339484.390         563.588          47.000  
G31  20625081.881   108385534.679         172.950          47.000    20625070.770    84456219.753         134.643          45.000  
G04  24528558.169                        3185.872          31.000    24528557.012   100440352.860        2482.371          35.000  
C33  22496540.558   117145386.636        -659.399          50.000                                                                  
C06  36571257.394   190436136.616        -161.885          45.000    36571240.611   147257229.842        -125.364          48.000  
C14  22645599.671   117921566.776       -2224.072          46.000    22645585.339    91184381.851       -1719.844          51.000  
C16  36998795.401   192662433.847        -193.597          48.000    36998783.449   148978767.497        -149.598          48.000  
C24  21832559.026   113687867.304        -845.676          50.000                                                                  
C26  24399171.921   127052887.524       -2558.411          44.000                                                                  
G03  22887438.519   120274294.047         -73.889          39.000    22887432.614    93720205.653         -57.642          39.000  
G16  22464604.441   118052301.955        3007.021          41.000                                                                  
C09  37722870.556   196432887.887        -151.339          44.000    37722856.547   151894311.602        -117.183          48.000  
C25  23667031.802   123240454.472        1587.977          45.000                                                                  
C13  38338316.319   199637669.057       -2255.722          41.000    38338310.697   154372488.181       -1744.477          43.000  
C08  39165641.003   203945766.016       -2455.518          36.000    39165629.503   157703757.302       -1898.372          43.000  
C10  40507750.380   210934492.888         933.188          35.000    40507751.602   163107908.223         721.545          38.000  
C35  25958640.861   135173461.061         419.335          38.000                                                                  
C07  39573972.595   206072064.714        1120.492          39.000    39573962.500   159347941.238         867.095          41.000  
C12  26482523.373   137901499.201        2303.088          35.000    26482523.609   106634158.589        1780.742          41.000  
G25  24350848.643   127964583.051       -3910.969          34.000    24350842.617    99712626.105       -3048.148          35.000  
> 2025 10 30 06 19 11.9200000  0 23                     
G32  21987270.551   115543885.243       -2890.241          46.000    21987264.602    90034172.960       -2252.024          42.000  
G29  23065865.991   121211953.401        -543.779          42.000    23065857.370    94450842.320        -423.608          41.000  
G28  21239225.863   111612884.640       -1173.628          45.000    21239214.881    86971038.023        -914.526          46.000  
G26  20352352.357   106952333.512         723.560          48.000    20352345.571    83339461.834         563.744          47.000  
G31  20625080.539   108385527.766         172.863          47.000    20625069.452    84456214.368         134.606          45.000  
G04  24528533.954                        3185.123          31.000    24528532.755   100440253.541        2482.825          35.000  
C33  22496545.652   117145413.014        -659.451          50.000                                                                  
C06  36571258.605   190436143.090        -161.853          45.000    36571241.887   147257234.860        -125.453          48.000  
C14  22645616.766   117921655.744       -2224.169          46.000    22645602.443    91184450.642       -1719.813          51.000  
C16  36998796.911   192662441.580        -193.405          48.000    36998784.927   148978773.474        -149.453          48.000  
C24  21832565.502   113687901.132        -845.678          50.000                                                                  
C26  24399191.606   127052989.855       -2558.345          44.000                                                                  
G03  22887439.066   120274297.012         -74.082          39.000    22887433.180    93720207.961         -57.719          39.000  
G16  22464581.565   118052181.676        3006.900          41.000                                                                  
C09  37722871.716   196432893.964        -151.665          44.000    37722857.695   151894316.295        -117.261          48.000  
C25  23667019.596   123240390.962        1587.835          45.000                                                                  
C13  38338333.627   199637759.300       -2255.961          41.000    38338328.052   154372557.953       -1744.359          43.000  
C08  39165659.865   203945864.236       -2455.435          36.000    39165648.356   157703833.247       -1898.505          43.000  
C10  40507743.230   210934455.586         932.714          35.000    40507744.423   163107879.358         721.623          38.000  
C35  25958637.645   135173444.297         419.214          38.000                                                                  
C07  39573963.985   206072019.864        1120.932          39.000    39573953.855   159347906.555         867.128          41.000  
C12  26482505.672   137901407.092        2302.761          35.000    26482505.927   106634087.363        1780.650          41.000  
G25  24350878.392   127964739.496       -3911.001          34.000    24350872.403    99712747.984       -3047.449          35.000  
> 2025 10 30 06 19 11.9600000  0 23                     
G32  21987292.546   115544000.844       -2890.127          46.000    21987286.586    90034263.033       -2251.850          42.000  
G29  23065870.132   121211975.145        -543.658          42.000    23065861.508    94450859.264        -423.635          41.000  
G28  21239234.785   111612931.572       -1173.449          45.000    21239223.800    86971074.598        -914.425          46.000  
G26  20352346.863   106952304.566         723.615          48.000    20352340.062    83339439.279         563.838          47.000  
G31  20625079.203   108385520.850         172.869          47.000    20625068.145    84456208.971         134.822          45.000  
G04  24528509.691                        3185.810          31.000    24528508.499   100440154.241        2482.760          35.000  
C33  22496550.707   117145439.387        -659.368          50.000                                                                  
C06  36571259.864   190436149.566        -161.871          45.000    36571243.142   147257239.865        -125.265          48.000  
C14  22645633.867   117921744.711       -2224.213          46.000    22645619.517    91184519.429       -1719.724          51.000  
C16  36998798.409   192662449.317        -193.358          48.000    36998786.400   148978779.452        -149.419          48.000  
C24  21832572.038   113687934.946        -845.418          50.000                                                                  
C26  24399211.243   127053092.193       -2558.419          44.000                                                                  
G03  22887439.635   120274299.959         -73.804          39.000    22887433.770    93720210.289         -58.121          39.000  
G16  22464558.685   118052061.381        3007.173          41.000                                                                  
C09  37722872.885   196432900.026        -151.600          44.000    37722858.869   151894320.985        -117.262          48.000  
C25  23667007.409   123240327.438        1588.051          45.000                                                                  
C13  38338350.953   199637849.525       -2255.748          41.000    38338345.350   154372627.719       -1744.186          43.000  
C08  39165678.706   203945962.439       -2455.066          36.000    39165667.235   157703909.190       -1898.549          43.000  
C10  40507736.043   210934418.262         932.925          35.000    40507737.259   163107850.493         721.600          38.000  
C35  25958634.424   135173427.542         419.021          38.000                                                                  
C07  39573955.375   206071975.010        1121.237          39.000    39573945.257   159347871.892         866.789          41.000  
C12  26482487.986   137901314.963        2302.996          35.000    26482488.230   106634016.127        1780.848          40.000  
G25  24350908.196   127964895.952       -3911.252          34.000    24350902.148    99712869.882       -3047.389          35.000  
> 2025 10 30 06 19 12.0000000  0 23                     
G32  21987314.540   115544116.440       -2889.985          46.000    21987308.571    90034353.101       -2251.729          42.000  
G29  23065874.258   121211996.889        -543.634          42.000    23065865.638    94450876.194        -423.359          41.000  
G28  21239243.696   111612978.494       -1173.149          45.000    21239232.732    86971111.156        -914.069          46.000  
G26  20352341.348   106952275.617         723.695          48.000    20352334.554    83339416.725         563.862          46.000  
G31  20625077.868   108385513.923         173.079          47.000    20625066.832    84456203.571         134.994          45.000  
G04  24528485.416                        3185.848          31.000    24528484.255   100440054.963        2482.264          35.000  
C33  22496555.770   117145465.756        -659.281          50.000                                                                  
C06  36571261.097   190436156.043        -161.914          45.000    36571244.390   147257244.860        -124.979          48.000  
C14  22645650.950   117921833.664       -2223.996          46.000    22645636.603    91184588.219       -1719.727          51.000  
C16  36998799.902   192662457.049        -193.284          48.000    36998787.919   148978785.436        -149.521          48.000  
C24  21832578.525   113687968.763        -845.380          50.000                                                                  
C26  24399230.893   127053194.515       -2558.181          44.000                                                                  
G03  22887440.196   120274302.912         -73.770          39.000    22887434.340    93720212.586         -57.732          39.000  
G16  22464535.773   118051941.081        3007.435          41.000                                                                  
C09  37722874.065   196432906.071        -151.251          44.000    37722860.051   151894325.664        -117.072          48.000  
C25  23666995.219   123240263.910        1588.173          45.000                                                                  
C13  38338368.295   199637939.735       -2255.389          41.000    38338362.664   154372697.480       -1744.007          43.000  
C08  39165697.569   203946060.615       -2454.473          36.000    39165686.092   157703985.122       -1898.340          43.000  
C10  40507728.866   210934380.954         932.708          35.000    40507730.100   163107821.621         721.726          38.000  
C35  25958631.222   135173410.783         418.881          38.000                                                                  
C07  39573946.734   206071930.141        1121.635          39.000    39573936.628   159347837.205         867.022          41.000  
C12  26482470.293   137901222.820        2303.409          35.000    26482470.528   106633944.893        1780.847          40.000  
G25  24350937.948   127965052.365       -3910.635          34.000    24350931.899    99712991.775       -3047.308          35.000  
> 2025 10 30 06 19 12.0400000  0 23                     
G32  21987336.542   115544232.030       -2889.794          46.000    21987330.548    90034443.166       -2251.633          42.000  
G29  23065878.393   121212018.621        -543.429          42.000    23065869.771    94450893.128        -423.331          41.000  
G28  21239252.641   111613025.426       -1173.188          45.000    21239241.657    86971147.723        -914.057          46.000  
G26  20352335.823   106952246.670         723.656          48.000    20352329.044    83339394.163         563.992          46.000  
G31  20625076.544   108385506.998         173.140          47.000    20625065.511    84456198.168         135.109          45.000  
G04  24528461.148                        3185.718          31.000    24528460.022   100439955.665        2482.247          35.000  
C33  22496560.878   117145492.120        -659.125          50.000                                                                  
C06  36571262.358   190436162.506        -161.716          45.000    36571245.638   147257249.854        -124.818          48.000  
C14  22645668.040   117921922.618       -2223.890          46.000    22645653.673    91184657.007       -1719.714          51.000  
C16  36998801.373   192662464.782        -193.282          48.000    36998789.437   148978791.419        -149.559          48.000  
C24  21832584.998   113688002.581        -845.379          50.000                                                                  
C26  24399250.561   127053296.830       -2557.937          44.000                                                                  
G03  22887440.771   120274305.882         -74.086          39.000    22887434.902    93720214.876         -57.375          39.000  
G16  22464512.876   118051820.775        3007.678          41.000                                                                  
C09  37722875.258   196432912.118        -151.143          44.000    37722861.206   151894330.335        -116.842          48.000  
C25  23666983.025   123240200.381        1588.265          45.000                                                                  
C13  38338385.632   199638029.959       -2255.441          41.000    38338379.984   154372767.252       -1744.184          43.000  
C08  39165716.426   203946158.824       -2454.812          36.000    39165704.958   157704061.070       -1898.548          43.000  
C10  40507721.717   210934343.580         933.749          35.000    40507722.946   163107792.765         721.495          38.000  
C35  25958628.020   135173393.983         419.631          38.000                                                                  
C07  39573938.113   206071885.282        1121.585          39.000    39573928.007   159347802.524         867.074          41.000  
C12  26482452.613   137901130.699        2303.073          35.000    26482452.877   106633873.653        1780.964          40.000  
G25  24350967.717   127965208.786       -3910.467          34.000    24350961.675    99713113.686       -3047.575          35.000  
> 2025 10 30 06 19 12.0800000  0 23                     
G32  21987358.558   115544347.624       -2889.789          46.000    21987352.531    90034533.228       -2251.561          42.000  
G29  23065882.539   121212040.363        -543.469          42.000    23065873.924    94450910.078        -423.563          41.000  
G28  21239261.565   111613072.365       -1173.390          45.000    21239250.606    86971184.298        -914.223          46.000  
G26  20352330.314   106952217.724         723.618          48.000    20352323.543    83339371.603         564.015          47.000  
G31  20625075.207   108385500.067         173.287          47.000    20625064.189    84456192.773         134.967          45.000  
G04  24528436.871                        3185.787          31.000    24528435.782   100439856.383        2482.064          35.000  
C33  22496565.947   117145518.488        -659.140          50.000                                                                  
C06  36571263.603   190436168.974        -161.694          45.000    36571246.889   147257254.855        -124.922          48.000  
C14  22645685.133   117922011.572       -2223.844          46.000    22645670.736    91184725.793       -1719.671          51.000  
C16  36998802.830   192662472.509        -193.208          48.000    36998790.950   148978797.401        -149.584          48.000  
C24  21832591.490   113688036.403        -845.488          50.000                                                                  
C26  24399270.174   127053399.154       -2557.974          44.000                                                                  
G03  22887441.342   120274308.867         -74.580          39.000    22887435.475    93720217.164         -57.153          39.000  
G16  22464489.953   118051700.483        3007.457          41.000                                                                  
C09  37722876.406   196432918.167        -151.129          44.000    37722862.354   151894335.011        -116.834          48.000  
C25  23666970.829   123240136.861        1588.073          45.000                                                                  
C13  38338402.991   199638120.185       -2255.542          41.000    38338397.319   154372837.017       -1744.128          43.000  
C08  39165735.270   203946257.013       -2454.778          36.000    39165723.836   157704136.997       -1898.287          43.000  
C10  40507714.510   210934306.257         933.388          35.000    40507715.782   163107763.895         721.630          38.000  
C35  25958624.797   135173377.220         419.317          38.000                                                                  
C07  39573929.518   206071840.434        1121.334          39.000    39573919.369   159347767.838         867.146          41.000  
C12  26482434.897   137901038.572        2303.143          35.000    26482435.155   106633802.409        1781.037          40.000  
G25  24350997.476   127965365.193       -3910.072          34.000    24350991.409    99713235.556       -3046.990          34.000  
> 2025 10 30 06 19 12.1200000  0 23                     
G32  21987380.561   115544463.226       -2889.975          46.000    21987374.549    90034623.314       -2251.966          42.000  
G29  23065886.665   121212062.104        -543.488          42.000    23065878.073    94450927.021        -423.613          41.000  
G28  21239270.513   111613119.311       -1173.598          45.000    21239259.527    86971220.865        -914.189          46.000  
G26  20352324.806   106952188.785         723.488          48.000    20352318.035    83339349.046         563.977          47.000  
G31  20625073.909   108385493.142         173.212          47.000    20625062.889    84456187.383         134.775          45.000  
G04  24528412.621                        3185.269          30.000    24528411.525   100439757.077        2482.298          35.000  
C33  22496570.958   117145544.861        -659.276          50.000                                                                  
C06  36571264.860   190436175.435        -161.569          45.000    36571248.146   147257259.862        -125.118          48.000  
C14  22645702.184   117922100.529       -2223.871          46.000    22645687.843    91184794.585       -1719.754          51.000  
C16  36998804.283   192662480.239        -193.231          48.000    36998792.441   148978803.376        -149.453          48.000  
C24  21832597.960   113688070.230        -845.652          50.000                                                                  
C26  24399289.825   127053501.486       -2558.169          44.000                                                                  
G03  22887441.901   120274311.819         -74.094          39.000    22887436.036    93720219.481         -57.636          39.000  
G16  22464467.062   118051580.184        3007.443          41.000                                                                  
C09  37722877.566   196432924.222        -151.324          44.000    37722863.538   151894339.690        -116.914          48.000  
C25  23666958.640   123240073.337        1588.060          45.000                                                                  
C13  38338420.298   199638210.414       -2255.635          41.000    38338414.634   154372906.790       -1744.253          43.000  
C08  39165754.161   203946355.227       -2455.210          36.000    39165742.701   157704212.940       -1898.433          43.000  
C10  40507707.320   210934268.923         933.427          35.000    40507708.623   163107735.036         721.523          38.000  
C35  25958621.583   135173360.454         419.217          38.000                                                                  
C07  39573920.912   206071795.612        1120.723          39.000    39573910.752   159347733.161         866.998          41.000  
C12  26482417.202   137900946.464        2302.791          35.000    26482417.469   106633731.174        1780.882          40.000  
G25  24351027.234   127965521.670       -3911.276          34.000    24351021.165    99713357.468       -3047.454          34.000  
> 2025 10 30 06 19 12.1600000  0 23                     
G32  21987402.567   115544578.818       -2889.888          46.000    21987396.550    90034713.395       -2252.089          42.000  
G29  23065890.777   121212083.849        -543.628          42.000    23065882.184    94450943.951        -423.431          41.000  
G28  21239279.437   111613166.234       -1173.333          45.000    21239268.478    86971257.437        -914.263          46.000  
G26  20352319.283   106952159.837         723.576          48.000    20352312.525    83339326.493         563.852          47.000  
G31  20625072.573   108385486.212         173.249          47.000    20625061.562    84456181.992         134.708          45.000  
G04  24528388.349                        3186.206          30.000    24528387.262   100439657.774        2482.450          35.000  
C33  22496576.036   117145571.236        -659.364          50.000                                                                  
C06  36571266.120   190436181.906        -161.702          45.000    36571249.348   147257264.868        -125.195          48.000  
C14  22645719.297   117922189.485       -2223.884          46.000    22645704.928    91184863.370       -1719.678          51.000  
C16  36998805.776   192662487.966        -193.187          48.000    36998793.920   148978809.348        -149.333          48.000  
C24  21832604.474   113688104.049        -845.610          50.000                                                                  
C26  24399309.479   127053603.809       -2558.163          44.000                                                                  
G03  22887442.469   120274314.768         -73.762          39.000    22887436.614    93720221.803         -58.038          39.000  
G16  22464444.190   118051459.889        3007.412          41.000                                                                  
C09  37722878.694   196432930.287        -151.556          43.000    37722864.714   151894344.378        -117.150          48.000  
C25  23666946.467   123240009.806        1588.178          45.000                                                                  
C13  38338437.662   199638300.632       -2255.491          41.000    38338431.960   154372976.560       -1744.283          43.000  
C08  39165773.032   203946453.452       -2455.635          36.000    39165761.576   157704288.878       -1898.440          43.000  
C10  40507700.126   210934231.570         933.649          35.000    40507701.459   163107706.154         721.865          38.000  
C35  25958618.385   135173343.679         419.331          38.000                                                                  
C07  39573912.333   206071750.744        1121.276          39.000    39573902.151   159347698.482         866.924          41.000  
C12  26482399.531   137900854.301        2303.811          34.000    26482399.775   106633659.933        1780.944          40.000  
G25  24351056.975   127965678.114       -3911.383          34.000    24351050.913    99713479.361       -3047.384          34.000  
> 2025 10 30 06 19 12.2000000  0 23                     
G32  21987424.553   115544694.415       -2889.948          46.000    21987418.555    90034803.463       -2251.867          42.000  
G29  23065894.907   121212105.593        -543.645          42.000    23065886.345    94450960.907        -423.790          41.000  
G28  21239288.387   111613213.163       -1173.233          45.000    21239277.419    86971294.015        -914.448          46.000  
G26  20352313.761   106952130.889         723.638          48.000    20352307.016    83339303.945         563.691          47.000  
G31  20625071.288   108385479.295         173.026          47.000    20625060.239    84456176.600         134.715          45.000  
G04  24528364.077                        3185.800          30.000    24528363.028   100439558.472        2482.568          35.000  
C33  22496581.115   117145597.611        -659.425          50.000                                                                  
C06  36571267.377   190436188.373        -161.705          45.000    36571250.565   147257269.875        -125.249          48.000  
C14  22645736.363   117922278.445       -2223.992          46.000    22645722.020    91184932.159       -1719.716          51.000  
C16  36998807.251   192662495.697        -193.274          48.000    36998795.392   148978815.321        -149.306          48.000  
C24  21832610.975   113688137.866        -845.530          50.000                                                                  
C26  24399329.118   127053706.147       -2558.406          44.000                                                                  
G03  22887443.037   120274317.724         -73.760          39.000    22887437.200    93720224.111         -57.931          39.000  
G16  22464421.332   118051339.600        3007.246          41.000                                                                  
C09  37722879.859   196432936.340        -151.418          43.000    37722865.880   151894349.064        -117.216          48.000  
C25  23666934.259   123239946.284        1588.079          45.000                                                                  
C13  38338454.983   199638390.861       -2255.654          41.000    38338449.300   154373046.327       -1744.221          43.000  
C08  39165791.888   203946551.649       -2455.321          36.000    39165780.409   157704364.814       -1898.442          43.000  
C10  40507692.942   210934194.258         933.108          35.000    40507694.292   163107677.288         721.740          38.000  
C35  25958615.154   135173326.907         419.336          38.000                                                                  
C07  39573903.726   206071705.891        1121.379          39.000    39573893.504   159347663.797         866.993          41.000  
C12  26482381.827   137900762.165        2303.740          34.000    26482382.091   106633588.712        1780.605          40.000  
G25  24351086.768   127965834.553       -3911.312          34.000    24351080.681    99713601.272       -3047.689          34.000  
> 2025 10 30 06 19 12.2400000  0 23                     
G32  21987446.543   115544810.007       -2889.856          46.000    21987440.551    90034893.536       -2251.808          42.000  
G29  23065899.061   121212127.333        -543.594          42.000    23065890.495    94450977.849        -423.724          41.000  
G28  21239297.303   111613260.094       -1173.223          45.000    21239286.368    86971330.592        -914.504          46.000  
G26  20352308.223   106952101.933         723.818          48.000    20352301.521    83339281.392         563.730          47.000  
G31  20625069.964   108385472.368         173.070          47.000    20625058.899    84456171.205         134.802          45.000  
G04  24528339.784                        3187.734          31.000    24528338.776   100439459.173        2482.471          35.000  
C33  22496586.169   117145623.983        -659.365          50.000                                                                  
C06  36571268.645   190436194.834        -161.565          45.000    36571251.784   147257274.875        -125.111          48.000  
C14  22645753.469   117922367.406       -2224.049          46.000    22645739.103    91185000.943       -1719.640          51.000  
C16  36998808.719   192662503.426        -193.281          48.000    36998796.888   148978821.299        -149.385          48.000  
C24  21832617.453   113688171.680        -845.420          50.000                                                                  
C26  24399348.795   127053808.458       -2558.030          44.000                                                                  
G03  22887443.595   120274320.677         -73.725          39.000    22887437.767    93720226.427         -57.992          39.000  
G16  22464398.425   118051219.302        3007.352          41.000                                                                  
C09  37722881.020   196432942.376        -151.030          43.000    37722867.049   151894353.740        -117.054          48.000  
C25  23666922.053   123239882.753        1588.196          45.000                                                                  
C13  38338472.314   199638481.088       -2255.685          41.000    38338466.630   154373116.090       -1744.102          43.000  
C08  39165810.745   203946649.852       -2455.167          36.000    39165799.263   157704440.750       -1898.401          43.000  
C10  40507685.763   210934156.905         933.512          35.000    40507687.120   163107648.409         721.957          38.000  
C35  25958611.937   135173310.131         419.295          38.000                                                                  
C07  39573895.114   206071661.037        1121.407          39.000    39573884.888   159347629.102         867.254          41.000  
C12  26482364.139   137900670.020        2303.868          34.000    26482364.380   106633517.471        1780.828          40.000  
G25  24351116.505   127965990.973       -3910.869          34.000    24351110.461    99713723.178       -3047.701          34.000  
> 2025 10 30 06 19 12.2800000  0 23                     
G32  21987468.544   115544925.598       -2889.785          46.000    21987462.555    90034983.607       -2251.766          42.000  
G29  23065903.205   121212149.069        -543.487          42.000    23065894.616    94450994.776        -423.332          41.000  
G28  21239306.223   111613307.019       -1173.129          45.000    21239295.285    86971367.151        -914.185          46.000  
G26  20352302.730   106952072.985         723.761          48.000    20352295.999    83339258.830         563.917          47.000  
G31  20625068.644   108385465.440         173.132          47.000    20625057.562    84456165.806         134.919          45.000  
G04  24528315.543                        3185.389          31.000    24528314.511   100439359.843        2482.975          35.000  
C33  22496591.228   117145650.351        -659.243          50.000                                                                  
C06  36571269.896   190436201.291        -161.436          45.000    36571253.004   147257279.866        -124.877          48.000  
C14  22645770.545   117922456.357       -2223.901          46.000    22645756.188    91185069.722       -1719.527          51.000  
C16  36998810.184   192662511.148        -193.110          48.000    36998798.357   148978827.270        -149.309          48.000  
C24  21832623.972   113688205.489        -845.273          50.000                                                                  
C26  24399368.442   127053910.776       -2557.963          44.000                                                                  
G03  22887444.176   120274323.618         -73.513          39.000    22887438.324    93720228.720         -57.582          39.000  
G16  22464375.545   118051099.002        3007.441          41.000                                                                  
C09  37722882.155   196432948.419        -150.933          43.000    37722868.216   151894358.413        -116.909          48.000  
C25  23666909.873   123239819.224        1588.226          45.000                                                                  
C13  38338489.666   199638571.304       -2255.517          41.000    38338483.933   154373185.846       -1743.936          43.000  
C08  39165829.593   203946748.026       -2454.514          36.000    39165818.129   157704516.681       -1898.331          43.000  
C10  40507678.575   210934119.574         933.390          35.000    40507679.937   163107619.547         721.679          38.000  
C35  25958608.706   135173293.352         419.377          38.000                                                                  
C07  39573886.502   206071616.166        1121.745          39.000    39573876.285   159347594.435         866.869          41.000  
C12  26482346.449   137900577.906        2303.281          34.000    26482346.677   106633446.230        1780.964          40.000  
G25  24351146.250   127966147.371       -3910.261          34.000    24351140.226    99713845.058       -3047.251          35.000  
> 2025 10 30 06 19 12.3200000  0 23                     
G32  21987490.519   115545041.182       -2889.632          46.000    21987484.545    90035073.677       -2251.757          42.000  
G29  23065907.325   121212170.799        -543.299          42.000    23065898.751    94451011.709        -423.235          41.000  
G28  21239315.151   111613353.948       -1173.196          45.000    21239304.190    86971403.704        -913.885          46.000  
G26  20352297.246   106952044.037         723.710          48.000    20352290.488    83339236.265         564.072          47.000  
G31  20625067.319   108385458.509         173.237          47.000    20625056.211    84456160.398         135.134          45.000  
G04  24528291.280                        3186.615          31.000    24528290.267   100439260.535        2482.877          35.000  
C33  22496596.331   117145676.714        -659.087          50.000                                                                  
C06  36571271.128   190436207.755        -161.509          45.000    36571254.217   147257284.854        -124.720          48.000  
C14  22645787.620   117922545.307       -2223.795          46.000    22645773.263    91185138.505       -1719.563          51.000  
C16  36998811.686   192662518.869        -193.049          48.000    36998799.815   148978833.234        -149.148          48.000  
C24  21832630.453   113688239.295        -845.168          50.000                                                                  
C26  24399388.104   127054013.092       -2557.917          44.000                                                                  
G03  22887444.741   120274326.565         -73.568          39.000    22887438.880    93720231.001         -57.164          39.000  
G16  22464352.662   118050978.688        3007.774          41.000                                                                  
C09  37722883.286   196432954.466        -151.041          43.000    37722869.376   151894363.079        -116.696          48.000  
C25  23666897.705   123239755.690        1588.319          45.000                                                                  
C13  38338506.992   199638661.523       -2255.480          41.000    38338501.261   154373255.603       -1743.901          43.000  
C08  39165848.442   203946846.221       -2454.560          36.000    39165836.980   157704592.612       -1898.317          43.000  
C10  40507671.404   210934082.233         933.519          35.000    40507672.747   163107590.670         721.846          38.000  
C35  25958605.494   135173276.583         419.277          38.000                                                                  
C07  39573877.883   206071571.311        1121.498          39.000    39573867.670   159347559.738         867.124          41.000  
C12  26482328.757   137900485.814        2302.487          34.000    26482328.977   106633374.977        1781.240          40.000  
G25  24351176.045   127966303.802       -3910.482          34.000    24351169.980    99713966.938       -3047.032          35.000  
> 2025 10 30 06 19 12.3600000  0 23                     
G32  21987512.507   115545156.772       -2889.703          46.000    21987506.535    90035163.737       -2251.551          42.000  
G29  23065911.478   121212192.535        -543.327          42.000    23065902.891    94451028.652        -423.433          41.000  
G28  21239324.089   111613400.872       -1173.151          45.000    21239313.108    86971440.273        -914.046          46.000  
G26  20352291.771   106952015.086         723.761          48.000    20352284.966    83339213.703         564.057          47.000  
G31  20625066.015   108385451.576         173.317          47.000    20625054.894    84456154.989         135.250          45.000  
G04  24528267.056                        3186.476          31.000    24528266.009   100439161.230        2482.699          35.000  
C33  22496601.383   117145703.081        -659.130          50.000                                                                  
C06  36571272.373   190436214.210        -161.427          45.000    36571255.464   147257289.845        -124.729          48.000  
C14  22645804.705   117922634.259       -2223.764          46.000    22645790.357    91185207.292       -1719.664          51.000  
C16  36998813.207   192662526.583        -192.884          48.000    36998801.274   148978839.203        -149.145          48.000  
C24  21832636.914   113688273.107        -845.211          50.000                                                                  
C26  24399407.747   127054115.408       -2557.875          44.000                                                                  
G03  22887445.314   120274329.542         -74.173          40.000    22887439.418    93720233.307         -57.480          39.000  
G16  22464329.757   118050858.389        3007.638          41.000                                                                  
C09  37722884.433   196432960.504        -151.000          43.000    37722870.572   151894367.746        -116.638          48.000  
C25  23666885.501   123239692.154        1588.380          45.000                                                                  
C13  38338524.334   199638751.738       -2255.369          41.000    38338518.597   154373325.365       -1744.027          43.000  
C08  39165867.309   203946944.410       -2454.596          36.000    39165855.827   157704668.537       -1898.200          43.000  
C10  40507664.264   210934044.869         933.927          35.000    40507665.573   163107561.781         722.183          38.000  
C35  25958602.295   135173259.814         419.228          38.000                                                                  
C07  39573869.259   206071526.443        1121.588          39.000    39573859.055   159347525.041         867.331          41.000  
C12  26482311.057   137900393.647        2303.395          34.000    26482311.272   106633303.733        1781.208          40.000  
G25  24351205.827   127966460.228       -3910.573          34.000    24351199.739    99714088.803       -3046.729          35.000  
> 2025 10 30 06 19 12.4000000  0 23                     
G32  21987534.520   115545272.364       -2889.775          46.000    21987528.535    90035253.820       -2251.907          42.000  
G29  23065915.629   121212214.288        -543.706          42.000    23065907.022    94451045.608        -423.784          41.000  
G28  21239333.017   111613447.801       -1173.228          45.000    21239322.051    86971476.837        -914.100          46.000  
G26  20352286.245   106951986.147         723.505          48.000    20352279.461    83339191.150         563.888          47.000  
G31  20625064.704   108385444.649         173.242          47.000    20625053.569    84456149.597         134.922          45.000  
G04  24528242.805                        3185.380          31.000    24528241.759   100439061.938        2482.443          35.000  
C33  22496606.426   117145729.451        -659.233          50.000                                                                  
C06  36571273.622   190436220.668        -161.431          45.000    36571256.707   147257294.841        -124.835          48.000  
C14  22645821.766   117922723.215       -2223.862          46.000    22645807.430    91185276.083       -1719.778          51.000  
C16  36998814.686   192662534.308        -193.012          48.000    36998802.749   148978845.176        -149.272          48.000  
C24  21832643.387   113688306.922        -845.319          50.000                                                                  
C26  24399427.394   127054217.717       -2557.788          44.000                                                                  
G03  22887445.860   120274332.500         -74.111          39.000    22887439.982    93720235.610         -57.612          39.000  
G16  22464306.903   118050738.093        3007.471          41.000                                                                  
C09  37722885.584   196432966.549        -151.085          43.000    37722871.722   151894372.419        -116.762          48.000  
C25  23666873.304   123239628.626        1588.250          45.000                                                                  
C13  38338541.662   199638841.951       -2255.333          41.000    38338535.915   154373395.128       -1744.095          43.000  
C08  39165886.158   203947042.639       -2455.334          36.000    39165874.690   157704744.481       -1898.490          43.000  
C10  40507657.131   210934007.544         933.405          35.000    40507658.385   163107532.903         722.107          38.000  
C35  25958599.075   135173243.052         419.086          38.000                                                                  
C07  39573860.637   206071481.582        1121.576          39.000    39573850.423   159347490.341         867.476          41.000  
C12  26482293.358   137900301.482        2304.035          34.000    26482293.577   106633232.485        1781.195          40.000  
G25  24351235.621   127966616.658       -3910.718          34.000    24351229.530    99714210.715       -3047.313          35.000  
> 2025 10 30 06 19 12.4400000  0 23                     
G32  21987556.513   115545387.961       -2889.924          46.000    21987550.523    90035343.894       -2251.942          42.000  
G29  23065919.784   121212236.028        -543.666          42.000    23065911.169    94451062.550        -423.686          41.000  
G28  21239341.945   111613494.727       -1173.193          45.000    21239330.975    86971513.414        -914.359          46.000  
G26  20352280.738   106951957.190         723.730          48.000    20352273.936    83339168.598         563.777          47.000  
G31  20625063.387   108385437.714         173.322          47.000    20625052.257    84456144.199         134.885          45.000  
G04  24528218.569                        3186.920          31.000    24528217.505   100438962.635        2482.505          35.000  
C33  22496611.487   117145755.822        -659.296          50.000                                                                  
C06  36571274.841   190436227.126        -161.453          45.000    36571257.961   147257299.832        -124.856          48.000  
C14  22645838.844   117922812.171       -2223.925          46.000    22645824.520    91185344.870       -1719.763          51.000  
C16  36998816.174   192662542.031        -193.066          48.000    36998804.237   148978851.151        -149.375          48.000  
C24  21832649.864   113688340.740        -845.435          50.000                                                                  
C26  24399447.030   127054320.029       -2557.793          44.000                                                                  
G03  22887446.397   120274335.465         -74.203          39.000    22887440.549    93720237.927         -57.860          39.000  
G16  22464284.020   118050617.809        3007.210          41.000                                                                  
C09  37722886.735   196432972.595        -151.140          43.000    37722872.879   151894377.095        -116.870          48.000  
C25  23666861.081   123239565.103        1588.065          45.000                                                                  
C13  38338558.992   199638932.177       -2255.590          41.000    38338553.236   154373464.897       -1744.225          43.000  
C08  39165905.022   203947140.815       -2454.797          36.000    39165893.555   157704820.414       -1898.421          43.000  
C10  40507649.976   210933970.212         933.185          35.000    40507651.205   163107504.028         721.984          38.000  
C35  25958595.860   135173226.262         419.488          38.000                                                                  
C07  39573852.034   206071436.727        1121.409          39.000    39573841.797   159347455.651         867.330          41.000  
C12  26482275.669   137900209.369        2303.262          34.000    26482275.883   106633161.230        1781.337          39.000  
G25  24351265.371   127966773.077       -3910.603          34.000    24351259.323    99714332.612       -3047.402          35.000  
> 2025 10 30 06 19 12.4800000  0 23                     
G32  21987578.510   115545503.556       -2889.926          46.000    21987572.535    90035433.971       -2251.949          42.000  
G29  23065923.935   121212257.772        -543.637          42.000    23065915.298    94451079.499        -423.728          41.000  
G28  21239350.854   111613541.654       -1173.200          45.000    21239339.897    86971549.987        -914.395          46.000  
G26  20352275.215   106951928.239         723.761          48.000    20352268.416    83339146.037         563.928          47.000  
G31  20625062.078   108385430.788         173.198          47.000    20625050.937    84456138.802         134.849          45.000  
G04  24528194.281                        3186.450          31.000    24528193.247   100438863.320        2482.744          35.000  
C33  22496616.569   117145782.194        -659.365          50.000                                                                  
C06  36571276.056   190436233.587        -161.499          45.000    36571259.212   147257304.829        -124.941          48.000  
C14  22645855.914   117922901.128       -2223.955          46.000    22645841.602    91185413.652       -1719.647          51.000  
C16  36998817.657   192662549.753        -193.091          48.000    36998805.733   148978857.120        -149.294          48.000  
C24  21832656.363   113688374.552        -845.379          50.000                                                                  
C26  24399466.679   127054422.344       -2557.863          44.000                                                                  
G03  22887446.977   120274338.428         -74.168          39.000    22887441.120    93720240.235         -57.825          39.000  
G16  22464261.104   118050497.501        3007.491          41.000                                                                  
C09  37722887.898   196432978.636        -151.102          43.000    37722874.024   151894381.777        -117.059          48.000  
C25  23666848.918   123239501.570        1588.176          45.000                                                                  
C13  38338576.318   199639022.401       -2255.676          41.000    38338570.554   154373534.662       -1744.198          43.000  
C08  39165923.869   203947239.025       -2455.084          36.000    39165912.402   157704896.338       -1898.228          43.000  
C10  40507642.810   210933932.875         933.327          35.000    40507644.040   163107475.167         721.602          38.000  
C35  25958592.680   135173209.464         419.881          38.000                                                                  
C07  39573843.426   206071391.864        1121.444          39.000    39573833.163   159347420.967         867.176          41.000  
C12  26482257.971   137900117.225        2303.442          34.000    26482258.187   106633089.976        1781.348          39.000  
G25  24351295.161   127966929.510       -3910.812          34.000    24351289.098    99714454.480       -3046.903          35.000  
> 2025 10 30 06 19 12.5200000  0 23                     
G32  21987600.513   115545619.152       -2889.923          46.000    21987594.525    90035524.041       -2251.837          42.000  
G29  23065928.077   121212279.513        -543.567          42.000    23065919.410    94451096.430        -423.426          41.000  
G28  21239359.797   111613588.585       -1173.285          45.000    21239348.814    86971586.555        -914.336          46.000  
G26  20352269.694   106951899.295         723.605          48.000    20352262.890    83339123.482         563.872          47.000  
G31  20625060.785   108385423.861         173.137          47.000    20625049.632    84456133.402         134.911          45.000  
G04  24528170.042                        3187.049          31.000    24528169.009   100438764.034        2482.378          35.000  
C33  22496621.623   117145808.570        -659.438          50.000                                                                  
C06  36571277.284   190436240.052        -161.631          45.000    36571260.487   147257309.826        -124.989          48.000  
C14  22645873.004   117922990.090       -2224.063          46.000    22645858.701    91185482.444       -1719.756          51.000  
C16  36998819.169   192662557.474        -193.070          48.000    36998807.236   148978863.091        -149.315          48.000  
C24  21832662.865   113688408.366        -845.398          50.000                                                                  
C26  24399486.315   127054524.665       -2557.999          44.000                                                                  
G03  22887447.559   120274341.391         -74.181          39.000    22887441.691    93720242.543         -57.791          39.000  
G16  22464238.219   118050377.202        3007.510          41.000                                                                  
C09  37722889.052   196432984.683        -151.177          43.000    37722875.194   151894386.452        -117.004          48.000  
C25  23666836.722   123239438.032        1588.362          45.000                                                                  
C13  38338593.651   199639112.625       -2255.674          41.000    38338587.886   154373604.426       -1744.154          43.000  
C08  39165942.713   203947337.202       -2454.710          36.000    39165931.279   157704972.269       -1898.256          43.000  
C10  40507635.636   210933895.526         933.580          35.000    40507636.855   163107446.293         721.670          38.000  
C35  25958589.466   135173192.709         419.266          38.000                                                                  
C07  39573834.812   206071347.008        1121.369          39.000    39573824.518   159347386.290         866.917          41.000  
C12  26482240.308   137900025.098        2303.326          33.000    26482240.486   106633018.733        1781.144          39.000  
G25  24351324.949   127967085.954       -3911.038          34.000    24351318.852    99714576.386       -3047.405          35.000  
> 2025 10 30 06 19 12.5600000  0 23                     
G32  21987622.509   115545734.745       -2889.910          46.000    21987616.514    90035614.113       -2251.793          42.000  
G29  23065932.197   121212301.252        -543.518          42.000    23065923.533    94451113.368        -423.391          41.000  
G28  21239368.725   111613635.512       -1173.243          45.000    21239357.749    86971623.113        -914.116          46.000  
G26  20352264.212   106951870.353         723.518          48.000    20352257.380    83339100.930         563.823          47.000  
G31  20625059.445   108385416.939         173.039          47.000    20625048.319    84456128.007         134.868          46.000  
G04  24528145.779                        3186.690          30.000    24528144.752   100438664.724        2482.552          35.000  
C33  22496626.691   117145834.942        -659.404          50.000                                                                  
C06  36571278.542   190436246.513        -161.598          45.000    36571261.746   147257314.817        -124.873          48.000  
C14  22645890.091   117923079.049       -2224.061          46.000    22645875.780    91185551.231       -1719.729          51.000  
C16  36998820.628   192662565.198        -193.116          48.000    36998808.743   148978869.061        -149.296          48.000  
C24  21832669.352   113688442.182        -845.424          50.000                                                                  
C26  24399505.976   127054626.985       -2558.054          44.000                                                                  
G03  22887448.123   120274344.350         -74.073          39.000    22887442.232    93720244.849         -57.709          39.000  
G16  22464215.340   118050256.903        3007.468          41.000                                                                  
C09  37722890.224   196432990.727        -151.164          43.000    37722876.336   151894391.119        -116.794          48.000  
C25  23666824.521   123239374.497        1588.392          45.000                                                                  
C13  38338610.994   199639202.846       -2255.604          41.000    38338605.216   154373674.187       -1744.029          43.000  
C08  39165961.570   203947435.402       -2454.856          36.000    39165950.155   157705048.199       -1898.257          43.000  
C10  40507628.446   210933858.169         933.863          35.000    40507629.700   163107417.406         721.984          38.000  
C35  25958586.244   135173175.951         418.942          38.000                                                                  
C07  39573826.196   206071302.150        1121.371          39.000    39573815.908   159347351.608         866.906          41.000  
C12  26482222.614   137899932.971        2303.184          33.000    26482222.790   106632947.514        1780.515          39.000  
G25  24351354.718   127967242.362       -3910.443          34.000    24351348.625    99714698.295       -3047.686          35.000  
> 2025 10 30 06 19 12.6000000  0 23                     
G32  21987644.502   115545850.337       -2889.872          46.000    21987638.507    90035704.182       -2251.701          42.000  
G29  23065936.352   121212323.003        -543.733          42.000    23065927.668    94451130.322        -423.707          41.000  
G28  21239377.652   111613682.444       -1173.311          45.000    21239366.684    86971659.683        -914.186          46.000  
G26  20352258.708   106951841.413         723.413          48.000    20352251.862    83339078.376         563.817          46.000  
G31  20625058.110   108385410.017         172.984          47.000    20625046.998    84456122.615         134.757          45.000  
G04  24528121.529                        3186.391          30.000    24528120.498   100438565.420        2482.463          35.000  
C33  22496631.763   117145861.317        -659.429          50.000                                                                  
C06  36571279.772   190436252.973        -161.558          45.000    36571262.992   147257319.809        -124.822          48.000  
C14  22645907.181   117923168.006       -2223.989          46.000    22645892.859    91185620.024       -1719.818          51.000  
C16  36998822.117   192662572.924        -193.159          48.000    36998810.261   148978875.035        -149.347          48.000  
C24  21832675.827   113688476.001        -845.501          50.000                                                                  
C26  24399525.614   127054729.304       -2558.070          44.000                                                                  
G03  22887448.687   120274347.315         -74.123          39.000    22887442.816    93720247.161         -57.804          39.000  
G16  22464192.451   118050136.610        3007.346          41.000                                                                  
C09  37722891.376   196432996.768        -151.107          43.000    37722877.489   151894395.789        -116.739          48.000  
C25  23666812.317   123239310.967        1588.249          45.000                                                                  
C13  38338628.338   199639293.050       -2255.269          41.000    38338622.552   154373743.945       -1743.981          43.000  
C08  39165980.428   203947533.616       -2455.170          36.000    39165969.024   157705124.130       -1898.277          43.000  
C10  40507621.289   210933820.839         933.509          35.000    40507622.515   163107388.532         721.898          38.000  
C35  25958583.031   135173159.201         418.606          38.000                                                                  
C07  39573817.584   206071257.307        1121.133          39.000    39573807.304   159347316.922         867.037          41.000  
C12  26482204.935   137899840.826        2303.362          33.000    26482205.090   106632876.272        1780.753          39.000  
G25  24351384.461   127967398.783       -3910.403          34.000    24351378.408    99714820.197       -3047.727          34.000  
> 2025 10 30 06 19 12.6400000  0 23                     
G32  21987666.483   115545965.937       -2890.002          46.000    21987660.488    90035794.261       -2251.853          42.000  
G29  23065940.505   121212344.770        -544.127          42.000    23065931.819    94451147.277        -423.874          41.000  
G28  21239386.589   111613729.380       -1173.414          45.000    21239375.639    86971696.260        -914.366          46.000  
G26  20352253.180   106951812.477         723.347          48.000    20352246.368    83339055.828         563.686          46.000  
G31  20625056.787   108385403.098         172.910          47.000    20625045.676    84456117.225         134.665          46.000  
G04  24528097.258                        3185.654          30.000    24528096.247   100438466.145        2481.969          35.000  
C33  22496636.815   117145887.702        -659.605          50.000                                                                  
C06  36571281.005   190436259.442        -161.710          45.000    36571264.220   147257324.805        -124.891          48.000  
C14  22645924.256   117923256.967       -2224.041          46.000    22645909.922    91185688.818       -1719.899          51.000  
C16  36998823.557   192662580.652        -193.242          48.000    36998811.760   148978881.012        -149.449          48.000  
C24  21832682.307   113688509.823        -845.589          50.000                                                                  
C26  24399545.241   127054831.624       -2558.053          44.000                                                                  
G03  22887449.228   120274350.285         -74.197          39.000    22887443.371    93720249.478         -57.948          39.000  
G16  22464169.557   118050016.314        3007.329          41.000                                                                  
C09  37722892.573   196433002.815        -151.184          43.000    37722878.668   151894400.468        -116.919          48.000  
C25  23666800.132   123239247.448        1588.003          45.000                                                                  
C13  38338645.657   199639383.276       -2255.521          41.000    38338639.883   154373813.709       -1744.081          43.000  
C08  39165999.293   203947631.817       -2455.127          36.000    39165987.892   157705200.077       -1898.554          43.000  
C10  40507614.094   210933783.482         933.816          35.000    40507615.331   163107359.661         721.797          38.000  
C35  25958579.813   135173142.425         419.075          38.000                                                                  
C07  39573808.954   206071212.449        1121.254          39.000    39573798.697   159347282.233         867.070          41.000  
C12  26482187.227   137899748.659        2303.997          33.000    26482187.427   106632805.028        1780.907          39.000  
G25  24351414.213   127967555.208       -3910.399          34.000    24351408.184    99714942.049       -3046.791          35.000  
> 2025 10 30 06 19 12.6800000  0 23                     
G32  21987688.484   115546081.543       -2890.153          46.000    21987682.483    90035884.340       -2251.962          42.000  
G29  23065944.642   121212366.531        -544.209          42.000    23065935.972    94451164.241        -424.110          41.000  
G28  21239395.537   111613776.311       -1173.389          45.000    21239384.580    86971732.840        -914.513          46.000  
G26  20352247.666   106951783.552         723.125          48.000    20352240.891    83339033.285         563.575          46.000  
G31  20625055.459   108385396.176         172.954          47.000    20625044.340    84456111.825         134.844          46.000  
G04  24528073.007                        3185.450          30.000    24528072.005   100438366.850        2482.091          35.000  
C33  22496641.882   117145914.085        -659.633          50.000                                                                  
C06  36571282.244   190436265.902        -161.648          45.000    36571265.486   147257329.812        -125.127          48.000  
C14  22645941.340   117923345.931       -2224.116          46.000    22645927.009    91185757.613       -1719.942          51.000  
C16  36998825.032   192662588.378        -193.226          48.000    36998813.240   148978886.989        -149.465          48.000  
C24  21832688.809   113688543.641        -845.534          50.000                                                                  
C26  24399564.907   127054933.945       -2558.065          44.000                                                                  
G03  22887449.796   120274353.262         -74.385          39.000    22887443.938    93720251.800         -58.149          39.000  
G16  22464146.665   118049896.028        3007.218          41.000                                                                  
C09  37722893.747   196433008.869        -151.308          43.000    37722879.804   151894405.146        -116.974          48.000  
C25  23666787.924   123239183.935        1587.782          45.000                                                                  
C13  38338662.986   199639473.505       -2255.675          41.000    38338657.232   154373883.485       -1744.317          43.000  
C08  39166018.158   203947730.030       -2455.294          36.000    39166006.757   157705276.013       -1898.554          43.000  
C10  40507606.915   210933746.151         933.482          35.000    40507608.150   163107330.807         721.436          38.000  
C35  25958576.584   135173125.659         419.194          38.000                                                                  
C07  39573800.360   206071167.586        1121.461          39.000    39573790.092   159347247.547         867.077          41.000  
C12  26482169.534   137899656.544        2303.311          33.000    26482169.740   106632733.806        1780.649          39.000  
G25  24351443.983   127967711.652       -3910.907          34.000    24351437.940    99715063.964       -3047.552          35.000  
