     3.04           OBSERVATION DATA    M: Mixed            RINEX VERSION / TYPE
RTKCONV 2.4.3 b34                       20251030 063924 UTC PGM / RUN BY / DATE 
format: u-blox UBX                                          COMMENT             
log: D:\GPdata\10_30\fingure_290_10_30_4.ubx                COMMENT             
                                                            MARKER NAME         
                                                            MARKER NUMBER       
                                                            MARKER TYPE         
                                                            OBSERVER / AGENCY   
                                                            REC # / TYPE / VERS 
                                                            ANT # / TYPE        
        0.0000        0.0000        0.0000                  APPROX POSITION XYZ 
        0.0000        0.0000        0.0000                  ANTENNA: DELTA H/E/N
G    8 C1C L1C D1C S1C C2L L2L D2L S2L                      SYS / # / OBS TYPES 
C    8 C2I L2I D2I S2I C7I L7I D7I S7I                      SYS / # / OBS TYPES 
  2025    10    30    06    15   00.7600000     GPS         TIME OF FIRST OBS   
  2025    10    30    06    15   25.3200000     GPS         TIME OF LAST OBS    
G L1C                                                       SYS / PHASE SHIFT   
G L2L  0.00000                                              SYS / PHASE SHIFT   
C L2I                                                       SYS / PHASE SHIFT   
C L7I                                                       SYS / PHASE SHIFT   
  0                                                         GLONASS SLOT / FRQ #
 C1C    0.000 C1P    0.000 C2C    0.000 C2P    0.000        GLONASS COD/PHS/BIS 
                                                            END OF HEADER       
> 2025 10 30 06 15 00.7600000  0 21                     
G32  21851644.255   114831166.7911      -2783.445          46.000    21851637.932    89478803.3571      -2169.012          43.000  
G29  23043599.490   121094944.4771       -386.804          42.000    23043590.492    94359661.1541       -301.508          41.000  
G28  21184426.003   111324909.5741      -1118.439          46.000    21184415.470    86746641.8721       -871.391          47.000  
G26  20390129.415   107150850.1921        858.754          48.000    20390122.413    83494149.6861        669.037          46.000  
G31  20634930.590   108437289.5461        240.546          47.000    20634920.006    84496548.0121        187.384          45.000  
G04  24681059.847   129699843.6111       3197.176          35.000    24681056.944   101064813.1041       2491.577          41.000  
C33  22468193.530   116997774.9721       -514.879          50.000                                                                  
C06  36563153.595   190393935.0291       -172.863          45.000    36563136.096   147224596.7351       -133.754          48.000  
C14  22541147.657   117377658.4741      -2105.863          46.000    22541132.964    90763797.7671      -1628.387          51.000  
C16  36989109.536   192611995.3391       -206.855          48.000    36989097.521   148939765.1041       -160.030          48.000  
C24  21793165.526   113482733.3081       -786.515          50.000                                                                  
C26  24276015.535   126411580.6071      -2547.522          45.000                                                                  
G03  22887853.768   120276485.9831         92.592          39.000    22887848.122    93721907.6871         72.064          39.000  
G16  22610265.212   118817745.9131       3089.933          41.000                                                                  
C09  37715247.659   196393193.5871       -163.327          43.000    37715233.689   151863617.1181       -126.271          48.000  
C25  23744754.935   123645169.0671       1636.646          46.000                                                                  
C13  38230087.816   199074097.5671      -2231.181          42.000    38230081.542   153936696.4291      -1725.338          43.000  
C08  39047549.857   203330837.4771      -2440.344          36.000    39047538.020   157228235.9261      -1887.167          42.000  
C10  40552570.039                1        926.701          29.000    40552572.597   163288447.5551        716.721          36.000  
C35  25981467.995   135292324.2021        528.286          39.000                                                                  
G25  24164127.891   126983346.2571      -3901.679          37.000    24164121.321    98948021.4241      -3040.635          37.000  
> 2025 10 30 06 15 00.8000000  0 21                     
G32  21851665.451   114831278.137       -2783.546          46.000    21851659.113    89478890.115       -2168.947          43.000  
G29  23043602.462   121094959.951        -386.808          42.000    23043593.435    94359673.214        -301.522          41.000  
G28  21184434.515   111324954.303       -1118.301          46.000    21184423.999    86746676.732        -871.448          47.000  
G26  20390122.912   107150815.846         858.710          48.000    20390115.876    83494122.930         668.926          46.000  
G31  20634928.771   108437279.921         240.601          47.000    20634918.168    84496540.519         187.372          45.000  
G04  24681035.500   129699715.692        3197.753          35.000    24681032.616   101064713.448        2491.481          41.000  
C33  22468197.482   116997795.565        -514.849          50.000                                                                  
C06  36563154.926   190393941.932        -172.638          45.000    36563137.387   147224602.082        -133.733          48.000  
C14  22541163.848   117377742.715       -2105.973          46.000    22541149.159    90763862.904       -1628.426          51.000  
C16  36989111.119   192612003.616        -206.898          48.000    36989099.103   148939771.503        -159.979          48.000  
C24  21793171.585   113482764.761        -786.385          50.000                                                                  
C26  24276035.109   126411682.507       -2547.458          45.000                                                                  
G03  22887853.063   120276482.259          92.932          38.000    22887847.406    93721904.785          72.418          39.000  
G16  22610241.690   118817622.334        3089.691          41.000                                                                  
C09  37715248.926   196393200.115        -163.264          43.000    37715234.963   151863622.171        -126.335          48.000  
C25  23744742.392   123645103.596        1636.743          46.000                                                                  
C13  38230104.953   199074186.805       -2230.964          42.000    38230098.687   153936765.439       -1725.281          43.000  
C08  39047568.621   203330935.128       -2441.040          36.000    39047556.783   157228311.412       -1887.104          42.000  
C10  40552563.304                         926.850          29.000    40552565.467   163288418.902         716.488          36.000  
C35  25981463.934   135292303.079         528.192          39.000                                                                  
G25  24164157.594   126983502.339       -3902.011          37.000    24164151.014    98948143.029       -3040.394          37.000  
> 2025 10 30 06 15 00.8400000  0 21                     
G32  21851686.653   114831389.480       -2783.615          46.000    21851680.294    89478976.871       -2168.926          43.000  
G29  23043605.406   121094975.432        -386.903          42.000    23043596.382    94359685.280        -301.634          41.000  
G28  21184443.032   111324999.040       -1118.367          46.000    21184432.509    86746711.587        -871.426          47.000  
G26  20390116.376   107150781.505         858.586          48.000    20390109.338    83494096.162         669.092          46.000  
G31  20634926.936   108437270.293         240.681          47.000    20634916.347    84496533.021         187.415          45.000  
G04  24681011.181   129699587.798        3197.543          35.000    24681008.281   101064613.788        2491.525          41.000  
C33  22468201.405   116997816.164        -514.955          50.000                                                                  
C06  36563156.230   190393948.841        -172.667          45.000    36563138.699   147224607.427        -133.688          48.000  
C14  22541180.000   117377826.944       -2105.860          46.000    22541165.326    90763928.041       -1628.446          51.000  
C16  36989112.708   192612011.897        -206.987          48.000    36989100.737   148939777.901        -159.941          48.000  
C24  21793177.608   113482796.215        -786.354          50.000                                                                  
C26  24276054.671   126411784.407       -2547.417          45.000                                                                  
G03  22887852.385   120276478.542          92.915          38.000    22887846.689    93721901.870          72.799          39.000  
G16  22610218.174   118817498.767        3089.323          41.000                                                                  
C09  37715250.193   196393206.635        -163.068          43.000    37715236.215   151863627.216        -126.240          48.000  
C25  23744729.800   123645038.134        1636.603          46.000                                                                  
C13  38230122.077   199074276.048       -2231.030          42.000    38230115.828   153936834.445       -1725.201          43.000  
C08  39047587.367   203331032.759       -2441.022          36.000    39047575.539   157228386.891       -1886.957          42.000  
C10  40552556.297                         926.916          29.000    40552558.343   163288390.235         716.577          36.000  
C35  25981459.878   135292281.940         528.347          39.000                                                                  
G25  24164187.310   126983658.399       -3901.772          37.000    24164180.708    98948264.653       -3040.565          37.000  
> 2025 10 30 06 15 00.8800000  0 21                     
G32  21851707.868   114831500.819       -2783.548          46.000    21851701.479    89479063.625       -2168.855          43.000  
G29  23043608.347   121094990.914        -387.009          42.000    23043599.324    94359697.342        -301.601          41.000  
G28  21184451.545   111325043.778       -1118.444          46.000    21184441.026    86746746.445        -871.438          47.000  
G26  20390109.863   107150747.165         858.488          48.000    20390102.825    83494069.406         668.962          46.000  
G31  20634925.141   108437260.669         240.637          47.000    20634914.506    84496525.516         187.562          45.000  
G04  24680986.838   129699459.905        3197.376          35.000    24680983.943   101064514.123        2491.600          41.000  
C33  22468205.347   116997836.761        -514.959          50.000                                                                  
C06  36563157.543   190393955.758        -172.808          45.000    36563139.999   147224612.765        -133.516          48.000  
C14  22541196.188   117377911.175       -2105.804          46.000    22541181.496    90763993.180       -1628.483          51.000  
C16  36989114.275   192612020.162        -206.735          48.000    36989102.350   148939784.296        -159.903          48.000  
C24  21793183.630   113482827.672        -786.390          50.000                                                                  
C26  24276074.237   126411886.314       -2547.585          45.000                                                                  
G03  22887851.693   120276474.842          92.638          38.000    22887845.971    93721898.986          72.428          39.000  
G16  22610194.642   118817375.175        3089.568          41.000                                                                  
C09  37715251.449   196393213.159        -163.052          43.000    37715237.455   151863632.261        -126.152          48.000  
C25  23744717.221   123644972.664        1636.694          46.000                                                                  
C13  38230139.205   199074365.297       -2231.167          42.000    38230132.974   153936903.455       -1725.220          43.000  
C08  39047606.097   203331130.367       -2440.508          36.000    39047594.265   157228462.370       -1886.934          42.000  
C10  40552549.069                         926.359          29.000    40552551.222   163288361.583         716.360          36.000  
C35  25981455.818   135292260.812         528.309          39.000                                                                  
G25  24164217.011   126983814.432       -3901.105          37.000    24164210.396    98948386.246       -3040.109          37.000  
> 2025 10 30 06 15 00.9200000  0 21                     
G32  21851729.035   114831612.156       -2783.483          46.000    21851722.653    89479150.385       -2168.944          43.000  
G29  23043611.291   121095006.389        -386.939          42.000    23043602.281    94359709.393        -301.395          41.000  
G28  21184460.046   111325088.506       -1118.322          46.000    21184449.515    86746781.304        -871.451          47.000  
G26  20390103.320   107150712.814         858.661          48.000    20390096.281    83494042.634         669.191          46.000  
G31  20634923.330   108437251.042         240.637          47.000    20634912.672    84496518.005         187.734          45.000  
G04  24680962.520   129699332.012        3197.253          35.000    24680959.595   101064414.459        2491.609          41.000  
C33  22468209.319   116997857.352        -514.849          50.000                                                                  
C06  36563158.863   190393962.662        -172.676          45.000    36563141.317   147224618.104        -133.435          48.000  
C14  22541212.324   117377995.406       -2105.786          46.000    22541197.666    90764058.312       -1628.361          51.000  
C16  36989115.841   192612028.435        -206.753          48.000    36989103.944   148939790.692        -159.900          48.000  
C24  21793189.678   113482859.123        -786.333          50.000                                                                  
C26  24276093.794   126411988.219       -2547.637          44.000                                                                  
G03  22887850.990   120276471.120          92.891          38.000    22887845.261    93721896.093          72.290          39.000  
G16  22610171.094   118817251.579        3089.848          41.000                                                                  
C09  37715252.707   196393219.679        -162.997          43.000    37715238.699   151863637.299        -126.015          48.000  
C25  23744704.665   123644907.195        1636.719          46.000                                                                  
C13  38230156.330   199074454.527       -2230.893          42.000    38230150.117   153936972.462       -1725.215          43.000  
C08  39047624.847   203331227.984       -2440.419          36.000    39047613.009   157228537.857       -1887.078          42.000  
C10  40552542.329                         926.524          29.000    40552544.109   163288332.904         716.744          36.000  
C35  25981451.764   135292239.674         528.408          39.000                                                                  
G25  24164246.721   126983970.514       -3901.652          37.000    24164240.112    98948507.853       -3040.019          37.000  
> 2025 10 30 06 15 00.9600000  0 21                     
G32  21851750.234   114831723.490       -2783.408          46.000    21851743.861    89479237.148       -2169.033          43.000  
G29  23043614.229   121095021.857        -386.796          42.000    23043605.232    94359721.451        -301.441          41.000  
G28  21184468.558   111325133.237       -1118.292          46.000    21184458.031    86746816.159        -871.419          47.000  
G26  20390096.768   107150678.464         858.735          48.000    20390089.729    83494015.868         669.196          46.000  
G31  20634921.503   108437241.417         240.618          47.000    20634910.859    84496510.510         187.505          45.000  
G04  24680938.174   129699204.092        3197.736          35.000    24680935.263   101064314.789        2491.697          41.000  
C33  22468213.279   116997877.947        -514.869          50.000                                                                  
C06  36563160.194   190393969.563        -172.576          45.000    36563142.668   147224623.446        -133.486          48.000  
C14  22541228.497   117378079.640       -2105.858          46.000    22541213.841    90764123.444       -1628.312          51.000  
C16  36989117.443   192612036.697        -206.621          48.000    36989105.529   148939797.088        -159.915          48.000  
C24  21793195.706   113482890.574        -786.276          50.000                                                                  
C26  24276113.354   126412090.122       -2547.642          44.000                                                                  
G03  22887850.286   120276467.408          92.834          38.000    22887844.563    93721893.206          72.160          39.000  
G16  22610147.540   118817127.987        3089.836          41.000                                                                  
C09  37715253.964   196393226.208        -163.126          43.000    37715239.943   151863642.342        -126.024          48.000  
C25  23744692.109   123644841.716        1636.902          46.000                                                                  
C13  38230173.456   199074543.768       -2230.982          42.000    38230167.252   153937041.472       -1725.258          43.000  
C08  39047643.566   203331325.564       -2439.723          36.000    39047631.759   157228613.356       -1887.364          42.000  
C10  40552535.455                         926.930          29.000    40552537.005   163288304.248         716.517          36.000  
C35  25981447.698   135292218.544         528.300          39.000                                                                  
G25  24164276.435   126984126.584       -3901.765          37.000    24164269.810    98948629.451       -3039.936          37.000  
> 2025 10 30 06 15 01.0000000  0 21                     
G32  21851771.429   114831834.830       -2783.456          46.000    21851765.054    89479323.908       -2169.043          43.000  
G29  23043617.168   121095037.340        -387.005          42.000    23043608.175    94359733.517        -301.624          41.000  
G28  21184477.038   111325177.963       -1118.222          46.000    21184466.544    86746851.019        -871.487          47.000  
G26  20390090.256   107150644.116         858.722          48.000    20390083.186    83493989.105         669.091          46.000  
G31  20634919.713   108437231.799         240.458          47.000    20634909.021    84496503.004         187.579          45.000  
G04  24680913.814   129699076.196        3197.579          35.000    24680910.922   101064215.126        2491.637          41.000  
C33  22468217.233   116997898.542        -514.883          50.000                                                                  
C06  36563161.498   190393976.479        -172.783          45.000    36563144.011   147224628.786        -133.505          48.000  
C14  22541244.686   117378163.874       -2105.883          46.000    22541230.023    90764188.577       -1628.320          51.000  
C16  36989119.009   192612044.967        -206.690          48.000    36989107.106   148939803.479        -159.832          48.000  
C24  21793201.741   113482922.030        -786.350          50.000                                                                  
C26  24276132.929   126412192.022       -2547.572          44.000                                                                  
G03  22887849.587   120276463.691          92.908          38.000    22887843.858    93721890.331          71.841          39.000  
G16  22610124.026   118817004.401        3089.745          41.000                                                                  
C09  37715255.199   196393232.729        -163.107          43.000    37715241.197   151863647.386        -126.056          48.000  
C25  23744679.513   123644776.241        1636.902          46.000                                                                  
C13  38230190.593   199074633.006       -2230.958          42.000    38230184.370   153937110.473       -1725.090          43.000  
C08  39047662.329   203331423.184       -2440.061          36.000    39047650.518   157228688.837       -1887.221          42.000  
C10  40552528.847                         926.797          29.000    40552529.887   163288275.580         716.626          36.000  
C35  25981443.632   135292197.427         527.986          39.000                                                                  
G25  24164306.129   126984282.660       -3901.912          37.000    24164299.511    98948751.055       -3040.026          37.000  
> 2025 10 30 06 15 01.0400000  0 21                     
G32  21851792.606   114831946.164       -2783.383          46.000    21851786.235    89479410.670       -2169.082          43.000  
G29  23043620.113   121095052.817        -387.004          42.000    23043611.126    94359745.589        -301.805          41.000  
G28  21184485.560   111325222.696       -1118.278          46.000    21184475.037    86746885.866        -871.293          47.000  
G26  20390083.721   107150609.773         858.629          48.000    20390076.644    83493962.348         668.955          46.000  
G31  20634917.860   108437222.171         240.563          47.000    20634907.191    84496495.516         187.283          45.000  
G04  24680889.451   129698948.298        3197.443          35.000    24680886.585   101064115.466        2491.545          41.000  
C33  22468221.179   116997919.135        -514.851          50.000                                                                  
C06  36563162.817   190393983.387        -172.775          45.000    36563145.367   147224634.132        -133.632          48.000  
C14  22541260.883   117378248.109       -2105.906          46.000    22541246.200    90764253.716       -1628.435          51.000  
C16  36989120.604   192612053.232        -206.652          48.000    36989108.702   148939809.872        -159.840          48.000  
C24  21793207.764   113482953.489        -786.468          50.000                                                                  
C26  24276152.541   126412293.914       -2547.401          44.000                                                                  
G03  22887848.879   120276459.977          92.877          38.000    22887843.139    93721887.426          72.318          39.000  
G16  22610100.509   118816880.827        3089.440          41.000                                                                  
C09  37715256.446   196393239.257        -163.189          43.000    37715242.465   151863652.433        -126.138          48.000  
C25  23744666.930   123644710.772        1636.749          46.000                                                                  
C13  38230207.718   199074722.250       -2231.032          42.000    38230201.512   153937179.483       -1725.165          43.000  
C08  39047681.085   203331520.820       -2440.576          36.000    39047669.261   157228764.326       -1887.232          42.000  
C10  40552521.562                         926.683          29.000    40552522.781   163288246.910         716.688          36.000  
C35  25981439.578   135292176.301         528.040          39.000                                                                  
G25  24164335.801   126984438.716       -3901.596          37.000    24164329.214    98948872.691       -3040.633          37.000  
> 2025 10 30 06 15 01.0800000  0 21                     
G32  21851813.788   114832057.500       -2783.379          46.000    21851807.411    89479497.424       -2168.958          43.000  
G29  23043623.027   121095068.290        -386.941          42.000    23043614.071    94359757.637        -301.443          41.000  
G28  21184494.059   111325267.421       -1118.185          46.000    21184483.559    86746920.722        -871.359          47.000  
G26  20390077.165   107150575.427         858.617          48.000    20390070.110    83493935.583         669.061          46.000  
G31  20634916.011   108437212.543         240.681          47.000    20634905.356    84496488.012         187.426          45.000  
G04  24680865.125   129698820.401        3197.388          35.000    24680862.251   101064015.812        2491.357          41.000  
C33  22468225.111   116997939.736        -514.967          50.000                                                                  
C06  36563164.136   190393990.287        -172.594          45.000    36563146.701   147224639.472        -133.602          48.000  
C14  22541277.041   117378332.342       -2105.841          46.000    22541262.394    90764318.850       -1628.403          51.000  
C16  36989122.175   192612061.503        -206.738          48.000    36989110.247   148939816.275        -160.023          48.000  
C24  21793213.810   113482984.940        -786.360          50.000                                                                  
C26  24276172.131   126412395.817       -2547.507          45.000                                                                  
G03  22887848.167   120276456.249          93.057          38.000    22887842.432    93721884.528          72.448          39.000  
G16  22610077.004   118816757.241        3089.515          41.000                                                                  
C09  37715257.728   196393245.783        -163.193          43.000    37715243.725   151863657.480        -126.182          48.000  
C25  23744654.359   123644645.309        1636.591          46.000                                                                  
C13  38230224.852   199074811.499       -2231.174          42.000    38230218.649   153937248.487       -1725.141          43.000  
C08  39047699.816   203331618.448       -2440.694          36.000    39047687.995   157228839.795       -1886.900          42.000  
C10  40552514.393                         926.621          29.000    40552515.663   163288218.277         716.020          36.000  
C35  25981435.508   135292155.168         528.160          39.000                                                                  
G25  24164365.489   126984594.769       -3901.406          37.000    24164358.890    98948994.303       -3040.511          37.000  
> 2025 10 30 06 15 01.1200000  0 21                     
G32  21851834.980   114832168.843       -2783.497          46.000    21851828.599    89479584.172       -2168.776          43.000  
G29  23043625.998   121095083.780        -387.224          42.000    23043617.008    94359769.697        -301.510          41.000  
G28  21184502.584   111325312.160       -1118.331          46.000    21184492.072    86746955.581        -871.439          47.000  
G26  20390070.637   107150541.087         858.494          48.000    20390063.564    83493908.820         669.042          46.000  
G31  20634914.186   108437202.917         240.680          47.000    20634903.515    84496480.510         187.506          45.000  
G04  24680840.768   129698692.481        3197.816          35.000    24680837.902   101063916.141        2491.583          41.000  
C33  22468229.045   116997960.335        -515.016          50.000                                                                  
C06  36563165.462   190393997.197        -172.692          45.000    36563148.052   147224644.814        -133.594          48.000  
C14  22541293.210   117378416.581       -2105.937          46.000    22541278.579    90764383.986       -1628.427          51.000  
C16  36989123.771   192612069.771        -206.730          48.000    36989111.820   148939822.667        -159.922          48.000  
C24  21793219.818   113483016.399        -786.472          50.000                                                                  
C26  24276191.697   126412497.721       -2547.566          44.000                                                                  
G03  22887847.481   120276452.559          92.483          38.000    22887841.731    93721881.636          72.369          39.000  
G16  22610053.495   118816633.659        3089.523          41.000                                                                  
C09  37715258.998   196393252.302        -163.041          43.000    37715244.969   151863662.526        -126.181          48.000  
C25  23744641.806   123644579.841        1636.621          46.000                                                                  
C13  38230241.977   199074900.739       -2231.048          42.000    38230235.791   153937317.491       -1725.116          43.000  
C08  39047718.566   203331716.073       -2440.629          36.000    39047706.721   157228915.288       -1887.163          42.000  
C10  40552507.632                         926.972          29.000    40552508.556   163288189.595         716.546          36.000  
C35  25981431.432   135292134.042         528.173          39.000                                                                  
G25  24164395.192   126984750.833       -3901.520          37.000    24164388.579    98949115.902       -3040.195          37.000  
> 2025 10 30 06 15 01.1600000  0 21                     
G32  21851856.180   114832280.197       -2783.802          46.000    21851849.787    89479670.941       -2169.090          43.000  
G29  23043628.948   121095099.273        -387.384          42.000    23043619.957    94359781.757        -301.581          41.000  
G28  21184511.094   111325356.902       -1118.537          46.000    21184500.595    86746990.443        -871.550          47.000  
G26  20390064.101   107150506.749         858.390          48.000    20390057.033    83493882.061         668.980          46.000  
G31  20634912.363   108437193.299         240.495          47.000    20634901.695    84496473.017         187.364          45.000  
G04  24680816.428   129698564.583        3197.591          35.000    24680813.537   101063816.479        2491.535          41.000  
C33  22468232.976   116997980.939        -515.116          50.000                                                                  
C06  36563166.778   190394004.113        -172.870          45.000    36563149.406   147224650.161        -133.694          48.000  
C14  22541309.374   117378500.825       -2106.062          46.000    22541294.744    90764449.130       -1628.586          51.000  
C16  36989125.392   192612078.044        -206.794          48.000    36989113.376   148939829.063        -159.908          48.000  
C24  21793225.843   113483047.861        -786.555          50.000                                                                  
C26  24276211.260   126412599.630       -2547.726          44.000                                                                  
G03  22887846.795   120276448.870          92.176          39.000    22887841.023    93721878.756          72.079          39.000  
G16  22610029.958   118816510.064        3089.751          41.000                                                                  
C09  37715260.225   196393258.828        -163.125          43.000    37715246.247   151863667.571        -126.155          48.000  
C25  23744629.258   123644514.370        1636.719          46.000                                                                  
C13  38230259.102   199074989.976       -2230.987          42.000    38230252.920   153937386.493       -1725.035          44.000  
C08  39047737.321   203331813.692       -2440.546          36.000    39047725.456   157228990.769       -1887.137          42.000  
C10  40552500.323                         926.551          29.000    40552501.428   163288160.930         716.603          36.000  
C35  25981427.370   135292112.915         528.179          39.000                                                                  
G25  24164424.867   126984906.894       -3901.485          37.000    24164418.288    98949237.505       -3040.182          37.000  
> 2025 10 30 06 15 01.2000000  0 21                     
G32  21851877.379   114832391.548       -2783.893          46.000    21851870.986    89479757.710       -2169.262          43.000  
G29  23043631.886   121095114.745        -387.047          42.000    23043622.928    94359793.830        -301.858          41.000  
G28  21184519.625   111325401.647       -1118.645          46.000    21184509.108    86747025.303        -871.556          47.000  
G26  20390057.561   107150472.413         858.347          48.000    20390050.507    83493855.307         668.833          46.000  
G31  20634910.544   108437183.683         240.391          47.000    20634899.880    84496465.518         187.432          45.000  
G04  24680792.111   129698436.711        3196.901          35.000    24680789.182   101063716.829        2491.316          41.000  
C33  22468236.945   116998001.543        -515.164          50.000                                                                  
C06  36563168.101   190394011.029        -172.949          45.000    36563150.725   147224655.503        -133.644          48.000  
C14  22541325.542   117378585.066       -2106.079          46.000    22541310.885    90764514.268       -1628.544          51.000  
C16  36989127.011   192612086.320        -206.888          48.000    36989114.968   148939835.454        -159.837          48.000  
C24  21793231.896   113483079.317        -786.500          50.000                                                                  
C26  24276230.833   126412701.535       -2547.720          44.000                                                                  
G03  22887846.129   120276445.169          92.269          39.000    22887840.309    93721875.867          72.082          39.000  
G16  22610006.430   118816386.476        3089.768          41.000                                                                  
C09  37715261.492   196393265.349        -163.067          43.000    37715247.489   151863672.615        -126.104          48.000  
C25  23744616.667   123644448.911        1636.542          46.000                                                                  
C13  38230276.245   199075079.222       -2231.113          42.000    38230270.056   153937455.509       -1725.316          44.000  
C08  39047756.056   203331911.308       -2440.528          36.000    39047744.205   157229066.265       -1887.348          42.000  
C10  40552493.711                         926.733          29.000    40552494.325   163288132.253         716.849          36.000  
C35  25981423.328   135292091.788         528.178          39.000                                                                  
G25  24164454.571   126985062.960       -3901.622          37.000    24164448.001    98949359.115       -3040.280          37.000  
> 2025 10 30 06 15 01.2400000  0 21                     
G32  21851898.563   114832502.890       -2783.763          46.000    21851892.172    89479844.465       -2169.100          43.000  
G29  23043634.829   121095130.225        -387.030          42.000    23043625.888    94359805.887        -301.703          41.000  
G28  21184528.144   111325446.371       -1118.312          46.000    21184517.617    86747060.159        -871.474          47.000  
G26  20390051.023   107150438.074         858.385          48.000    20390043.963    83493828.555         668.723          46.000  
G31  20634908.695   108437174.056         240.558          47.000    20634898.031    84496458.018         187.488          45.000  
G04  24680767.782   129698308.796        3197.438          35.000    24680764.814   101063617.162        2491.509          41.000  
C33  22468240.912   116998022.144        -515.118          50.000                                                                  
C06  36563169.451   190394017.931        -172.705          45.000    36563152.033   147224660.846        -133.638          48.000  
C14  22541341.715   117378669.310       -2106.121          46.000    22541327.034    90764579.404       -1628.448          51.000  
C16  36989128.607   192612094.590        -206.814          48.000    36989116.558   148939841.844        -159.789          48.000  
C24  21793237.930   113483110.770        -786.422          50.000                                                                  
C26  24276250.408   126412803.428       -2547.483          44.000                                                                  
G03  22887845.424   120276441.466          92.430          39.000    22887839.602    93721872.976          72.133          39.000  
G16  22609982.920   118816262.892        3089.606          41.000                                                                  
C09  37715262.772   196393271.869        -162.998          43.000    37715248.736   151863677.654        -126.010          48.000  
C25  23744604.091   123644383.439        1636.701          46.000                                                                  
C13  38230293.378   199075168.469       -2231.199          42.000    38230287.208   153937524.517       -1725.290          44.000  
C08  39047774.794   203332008.922       -2440.414          36.000    39047762.955   157229141.746       -1887.179          42.000  
C10  40552486.659                         926.865          29.000    40552487.192   163288103.577         716.992          36.000  
C35  25981419.267   135292070.653         528.291          39.000                                                                  
G25  24164484.276   126985219.050       -3902.048          37.000    24164477.676    98949480.709       -3040.031          37.000  
> 2025 10 30 06 15 01.2800000  0 21                     
G32  21851919.763   114832614.229       -2783.638          46.000    21851913.363    89479931.224       -2169.074          43.000  
G29  23043637.772   121095145.711        -387.124          42.000    23043628.834    94359817.962        -301.864          41.000  
G28  21184536.647   111325491.101       -1118.231          46.000    21184526.145    86747095.021        -871.535          47.000  
G26  20390044.467   107150403.738         858.367          48.000    20390037.438    83493801.805         668.656          46.000  
G31  20634906.858   108437164.437         240.515          47.000    20634896.189    84496450.532         187.210          45.000  
G04  24680743.414   129698180.881        3197.790          35.000    24680740.469   101063517.490        2491.710          41.000  
C33  22468244.851   116998042.751        -515.187          50.000                                                                  
C06  36563170.801   190394024.845        -172.810          45.000    36563153.349   147224666.189        -133.638          48.000  
C14  22541357.905   117378753.554       -2106.158          46.000    22541343.206    90764644.548       -1628.590          51.000  
C16  36989130.177   192612102.861        -206.815          48.000    36989118.148   148939848.243        -159.913          48.000  
C24  21793243.983   113483142.231        -786.521          50.000                                                                  
C26  24276269.996   126412905.335       -2547.631          45.000                                                                  
G03  22887844.700   120276437.749          92.749          39.000    22887838.903    93721870.098          71.978          39.000  
G16  22609959.399   118816139.329        3089.169          41.000                                                                  
C09  37715264.030   196393278.391        -163.039          43.000    37715249.993   151863682.705        -126.196          48.000  
C25  23744591.522   123644317.971        1636.694          46.000                                                                  
C13  38230310.531   199075257.713       -2231.154          42.000    38230304.327   153937593.527       -1725.314          44.000  
C08  39047793.551   203332106.555       -2440.682          36.000    39047781.687   157229217.236       -1887.268          42.000  
C10  40552479.724                         926.833          29.000    40552480.100   163288074.928         716.505          36.000  
C35  25981415.227   135292049.537         527.995          39.000                                                                  
G25  24164513.935   126985375.100       -3901.608          37.000    24164507.387    98949602.334       -3040.412          37.000  
> 2025 10 30 06 15 01.3200000  0 21                     
G32  21851940.964   114832725.587       -2783.833          46.000    21851934.571    89480017.996       -2169.270          43.000  
G29  23043640.733   121095161.211        -387.419          42.000    23043631.791    94359830.043        -302.069          41.000  
G28  21184545.143   111325535.846       -1118.489          46.000    21184534.658    86747129.888        -871.667          47.000  
G26  20390037.933   107150369.410         858.213          48.000    20390030.887    83493775.047         668.798          46.000  
G31  20634905.042   108437154.825         240.373          47.000    20634894.339    84496443.043         187.143          45.000  
G04  24680719.095   129698053.010        3197.252          35.000    24680716.123   101063417.835        2491.542          41.000  
C33  22468248.805   116998063.361        -515.274          50.000                                                                  
C06  36563172.128   190394031.755        -172.811          45.000    36563154.683   147224671.538        -133.722          48.000  
C14  22541374.076   117378837.798       -2106.143          46.000    22541359.388    90764709.697       -1628.713          51.000  
C16  36989131.784   192612111.135        -206.848          48.000    36989119.721   148939854.649        -160.118          48.000  
C24  21793249.993   113483173.700        -786.687          50.000                                                                  
C26  24276289.550   126413007.246       -2547.797          44.000                                                                  
G03  22887843.985   120276434.046          92.612          38.000    22887838.201    93721867.231          71.678          39.000  
G16  22609935.885   118816015.762        3089.058          41.000                                                                  
C09  37715265.293   196393284.925        -163.260          43.000    37715251.250   151863687.754        -126.271          48.000  
C25  23744578.941   123644252.509        1636.591          46.000                                                                  
C13  38230327.652   199075346.952       -2231.048          42.000    38230321.436   153937662.543       -1725.413          44.000  
C08  39047812.296   203332204.176       -2440.627          36.000    39047800.435   157229292.717       -1887.096          42.000  
C10  40552472.353                         926.519          29.000    40552472.989   163288046.276         716.360          36.000  
C35  25981411.192   135292028.435         527.615          39.000                                                                  
G25  24164543.625   126985531.162       -3901.563          37.000    24164537.067    98949723.969       -3040.830          37.000  
> 2025 10 30 06 15 01.3600000  0 21                     
G32  21851962.153   114832836.942       -2783.899          46.000    21851955.762    89480104.766       -2169.342          43.000  
G29  23043643.693   121095176.703        -387.448          42.000    23043634.760    94359842.125        -302.139          41.000  
G28  21184553.659   111325580.591       -1118.663          46.000    21184543.151    86747164.750        -871.649          47.000  
G26  20390031.409   107150335.074         858.300          48.000    20390024.368    83493748.288         668.896          46.000  
G31  20634903.272   108437145.218         240.170          47.000    20634892.490    84496435.552         187.169          45.000  
G04  24680694.727   129697925.102        3197.531          35.000    24680691.806   101063318.186        2491.296          41.000  
C33  22468252.787   116998083.972        -515.310          50.000                                                                  
C06  36563173.485   190394038.670        -172.866          45.000    36563155.986   147224676.886        -133.760          48.000  
C14  22541390.249   117378922.048       -2106.251          46.000    22541375.551    90764774.843       -1628.717          51.000  
C16  36989133.338   192612119.415        -206.982          48.000    36989121.340   148939861.052        -160.158          48.000  
C24  21793256.067   113483205.167        -786.734          50.000                                                                  
C26  24276309.135   126413109.152       -2547.748          44.000                                                                  
G03  22887843.246   120276430.350          92.385          38.000    22887837.482    93721864.342          71.959          39.000  
G16  22609912.355   118815892.179        3089.323          41.000                                                                  
C09  37715266.547   196393291.459        -163.364          43.000    37715252.517   151863692.804        -126.300          48.000  
C25  23744566.381   123644187.050        1636.456          46.000                                                                  
C13  38230344.768   199075436.200       -2231.110          42.000    38230338.571   153937731.554       -1725.369          44.000  
C08  39047831.053   203332301.812       -2440.823          36.000    39047819.163   157229368.198       -1887.012          42.000  
C10  40552465.240                         926.734          29.000    40552465.859   163288017.629         716.220          36.000  
C35  25981407.143   135292007.317         527.707          39.000                                                                  
G25  24164573.324   126985687.232       -3901.775          37.000    24164566.778    98949845.577       -3040.570          37.000  
> 2025 10 30 06 15 01.4000000  0 21                     
G32  21851983.340   114832948.285       -2783.679          46.000    21851976.943    89480191.535       -2169.337          43.000  
G29  23043646.631   121095192.194        -387.388          42.000    23043637.722    94359854.196        -301.916          41.000  
G28  21184562.170   111325625.340       -1118.801          46.000    21184551.678    86747199.609        -871.589          47.000  
G26  20390024.873   107150300.743         858.250          48.000    20390017.837    83493721.538         668.767          46.000  
G31  20634901.450   108437135.603         240.258          47.000    20634890.654    84496428.059         187.256          45.000  
G04  24680670.392   129697797.205        3197.492          35.000    24680667.477   101063218.528        2491.320          41.000  
C33  22468256.756   116998104.581        -515.302          50.000                                                                  
C06  36563174.788   190394045.578        -172.751          45.000    36563157.288   147224682.226        -133.618          48.000  
C14  22541406.435   117379006.292       -2106.167          46.000    22541391.729    90764839.987       -1628.665          51.000  
C16  36989134.919   192612127.685        -206.882          48.000    36989122.962   148939867.450        -160.050          48.000  
C24  21793262.151   113483236.634        -786.756          50.000                                                                  
C26  24276328.728   126413211.057       -2547.698          44.000                                                                  
G03  22887842.529   120276426.647          92.451          38.000    22887836.783    93721861.461          71.977          39.000  
G16  22609888.831   118815768.606        3089.271          41.000                                                                  
C09  37715267.800   196393297.985        -163.240          43.000    37715253.771   151863697.851        -126.254          48.000  
C25  23744553.807   123644121.587        1636.524          46.000                                                                  
C13  38230361.905   199075525.451       -2231.228          42.000    38230355.706   153937800.568       -1725.425          44.000  
C08  39047849.793   203332399.415       -2440.432          36.000    39047837.910   157229443.694       -1887.258          43.000  
C10  40552458.203                         926.897          29.000    40552458.739   163287988.959         716.579          36.000  
C35  25981403.102   135291986.199         527.810          39.000                                                                  
G25  24164603.017   126985843.306       -3901.900          37.000    24164596.478    98949967.173       -3040.147          37.000  
> 2025 10 30 06 15 01.4400000  0 21                     
G32  21852004.528   114833059.632       -2783.608          46.000    21851998.125    89480278.306       -2169.291          43.000  
G29  23043649.580   121095207.687        -387.407          42.000    23043640.658    94359866.247        -301.426          41.000  
G28  21184570.663   111325670.080       -1118.713          46.000    21184560.200    86747234.470        -871.574          47.000  
G26  20390018.324   107150266.410         858.269          48.000    20390011.316    83493694.787         668.749          46.000  
G31  20634899.604   108437125.978         240.517          47.000    20634888.815    84496420.561         187.404          45.000  
G04  24680646.036   129697669.303        3197.502          35.000    24680643.132   101063118.866        2491.435          41.000  
C33  22468260.699   116998125.192        -515.340          50.000                                                                  
C06  36563176.128   190394052.494        -172.880          45.000    36563158.600   147224687.571        -133.611          48.000  
C14  22541422.627   117379090.533       -2106.071          46.000    22541407.867    90764905.131       -1628.659          51.000  
C16  36989136.512   192612135.957        -206.837          48.000    36989124.518   148939873.842        -159.888          48.000  
C24  21793268.198   113483268.090        -786.558          50.000                                                                  
C26  24276348.301   126413312.957       -2547.563          44.000                                                                  
G03  22887841.805   120276422.938          92.655          39.000    22887836.082    93721858.578          72.014          39.000  
G16  22609865.312   118815645.026        3089.411          41.000                                                                  
C09  37715269.030   196393304.507        -163.126          43.000    37715255.010   151863702.894        -126.141          48.000  
C25  23744541.237   123644056.123        1636.554          46.000                                                                  
C13  38230379.017   199075614.703       -2231.271          42.000    38230372.855   153937869.576       -1725.281          44.000  
C08  39047868.544   203332497.034       -2440.459          36.000    39047856.645   157229519.190       -1887.355          42.000  
C10  40552451.001                         926.809          29.000    40552451.617   163287960.288         716.772          36.000  
C35  25981399.053   135291965.081         527.854          39.000                                                                  
G25  24164632.717   126985999.359       -3901.589          37.000    24164626.164    98950088.765       -3039.917          37.000  
> 2025 10 30 06 15 01.4800000  0 21                     
G32  21852025.704   114833170.977       -2783.538          46.000    21852019.295    89480365.062       -2169.017          43.000  
G29  23043652.521   121095223.180        -387.406          42.000    23043643.603    94359878.313        -301.477          41.000  
G28  21184579.157   111325714.815       -1118.544          46.000    21184568.712    86747269.336        -871.627          47.000  
G26  20390011.778   107150232.076         858.313          48.000    20390004.778    83493668.037         668.699          46.000  
G31  20634897.759   108437116.360         240.503          47.000    20634886.977    84496413.064         187.465          45.000  
G04  24680621.712   129697541.409        3197.378          35.000    24680618.798   101063019.209        2491.420          41.000  
C33  22468264.664   116998145.802        -515.320          50.000                                                                  
C06  36563177.462   190394059.396        -172.667          45.000    36563159.947   147224692.912        -133.555          48.000  
C14  22541438.789   117379174.778       -2106.104          46.000    22541424.032    90764970.273       -1628.615          51.000  
C16  36989138.116   192612144.226        -206.740          48.000    36989126.128   148939880.231        -159.769          48.000  
C24  21793274.281   113483299.546        -786.422          50.000                                                                  
C26  24276367.892   126413414.861       -2547.547          44.000                                                                  
G03  22887841.102   120276419.254          92.283          39.000    22887835.367    93721855.679          72.392          39.000  
G16  22609841.775   118815521.439        3089.606          41.000                                                                  
C09  37715270.300   196393311.021        -162.899          43.000    37715256.257   151863707.933        -126.035          48.000  
C25  23744528.664   123643990.663        1636.517          46.000                                                                  
C13  38230396.167   199075703.936       -2230.971          42.000    38230390.018   153937938.577       -1725.094          44.000  
C08  39047887.275   203332594.663       -2440.612          36.000    39047875.394   157229594.694       -1887.536          42.000  
C10  40552443.765                         926.483          29.000    40552444.494   163287931.603         717.122          36.000  
C35  25981394.999   135291943.960         527.948          39.000                                                                  
G25  24164662.424   126986155.422       -3901.580          37.000    24164655.862    98950210.392       -3040.422          37.000  
> 2025 10 30 06 15 01.5200000  0 21                     
G32  21852046.892   114833282.329       -2783.673          46.000    21852040.498    89480451.822       -2168.973          43.000  
G29  23043655.441   121095238.667        -387.255          42.000    23043646.553    94359890.387        -301.739          41.000  
G28  21184587.641   111325759.545       -1118.340          46.000    21184577.221    86747304.189        -871.453          47.000  
G26  20390005.230   107150197.743         858.313          48.000    20389998.254    83493641.284         668.762          46.000  
G31  20634895.925   108437106.740         240.497          47.000    20634885.146    84496405.567         187.420          45.000  
G04  24680597.366   129697413.528        3197.086          35.000    24680594.477   101062919.539        2491.629          41.000  
C33  22468268.668   116998166.407        -515.209          50.000                                                                  
C06  36563178.808   190394066.303        -172.673          45.000    36563161.240   147224698.247        -133.419          48.000  
C14  22541454.975   117379259.019       -2106.067          46.000    22541440.202    90765035.410       -1628.475          51.000  
C16  36989139.709   192612152.496        -206.750          48.000    36989127.725   148939886.620        -159.697          48.000  
C24  21793280.308   113483331.003        -786.407          50.000                                                                  
C26  24276387.456   126413516.766       -2547.591          44.000                                                                  
G03  22887840.371   120276415.568          92.110          39.000    22887834.655    93721852.807          72.030          39.000  
G16  22609818.239   118815397.848        3089.740          41.000                                                                  
C09  37715271.557   196393317.545        -162.953          43.000    37715257.546   151863712.978        -126.088          48.000  
C25  23744516.107   123643925.187        1636.792          46.000                                                                  
C13  38230413.315   199075793.172       -2230.848          42.000    38230407.174   153938007.580       -1725.008          44.000  
C08  39047905.995   203332692.299       -2440.959          36.000    39047894.111   157229670.168       -1887.137          42.000  
C10  40552436.487                         926.672          29.000    40552437.365   163287902.956         716.503          36.000  
C35  25981390.957   135291922.838         527.951          39.000                                                                  
G25  24164692.114   126986311.493       -3901.736          37.000    24164685.554    98950331.990       -3040.103          37.000  
> 2025 10 30 06 15 01.5600000  0 21                     
G32  21852068.087   114833393.677       -2783.687          46.000    21852061.693    89480538.594       -2169.181          43.000  
G29  23043658.396   121095254.158        -387.255          42.000    23043649.508    94359902.465        -301.983          41.000  
G28  21184596.153   111325804.275       -1118.248          46.000    21184585.717    86747339.044        -871.413          47.000  
G26  20389998.704   107150163.409         858.331          48.000    20389991.715    83493614.531         668.811          46.000  
G31  20634894.082   108437097.124         240.410          47.000    20634883.335    84496398.074         187.353          45.000  
G04  24680573.026   129697285.617        3197.452          35.000    24680570.128   101062819.864        2491.852          41.000  
C33  22468272.606   116998187.014        -515.165          50.000                                                                  
C06  36563180.107   190394073.206        -172.592          45.000    36563162.565   147224703.585        -133.417          48.000  
C14  22541471.164   117379343.261       -2106.056          46.000    22541456.376    90765100.555       -1628.579          51.000  
C16  36989141.340   192612160.759        -206.629          48.000    36989129.288   148939893.017        -159.817          48.000  
C24  21793286.329   113483362.462        -786.430          50.000                                                                  
C26  24276407.034   126413618.664       -2547.500          44.000                                                                  
G03  22887839.641   120276411.873          92.278          39.000    22887833.945    93721849.927          72.019          39.000  
G16  22609794.732   118815274.268        3089.584          41.000                                                                  
C09  37715272.826   196393324.064        -162.949          43.000    37715258.786   151863718.020        -126.062          48.000  
C25  23744503.515   123643859.718        1636.780          46.000                                                                  
C13  38230430.461   199075882.416       -2230.963          42.000    38230424.302   153938076.590       -1725.128          44.000  
C08  39047924.717   203332789.910       -2440.617          36.000    39047912.886   157229745.641       -1886.908          42.000  
C10  40552429.506                         926.953          29.000    40552430.250   163287874.304         716.326          36.000  
C35  25981386.863   135291901.716         527.957          39.000                                                                  
G25  24164721.830   126986467.567       -3901.915          37.000    24164715.250    98950453.602       -3040.214          37.000  
> 2025 10 30 06 15 01.6000000  0 21                     
G32  21852089.291   114833505.035       -2783.882          46.000    21852082.893    89480625.364       -2169.262          43.000  
G29  23043661.360   121095269.649        -387.230          42.000    23043652.455    94359914.543        -302.016          41.000  
G28  21184604.671   111325849.014       -1118.382          46.000    21184594.240    86747373.906        -871.475          47.000  
G26  20389992.202   107150129.079         858.238          48.000    20389985.179    83493587.774         668.891          46.000  
G31  20634892.262   108437087.512         240.275          47.000    20634881.500    84496390.581         187.309          45.000  
G04  24680548.692   129697157.708        3197.679          35.000    24680545.781   101062720.209        2491.563          41.000  
C33  22468276.545   116998207.626        -515.270          50.000                                                                  
C06  36563181.404   190394080.120        -172.750          45.000    36563163.906   147224708.929        -133.541          48.000  
C14  22541487.318   117379427.510       -2106.209          46.000    22541472.560    90765165.701       -1628.656          51.000  
C16  36989142.950   192612169.025        -206.641          48.000    36989130.847   148939899.417        -159.973          48.000  
C24  21793292.349   113483393.920        -786.439          50.000                                                                  
C26  24276426.603   126413720.569       -2547.597          44.000                                                                  
G03  22887838.979   120276408.170          92.498          39.000    22887833.247    93721847.041          72.095          39.000  
G16  22609771.207   118815150.698        3089.312          41.000                                                                  
C09  37715274.076   196393330.597        -163.217          43.000    37715260.029   151863723.064        -126.081          48.000  
C25  23744490.951   123643794.255        1636.597          46.000                                                                  
C13  38230447.587   199075971.663       -2231.119          42.000    38230441.462   153938145.598       -1725.172          44.000  
C08  39047943.461   203332887.513       -2440.246          36.000    39047931.623   157229821.129       -1887.059          42.000  
C10  40552422.386                         927.102          29.000    40552423.113   163287845.625         716.683          36.000  
C35  25981382.820   135291880.596         527.970          39.000                                                                  
G25  24164751.546   126986623.634       -3901.777          37.000    24164744.958    98950575.210       -3040.153          37.000  
> 2025 10 30 06 15 01.6400000  0 21                     
G32  21852110.498   114833616.398       -2784.033          46.000    21852104.078    89480712.129       -2169.227          43.000  
G29  23043664.311   121095285.154        -387.527          42.000    23043655.380    94359926.613        -301.875          41.000  
G28  21184613.182   111325893.762       -1118.649          46.000    21184602.756    86747408.778        -871.724          47.000  
G26  20389985.691   107150094.753         858.134          48.000    20389978.639    83493561.027         668.724          46.000  
G31  20634890.430   108437077.899         240.263          47.000    20634879.697    84496383.097         187.088          45.000  
G04  24680524.380   129697029.812        3197.505          35.000    24680521.452   101062620.545        2491.537          41.000  
C33  22468280.459   116998228.246        -515.468          50.000                                                                  
C06  36563182.716   190394087.036        -172.915          45.000    36563165.238   147224714.278        -133.718          48.000  
C14  22541503.504   117379511.755       -2106.195          46.000    22541488.764    90765230.850       -1628.768          51.000  
C16  36989144.547   192612177.308        -206.959          48.000    36989132.430   148939905.818        -160.066          48.000  
C24  21793298.383   113483425.391        -786.688          50.000                                                                  
C26  24276446.146   126413822.477       -2547.702          45.000                                                                  
G03  22887838.293   120276404.477          92.401          39.000    22887832.554    93721844.180          71.687          39.000  
G16  22609747.700   118815027.135        3089.010          41.000                                                                  
C09  37715275.317   196393337.139        -163.518          43.000    37715261.300   151863728.118        -126.279          48.000  
C25  23744478.345   123643728.801        1636.346          46.000                                                                  
C13  38230464.679   199076060.910       -2231.198          42.000    38230458.616   153938214.613       -1725.327          43.000  
C08  39047962.208   203332985.146       -2440.566          36.000    39047950.360   157229896.616       -1887.126          42.000  
C10  40552415.135                         926.968          29.000    40552415.986   163287816.974         716.456          36.000  
C35  25981378.763   135291859.493         527.637          39.000                                                                  
G25  24164781.229   126986779.691       -3901.574          37.000    24164774.657    98950696.820       -3040.185          37.000  
> 2025 10 30 06 15 01.6800000  0 21                     
G32  21852131.698   114833727.757       -2784.073          46.000    21852125.252    89480798.909       -2169.454          43.000  
G29  23043667.252   121095300.662        -387.757          42.000    23043658.336    94359938.705        -302.247          41.000  
G28  21184621.684   111325938.512       -1118.799          46.000    21184611.265    86747443.651        -871.861          47.000  
G26  20389979.195   107150060.433         857.980          48.000    20389972.109    83493534.288         668.509          46.000  
G31  20634888.591   108437068.288         240.208          47.000    20634877.871    84496375.608         187.138          45.000  
G04  24680500.035   129696901.928        3197.221          35.000    24680497.126   101062520.901        2491.250          41.000  
C33  22468284.409   116998248.863        -515.515          50.000                                                                  
C06  36563184.012   190394093.953        -173.002          45.000    36563166.565   147224719.634        -133.923          48.000  
C14  22541519.678   117379596.023       -2106.599          46.000    22541504.961    90765296.002       -1628.835          51.000  
C16  36989146.153   192612185.585        -207.009          48.000    36989134.024   148939912.221        -160.127          48.000  
C24  21793304.405   113483456.865        -786.843          50.000                                                                  
C26  24276465.727   126413924.385       -2547.724          45.000                                                                  
G03  22887837.600   120276400.789          92.262          39.000    22887831.856    93721841.300          71.829          39.000  
G16  22609724.178   118814903.562        3089.114          41.000                                                                  
C09  37715276.572   196393343.665        -163.327          43.000    37715262.585   151863733.168        -126.320          48.000  
C25  23744465.774   123643663.343        1636.340          46.000                                                                  
C13  38230481.803   199076150.168       -2231.390          42.000    38230475.751   153938283.626       -1725.351          43.000  
C08  39047980.952   203333082.778       -2440.779          36.000    39047969.097   157229972.111       -1887.333          42.000  
C10  40552407.962                         926.524          29.000    40552408.843   163287788.322         716.305          36.000  
C35  25981374.753   135291838.382         527.648          39.000                                                                  
G25  24164810.932   126986935.766       -3901.799          37.000    24164804.336    98950818.429       -3040.237          37.000  
> 2025 10 30 06 15 01.7200000  0 21                     
G32  21852152.903   114833839.114       -2783.989          46.000    21852146.441    89480885.678       -2169.356          43.000  
G29  23043670.178   121095316.161        -387.646          42.000    23043661.296    94359950.786        -302.167          41.000  
G28  21184630.200   111325983.255       -1118.730          46.000    21184619.788    86747478.518        -871.831          47.000  
G26  20389972.648   107150026.107         858.049          48.000    20389965.579    83493507.539         668.584          46.000  
G31  20634886.763   108437058.683         240.110          47.000    20634876.045    84496368.113         187.268          45.000  
G04  24680475.716   129696774.039        3197.158          35.000    24680472.780   101062421.245        2491.313          41.000  
C33  22468288.418   116998269.479        -515.492          50.000                                                                  
C06  36563185.352   190394100.861        -172.842          45.000    36563167.924   147224724.974        -133.732          48.000  
C14  22541535.872   117379680.271       -2106.394          46.000    22541521.133    90765361.152       -1628.813          51.000  
C16  36989147.738   192612193.859        -206.947          48.000    36989135.603   148939918.615        -159.994          48.000  
C24  21793310.450   113483488.330        -786.751          50.000                                                                  
C26  24276485.294   126414026.295       -2547.781          45.000                                                                  
G03  22887836.903   120276397.111          92.020          39.000    22887831.150    93721838.420          71.911          39.000  
G16  22609700.645   118814779.992        3089.155          41.000                                                                  
C09  37715277.830   196393350.183        -163.074          43.000    37715263.832   151863738.215        -126.293          48.000  
C25  23744453.217   123643597.885        1636.377          46.000                                                                  
C13  38230498.941   199076239.414       -2231.270          42.000    38230492.907   153938352.640       -1725.369          43.000  
C08  39047999.690   203333180.388       -2440.502          36.000    39047987.834   157230047.611       -1887.521          42.000  
C10  40552400.890                         926.576          29.000    40552401.690   163287759.653         716.602          36.000  
C35  25981370.690   135291817.265         527.795          39.000                                                                  
G25  24164840.649   126987091.826       -3901.678          37.000    24164834.054    98950940.053       -3040.592          37.000  
> 2025 10 30 06 15 01.7600000  0 21                     
G32  21852174.062   114833950.459       -2783.740          46.000    21852167.636    89480972.451       -2169.366          43.000  
G29  23043673.141   121095331.659        -387.544          42.000    23043664.256    94359962.850        -301.820          41.000  
G28  21184638.714   111326027.993       -1118.594          46.000    21184628.290    86747513.377        -871.664          47.000  
G26  20389966.101   107149991.783         858.024          48.000    20389959.056    83493480.794         668.578          46.000  
G31  20634884.901   108437049.073         240.166          47.000    20634874.215    84496360.632         187.095          45.000  
G04  24680451.383   129696646.143        3197.223          35.000    24680448.442   101062321.595        2491.257          41.000  
C33  22468292.385   116998290.101        -515.573          50.000                                                                  
C06  36563186.687   190394107.771        -172.791          45.000    36563169.265   147224730.314        -133.596          48.000  
C14  22541552.037   117379764.523       -2106.349          46.000    22541537.278    90765426.301       -1628.781          51.000  
C16  36989149.307   192612202.135        -206.958          48.000    36989137.172   148939925.013        -159.974          48.000  
C24  21793316.495   113483519.796        -786.689          50.000                                                                  
C26  24276504.888   126414128.197       -2547.685          44.000                                                                  
G03  22887836.186   120276393.416          92.230          39.000    22887830.427    93721835.551          71.811          39.000  
G16  22609677.124   118814656.420        3089.213          41.000                                                                  
C09  37715279.089   196393356.710        -163.103          43.000    37715265.100   151863743.257        -126.173          48.000  
C25  23744440.665   123643532.425        1636.426          46.000                                                                  
C13  38230516.080   199076328.660       -2231.138          42.000    38230510.054   153938421.653       -1725.349          44.000  
C08  39048018.455   203333278.021       -2440.773          36.000    39048006.611   157230123.106       -1887.530          42.000  
C10  40552393.368                         926.439          29.000    40552394.572   163287730.982         716.883          36.000  
C35  25981366.610   135291796.158         527.700          39.000                                                                  
G25  24164870.356   126987247.896       -3901.750          37.000    24164863.758    98951061.670       -3040.560          37.000  
> 2025 10 30 06 15 01.8000000  0 21                     
G32  21852195.257   114834061.808       -2783.640          46.000    21852188.827    89481059.217       -2169.229          43.000  
G29  23043676.101   121095347.159        -387.531          42.000    23043667.190    94359974.934        -302.018          41.000  
G28  21184647.213   111326072.736       -1118.581          46.000    21184636.814    86747548.235        -871.546          47.000  
G26  20389959.577   107149957.451         858.185          48.000    20389952.526    83493454.044         668.708          46.000  
G31  20634883.060   108437039.454         240.357          47.000    20634872.368    84496353.142         187.157          45.000  
G04  24680427.067   129696518.247        3197.299          35.000    24680424.102   101062221.931        2491.453          41.000  
C33  22468296.365   116998310.717        -515.501          50.000                                                                  
C06  36563188.028   190394114.671        -172.588          45.000    36563170.614   147224735.655        -133.550          48.000  
C14  22541568.235   117379848.769       -2106.210          46.000    22541553.449    90765491.452       -1628.780          51.000  
C16  36989150.929   192612210.405        -206.854          48.000    36989138.762   148939931.410        -159.942          48.000  
C24  21793322.574   113483551.262        -786.664          50.000                                                                  
C26  24276524.428   126414230.109       -2547.755          45.000                                                                  
G03  22887835.463   120276389.724          92.273          39.000    22887829.716    93721832.676          71.831          39.000  
G16  22609653.597   118814532.846        3089.302          41.000                                                                  
C09  37715280.361   196393363.229        -163.002          43.000    37715266.365   151863748.305        -126.206          48.000  
C25  23744428.104   123643466.964        1636.487          46.000                                                                  
C13  38230533.209   199076417.911       -2231.220          42.000    38230527.176   153938490.673       -1725.461          43.000  
C08  39048037.213   203333375.652       -2440.802          36.000    39048025.342   157230198.591       -1887.316          42.000  
C10  40552386.075                         926.422          29.000    40552387.416   163287702.311         716.938          36.000  
C35  25981362.592   135291775.040         527.838          39.000                                                                  
G25  24164900.051   126987403.972       -3901.858          37.000    24164893.467    98951183.288       -3040.496          37.000  
> 2025 10 30 06 15 01.8400000  0 21                     
G32  21852216.468   114834173.173       -2783.934          46.000    21852210.005    89481145.991       -2169.337          43.000  
G29  23043679.043   121095362.663        -387.613          42.000    23043670.161    94359987.019        -302.136          41.000  
G28  21184655.741   111326117.484       -1118.659          46.000    21184645.341    86747583.106        -871.691          47.000  
G26  20389953.058   107149923.126         858.154          48.000    20389946.005    83493427.298         668.664          46.000  
G31  20634881.252   108437029.841         240.357          47.000    20634870.533    84496345.655         187.139          45.000  
G04  24680402.748   129696390.338        3197.642          35.000    24680399.750   101062122.273        2491.400          41.000  
C33  22468300.331   116998331.336        -515.508          50.000                                                                  
C06  36563189.343   190394121.586        -172.745          45.000    36563171.945   147224740.996        -133.546          48.000  
C14  22541584.412   117379933.022       -2106.282          46.000    22541569.649    90765556.606       -1628.844          51.000  
C16  36989152.503   192612218.671        -206.722          48.000    36989140.373   148939937.805        -159.892          48.000  
C24  21793328.631   113483582.724        -786.595          50.000                                                                  
C26  24276544.007   126414332.008       -2547.567          45.000                                                                  
G03  22887834.819   120276386.047          92.021          39.000    22887829.015    93721829.805          71.768          39.000  
G16  22609630.071   118814409.272        3089.345          41.000                                                                  
C09  37715281.589   196393369.763        -163.233          43.000    37715267.602   151863753.348        -126.116          48.000  
C25  23744415.505   123643401.504        1636.475          46.000                                                                  
C13  38230550.335   199076507.153       -2231.140          42.000    38230544.312   153938559.683       -1725.354          44.000  
C08  39048055.959   203333473.279       -2440.790          36.000    39048044.093   157230274.064       -1887.002          43.000  
C10  40552379.165                         926.311          29.000    40552380.299   163287673.653         716.692          36.000  
C35  25981358.526   135291753.920         527.938          39.000                                                                  
G25  24164929.731   126987560.056       -3902.066          37.000    24164923.161    98951304.906       -3040.513          37.000  
> 2025 10 30 06 15 01.8800000  0 21                     
G32  21852237.672   114834284.541       -2784.152          46.000    21852231.185    89481232.767       -2169.394          43.000  
G29  23043682.006   121095378.175        -387.789          42.000    23043673.112    94359999.104        -302.166          41.000  
G28  21184664.267   111326162.231       -1118.705          46.000    21184653.852    86747617.971        -871.702          47.000  
G26  20389946.537   107149888.813         857.882          48.000    20389939.491    83493400.560         668.479          46.000  
G31  20634879.423   108437020.234         240.221          47.000    20634868.711    84496338.168         187.133          45.000  
G04  24680378.390   129696262.452        3197.286          35.000    24680375.410   101062022.615        2491.421          41.000  
C33  22468304.248   116998351.961        -515.609          50.000                                                                  
C06  36563190.689   190394128.505        -172.888          45.000    36563173.261   147224746.343        -133.661          48.000  
C14  22541600.597   117380017.288       -2106.594          46.000    22541585.834    90765621.761       -1628.906          51.000  
C16  36989154.047   192612226.946        -206.827          48.000    36989141.989   148939944.203        -159.953          48.000  
C24  21793334.643   113483614.197        -786.774          50.000                                                                  
C26  24276563.587   126414433.914       -2547.593          45.000                                                                  
G03  22887834.106   120276382.366          91.974          39.000    22887828.318    93721826.955          71.367          39.000  
G16  22609606.564   118814285.697        3089.415          41.000                                                                  
C09  37715282.846   196393376.298        -163.411          43.000    37715268.871   151863758.399        -126.258          48.000  
C25  23744402.924   123643336.052        1636.346          46.000                                                                  
C13  38230567.472   199076596.404       -2231.259          42.000    38230561.448   153938628.699       -1725.386          43.000  
C08  39048074.713   203333570.904       -2440.706          36.000    39048062.856   157230349.569       -1887.400          43.000  
C10  40552371.869                         926.544          29.000    40552373.192   163287645.017         716.103          36.000  
C35  25981354.480   135291732.825         527.476          39.000                                                                  
G25  24164959.410   126987716.122       -3901.894          37.000    24164952.856    98951426.494       -3039.980          37.000  
> 2025 10 30 06 15 01.9200000  0 21                     
G32  21852258.852   114834395.911       -2784.260          46.000    21852252.363    89481319.553       -2169.586          43.000  
G29  23043684.941   121095393.680        -387.743          42.000    23043676.065    94360011.183        -302.070          41.000  
G28  21184672.779   111326206.982       -1118.791          46.000    21184662.382    86747652.845        -871.805          47.000  
G26  20389940.014   107149854.503         857.705          48.000    20389932.969    83493373.824         668.394          46.000  
G31  20634877.604   108437010.628         240.135          47.000    20634866.873    84496330.682         187.127          45.000  
G04  24680354.103   129696134.566        3197.170          35.000    24680351.081   101061922.946        2491.630          41.000  
C33  22468308.218   116998372.588        -515.696          50.000                                                                  
C06  36563192.016   190394135.419        -172.883          45.000    36563174.584   147224751.695        -133.811          48.000  
C14  22541616.785   117380101.558       -2106.779          46.000    22541601.997    90765686.916       -1628.924          51.000  
C16  36989155.592   192612235.227        -206.982          48.000    36989143.588   148939950.606        -160.063          48.000  
C24  21793340.689   113483645.671        -786.847          50.000                                                                  
C26  24276583.164   126414535.829       -2547.787          45.000                                                                  
G03  22887833.395   120276378.682          92.059          39.000    22887827.616    93721824.087          71.516          39.000  
G16  22609583.041   118814162.136        3089.152          41.000                                                                  
C09  37715284.089   196393382.820        -163.228          43.000    37715270.116   151863763.450        -126.307          48.000  
C25  23744390.365   123643270.598        1636.298          46.000                                                                  
C13  38230584.606   199076685.669       -2231.570          42.000    38230578.569   153938697.723       -1725.548          44.000  
C08  39048093.454   203333668.536       -2440.717          36.000    39048081.588   157230425.058       -1887.346          42.000  
C10  40552364.769                         926.482          29.000    40552366.080   163287616.360         716.180          36.000  
C35  25981350.440   135291711.723         527.470          39.000                                                                  
G25  24164989.089   126987872.194       -3901.852          37.000    24164982.543    98951548.092       -3039.891          37.000  
> 2025 10 30 06 15 01.9600000  0 21                     
G32  21852280.050   114834507.270       -2784.117          46.000    21852273.561    89481406.325       -2169.456          43.000  
G29  23043687.898   121095409.188        -387.748          42.000    23043679.032    94360023.264        -302.019          41.000  
G28  21184681.273   111326251.728       -1118.740          46.000    21184670.888    86747687.708        -871.701          47.000  
G26  20389933.466   107149820.189         857.712          48.000    20389926.433    83493347.079         668.493          46.000  
G31  20634875.771   108437001.023         240.073          47.000    20634865.062    84496323.193         187.164          45.000  
G04  24680329.763   129696006.665        3197.377          35.000    24680326.743   101061823.290        2491.528          41.000  
C33  22468312.190   116998393.215        -515.738          50.000                                                                  
C06  36563193.357   190394142.337        -172.939          45.000    36563175.886   147224757.046        -133.856          48.000  
C14  22541632.951   117380185.822       -2106.760          46.000    22541618.158    90765752.065       -1628.822          51.000  
C16  36989157.167   192612243.506        -207.003          48.000    36989145.191   148939956.998        -159.911          48.000  
C24  21793346.714   113483677.140        -786.803          50.000                                                                  
C26  24276602.758   126414637.743       -2547.885          45.000                                                                  
G03  22887832.721   120276375.010          91.799          39.000    22887826.897    93721821.213          71.705          39.000  
G16  22609559.552   118814038.574        3089.061          41.000                                                                  
C09  37715285.336   196393389.346        -163.177          43.000    37715271.381   151863768.503        -126.382          48.000  
C25  23744377.813   123643205.134        1636.511          46.000                                                                  
C13  38230601.767   199076774.913       -2231.299          42.000    38230595.726   153938766.725       -1725.241          43.000  
C08  39048112.188   203333766.158       -2440.524          36.000    39048100.321   157230500.545       -1887.229          42.000  
C10  40552357.459                         926.520          29.000    40552358.969   163287587.694         716.417          36.000  
C35  25981346.377   135291690.616         527.502          39.000                                                                  
G25  24165018.768   126988028.255       -3901.612          37.000    24165012.259    98951669.726       -3040.484          37.000  
> 2025 10 30 06 15 02.0000000  0 21                     
G32  21852301.259   114834618.628       -2784.004          46.000    21852294.751    89481493.102       -2169.393          43.000  
G29  23043690.834   121095424.691        -387.659          42.000    23043681.975    94360035.344        -302.041          41.000  
G28  21184689.789   111326296.480       -1118.820          46.000    21184679.400    86747722.584        -871.869          47.000  
G26  20389926.910   107149785.873         857.781          48.000    20389919.890    83493320.344         668.376          46.000  
G31  20634873.955   108436991.424         239.926          47.000    20634863.241    84496315.706         187.120          45.000  
G04  24680305.432   129695878.792        3196.999          35.000    24680302.400   101061723.638        2491.377          41.000  
C33  22468316.150   116998413.841        -515.709          50.000                                                                  
C06  36563194.662   190394149.252        -172.910          45.000    36563177.191   147224762.387        -133.680          48.000  
C14  22541649.138   117380270.078       -2106.568          46.000    22541634.318    90765817.222       -1628.885          51.000  
C16  36989158.739   192612251.779        -206.911          48.000    36989146.783   148939963.402        -160.063          48.000  
C24  21793352.773   113483708.614        -786.842          50.000                                                                  
C26  24276622.328   126414739.655       -2547.890          45.000                                                                  
G03  22887832.037   120276371.336          91.777          39.000    22887826.193    93721818.341          71.761          39.000  
G16  22609536.021   118813915.006        3089.108          41.000                                                                  
C09  37715286.581   196393395.875        -163.209          43.000    37715272.653   151863773.552        -126.302          48.000  
C25  23744365.241   123643139.676        1636.469          46.000                                                                  
C13  38230618.899   199076864.163       -2231.262          42.000    38230612.873   153938835.731       -1725.143          43.000  
C08  39048130.913   203333863.762       -2440.133          36.000    39048119.094   157230576.031       -1887.173          42.000  
C10  40552350.667                         926.813          29.000    40552351.860   163287559.030         716.550          36.000  
C35  25981342.302   135291669.509         527.580          39.000                                                                  
G25  24165048.456   126988184.309       -3901.311          37.000    24165041.964    98951791.350       -3040.595          37.000  
> 2025 10 30 06 15 02.0400000  0 21                     
G32  21852322.454   114834729.991       -2784.005          46.000    21852315.953    89481579.872       -2169.279          43.000  
G29  23043693.791   121095440.212        -387.943          42.000    23043684.949    94360047.445        -302.456          41.000  
G28  21184698.301   111326341.230       -1118.816          46.000    21184687.919    86747757.452        -871.819          47.000  
G26  20389920.365   107149751.555         857.861          48.000    20389913.349    83493293.608         668.358          46.000  
G31  20634872.130   108436981.819         240.020          47.000    20634861.422    84496308.225         187.003          45.000  
G04  24680281.088   129695750.903        3197.098          35.000    24680278.067   101061623.992        2491.172          41.000  
C33  22468320.122   116998434.467        -515.676          50.000                                                                  
C06  36563195.994   190394156.158        -172.781          45.000    36563178.536   147224767.731        -133.622          48.000  
C14  22541665.322   117380354.337       -2106.499          46.000    22541650.495    90765882.385       -1629.050          51.000  
C16  36989160.330   192612260.054        -206.919          48.000    36989148.369   148939969.798        -160.008          48.000  
C24  21793358.844   113483740.087        -786.867          50.000                                                                  
C26  24276641.921   126414841.572       -2547.958          45.000                                                                  
G03  22887831.313   120276367.655          91.925          39.000    22887825.492    93721815.470          71.752          39.000  
G16  22609512.511   118813791.440        3089.147          41.000                                                                  
C09  37715287.820   196393402.414        -163.392          43.000    37715273.909   151863778.602        -126.270          48.000  
C25  23744352.660   123643074.223        1636.371          46.000                                                                  
C13  38230636.028   199076953.420       -2231.374          42.000    38230630.003   153938904.749       -1725.332          43.000  
C08  39048149.659   203333961.421       -2440.976          36.000    39048137.838   157230651.524       -1887.276          43.000  
C10  40552343.384                         926.393          29.000    40552344.737   163287530.366         716.539          36.000  
C35  25981338.267   135291648.402         527.624          39.000                                                                  
G25  24165078.159   126988340.383       -3901.594          37.000    24165071.656    98951912.962       -3040.505          37.000  
> 2025 10 30 06 15 02.0800000  0 21                     
G32  21852343.661   114834841.366       -2784.262          46.000    21852337.164    89481666.652       -2169.373          43.000  
G29  23043696.750   121095455.734        -388.084          42.000    23043687.912    94360059.545        -302.602          41.000  
G28  21184706.804   111326385.979       -1118.794          46.000    21184696.433    86747792.322        -871.810          47.000  
G26  20389913.839   107149717.246         857.731          48.000    20389906.798    83493266.864         668.494          46.000  
G31  20634870.287   108436972.215         240.051          47.000    20634859.600    84496300.746         186.905          45.000  
G04  24680256.759   129695623.015        3197.195          35.000    24680253.742   101061524.353        2491.006          41.000  
C33  22468324.057   116998455.100        -515.804          50.000                                                                  
C06  36563197.313   190394163.069        -172.780          45.000    36563179.837   147224773.082        -133.765          48.000  
C14  22541681.491   117380438.598       -2106.500          46.000    22541666.705    90765947.540       -1628.997          51.000  
C16  36989161.943   192612268.328        -206.894          48.000    36989149.919   148939976.197        -160.015          48.000  
C24  21793364.878   113483771.562        -786.897          50.000                                                                  
C26  24276661.498   126414943.481       -2547.827          45.000                                                                  
G03  22887830.601   120276363.978          91.904          39.000    22887824.804    93721812.617          71.431          39.000  
G16  22609488.994   118813667.878        3089.051          41.000                                                                  
C09  37715289.078   196393408.947        -163.384          43.000    37715275.157   151863783.655        -126.322          48.000  
C25  23744340.087   123643008.774        1636.243          46.000                                                                  
C13  38230653.172   199077042.672       -2231.387          42.000    38230647.129   153938973.772       -1725.524          43.000  
C08  39048168.433   203334059.041       -2440.743          36.000    39048156.598   157230727.025       -1887.473          43.000  
C10  40552336.105                         926.657          29.000    40552337.615   163287501.707         716.469          36.000  
C35  25981334.192   135291627.295         527.674          39.000                                                                  
G25  24165107.846   126988496.479       -3902.167          37.000    24165101.359    98952034.569       -3040.316          37.000  
> 2025 10 30 06 15 02.1200000  0 21                     
G32  21852364.866   114834952.741       -2784.373          46.000    21852358.386    89481753.439       -2169.630          43.000  
G29  23043699.685   121095471.249        -388.031          42.000    23043690.859    94360071.641        -302.508          41.000  
G28  21184715.319   111326430.733       -1118.881          46.000    21184704.962    86747827.192        -871.795          47.000  
G26  20389907.298   107149682.933         857.763          48.000    20389900.253    83493240.128         668.444          46.000  
G31  20634868.439   108436962.612         240.044          47.000    20634857.785    84496293.266         186.906          45.000  
G04  24680232.419   129695495.106        3197.626          35.000    24680229.394   101061424.686        2491.355          41.000  
C33  22468328.012   116998475.731        -515.820          50.000                                                                  
C06  36563198.633   190394169.978        -172.740          45.000    36563181.173   147224778.427        -133.711          48.000  
C14  22541697.667   117380522.870       -2106.729          46.000    22541682.910    90766012.705       -1629.116          51.000  
C16  36989163.553   192612276.603        -206.888          48.000    36989151.512   148939982.602        -160.112          48.000  
C24  21793370.943   113483803.035        -786.863          50.000                                                                  
C26  24276681.072   126415045.395       -2547.820          45.000                                                                  
G03  22887829.911   120276360.305          91.797          39.000    22887824.112    93721809.765          71.247          39.000  
G16  22609465.480   118813544.318        3089.009          41.000                                                                  
C09  37715290.353   196393415.474        -163.275          43.000    37715276.414   151863788.703        -126.251          48.000  
C25  23744327.519   123642943.325        1636.200          46.000                                                                  
C13  38230670.323   199077131.920       -2231.287          42.000    38230664.295   153939042.801       -1725.765          43.000  
C08  39048187.183   203334156.686       -2441.053          36.000    39048175.380   157230802.527       -1887.577          42.000  
C10  40552329.458                         926.694          29.000    40552330.502   163287473.084         715.772          36.000  
C35  25981330.144   135291606.203         527.403          39.000                                                                  
G25  24165137.544   126988652.562       -3902.279          37.000    24165131.064    98952156.178       -3040.261          37.000  
> 2025 10 30 06 15 02.1600000  0 21                     
G32  21852386.070   114835064.118       -2784.458          46.000    21852379.600    89481840.232       -2169.853          43.000  
G29  23043702.638   121095486.763        -387.908          42.000    23043693.788    94360083.733        -302.380          41.000  
G28  21184723.814   111326475.483       -1118.839          46.000    21184713.475    86747862.063        -871.816          47.000  
G26  20389900.777   107149648.624         857.732          48.000    20389893.733    83493213.394         668.370          46.000  
G31  20634866.623   108436953.008         240.044          47.000    20634855.972    84496285.781         187.023          45.000  
G04  24680208.061   129695367.211        3197.573          35.000    24680205.043   101061325.015        2491.685          41.000  
C33  22468332.015   116998496.362        -515.813          50.000                                                                  
C06  36563199.956   190394176.906        -173.052          45.000    36563182.516   147224783.776        -133.757          48.000  
C14  22541713.841   117380607.134       -2106.714          46.000    22541699.113    90766077.863       -1629.063          51.000  
C16  36989165.146   192612284.885        -207.024          48.000    36989153.096   148939989.005        -160.161          48.000  
C24  21793377.012   113483834.510        -786.875          50.000                                                                  
C26  24276700.623   126415147.297       -2547.630          45.000                                                                  
G03  22887829.240   120276356.639          91.668          39.000    22887823.403    93721806.902          71.363          39.000  
G16  22609441.974   118813420.756        3089.030          41.000                                                                  
C09  37715291.609   196393422.002        -163.219          43.000    37715277.667   151863793.758        -126.341          48.000  
C25  23744314.954   123642877.874        1636.218          46.000                                                                  
C13  38230687.467   199077221.184       -2231.517          42.000    38230681.435   153939111.810       -1725.445          43.000  
C08  39048205.947   203334254.319       -2440.940          36.000    39048194.138   157230878.016       -1887.390          42.000  
C10  40552321.894                         926.337          29.000    40552323.383   163287444.440         715.840          36.000  
C35  25981326.090   135291585.103         527.386          39.000                                                                  
G25  24165167.244   126988808.627       -3901.995          37.000    24165160.776    98952277.809       -3040.653          37.000  
> 2025 10 30 06 15 02.2000000  0 21                     
G32  21852407.234   114835175.481       -2784.245          46.000    21852400.781    89481927.017       -2169.799          43.000  
G29  23043705.576   121095502.274        -387.809          42.000    23043696.731    94360095.812        -302.080          41.000  
G28  21184732.339   111326520.232       -1118.770          46.000    21184722.022    86747896.934        -871.821          47.000  
G26  20389894.238   107149614.307         857.868          48.000    20389887.209    83493186.658         668.358          46.000  
G31  20634864.797   108436943.403         240.069          47.000    20634854.113    84496278.292         187.159          45.000  
G04  24680183.704   129695239.289        3197.914          35.000    24680180.695   101061225.359        2491.529          41.000  
C33  22468335.985   116998516.993        -515.812          50.000                                                                  
C06  36563201.281   190394183.820        -172.986          45.000    36563183.874   147224789.120        -133.704          48.000  
C14  22541730.066   117380691.403       -2106.744          46.000    22541715.278    90766143.021       -1628.999          51.000  
C16  36989166.781   192612293.156        -206.873          48.000    36989154.691   148939995.400        -159.969          48.000  
C24  21793383.056   113483865.982        -786.828          50.000                                                                  
C26  24276720.190   126415249.212       -2547.764          45.000                                                                  
G03  22887828.505   120276352.961          91.833          39.000    22887822.714    93721804.029          71.672          39.000  
G16  22609418.472   118813297.195        3089.004          41.000                                                                  
C09  37715292.877   196393428.530        -163.208          43.000    37715278.917   151863798.799        -126.124          48.000  
C25  23744302.394   123642812.419        1636.334          46.000                                                                  
C13  38230704.610   199077310.440       -2231.478          42.000    38230698.576   153939180.811       -1725.134          43.000  
C08  39048224.720   203334351.938       -2440.644          36.000    39048212.888   157230953.516       -1887.464          42.000  
C10  40552314.840                         926.538          29.000    40552316.259   163287415.750         716.738          36.000  
C35  25981322.061   135291564.008         527.325          39.000                                                                  
G25  24165196.953   126988964.707       -3902.003          37.000    24165190.478    98952399.423       -3040.549          37.000  
> 2025 10 30 06 15 02.2400000  0 21                     
G32  21852428.427   114835286.843       -2784.076          46.000    21852421.975    89482013.789       -2169.520          43.000  
G29  23043708.538   121095517.785        -387.773          42.000    23043699.684    94360107.899        -302.090          41.000  
G28  21184740.847   111326564.981       -1118.751          46.000    21184730.537    86747931.816        -871.983          47.000  
G26  20389887.691   107149579.996         857.793          48.000    20389880.673    83493159.924         668.297          46.000  
G31  20634862.974   108436933.794         240.155          47.000    20634852.287    84496270.807         187.183          45.000  
G04  24680159.370   129695111.430        3196.878          35.000    24680156.370   101061125.701        2491.470          41.000  
C33  22468339.938   116998537.625        -515.811          50.000                                                                  
C06  36563202.606   190394190.735        -172.964          45.000    36563185.204   147224794.462        -133.632          48.000  
C14  22541746.278   117380775.668       -2106.705          46.000    22541731.460    90766208.175       -1628.911          51.000  
C16  36989168.403   192612301.425        -206.764          48.000    36989156.284   148940001.794        -159.889          48.000  
C24  21793389.117   113483897.456        -786.857          50.000                                                                  
C26  24276739.763   126415351.124       -2547.790          45.000                                                                  
G03  22887827.798   120276349.268          92.223          38.000    22887822.018    93721801.175          71.482          39.000  
G16  22609394.934   118813173.636        3088.907          41.000                                                                  
C09  37715294.147   196393435.055        -163.159          43.000    37715280.173   151863803.845        -126.107          48.000  
C25  23744289.810   123642746.966        1636.340          46.000                                                                  
C13  38230721.766   199077399.685       -2231.292          42.000    38230715.700   153939249.825       -1725.231          44.000  
C08  39048243.447   203334449.560       -2440.615          36.000    39048231.662   157231029.003       -1887.277          42.000  
C10  40552307.841                         926.588          29.000    40552309.121   163287387.086         716.714          36.000  
C35  25981318.002   135291542.908         527.422          39.000                                                                  
G25  24165226.662   126989120.795       -3902.167          37.000    24165220.171    98952521.046       -3040.619          37.000  
> 2025 10 30 06 15 02.2800000  0 21                     
G32  21852449.637   114835398.202       -2783.992          46.000    21852443.176    89482100.564       -2169.393          43.000  
G29  23043711.468   121095533.299        -387.825          42.000    23043702.621    94360119.967        -301.817          41.000  
G28  21184749.373   111326609.728       -1118.698          46.000    21184739.050    86747966.678        -871.741          47.000  
G26  20389881.159   107149545.684         857.775          48.000    20389874.122    83493133.193         668.223          46.000  
G31  20634861.170   108436924.195         240.025          47.000    20634850.451    84496263.325         187.115          45.000  
G04  24680135.068   129694983.526        3197.277          35.000    24680132.055   101061026.058        2491.183          41.000  
C33  22468343.927   116998558.254        -515.760          50.000                                                                  
C06  36563203.946   190394197.639        -172.738          45.000    36563186.516   147224799.812        -133.739          48.000  
C14  22541762.474   117380859.932       -2106.647          46.000    22541747.632    90766273.337       -1629.033          51.000  
C16  36989169.964   192612309.700        -206.831          48.000    36989157.916   148940008.192        -159.912          48.000  
C24  21793395.184   113483928.925        -786.766          50.000                                                                  
C26  24276759.322   126415453.037       -2547.843          45.000                                                                  
G03  22887827.091   120276345.612          91.677          38.000    22887821.318    93721798.309          71.564          39.000  
G16  22609371.423   118813050.057        3089.239          41.000                                                                  
C09  37715295.409   196393441.584        -163.224          43.000    37715281.404   151863808.894        -126.179          48.000  
C25  23744277.238   123642681.509        1636.383          46.000                                                                  
C13  38230738.898   199077488.939       -2231.292          42.000    38230732.846   153939318.828       -1725.101          44.000  
C08  39048262.209   203334547.184       -2440.650          36.000    39048250.390   157231104.496       -1887.284          42.000  
C10  40552301.194                         926.787          29.000    40552301.991   163287358.424         716.580          36.000  
C35  25981313.955   135291521.791         527.780          39.000                                                                  
G25  24165256.371   126989276.839       -3901.385          37.000    24165249.876    98952642.664       -3040.562          37.000  
> 2025 10 30 06 15 02.3200000  0 21                     
G32  21852470.868   114835509.579       -2784.258          46.000    21852464.383    89482187.335       -2169.296          43.000  
G29  23043714.426   121095548.823        -388.019          42.000    23043705.570    94360132.060        -302.161          41.000  
G28  21184757.881   111326654.482       -1118.779          46.000    21184747.555    86748001.547        -871.714          47.000  
G26  20389874.618   107149511.377         857.689          48.000    20389867.605    83493106.453         668.384          46.000  
G31  20634859.325   108436914.595         239.951          47.000    20634848.640    84496255.850         186.936          45.000  
G04  24680110.709   129694855.636        3197.339          35.000    24680107.716   101060926.407        2491.151          41.000  
C33  22468347.857   116998578.892        -515.895          50.000                                                                  
C06  36563205.307   190394204.556        -172.856          45.000    36563187.845   147224805.161        -133.770          48.000  
C14  22541778.654   117380944.195       -2106.597          46.000    22541763.846    90766338.499       -1629.071          51.000  
C16  36989171.512   192612317.977        -206.888          48.000    36989159.517   148940014.593        -160.009          48.000  
C24  21793401.198   113483960.397        -786.815          50.000                                                                  
C26  24276778.894   126415554.955       -2547.983          45.000                                                                  
G03  22887826.411   120276341.952          91.492          38.000    22887820.625    93721795.443          71.658          39.000  
G16  22609347.897   118812926.493        3089.159          41.000                                                                  
C09  37715296.664   196393448.117        -163.319          43.000    37715282.662   151863813.942        -126.206          48.000  
C25  23744264.666   123642616.058        1636.316          46.000                                                                  
C13  38230756.052   199077578.193       -2231.343          42.000    38230749.982   153939387.851       -1725.433          44.000  
C08  39048280.950   203334644.833       -2441.059          36.000    39048269.135   157231179.973       -1887.048          42.000  
C10  40552294.170                         926.311          29.000    40552294.881   163287329.778         716.232          36.000  
C35  25981309.914   135291500.702         527.449          39.000                                                                  
G25  24165286.045   126989432.909       -3901.525          37.000    24165279.576    98952764.253       -3039.938          37.000  
> 2025 10 30 06 15 02.3600000  0 21                     
G32  21852492.048   114835620.946       -2784.236          46.000    21852485.581    89482274.120       -2169.488          43.000  
G29  23043717.399   121095564.349        -388.129          42.000    23043708.523    94360144.173        -302.673          41.000  
G28  21184766.406   111326699.228       -1118.691          46.000    21184756.075    86748036.415        -871.710          47.000  
G26  20389868.081   107149477.066         857.714          48.000    20389861.060    83493079.715         668.451          46.000  
G31  20634857.509   108436904.999         239.884          47.000    20634846.799    84496248.367         186.968          45.000  
G04  24680086.370   129694727.744        3197.350          35.000    24680083.399   101060826.757        2491.143          41.000  
C33  22468351.791   116998599.526        -515.892          50.000                                                                  
C06  36563206.629   190394211.467        -172.815          45.000    36563189.182   147224810.498        -133.556          48.000  
C14  22541794.814   117381028.468       -2106.749          46.000    22541780.024    90766403.659       -1629.056          51.000  
C16  36989173.093   192612326.246        -206.811          48.000    36989161.090   148940020.998        -160.118          48.000  
C24  21793407.252   113483991.870        -786.840          50.000                                                                  
C26  24276798.466   126415656.871       -2547.984          45.000                                                                  
G03  22887825.711   120276338.292          91.402          38.000    22887819.924    93721792.577          71.630          39.000  
G16  22609324.389   118812802.941        3088.885          41.000                                                                  
C09  37715297.945   196393454.650        -163.367          43.000    37715283.905   151863818.998        -126.395          48.000  
C25  23744252.075   123642550.610        1636.212          46.000                                                                  
C13  38230773.155   199077667.442       -2231.287          42.000    38230767.101   153939456.872       -1725.574          43.000  
C08  39048299.702   203334742.466       -2441.018          36.000    39048287.890   157231255.481       -1887.470          42.000  
C10  40552287.328                         926.781          29.000    40552287.744   163287301.128         716.108          36.000  
C35  25981305.855   135291479.594         527.563          39.000                                                                  
G25  24165315.773   126989588.983       -3901.577          37.000    24165309.281    98952885.877       -3040.334          37.000  
> 2025 10 30 06 15 02.4000000  0 21                     
G32  21852513.250   114835732.316       -2784.273          46.000    21852506.772    89482360.906       -2169.625          43.000  
G29  23043720.341   121095579.872        -388.133          42.000    23043711.484    94360156.277        -302.729          41.000  
G28  21184774.922   111326743.982       -1118.816          46.000    21184764.593    86748071.287        -871.780          47.000  
G26  20389861.527   107149442.751         857.825          48.000    20389854.543    83493052.982         668.365          46.000  
G31  20634855.677   108436895.387         240.162          47.000    20634844.976    84496240.880         187.091          45.000  
G04  24680062.028   129694599.863        3197.103          35.000    24680059.066   101060727.092        2491.452          41.000  
C33  22468355.785   116998620.159        -515.872          50.000                                                                  
C06  36563207.945   190394218.384        -172.867          45.000    36563190.467   147224815.844        -133.613          48.000  
C14  22541810.994   117381112.741       -2106.857          46.000    22541796.192    90766468.820       -1629.068          51.000  
C16  36989174.663   192612334.521        -206.851          48.000    36989162.669   148940027.391        -159.974          48.000  
C24  21793413.305   113484023.346        -786.878          50.000                                                                  
C26  24276818.043   126415758.771       -2547.672          45.000                                                                  
G03  22887825.021   120276334.629          91.404          38.000    22887819.219    93721789.727          71.289          39.000  
G16  22609300.864   118812679.381        3088.896          41.000                                                                  
C09  37715299.218   196393461.173        -163.214          43.000    37715285.143   151863824.044        -126.239          48.000  
C25  23744239.502   123642485.157        1636.237          46.000                                                                  
C13  38230790.306   199077756.681       -2231.045          42.000    38230784.255   153939525.888       -1725.503          43.000  
C08  39048318.480   203334840.086       -2440.649          36.000    39048306.663   157231330.976       -1887.513          42.000  
C10  40552280.246                         926.679          29.000    40552280.642   163287272.457         716.488          36.000  
C35  25981301.790   135291458.513         527.167          39.000                                                                  
G25  24165345.487   126989745.061       -3901.804          37.000    24165338.977    98953007.485       -3040.310          37.000  
> 2025 10 30 06 15 02.4400000  0 21                     
G32  21852534.448   114835843.684       -2784.244          46.000    21852527.984    89482447.692       -2169.650          43.000  
G29  23043723.292   121095595.388        -388.026          42.000    23043714.423    94360168.359        -302.342          41.000  
G28  21184783.448   111326788.735       -1118.860          46.000    21184773.109    86748106.153        -871.725          47.000  
G26  20389855.000   107149408.442         857.738          48.000    20389848.023    83493026.254         668.198          46.000  
G31  20634853.867   108436885.783         240.143          47.000    20634843.161    84496233.394         187.109          45.000  
G04  24680037.709   129694471.962        3197.371          35.000    24680034.720   101060627.422        2491.689          41.000  
C33  22468359.743   116998640.794        -515.899          50.000                                                                  
C06  36563209.291   190394225.295        -172.822          45.000    36563191.781   147224821.182        -133.502          48.000  
C14  22541827.161   117381197.000       -2106.639          46.000    22541812.368    90766533.972       -1628.916          51.000  
C16  36989176.233   192612342.796        -206.876          48.000    36989164.281   148940033.782        -159.841          48.000  
C24  21793419.332   113484054.824        -786.976          50.000                                                                  
C26  24276837.609   126415860.675       -2547.594          45.000                                                                  
G03  22887824.319   120276330.973          91.332          38.000    22887818.525    93721786.881          71.086          39.000  
G16  22609277.322   118812555.814        3089.064          41.000                                                                  
C09  37715300.447   196393467.699        -163.171          43.000    37715286.376   151863829.089        -126.150          48.000  
C25  23744226.922   123642419.707        1636.237          46.000                                                                  
C13  38230807.440   199077845.936       -2231.227          42.000    38230801.393   153939594.903       -1725.453          43.000  
C08  39048337.251   203334937.697       -2440.354          36.000    39048325.418   157231406.474       -1887.581          42.000  
C10  40552273.438                         926.629          29.000    40552273.526   163287243.783         716.818          36.000  
C35  25981297.729   135291437.412         527.321          39.000                                                                  
G25  24165375.142   126989901.117       -3901.586          37.000    24165368.686    98953129.086       -3040.136          37.000  
> 2025 10 30 06 15 02.4800000  0 21                     
G32  21852555.613   114835955.043       -2784.088          46.000    21852549.191    89482534.474       -2169.628          43.000  
G29  23043726.238   121095610.903        -387.939          42.000    23043717.371    94360180.445        -302.193          41.000  
G28  21184791.973   111326833.475       -1118.639          46.000    21184781.630    86748141.030        -871.863          47.000  
G26  20389848.497   107149374.137         857.634          48.000    20389841.492    83492999.519         668.273          46.000  
G31  20634852.015   108436876.178         240.118          47.000    20634841.343    84496225.909         187.103          45.000  
G04  24680013.376   129694344.067        3197.435          35.000    24680010.393   101060527.773        2491.445          41.000  
C33  22468363.694   116998661.427        -515.865          50.000                                                                  
C06  36563210.620   190394232.195        -172.573          45.000    36563193.068   147224826.518        -133.387          48.000  
C14  22541843.321   117381281.263       -2106.571          46.000    22541828.559    90766599.126       -1628.848          51.000  
C16  36989177.829   192612351.059        -206.649          48.000    36989165.856   148940040.173        -159.752          48.000  
C24  21793425.383   113484086.295        -786.867          50.000                                                                  
C26  24276857.171   126415962.575       -2547.517          45.000                                                                  
G03  22887823.644   120276327.282          91.956          38.000    22887817.828    93721784.021          71.286          39.000  
G16  22609253.802   118812432.242        3089.200          42.000                                                                  
C09  37715301.724   196393474.214        -162.956          43.000    37715287.640   151863834.123        -125.892          48.000  
C25  23744214.369   123642354.248        1636.407          46.000                                                                  
C13  38230824.576   199077935.184       -2231.252          42.000    38230818.527   153939663.909       -1725.248          43.000  
C08  39048355.995   203335035.334       -2440.589          36.000    39048344.186   157231481.964       -1887.426          43.000  
C10  40552266.512                         925.889          29.000    40552266.387   163287215.112         716.874          36.000  
C35  25981293.651   135291416.307         527.531          39.000                                                                  
G25  24165404.866   126990057.209       -3902.091          37.000    24165398.378    98953250.720       -3040.633          37.000  
> 2025 10 30 06 15 02.5200000  0 21                     
G32  21852576.828   114836066.417       -2784.255          46.000    21852570.376    89482621.248       -2169.446          43.000  
G29  23043729.179   121095626.418        -387.896          42.000    23043720.317    94360192.531        -302.165          41.000  
G28  21184800.499   111326878.222       -1118.635          46.000    21184790.156    86748175.894        -871.714          47.000  
G26  20389841.961   107149339.826         857.696          48.000    20389834.972    83492972.784         668.335          46.000  
G31  20634850.207   108436866.573         240.093          47.000    20634839.514    84496218.422         187.133          45.000  
G04  24679989.044   129694216.185        3197.221          35.000    24679986.064   101060428.101        2491.709          41.000  
C33  22468367.661   116998682.059        -515.813          50.000                                                                  
C06  36563211.956   190394239.098        -172.550          45.000    36563194.393   147224831.859        -133.445          48.000  
C14  22541859.507   117381365.529       -2106.610          46.000    22541844.764    90766664.290       -1629.028          51.000  
C16  36989179.425   192612359.324        -206.583          48.000    36989167.395   148940046.561        -159.685          48.000  
C24  21793431.462   113484117.767        -786.822          50.000                                                                  
C26  24276876.741   126416064.480       -2547.571          45.000                                                                  
G03  22887822.953   120276323.605          92.038          38.000    22887817.136    93721781.161          71.437          39.000  
G16  22609230.308   118812308.678        3089.127          42.000                                                                  
C09  37715302.975   196393480.738        -163.031          43.000    37715288.872   151863839.160        -125.859          48.000  
C25  23744201.809   123642288.794        1636.365          46.000                                                                  
C13  38230841.727   199078024.431       -2231.208          42.000    38230835.653   153939732.909       -1725.057          43.000  
C08  39048374.738   203335132.964       -2440.715          36.000    39048362.926   157231557.455       -1887.325          42.000  
C10  40552259.587                         927.035          29.000    40552259.277   163287186.448         716.737          36.000  
C35  25981289.586   135291395.189         527.842          39.000                                                                  
G25  24165434.573   126990213.284       -3902.081          37.000    24165428.086    98953372.344       -3040.668          37.000  
> 2025 10 30 06 15 02.5600000  0 21                     
G32  21852598.006   114836177.785       -2784.261          45.000    21852591.549    89482708.037       -2169.653          43.000  
G29  23043732.137   121095641.934        -387.897          42.000    23043723.263    94360204.621        -302.158          41.000  
G28  21184809.007   111326922.972       -1118.705          46.000    21184798.657    86748210.766        -871.741          47.000  
G26  20389835.419   107149305.520         857.659          48.000    20389828.439    83492946.054         668.267          46.000  
G31  20634848.368   108436856.968         240.050          47.000    20634837.701    84496210.941         187.029          45.000  
G04  24679964.700   129694088.265        3197.696          35.000    24679961.741   101060328.453        2491.388          41.000  
C33  22468371.604   116998702.693        -515.841          50.000                                                                  
C06  36563213.248   190394246.006        -172.627          45.000    36563195.698   147224837.208        -133.638          48.000  
C14  22541875.662   117381449.803       -2106.769          46.000    22541860.945    90766729.447       -1628.975          51.000  
C16  36989181.028   192612367.593        -206.659          48.000    36989168.960   148940052.959        -159.871          48.000  
C24  21793437.507   113484149.239        -786.804          50.000                                                                  
C26  24276896.298   126416166.394       -2547.793          45.000                                                                  
G03  22887822.260   120276319.934          91.953          38.000    22887816.436    93721778.304          71.494          39.000  
G16  22609206.792   118812185.112        3089.147          42.000                                                                  
C09  37715304.225   196393487.258        -163.006          43.000    37715290.103   151863844.209        -126.118          48.000  
C25  23744189.229   123642223.330        1636.536          46.000                                                                  
C13  38230858.893   199078113.675       -2231.133          42.000    38230852.801   153939801.918       -1725.153          43.000  
C08  39048393.487   203335230.590       -2440.662          36.000    39048381.683   157231632.937       -1887.103          43.000  
C10  40552252.338                         927.300          29.000    40552252.170   163287157.804         716.286          36.000  
C35  25981285.518   135291374.089         527.641          39.000                                                                  
G25  24165464.284   126990369.343       -3901.781          37.000    24165457.801    98953493.955       -3040.432          37.000  
> 2025 10 30 06 15 02.6000000  0 21                     
G32  21852619.210   114836289.149       -2784.181          45.000    21852612.745    89482794.810       -2169.441          43.000  
G29  23043735.109   121095657.451        -387.923          42.000    23043726.204    94360216.713        -302.209          41.000  
G28  21184817.532   111326967.722       -1118.760          46.000    21184807.165    86748245.627        -871.603          47.000  
G26  20389828.871   107149271.203         857.838          48.000    20389821.907    83492919.316         668.384          46.000  
G31  20634846.526   108436847.356         240.198          47.000    20634835.905    84496203.464         186.924          45.000  
G04  24679940.382   129693960.381        3197.349          35.000    24679937.407   101060228.792        2491.416          41.000  
C33  22468375.538   116998723.328        -515.899          50.000                                                                  
C06  36563214.555   190394252.912        -172.648          45.000    36563197.006   147224842.552        -133.646          48.000  
C14  22541891.842   117381534.068       -2106.697          46.000    22541877.141    90766794.602       -1628.912          51.000  
C16  36989182.613   192612375.864        -206.765          48.000    36989170.541   148940059.359        -159.997          48.000  
C24  21793443.540   113484180.709        -786.766          50.000                                                                  
C26  24276915.852   126416268.301       -2547.774          45.000                                                                  
G03  22887821.549   120276316.252          92.039          38.000    22887815.730    93721775.443          71.587          39.000  
G16  22609183.273   118812061.555        3088.976          42.000                                                                  
C09  37715305.457   196393493.788        -163.171          43.000    37715291.335   151863849.260        -126.254          48.000  
C25  23744176.643   123642157.867        1636.627          46.000                                                                  
C13  38230876.043   199078202.913       -2231.004          42.000    38230869.921   153939870.925       -1725.197          43.000  
C08  39048412.254   203335328.252       -2441.286          36.000    39048400.453   157231708.422       -1887.071          43.000  
C10  40552245.414                         927.454          29.000    40552245.041   163287129.146         716.298          36.000  
C35  25981281.462   135291353.004         527.259          39.000                                                                  
G25  24165493.974   126990525.393       -3901.391          37.000    24165487.495    98953615.558       -3040.179          37.000  
> 2025 10 30 06 15 02.6400000  0 21                     
G32  21852640.396   114836400.523       -2784.332          45.000    21852633.944    89482881.596       -2169.568          43.000  
G29  23043738.069   121095672.971        -388.011          42.000    23043729.159    94360228.814        -302.448          41.000  
G28  21184826.020   111327012.463       -1118.633          46.000    21184815.683    86748280.496        -871.684          47.000  
G26  20389822.350   107149236.895         857.739          48.000    20389815.370    83492892.579         668.446          46.000  
G31  20634844.697   108436837.754         240.099          47.000    20634834.062    84496195.971         187.159          45.000  
G04  24679916.061   129693832.481        3197.427          35.000    24679913.070   101060129.125        2491.582          41.000  
C33  22468379.503   116998743.963        -515.904          50.000                                                                  
C06  36563215.868   190394259.822        -172.726          45.000    36563198.348   147224847.889        -133.512          48.000  
C14  22541908.036   117381618.337       -2106.716          46.000    22541893.325    90766859.760       -1628.945          51.000  
C16  36989184.214   192612384.136        -206.814          48.000    36989172.107   148940065.750        -159.876          48.000  
C24  21793449.547   113484212.186        -786.885          50.000                                                                  
C26  24276935.439   126416370.206       -2547.690          45.000                                                                  
G03  22887820.849   120276312.571          92.074          38.000    22887815.027    93721772.586          71.568          39.000  
G16  22609159.767   118811937.996        3088.920          42.000                                                                  
C09  37715306.721   196393500.307        -163.062          43.000    37715292.622   151863854.315        -126.384          48.000  
C25  23744164.070   123642092.416        1636.365          46.000                                                                  
C13  38230893.150   199078292.160       -2231.098          42.000    38230887.062   153939939.949       -1725.571          43.000  
C08  39048430.983   203335425.880       -2441.031          36.000    39048419.181   157231783.909       -1887.133          43.000  
C10  40552237.991                         926.686          29.000    40552237.905   163287100.479         716.484          36.000  
C35  25981277.374   135291331.915         527.156          39.000                                                                  
G25  24165523.671   126990681.464       -3901.578          37.000    24165517.199    98953737.165       -3040.135          37.000  
> 2025 10 30 06 15 02.6800000  0 21                     
G32  21852661.588   114836511.890       -2784.264          45.000    21852655.144    89482968.391       -2169.800          43.000  
G29  23043741.008   121095688.491        -388.074          42.000    23043732.110    94360240.906        -302.408          41.000  
G28  21184834.540   111327057.213       -1118.750          46.000    21184824.225    86748315.364        -871.719          47.000  
G26  20389815.810   107149202.594         857.547          48.000    20389808.831    83492865.842         668.439          46.000  
G31  20634842.874   108436828.154         240.000          47.000    20634832.239    84496188.494         186.998          45.000  
G04  24679891.731   129693704.563        3197.841          35.000    24679888.744   101060029.471        2491.394          41.000  
C33  22468383.470   116998764.598        -515.930          50.000                                                                  
C06  36563217.165   190394266.734        -172.816          45.000    36563199.657   147224853.223        -133.409          48.000  
C14  22541924.231   117381702.598       -2106.589          46.000    22541909.510    90766924.920       -1629.001          51.000  
C16  36989185.806   192612392.412        -206.915          48.000    36989173.710   148940072.139        -159.774          48.000  
C24  21793455.604   113484243.658        -786.851          50.000                                                                  
C26  24276954.991   126416472.120       -2547.839          45.000                                                                  
G03  22887820.177   120276308.916          91.558          38.000    22887814.329    93721769.739          71.276          39.000  
G16  22609136.269   118811814.432        3089.045          42.000                                                                  
C09  37715307.960   196393506.838        -163.215          43.000    37715293.861   151863859.353        -126.101          48.000  
C25  23744151.482   123642026.968        1636.176          46.000                                                                  
C13  38230910.289   199078381.413       -2231.272          42.000    38230904.186   153940008.964       -1725.517          43.000  
C08  39048449.727   203335523.481       -2440.397          36.000    39048437.938   157231859.400       -1887.189          43.000  
C10  40552231.128                         926.595          29.000    40552230.784   163287071.809         716.700          36.000  
C35  25981273.335   135291310.810         527.457          39.000                                                                  
G25  24165553.386   126990837.538       -3901.686          37.000    24165546.902    98953858.765       -3039.997          36.000  
> 2025 10 30 06 15 02.7200000  0 21                     
G32  21852682.809   114836623.269       -2784.432          45.000    21852676.346    89483055.177       -2169.734          43.000  
G29  23043743.966   121095704.016        -388.173          42.000    23043735.045    94360252.990        -302.161          41.000  
G28  21184843.050   111327101.962       -1118.775          46.000    21184832.738    86748350.240        -871.876          46.000  
G26  20389809.279   107149168.294         857.450          48.000    20389802.324    83492839.108         668.346          46.000  
G31  20634841.020   108436818.552         239.983          47.000    20634830.413    84496181.006         187.109          45.000  
G04  24679867.369   129693576.686        3197.304          35.000    24679864.403   101059929.815        2491.344          41.000  
C33  22468387.446   116998785.235        -515.954          50.000                                                                  
C06  36563218.491   190394273.643        -172.784          45.000    36563200.992   147224858.558        -133.354          48.000  
C14  22541940.428   117381786.860       -2106.521          46.000    22541925.725    90766990.080       -1629.033          51.000  
C16  36989187.421   192612400.676        -206.738          48.000    36989175.300   148940078.536        -159.861          48.000  
C24  21793461.649   113484275.130        -786.824          50.000                                                                  
C26  24276974.561   126416574.022       -2547.658          45.000                                                                  
G03  22887819.473   120276305.252          91.487          38.000    22887813.623    93721766.861          71.698          39.000  
G16  22609112.769   118811690.850        3089.405          42.000                                                                  
C09  37715309.202   196393513.352        -163.017          43.000    37715295.135   151863864.385        -125.842          48.000  
C25  23744138.918   123641961.513        1636.255          46.000                                                                  
C13  38230927.426   199078470.657       -2231.133          42.000    38230921.307   153940077.971       -1725.330          43.000  
C08  39048468.472   203335621.082       -2440.000          36.000    39048456.690   157231934.888       -1887.196          43.000  
C10  40552223.400                         927.463          29.000    40552223.681   163287043.162         716.395          36.000  
C35  25981269.266   135291289.717         527.392          39.000                                                                  
G25  24165583.060   126990993.603       -3901.618          37.000    24165576.602    98953980.374       -3040.083          36.000  
> 2025 10 30 06 15 02.7600000  0 21                     
G32  21852704.025   114836734.644       -2784.456          45.000    21852697.538    89483141.954       -2169.529          42.000  
G29  23043746.905   121095719.535        -388.070          42.000    23043737.976    94360265.083        -302.194          41.000  
G28  21184851.555   111327146.708       -1118.752          46.000    21184841.239    86748385.105        -871.751          46.000  
G26  20389802.756   107149133.988         857.555          48.000    20389795.787    83492812.375         668.260          46.000  
G31  20634839.190   108436808.952         239.977          47.000    20634828.611    84496173.518         187.189          45.000  
G04  24679843.040   129693448.786        3197.354          35.000    24679840.073   101059830.145        2491.561          41.000  
C33  22468391.408   116998805.874        -515.997          50.000                                                                  
C06  36563219.801   190394280.541        -172.546          45.000    36563202.338   147224863.906        -133.611          48.000  
C14  22541956.609   117381871.126       -2106.599          46.000    22541941.925    90767055.240       -1629.045          51.000  
C16  36989189.003   192612408.937        -206.618          48.000    36989176.915   148940084.925        -159.797          48.000  
C24  21793467.736   113484306.599        -786.746          50.000                                                                  
C26  24276994.139   126416675.929       -2547.677          45.000                                                                  
G03  22887818.759   120276301.605          91.132          39.000    22887812.937    93721764.016          71.292          39.000  
G16  22609089.244   118811567.268        3089.602          42.000                                                                  
C09  37715310.460   196393519.865        -162.841          43.000    37715296.372   151863869.429        -125.963          48.000  
C25  23744126.349   123641896.052        1636.432          46.000                                                                  
C13  38230944.565   199078559.903       -2231.147          42.000    38230938.460   153940146.984       -1725.349          43.000  
C08  39048487.231   203335718.694       -2440.031          36.000    39048475.430   157232010.358       -1886.843          43.000  
C10  40552216.123                         925.754          29.000    40552216.584   163287014.529         715.926          34.000  
C35  25981265.197   135291268.607         527.592          39.000                                                                  
G25  24165612.730   126991149.687       -3901.932          37.000    24165606.309    98954102.002       -3040.510          36.000  
> 2025 10 30 06 15 02.8000000  0 21                     
G32  21852725.204   114836846.020       -2784.477          45.000    21852718.730    89483228.732       -2169.449          42.000  
G29  23043749.836   121095735.049        -387.931          42.000    23043740.936    94360277.179        -302.328          41.000  
G28  21184860.075   111327191.459       -1118.820          46.000    21184849.765    86748419.979        -871.836          46.000  
G26  20389796.206   107149099.676         857.716          48.000    20389789.272    83492785.645         668.211          46.000  
G31  20634837.345   108436799.344         240.106          47.000    20634826.799    84496166.049         186.844          45.000  
G04  24679818.701   129693320.918        3196.848          35.000    24679815.736   101059730.483        2491.552          41.000  
C33  22468395.369   116998826.515        -516.021          50.000                                                                  
C06  36563221.149   190394287.444        -172.548          45.000    36563203.696   147224869.247        -133.619          48.000  
C14  22541972.810   117381955.393       -2106.689          46.000    22541958.108    90767120.410       -1629.228          51.000  
C16  36989190.594   192612417.197        -206.511          48.000    36989178.522   148940091.326        -159.980          48.000  
C24  21793473.761   113484338.073        -786.820          50.000                                                                  
C26  24277013.692   126416777.840       -2547.758          45.000                                                                  
G03  22887818.063   120276297.947          91.245          39.000    22887812.244    93721761.150          71.549          39.000  
G16  22609065.718   118811443.698        3089.430          42.000                                                                  
C09  37715311.703   196393526.390        -163.035          43.000    37715297.646   151863874.470        -126.035          48.000  
C25  23744113.781   123641830.590        1636.530          46.000                                                                  
C13  38230961.712   199078649.139       -2230.960          42.000    38230955.582   153940215.998       -1725.412          43.000  
C08  39048505.995   203335816.317       -2440.360          36.000    39048494.187   157232085.846       -1887.030          43.000  
C10  40552209.027                         925.284          29.000    40552209.466   163286985.868         716.193          34.000  
C35  25981261.127   135291247.512         527.464          39.000                                                                  
G25  24165642.425   126991305.718       -3901.177          37.000    24165636.014    98954223.617       -3040.514          36.000  
> 2025 10 30 06 15 02.8400000  0 21                     
G32  21852746.375   114836957.388       -2784.256          45.000    21852739.901    89483315.508       -2169.417          42.000  
G29  23043752.799   121095750.568        -387.952          42.000    23043743.900    94360289.289        -302.667          41.000  
G28  21184868.609   111327236.216       -1118.928          46.000    21184858.280    86748454.843        -871.718          46.000  
G26  20389789.666   107149065.365         857.783          48.000    20389782.737    83492758.920         668.076          46.000  
G31  20634835.482   108436789.732         240.248          47.000    20634824.956    84496158.568         186.888          45.000  
G04  24679794.364   129693193.011        3197.221          35.000    24679791.417   101059630.825        2491.507          41.000  
C33  22468399.358   116998847.153        -516.014          50.000                                                                  
C06  36563222.488   190394294.352        -172.664          45.000    36563205.052   147224874.598        -133.746          48.000  
C14  22541988.957   117382039.668       -2106.879          46.000    22541974.292    90767185.582       -1629.351          50.000  
C16  36989192.158   192612425.466        -206.638          48.000    36989180.117   148940097.721        -159.956          48.000  
C24  21793479.784   113484369.551        -786.924          50.000                                                                  
C26  24277033.273   126416879.746       -2547.717          45.000                                                                  
G03  22887817.356   120276294.298          91.147          39.000    22887811.529    93721758.293          71.458          39.000  
G16  22609042.211   118811320.129        3089.276          42.000                                                                  
C09  37715312.951   196393532.908        -162.983          43.000    37715298.896   151863879.522        -126.237          48.000  
C25  23744101.176   123641765.139        1636.365          46.000                                                                  
C13  38230978.873   199078738.381       -2230.987          42.000    38230972.733   153940284.999       -1725.168          43.000  
C08  39048524.731   203335913.943       -2440.619          36.000    39048512.900   157232161.335       -1887.199          43.000  
C10  40552201.632                         925.507          29.000    40552202.378   163286957.248         715.729          34.000  
C35  25981257.059   135291226.412         527.509          39.000                                                                  
G25  24165672.143   126991461.782       -3901.318          37.000    24165665.716    98954345.229       -3040.375          36.000  
> 2025 10 30 06 15 02.8800000  0 21                     
G32  21852767.552   114837068.748       -2784.010          44.000    21852761.117    89483402.285       -2169.387          42.000  
G29  23043755.778   121095766.095        -388.103          42.000    23043746.855    94360301.391        -302.649          41.000  
G28  21184877.124   111327280.960       -1118.762          46.000    21184866.779    86748489.704        -871.592          46.000  
G26  20389783.161   107149031.055         857.776          48.000    20389776.196    83492732.183         668.305          46.000  
G31  20634833.669   108436780.124         240.229          47.000    20634823.126    84496151.078         187.116          45.000  
G04  24679770.022   129693065.095        3197.678          35.000    24679767.092   101059531.155        2491.615          41.000  
C33  22468403.299   116998867.783        -515.833          50.000                                                                  
C06  36563223.823   190394301.252        -172.549          45.000    36563206.374   147224879.934        -133.547          48.000  
C14  22542005.153   117382123.946       -2106.975          46.000    22541990.465    90767250.750       -1629.310          50.000  
C16  36989193.700   192612433.736        -206.721          48.000    36989181.710   148940104.109        -159.807          48.000  
C24  21793485.852   113484401.025        -786.936          50.000                                                                  
C26  24277052.833   126416981.643       -2547.516          45.000                                                                  
G03  22887816.657   120276290.629          91.476          39.000    22887810.846    93721755.446          71.239          39.000  
G16  22609018.712   118811196.566        3089.062          42.000                                                                  
C09  37715314.211   196393539.436        -163.149          43.000    37715300.158   151863884.567        -126.175          48.000  
C25  23744088.628   123641699.678        1636.469          46.000                                                                  
C13  38230996.008   199078827.624       -2231.043          42.000    38230989.888   153940354.011       -1725.257          43.000  
C08  39048543.465   203336011.555       -2440.475          36.000    39048531.663   157232236.829       -1887.333          41.000  
C10  40552194.673                         925.690          29.000    40552195.290   163286928.574         716.471          34.000  
C35  25981252.983   135291205.315         527.465          39.000                                                                  
G25  24165701.852   126991617.851       -3901.516          37.000    24165695.425    98954466.828       -3040.046          36.000  
> 2025 10 30 06 15 02.9200000  0 21                     
G32  21852788.719   114837180.108       -2783.909          44.000    21852782.291    89483489.050       -2169.166          42.000  
G29  23043758.727   121095781.616        -388.102          42.000    23043749.809    94360313.485        -302.465          41.000  
G28  21184885.612   111327325.700       -1118.579          46.000    21184875.292    86748524.579        -871.764          46.000  
G26  20389776.651   107148996.752         857.622          48.000    20389769.667    83492705.450         668.354          46.000  
G31  20634831.841   108436770.517         240.203          47.000    20634821.307    84496143.594         187.116          45.000  
G04  24679745.679   129692937.201        3197.463          36.000    24679742.760   101059431.515        2491.168          41.000  
C33  22468407.275   116998888.413        -515.753          50.000                                                                  
C06  36563225.151   190394308.162        -172.704          45.000    36563207.703   147224885.266        -133.345          48.000  
C14  22542021.353   117382208.221       -2106.965          46.000    22542006.649    90767315.906       -1629.053          50.000  
C16  36989195.294   192612441.999        -206.662          48.000    36989183.305   148940110.494        -159.672          48.000  
C24  21793491.914   113484432.493        -786.783          50.000                                                                  
C26  24277072.383   126417083.538       -2547.405          45.000                                                                  
G03  22887815.988   120276286.963          91.631          38.000    22887810.166    93721752.588          71.413          39.000  
G16  22608995.193   118811073.009        3088.908          42.000                                                                  
C09  37715315.472   196393545.954        -163.071          43.000    37715301.379   151863889.599        -125.902          48.000  
C25  23744076.021   123641634.225        1636.359          46.000                                                                  
C13  38231013.151   199078916.868       -2231.100          42.000    38231007.041   153940423.034       -1725.493          43.000  
C08  39048562.191   203336109.166       -2440.448          36.000    39048550.399   157232312.332       -1887.534          41.000  
C10  40552187.811                         925.990          29.000    40552188.153   163286899.894         716.971          34.000  
C35  25981248.908   135291184.204         527.658          39.000                                                                  
G25  24165731.570   126991773.923       -3901.692          37.000    24165725.122    98954588.437       -3040.079          36.000  
> 2025 10 30 06 15 02.9600000  0 21                     
G32  21852809.921   114837291.485       -2784.219          44.000    21852803.493    89483575.846       -2169.630          41.000  
G29  23043761.680   121095797.141        -388.107          42.000    23043752.746    94360325.569        -302.177          41.000  
G28  21184894.134   111327370.459       -1118.846          46.000    21184883.793    86748559.446        -871.770          46.000  
G26  20389770.150   107148962.450         857.517          48.000    20389763.151    83492678.717         668.329          46.000  
G31  20634830.022   108436760.918         239.994          47.000    20634819.474    84496136.111         187.078          45.000  
G04  24679721.310   129692809.275        3197.938          36.000    24679718.419   101059331.855        2491.282          41.000  
C33  22468411.200   116998909.050        -515.860          50.000                                                                  
C06  36563226.476   190394315.069        -172.701          45.000    36563209.041   147224890.593        -133.182          48.000  
C14  22542037.536   117382292.499       -2106.995          46.000    22542022.828    90767381.060       -1628.873          50.000  
C16  36989196.875   192612450.266        -206.675          48.000    36989184.867   148940116.886        -159.742          48.000  
C24  21793497.976   113484463.968        -786.816          50.000                                                                  
C26  24277091.934   126417185.439       -2547.438          45.000                                                                  
G03  22887815.267   120276283.300          91.583          38.000    22887809.465    93721749.729          71.546          39.000  
G16  22608971.675   118810949.448        3088.907          42.000                                                                  
C09  37715316.733   196393552.475        -163.052          43.000    37715302.613   151863894.637        -125.893          48.000  
C25  23744063.450   123641568.775        1636.224          46.000                                                                  
C13  38231030.292   199079006.124       -2231.304          42.000    38231024.179   153940492.048       -1725.391          43.000  
C08  39048580.932   203336206.783       -2440.510          36.000    39048569.127   157232387.803       -1887.130          41.000  
C10  40552180.162                         926.091          29.000    40552181.022   163286871.220         717.048          34.000  
C35  25981244.848   135291163.122         527.217          39.000                                                                  
G25  24165761.279   126991929.986       -3901.657          37.000    24165754.801    98954710.032       -3039.922          36.000  
> 2025 10 30 06 15 03.0000000  0 21                     
G32  21852831.124   114837402.865       -2784.438          44.000    21852824.698    89483662.636       -2169.801          41.000  
G29  23043764.630   121095812.672        -388.250          42.000    23043755.692    94360337.678        -302.500          41.000  
G28  21184902.668   111327415.215       -1118.957          46.000    21184892.309    86748594.317        -871.822          46.000  
G26  20389763.610   107148928.156         857.345          48.000    20389756.620    83492651.992         668.125          46.000  
G31  20634828.213   108436751.327         239.779          47.000    20634817.637    84496128.626         187.109          45.000  
G04  24679696.977   129692681.390        3197.536          36.000    24679694.074   101059232.191        2491.462          41.000  
C33  22468415.111   116998929.698        -516.129          50.000                                                                  
C06  36563227.833   190394321.987        -172.953          45.000    36563210.362   147224895.939        -133.462          48.000  
C14  22542053.735   117382376.775       -2106.949          46.000    22542039.013    90767446.234       -1629.182          50.000  
C16  36989198.477   192612458.535        -206.713          48.000    36989186.410   148940123.278        -159.795          48.000  
C24  21793504.011   113484495.446        -786.929          50.000                                                                  
C26  24277111.499   126417287.357       -2547.795          44.000                                                                  
G03  22887814.557   120276279.629          91.656          38.000    22887808.761    93721746.875          71.500          39.000  
G16  22608948.189   118810825.896        3088.756          42.000                                                                  
C09  37715317.995   196393558.993        -163.021          43.000    37715303.867   151863899.675        -125.941          48.000  
C25  23744050.893   123641503.328        1636.102          46.000                                                                  
C13  38231047.438   199079095.378       -2231.395          42.000    38231041.334   153940561.059       -1725.342          43.000  
C08  39048599.675   203336304.450       -2441.371          35.000    39048587.884   157232463.306       -1887.393          41.000  
C10  40552172.440                         926.686          29.000    40552173.889   163286842.561         716.749          34.000  
C35  25981240.795   135291142.023         527.360          39.000                                                                  
G25  24165790.983   126992086.052       -3901.625          37.000    24165784.503    98954831.659       -3040.434          37.000  
> 2025 10 30 06 15 03.0400000  0 21                     
G32  21852852.310   114837514.243       -2784.508          44.000    21852845.891    89483749.427       -2169.843          41.000  
G29  23043767.579   121095828.203        -388.285          42.000    23043758.633    94360349.789        -302.725          41.000  
G28  21184911.182   111327459.967       -1118.895          46.000    21184900.823    86748629.194        -871.924          47.000  
G26  20389757.089   107148893.861         857.297          48.000    20389750.109    83492625.273         667.959          46.000  
G31  20634826.380   108436741.734         239.712          47.000    20634815.827    84496121.149         186.974          45.000  
G04  24679672.672   129692553.534        3196.689          36.000    24679669.738   101059132.522        2491.644          41.000  
C33  22468419.085   116998950.347        -516.258          50.000                                                                  
C06  36563229.177   190394328.887        -172.748          45.000    36563211.679   147224901.284        -133.590          48.000  
C14  22542069.919   117382461.048       -2106.892          46.000    22542055.226    90767511.407       -1629.338          50.000  
C16  36989200.074   192612466.807        -206.822          48.000    36989187.982   148940129.675        -159.903          48.000  
C24  21793510.097   113484526.925        -786.992          50.000                                                                  
C26  24277131.061   126417389.257       -2547.687          44.000                                                                  
G03  22887813.890   120276275.968          91.600          38.000    22887808.076    93721744.056          70.750          39.000  
G16  22608924.657   118810702.334        3088.908          42.000                                                                  
C09  37715319.238   196393565.521        -163.174          43.000    37715305.116   151863904.717        -126.036          48.000  
C25  23744038.320   123641437.874        1636.206          46.000                                                                  
C13  38231064.572   199079184.636       -2231.462          41.000    38231058.478   153940630.069       -1725.261          43.000  
C08  39048618.419   203336402.070       -2441.029          33.000    39048606.658   157232538.812       -1887.582          41.000  
C10  40552165.409                         927.387          29.000    40552166.793   163286813.920         716.208          34.000  
C35  25981236.765   135291120.928         527.354          39.000                                                                  
G25  24165820.681   126992242.122       -3901.726          37.000    24165814.192    98954953.264       -3040.366          37.000  
> 2025 10 30 06 15 03.0800000  0 21                     
G32  21852873.488   114837625.617       -2784.430          44.000    21852867.082    89483836.209       -2169.693          41.000  
G29  23043770.514   121095843.735        -388.322          42.000    23043761.590    94360361.894        -302.748          40.000  
G28  21184919.696   111327504.724       -1118.931          46.000    21184909.331    86748664.064        -871.858          47.000  
G26  20389750.551   107148859.561         857.384          48.000    20389743.586    83492598.548         667.973          46.000  
G31  20634824.541   108436732.132         239.892          47.000    20634814.007    84496113.669         186.924          45.000  
G04  24679648.328   129692425.627        3197.235          36.000    24679645.385   101059032.859        2491.643          41.000  
C33  22468423.084   116998970.991        -516.240          50.000                                                                  
C06  36563230.534   190394335.781        -172.491          45.000    36563212.987   147224906.624        -133.566          48.000  
C14  22542086.106   117382545.328       -2106.975          46.000    22542071.407    90767576.578       -1629.348          50.000  
C16  36989201.705   192612475.076        -206.800          48.000    36989189.583   148940136.061        -159.772          48.000  
C24  21793516.164   113484558.398        -786.911          50.000                                                                  
C26  24277150.631   126417491.171       -2547.821          44.000                                                                  
G03  22887813.186   120276272.323          91.203          38.000    22887807.384    93721741.202          71.021          39.000  
G16  22608901.130   118810578.781        3088.897          41.000                                                                  
C09  37715320.496   196393572.037        -163.053          43.000    37715306.349   151863909.761        -126.092          48.000  
C25  23744025.766   123641372.416        1636.395          46.000                                                                  
C13  38231081.719   199079273.882       -2231.331          41.000    38231075.630   153940699.083       -1725.287          43.000  
C08  39048637.167   203336499.713       -2441.246          33.000    39048625.380   157232614.312       -1887.588          41.000  
C10  40552158.843                         927.261          29.000    40552159.664   163286785.241         716.647          34.000  
C35  25981232.707   135291099.833         527.335          39.000                                                                  
G25  24165850.393   126992398.205       -3901.990          37.000    24165843.892    98955074.877       -3040.370          37.000  
> 2025 10 30 06 15 03.1200000  0 21                     
G32  21852894.657   114837736.981       -2784.200          43.000    21852888.270    89483922.990       -2169.597          40.000  
G29  23043773.460   121095859.272        -388.428          42.000    23043764.541    94360374.003        -302.829          40.000  
G28  21184928.224   111327549.479       -1118.928          46.000    21184917.848    86748698.934        -871.796          47.000  
G26  20389744.005   107148825.258         857.520          48.000    20389737.038    83492571.817         668.158          46.000  
G31  20634822.700   108436722.531         239.984          47.000    20634812.184    84496106.181         187.079          45.000  
G04  24679623.989   129692297.724        3197.392          36.000    24679621.069   101058933.209        2491.379          41.000  
C33  22468427.045   116998991.645        -516.384          50.000                                                                  
C06  36563231.825   190394342.692        -172.662          45.000    36563214.311   147224911.961        -133.512          48.000  
C14  22542102.290   117382629.604       -2106.954          46.000    22542087.600    90767641.751       -1629.390          50.000  
C16  36989203.323   192612483.340        -206.661          48.000    36989191.169   148940142.452        -159.773          49.000  
C24  21793522.238   113484589.867        -786.787          50.000                                                                  
C26  24277170.209   126417593.079       -2547.774          44.000                                                                  
G03  22887812.480   120276268.667          91.201          38.000    22887806.684    93721738.351          71.122          39.000  
G16  22608877.621   118810455.222        3088.915          41.000                                                                  
C09  37715321.751   196393578.563        -163.173          43.000    37715307.599   151863914.798        -126.021          48.000  
C25  23744013.220   123641306.952        1636.566          46.000                                                                  
C13  38231098.865   199079363.125       -2231.182          41.000    38231092.795   153940768.098       -1725.375          43.000  
C08  39048655.940   203336597.342       -2441.025          33.000    39048644.131   157232689.818       -1887.663          41.000  
C10  40552151.766                         927.083          28.000    40552152.512   163286756.558         716.949          34.000  
C35  25981228.659   135291078.769         526.712          39.000                                                                  
G25  24165880.099   126992554.279       -3902.030          37.000    24165873.591    98955196.507       -3040.700          37.000  
> 2025 10 30 06 15 03.1600000  0 21                     
G32  21852915.846   114837848.360       -2784.368          43.000    21852909.491    89484009.789       -2169.873          40.000  
G29  23043776.405   121095874.810        -388.489          42.000    23043767.489    94360386.110        -302.775          40.000  
G28  21184936.716   111327594.226       -1118.775          46.000    21184926.358    86748733.804        -871.780          47.000  
G26  20389737.507   107148790.964         857.409          48.000    20389730.512    83492545.090         668.157          46.000  
G31  20634820.887   108436712.939         239.842          47.000    20634810.378    84496098.701         187.023          45.000  
G04  24679599.659   129692169.814        3197.674          36.000    24679596.732   101058833.546        2491.476          41.000  
C33  22468431.019   116999012.295        -516.354          50.000                                                                  
C06  36563233.154   190394349.593        -172.583          45.000    36563215.628   147224917.299        -133.488          48.000  
C14  22542118.467   117382713.886       -2107.043          46.000    22542103.790    90767706.919       -1629.299          50.000  
C16  36989204.939   192612491.605        -206.627          48.000    36989192.769   148940148.845        -159.806          49.000  
C24  21793528.267   113484621.344        -786.863          50.000                                                                  
C26  24277189.775   126417694.989       -2547.794          44.000                                                                  
G03  22887811.785   120276265.007          91.284          38.000    22887805.997    93721735.502          71.185          39.000  
G16  22608854.132   118810331.653        3089.156          41.000                                                                  
C09  37715323.013   196393585.083        -163.068          43.000    37715308.834   151863919.833        -125.946          48.000  
C25  23744000.645   123641241.503        1636.371          46.000                                                                  
C13  38231116.007   199079452.388       -2231.444          40.000    38231109.914   153940837.105       -1725.288          42.000  
C08  39048674.688   203336694.982       -2441.193          33.000    39048662.850   157232765.309       -1887.383          41.000  
C10  40552144.955                         926.812          28.000    40552145.398   163286727.884         716.871          34.000  
C35  25981224.605   135291057.665         527.216          39.000                                                                  
G25  24165909.796   126992710.352       -3902.033          37.000    24165903.286    98955318.134       -3040.822          37.000  
> 2025 10 30 06 15 03.2000000  0 21                     
G32  21852937.040   114837959.747       -2784.574          43.000    21852930.702    89484096.573       -2169.751          40.000  
G29  23043779.364   121095890.344        -388.443          42.000    23043770.458    94360398.223        -302.837          40.000  
G28  21184945.231   111327638.978       -1118.773          46.000    21184934.871    86748768.678        -871.818          47.000  
G26  20389730.981   107148756.658         857.575          48.000    20389724.008    83492518.371         668.003          46.000  
G31  20634819.034   108436703.338         239.929          47.000    20634808.547    84496091.218         187.054          45.000  
G04  24679575.332   129692041.924        3197.390          36.000    24679572.388   101058733.879        2491.621          41.000  
C33  22468434.981   116999032.939        -516.218          50.000                                                                  
C06  36563234.474   190394356.500        -172.650          45.000    36563216.970   147224922.638        -133.495          48.000  
C14  22542134.667   117382798.165       -2107.009          46.000    22542119.975    90767772.089       -1629.273          50.000  
C16  36989206.516   192612499.869        -206.596          48.000    36989194.391   148940155.232        -159.742          49.000  
C24  21793534.312   113484652.815        -786.837          50.000                                                                  
C26  24277209.326   126417796.897       -2547.728          44.000                                                                  
G03  22887811.096   120276261.359          91.153          38.000    22887805.290    93721732.654          71.178          38.000  
G16  22608830.636   118810208.094        3089.057          40.000                                                                  
C09  37715324.276   196393591.600        -162.954          43.000    37715310.110   151863924.882        -126.144          48.000  
C25  23743988.058   123641176.054        1636.237          46.000                                                                  
C13  38231133.148   199079541.655       -2231.577          40.000    38231127.058   153940906.142       -1725.792          42.000  
C08  39048693.454   203336792.603       -2440.910          33.000    39048681.619   157232840.800       -1887.261          41.000  
C10  40552138.047                         926.813          28.000    40552138.304   163286699.218         716.666          34.000  
C35  25981220.539   135291036.573         527.298          39.000                                                                  
G25  24165939.499   126992866.422       -3901.863          37.000    24165932.988    98955439.726       -3040.206          37.000  
> 2025 10 30 06 15 03.2400000  0 21                     
G32  21852958.219   114838071.107       -2784.174          43.000    21852951.888    89484183.376       -2169.976          40.000  
G29  23043782.311   121095905.870        -388.273          42.000    23043773.415    94360410.331        -302.753          40.000  
G28  21184953.750   111327683.725       -1118.694          46.000    21184943.396    86748803.550        -871.811          47.000  
G26  20389724.466   107148722.363         857.439          48.000    20389717.477    83492491.655         667.874          46.000  
G31  20634817.176   108436693.731         240.095          47.000    20634806.718    84496083.736         187.048          45.000  
G04  24679550.997   129691914.011        3197.651          36.000    24679548.051   101058634.215        2491.671          41.000  
C33  22468438.971   116999053.588        -516.212          50.000                                                                  
C06  36563235.792   190394363.402        -172.589          45.000    36563218.305   147224927.970        -133.397          48.000  
C14  22542150.845   117382882.451       -2107.084          46.000    22542136.178    90767837.256       -1629.198          50.000  
C16  36989208.090   192612508.131        -206.566          48.000    36989195.982   148940161.622        -159.749          49.000  
C24  21793540.383   113484684.287        -786.819          50.000                                                                  
C26  24277228.903   126417898.801       -2547.645          44.000                                                                  
G03  22887810.422   120276257.713          91.055          38.000    22887804.599    93721729.813          71.072          38.000  
G16  22608807.125   118810084.547        3088.783          40.000                                                                  
C09  37715325.524   196393598.106        -162.709          43.000    37715311.377   151863929.922        -126.091          48.000  
C25  23743975.489   123641110.604        1636.200          46.000                                                                  
C13  38231150.274   199079630.910       -2231.502          40.000    38231144.186   153940975.150       -1725.465          42.000  
C08  39048712.205   203336890.260       -2441.355          33.000    39048700.401   157232916.297       -1887.331          41.000  
C10  40552130.895                         926.682          28.000    40552131.187   163286670.545         716.626          34.000  
C35  25981216.505   135291015.461         527.666          39.000                                                                  
G25  24165969.201   126993022.476       -3901.505          37.000    24165962.665    98955561.318       -3039.867          37.000  
> 2025 10 30 06 15 03.2800000  0 21                     
G32  21852979.404   114838182.478       -2784.112          43.000    21852973.061    89484270.160       -2169.790          40.000  
G29  23043785.255   121095921.399        -388.250          42.000    23043776.366    94360422.431        -302.643          40.000  
G28  21184962.270   111327728.477       -1118.730          46.000    21184951.882    86748838.417        -871.733          47.000  
G26  20389717.918   107148688.063         857.470          47.000    20389710.946    83492464.923         668.122          46.000  
G31  20634815.357   108436684.125         240.119          48.000    20634804.910    84496076.249         187.128          45.000  
G04  24679526.676   129691786.094        3197.800          36.000    24679523.716   101058534.557        2491.522          41.000  
C33  22468442.928   116999074.237        -516.232          50.000                                                                  
C06  36563237.143   190394370.302        -172.533          45.000    36563219.598   147224933.305        -133.401          48.000  
C14  22542167.022   117382966.724       -2106.951          46.000    22542152.366    90767902.423       -1629.193          50.000  
C16  36989209.631   192612516.397        -206.620          48.000    36989197.578   148940168.011        -159.757          49.000  
C24  21793546.423   113484715.764        -786.904          50.000                                                                  
C26  24277248.484   126418000.693       -2547.399          44.000                                                                  
G03  22887809.707   120276254.062          91.198          38.000    22887803.905    93721726.981          70.866          38.000  
G16  22608783.623   118809960.989        3088.871          40.000                                                                  
C09  37715326.768   196393604.627        -162.893          43.000    37715312.641   151863934.968        -126.173          48.000  
C25  23743962.921   123641045.143        1636.401          46.000                                                                  
C13  38231167.401   199079720.155       -2231.241          40.000    38231161.313   153941044.159       -1725.284          42.000  
C08  39048730.959   203336987.880       -2440.867          32.000    39048719.141   157232991.758       -1886.743          41.000  
C10  40552123.464                         927.115          28.000    40552124.070   163286641.869         716.710          35.000  
C35  25981212.472   135290994.368         527.465          39.000                                                                  
G25  24165998.931   126993178.541       -3901.496          37.000    24165992.349    98955682.917       -3039.874          37.000  
> 2025 10 30 06 15 03.3200000  0 21                     
G32  21853000.599   114838293.856       -2784.269          43.000    21852994.259    89484356.939       -2169.567          40.000  
G29  23043788.204   121095936.933        -388.327          42.000    23043779.329    94360434.528        -302.506          41.000  
G28  21184970.799   111327773.227       -1118.739          46.000    21184960.401    86748873.291        -871.842          47.000  
G26  20389711.402   107148653.767         857.390          47.000    20389704.422    83492438.196         668.164          46.000  
G31  20634813.549   108436674.527         239.995          48.000    20634803.094    84496068.770         187.035          45.000  
G04  24679502.343   129691658.223        3197.075          36.000    24679499.394   101058434.902        2491.359          41.000  
C33  22468446.879   116999094.891        -516.333          50.000                                                                  
C06  36563238.468   190394377.208        -172.634          45.000    36563220.935   147224938.643        -133.427          48.000  
C14  22542183.224   117383050.995       -2106.839          46.000    22542168.546    90767967.597       -1629.334          50.000  
C16  36989211.197   192612524.658        -206.575          48.000    36989199.188   148940174.403        -159.816          49.000  
C24  21793552.455   113484747.240        -786.955          50.000                                                                  
C26  24277268.023   126418102.594       -2547.472          44.000                                                                  
G03  22887809.027   120276250.423          91.002          38.000    22887803.210    93721724.150          70.724          38.000  
G16  22608760.109   118809837.438        3088.795          40.000                                                                  
C09  37715328.035   196393611.141        -162.900          43.000    37715313.888   151863940.006        -126.076          48.000  
C25  23743950.354   123640979.686        1636.432          46.000                                                                  
C13  38231184.562   199079809.393       -2230.943          39.000    38231178.440   153941113.164       -1725.168          42.000  
C08  39048749.705   203337085.484       -2440.286          32.000    39048737.879   157233067.247       -1886.934          41.000  
C10  40552116.758                         927.906          28.000    40552116.982   163286613.205         716.566          34.000  
C35  25981208.408   135290973.288         527.113          39.000                                                                  
G25  24166028.629   126993334.618       -3901.743          37.000    24166022.056    98955804.526       -3040.077          37.000  
> 2025 10 30 06 15 03.3600000  0 21                     
G32  21853021.801   114838405.236       -2784.413          43.000    21853015.468    89484443.736       -2169.776          40.000  
G29  23043791.158   121095952.473        -388.445          42.000    23043782.310    94360446.631        -302.552          41.000  
G28  21184979.323   111327817.982       -1118.811          46.000    21184968.930    86748908.163        -871.842          47.000  
G26  20389704.856   107148619.474         857.298          47.000    20389697.899    83492411.473         668.102          46.000  
G31  20634811.718   108436664.922         240.032          48.000    20634801.268    84496061.299         186.789          45.000  
G04  24679478.022   129691530.326        3197.170          36.000    24679475.047   101058335.244        2491.329          41.000  
C33  22468450.835   116999115.542        -516.312          50.000                                                                  
C06  36563239.790   190394384.108        -172.581          46.000    36563222.282   147224943.978        -133.395          48.000  
C14  22542199.420   117383135.278       -2106.993          46.000    22542184.722    90768032.770       -1629.351          50.000  
C16  36989212.806   192612532.912        -206.407          48.000    36989200.809   148940180.793        -159.801          49.000  
C24  21793558.520   113484778.712        -786.875          50.000                                                                  
C26  24277287.582   126418204.497       -2547.546          44.000                                                                  
G03  22887808.353   120276246.795          90.741          38.000    22887802.504    93721721.292          71.160          38.000  
G16  22608736.590   118809713.874        3088.979          38.000                                                                  
C09  37715329.278   196393617.659        -162.955          43.000    37715315.152   151863945.047        -126.045          48.000  
C25  23743937.773   123640914.228        1636.469          46.000                                                                  
C13  38231201.714   199079898.648       -2231.152          39.000    38231195.581   153941182.177       -1725.270          42.000  
C08  39048768.440   203337183.100       -2440.238          32.000    39048756.639   157233142.743       -1887.228          41.000  
C10  40552109.535                         927.761          28.000    40552109.874   163286584.554         716.212          34.000  
C35  25981204.360   135290952.205         527.004          39.000                                                                  
G25  24166058.327   126993490.678       -3901.573          37.000    24166051.772    98955926.155       -3040.538          37.000  
> 2025 10 30 06 15 03.4000000  0 21                     
G32  21853042.986   114838516.602       -2784.234          43.000    21853036.657    89484530.522       -2169.722          40.000  
G29  23043794.120   121095968.004        -388.355          42.000    23043785.268    94360458.733        -302.604          41.000  
G28  21184987.830   111327862.730       -1118.737          46.000    21184977.435    86748943.036        -871.874          47.000  
G26  20389698.318   107148585.185         857.193          47.000    20389691.362    83492384.753         667.972          46.000  
G31  20634809.902   108436655.323         239.946          48.000    20634799.459    84496053.811         187.017          45.000  
G04  24679453.663   129691402.424        3197.415          36.000    24679450.714   101058235.587        2491.334          41.000  
C33  22468454.807   116999136.191        -516.273          50.000                                                                  
C06  36563241.119   190394391.010        -172.595          46.000    36563223.619   147224949.319        -133.480          48.000  
C14  22542215.606   117383219.560       -2107.062          45.000    22542200.885    90768097.946       -1629.433          50.000  
C16  36989214.376   192612541.172        -206.457          48.000    36989202.402   148940187.184        -159.801          48.000  
C24  21793564.583   113484810.186        -786.882          50.000                                                                  
C26  24277307.130   126418306.410       -2547.743          44.000                                                                  
G03  22887807.682   120276243.150          90.895          38.000    22887801.809    93721718.445          71.188          38.000  
G16  22608713.079   118809590.314        3089.023          38.000                                                                  
C09  37715330.517   196393624.182        -163.056          43.000    37715316.406   151863950.084        -125.982          48.000  
C25  23743925.189   123640848.768        1636.487          46.000                                                                  
C13  38231218.842   199079987.894       -2231.178          39.000    38231212.722   153941251.193       -1725.401          42.000  
C08  39048787.182   203337280.773       -2441.276          32.000    39048775.413   157233218.236       -1887.314          41.000  
C10  40552102.284                         927.201          28.000    40552102.758   163286555.876         716.633          34.000  
C35  25981200.314   135290931.110         527.247          39.000                                                                  
G25  24166088.058   126993646.742       -3901.551          37.000    24166081.480    98956047.764       -3040.524          37.000  
> 2025 10 30 06 15 03.4400000  0 21                     
G32  21853064.187   114838627.984       -2784.454          43.000    21853057.843    89484617.304       -2169.628          40.000  
G29  23043797.068   121095983.539        -388.329          42.000    23043788.227    94360470.841        -302.671          41.000  
G28  21184996.330   111327907.472       -1118.591          46.000    21184985.952    86748977.905        -871.803          47.000  
G26  20389691.786   107148550.890         857.243          47.000    20389684.826    83492358.030         668.016          46.000  
G31  20634808.063   108436645.713         240.131          48.000    20634797.643    84496046.333         186.956          45.000  
G04  24679429.313   129691274.510        3197.739          36.000    24679426.351   101058135.925        2491.441          41.000  
C33  22468458.807   116999156.836        -516.184          50.000                                                                  
C06  36563242.451   190394397.897        -172.333          46.000    36563224.962   147224954.657        -133.506          48.000  
C14  22542231.789   117383303.839       -2107.009          45.000    22542217.075    90768163.117       -1629.374          50.000  
C16  36989215.937   192612549.429        -206.425          48.000    36989203.965   148940193.568        -159.692          48.000  
C24  21793570.637   113484841.660        -786.861          50.000                                                                  
C26  24277326.700   126418408.312       -2547.641          44.000                                                                  
G03  22887806.977   120276239.502          91.032          38.000    22887801.119    93721715.603          71.085          39.000  
G16  22608689.590   118809466.764        3088.843          38.000                                                                  
C09  37715331.769   196393630.695        -162.921          43.000    37715317.661   151863955.115        -125.831          48.000  
C25  23743912.614   123640783.314        1636.371          46.000                                                                  
C13  38231235.990   199080077.147       -2231.302          39.000    38231229.888   153941320.213       -1725.518          42.000  
C08  39048805.933   203337378.437       -2441.755          32.000    39048794.198   157233293.741       -1887.561          41.000  
C10  40552095.746                         927.290          28.000    40552095.627   163286527.240         716.034          34.000  
C35  25981196.278   135290910.016         527.334          39.000                                                                  
G25  24166117.763   126993802.799       -3901.412          37.000    24166111.169    98956169.363       -3040.219          37.000  
> 2025 10 30 06 15 03.4800000  0 21                     
G32  21853085.380   114838739.354       -2784.388          43.000    21853079.045    89484704.101       -2169.837          40.000  
G29  23043800.028   121095999.084        -388.518          42.000    23043791.174    94360482.943        -302.601          41.000  
G28  21185004.844   111327952.223       -1118.677          47.000    21184994.460    86749012.772        -871.712          47.000  
G26  20389685.250   107148516.597         857.274          47.000    20389678.282    83492331.306         668.066          46.000  
G31  20634806.240   108436636.104         240.205          48.000    20634795.826    84496038.838         187.227          45.000  
G04  24679404.988   129691146.613        3197.600          36.000    24679402.013   101058036.260        2491.572          41.000  
C33  22468462.773   116999177.489        -516.276          50.000                                                                  
C06  36563243.752   190394404.803        -172.544          46.000    36563226.313   147224959.984        -133.291          48.000  
C14  22542247.941   117383388.127       -2107.161          45.000    22542233.272    90768228.277       -1629.125          50.000  
C16  36989217.534   192612557.688        -206.446          48.000    36989205.534   148940199.951        -159.609          48.000  
C24  21793576.669   113484873.135        -786.902          50.000                                                                  
C26  24277346.267   126418510.219       -2547.662          44.000                                                                  
G03  22887806.282   120276235.842          91.339          38.000    22887800.422    93721712.757          71.111          39.000  
G16  22608666.089   118809343.208        3088.812          38.000                                                                  
C09  37715333.027   196393637.212        -162.941          43.000    37715318.909   151863960.149        -125.822          48.000  
C25  23743900.040   123640717.863        1636.255          46.000                                                                  
C13  38231253.134   199080166.408       -2231.424          37.000    38231247.047   153941389.229       -1725.498          41.000  
C08  39048824.646   203337475.994       -2440.162          32.000    39048812.956   157233369.235       -1887.485          41.000  
C10  40552088.626                         926.958          28.000    40552088.506   163286498.545         716.682          34.000  
C35  25981192.234   135290888.901         527.740          39.000                                                                  
G25  24166147.434   126993958.856       -3901.343          37.000    24166140.858    98956290.956       -3040.017          37.000  
> 2025 10 30 06 15 03.5200000  0 21                     
G32  21853106.563   114838850.726       -2784.376          42.000    21853100.235    89484790.882       -2169.649          40.000  
G29  23043802.974   121096014.621        -388.518          42.000    23043794.140    94360495.045        -302.544          41.000  
G28  21185013.354   111327996.971       -1118.684          47.000    21185002.984    86749047.641        -871.715          47.000  
G26  20389678.715   107148482.307         857.225          47.000    20389671.764    83492304.588         667.961          46.000  
G31  20634804.408   108436626.500         240.111          48.000    20634794.018    84496031.360         187.035          45.000  
G04  24679380.622   129691018.688        3198.042          36.000    24679377.696   101057936.593        2491.679          41.000  
C33  22468466.739   116999198.137        -516.250          50.000                                                                  
C06  36563245.089   190394411.701        -172.482          46.000    36563227.598   147224965.319        -133.317          47.000  
C14  22542264.135   117383472.408       -2107.108          45.000    22542249.483    90768293.446       -1629.167          50.000  
C16  36989219.149   192612565.942        -206.368          48.000    36989207.089   148940206.336        -159.591          48.000  
C24  21793582.680   113484904.610        -786.915          50.000                                                                  
C26  24277365.845   126418612.114       -2547.474          44.000                                                                  
G03  22887805.588   120276232.198          91.204          38.000    22887799.728    93721709.923          70.878          39.000  
G16  22608642.563   118809219.661        3088.688          38.000                                                                  
C09  37715334.274   196393643.733        -162.991          43.000    37715320.168   151863965.188        -125.925          48.000  
C25  23743887.483   123640652.404        1636.359          46.000                                                                  
C13  38231270.246   199080255.667       -2231.536          37.000    38231264.193   153941458.236       -1725.272          41.000  
C08  39048843.382   203337573.619       -2440.184          32.000    39048831.698   157233444.713       -1887.184          41.000  
C10  40552081.243                         927.035          28.000    40552081.393   163286469.887         716.496          34.000  
C35  25981188.189   135290867.817         527.332          40.000                                                                  
G25  24166177.115   126994114.909       -3901.279          37.000    24166170.573    98956412.572       -3040.290          37.000  
> 2025 10 30 06 15 03.5600000  0 21                     
G32  21853127.770   114838962.104       -2784.473          42.000    21853121.417    89484877.662       -2169.549          40.000  
G29  23043805.953   121096030.162        -388.560          42.000    23043797.105    94360507.156        -302.722          41.000  
G28  21185021.877   111328041.719       -1118.705          47.000    21185011.498    86749082.508        -871.692          47.000  
G26  20389672.179   107148448.017         857.182          47.000    20389665.247    83492277.870         667.893          46.000  
G31  20634802.581   108436616.904         239.933          48.000    20634792.198    84496023.878         186.986          45.000  
G04  24679356.261   129690890.786        3197.750          36.000    24679353.344   101057836.938        2491.463          41.000  
C33  22468470.688   116999218.792        -516.359          50.000                                                                  
C06  36563246.431   190394418.596        -172.402          46.000    36563228.913   147224970.655        -133.380          47.000  
C14  22542280.321   117383556.693       -2107.152          45.000    22542265.665    90768358.620       -1629.309          50.000  
C16  36989220.746   192612574.197        -206.365          48.000    36989208.679   148940212.725        -159.684          48.000  
C24  21793588.730   113484936.082        -786.861          50.000                                                                  
C26  24277385.424   126418714.012       -2547.448          44.000                                                                  
G03  22887804.883   120276228.536          91.449          38.000    22887799.050    93721707.074          71.088          39.000  
G16  22608619.035   118809096.101        3088.829          37.000                                                                  
C09  37715335.546   196393650.245        -162.903          43.000    37715321.413   151863970.226        -125.995          48.000  
C25  23743874.917   123640586.953        1636.255          46.000                                                                  
C13  38231287.402   199080344.918       -2231.429          37.000    38231281.340   153941527.260       -1725.491          41.000  
C08  39048862.127   203337671.242       -2440.188          32.000    39048850.466   157233520.207       -1887.277          41.000  
C10  40552074.447                         926.824          28.000    40552074.282   163286441.222         716.497          34.000  
C35  25981184.145   135290846.736         527.031          40.000                                                                  
G25  24166206.818   126994270.980       -3901.672          37.000    24166200.263    98956534.173       -3040.245          36.000  
> 2025 10 30 06 15 03.6000000  0 21                     
G32  21853148.940   114839073.478       -2784.472          42.000    21853142.605    89484964.448       -2169.627          40.000  
G29  23043808.904   121096045.705        -388.591          42.000    23043800.055    94360519.269        -302.891          41.000  
G28  21185030.398   111328086.474       -1118.825          47.000    21185020.014    86749117.384        -871.860          47.000  
G26  20389665.650   107148413.717         857.398          47.000    20389658.730    83492251.152         667.894          45.000  
G31  20634800.745   108436607.304         239.927          48.000    20634790.373    84496016.398         186.936          45.000  
G04  24679331.947   129690762.889        3197.616          36.000    24679329.001   101057737.292        2491.176          41.000  
C33  22468474.618   116999239.454        -516.530          49.000                                                                  
C06  36563247.785   190394425.502        -172.590          45.000    36563230.215   147224975.992        -133.430          47.000  
C14  22542296.527   117383640.971       -2107.043          45.000    22542281.863    90768423.794       -1629.377          50.000  
C16  36989222.312   192612582.458        -206.476          48.000    36989210.261   148940219.117        -159.794          48.000  
C24  21793594.741   113484967.560        -786.933          50.000                                                                  
C26  24277405.013   126418815.915       -2547.520          44.000                                                                  
G03  22887804.173   120276224.886          91.326          38.000    22887798.367    93721704.228          71.124          40.000  
G16  22608595.514   118808972.549        3088.790          36.000                                                                  
C09  37715336.806   196393656.759        -162.833          43.000    37715322.644   151863975.272        -126.127          47.000  
C25  23743862.354   123640521.503        1636.176          46.000                                                                  
C13  38231304.525   199080434.168       -2231.279          37.000    38231298.473   153941596.271       -1725.372          41.000  
C08  39048880.875   203337768.887       -2440.513          32.000    39048869.217   157233595.710       -1887.505          41.000  
C10  40552066.675                         926.768          28.000    40552067.131   163286412.537         716.977          34.000  
C35  25981180.117   135290825.667         526.671          40.000                                                                  
G25  24166236.505   126994427.061       -3901.999          37.000    24166229.970    98956655.817       -3040.957          36.000  
> 2025 10 30 06 15 03.6400000  0 21                     
G32  21853170.152   114839184.862       -2784.655          43.000    21853163.810    89485051.227       -2169.565          40.000  
G29  23043811.854   121096061.233        -388.338          42.000    23043803.010    94360531.382        -302.900          41.000  
G28  21185038.925   111328131.236       -1119.040          47.000    21185028.536    86749152.258        -871.895          47.000  
G26  20389659.139   107148379.429         857.274          47.000    20389652.178    83492224.426         668.061          45.000  
G31  20634798.902   108436597.709         239.823          48.000    20634788.542    84496008.923         186.844          45.000  
G04  24679307.592   129690635.001        3197.352          36.000    24679304.683   101057637.632        2491.303          41.000  
C33  22468478.588   116999260.111        -516.519          49.000                                                                  
C06  36563249.085   190394432.411        -172.726          45.000    36563231.525   147224981.341        -133.660          47.000  
C14  22542312.718   117383725.257       -2107.147          45.000    22542298.050    90768488.971       -1629.451          50.000  
C16  36989223.929   192612590.727        -206.661          48.000    36989211.809   148940225.505        -159.778          48.000  
C24  21793600.811   113484999.037        -786.945          50.000                                                                  
C26  24277424.584   126418917.820       -2547.585          44.000                                                                  
G03  22887803.508   120276221.236          91.283          38.000    22887797.664    93721701.370          71.336          40.000  
G16  22608572.011   118808848.981        3089.082          36.000                                                                  
C09  37715338.044   196393663.273        -162.855          43.000    37715323.907   151863980.312        -126.098          47.000  
C25  23743849.776   123640456.056        1636.157          45.000                                                                  
C13  38231321.655   199080523.437       -2231.622          37.000    38231315.629   153941665.290       -1725.409          41.000  
C08  39048899.641   203337866.543       -2440.902          32.000    39048887.971   157233671.206       -1887.483          41.000  
C10  40552059.443                         927.146          28.000    40552059.984   163286383.839         717.374          34.000  
C35  25981176.067   135290804.588         526.728          40.000                                                                  
G25  24166266.186   126994583.126       -3901.865          37.000    24166259.658    98956777.415       -3040.464          36.000  
> 2025 10 30 06 15 03.6800000  0 21                     
G32  21853191.354   114839296.249       -2784.807          44.000    21853185.001    89485138.005       -2169.535          40.000  
G29  23043814.819   121096076.771        -388.372          42.000    23043805.967    94360543.500        -303.037          41.000  
G28  21185047.443   111328175.991       -1119.006          47.000    21185037.041    86749187.133        -871.932          47.000  
G26  20389652.612   107148345.142         857.164          47.000    20389645.668    83492197.708         668.011          45.000  
G31  20634797.086   108436588.118         239.762          47.000    20634786.726    84496001.446         186.845          45.000  
G04  24679283.260   129690507.139        3196.748          36.000    24679280.327   101057537.945        2491.858          41.000  
C33  22468482.558   116999280.769        -516.497          49.000                                                                  
C06  36563250.448   190394439.310        -172.607          45.000    36563232.853   147224986.678        -133.574          47.000  
C14  22542328.898   117383809.541       -2107.152          45.000    22542314.205    90768554.149       -1629.481          50.000  
C16  36989225.492   192612598.998        -206.792          48.000    36989213.369   148940231.894        -159.777          48.000  
C24  21793606.830   113485030.518        -787.020          49.000                                                                  
C26  24277444.162   126419019.729       -2547.695          44.000                                                                  
G03  22887802.805   120276217.580          91.365          38.000    22887796.974    93721698.528          71.157          40.000  
G16  22608548.496   118808725.429        3088.921          36.000                                                                  
C09  37715339.296   196393669.790        -162.952          43.000    37715325.188   151863985.347        -125.970          47.000  
C25  23743837.191   123640390.599        1636.328          45.000                                                                  
C13  38231338.807   199080612.678       -2231.203          37.000    38231332.774   153941734.309       -1725.472          41.000  
C08  39048918.405   203337964.154       -2440.667          32.000    39048906.711   157233746.692       -1887.278          41.000  
C10  40552051.997                         926.913          28.000    40552052.869   163286355.163         717.055          34.000  
C35  25981172.036   135290783.517         526.669          40.000                                                                  
G25  24166295.884   126994739.203       -3901.970          37.000    24166289.353    98956898.994       -3039.815          36.000  
> 2025 10 30 06 15 03.7200000  0 21                     
G32  21853212.569   114839407.652       -2785.131          45.000    21853206.185    89485224.774       -2169.347          40.000  
G29  23043817.779   121096092.318        -388.612          42.000    23043808.918    94360555.592        -302.607          41.000  
G28  21185055.939   111328220.746       -1118.967          47.000    21185045.524    86749222.008        -871.942          47.000  
G26  20389646.090   107148310.859         857.059          47.000    20389639.136    83492170.991         667.931          45.000  
G31  20634795.253   108436578.521         239.812          47.000    20634784.866    84495993.958         187.086          45.000  
G04  24679258.936   129690379.244        3197.040          36.000    24679255.974   101057438.271        2491.917          41.000  
C33  22468486.548   116999301.424        -516.432          49.000                                                                  
C06  36563251.760   190394446.205        -172.454          45.000    36563234.131   147224992.015        -133.527          47.000  
C14  22542345.083   117383893.839       -2107.392          45.000    22542330.385    90768619.324       -1629.459          50.000  
C16  36989227.099   192612607.260        -206.709          48.000    36989214.985   148940238.283        -159.757          48.000  
C24  21793612.870   113485061.999        -787.058          49.000                                                                  
C26  24277463.736   126419121.629       -2547.568          44.000                                                                  
G03  22887802.147   120276213.933          91.225          38.000    22887796.284    93721695.705          70.693          40.000  
G16  22608524.996   118808601.887        3088.496          34.000                                                                  
C09  37715340.549   196393676.304        -162.919          43.000    37715326.443   151863990.389        -126.067          47.000  
C25  23743824.623   123640325.139        1636.469          44.000                                                                  
C13  38231355.922   199080701.920       -2231.037          36.000    38231349.898   153941803.334       -1725.621          41.000  
C08  39048937.140   203338061.781       -2440.695          31.000    39048925.454   157233822.170       -1887.016          41.000  
C10  40552044.697                         926.864          28.000    40552045.754   163286326.474         717.039          34.000  
C35  25981167.995   135290762.466         526.327          40.000                                                                  
G25  24166325.580   126994895.245       -3901.479          37.000    24166319.049    98957020.603       -3039.975          36.000  
> 2025 10 30 06 15 03.7600000  0 21                     
G32  21853233.785   114839519.056       -2785.245          45.000    21853227.372    89485311.550       -2169.345          40.000  
G29  23043820.735   121096107.872        -388.841          42.000    23043811.872    94360567.698        -302.643          41.000  
G28  21185064.451   111328265.509       -1119.045          47.000    21185054.017    86749256.876        -871.793          47.000  
G26  20389639.567   107148276.572         857.066          46.000    20389632.610    83492144.274         667.888          46.000  
G31  20634793.439   108436568.925         239.837          47.000    20634783.050    84495986.483         186.950          45.000  
G04  24679234.598   129690251.311        3197.869          36.000    24679231.647   101057338.621        2491.470          41.000  
C33  22468490.516   116999322.079        -516.393          49.000                                                                  
C06  36563253.079   190394453.110        -172.578          45.000    36563235.465   147224997.347        -133.389          47.000  
C14  22542361.277   117383978.118       -2107.166          45.000    22542346.579    90768684.502       -1629.478          50.000  
C16  36989228.692   192612615.526        -206.701          48.000    36989216.630   148940244.676        -159.820          48.000  
C24  21793618.937   113485093.473        -786.938          49.000                                                                  
C26  24277483.270   126419223.523       -2547.412          44.000                                                                  
G03  22887801.464   120276210.307          90.774          38.000    22887795.598    93721692.879          70.503          40.000  
G16  22608501.482   118808478.361        3088.205          33.000                                                                  
C09  37715341.831   196393682.815        -162.816          42.000    37715327.710   151863995.433        -126.130          46.000  
C25  23743812.006   123640259.678        1636.524          44.000                                                                  
C13  38231373.075   199080791.164       -2231.027          36.000    38231367.047   153941872.351       -1725.545          41.000  
C08  39048955.891   203338159.398       -2440.558          31.000    39048944.174   157233897.652       -1887.006          41.000  
C10  40552037.824                         926.576          28.000    40552038.647   163286297.799         716.864          34.000  
C35  25981163.939   135290741.384         526.741          40.000                                                                  
G25  24166355.278   126995051.303       -3901.458          37.000    24166348.760    98957142.236       -3040.542          36.000  
> 2025 10 30 06 15 03.8000000  0 21                     
G32  21853254.985   114839630.455       -2785.195          46.000    21853248.571    89485398.356       -2169.958          42.000  
G29  23043823.698   121096123.422        -388.863          43.000    23043814.841    94360579.809        -302.725          41.000  
G28  21185072.948   111328310.257       -1118.854          47.000    21185062.521    86749291.744        -871.752          47.000  
G26  20389633.041   107148242.283         857.128          47.000    20389626.094    83492117.561         667.802          46.000  
G31  20634791.597   108436559.322         240.009          47.000    20634781.229    84495979.001         187.000          45.000  
G04  24679210.262   129690123.418        3197.642          36.000    24679207.316   101057238.963        2491.345          41.000  
C33  22468494.483   116999342.738        -516.445          49.000                                                                  
C06  36563254.387   190394460.000        -172.373          45.000    36563236.841   147225002.681        -133.361          47.000  
C14  22542377.461   117384062.393       -2106.950          45.000    22542362.743    90768749.680       -1629.470          50.000  
C16  36989230.288   192612623.788        -206.610          48.000    36989218.252   148940251.060        -159.696          48.000  
C24  21793624.976   113485124.947        -786.873          49.000                                                                  
C26  24277502.812   126419325.414       -2547.329          44.000                                                                  
G03  22887800.777   120276206.672          90.711          40.000    22887794.909    93721690.031          70.873          40.000  
G16  22608477.969   118808354.774        3089.242          33.000                                                                  
C09  37715343.091   196393689.326        -162.766          42.000    37715328.950   151864000.470        -126.021          46.000  
C25  23743799.430   123640194.227        1636.340          44.000                                                                  
C13  38231390.223   199080880.426       -2231.352          36.000    38231384.168   153941941.363       -1725.370          41.000  
C08  39048974.617   203338256.993       -2440.205          26.000    39048962.942   157233973.135       -1887.048          41.000  
C10  40552030.522                         926.486          32.000    40552031.528   163286269.145         716.471          34.000  
C35  25981159.921   135290720.298         527.073          40.000                                                                  
G25  24166384.993   126995207.378       -3901.706          37.000    24166378.460    98957263.849       -3040.507          37.000  
> 2025 10 30 06 15 03.8400000  0 21                     
G32  21853276.161   114839741.844       -2784.928          46.000    21853269.778    89485485.160       -2170.238          43.000  
G29  23043826.677   121096138.973        -388.821          43.000    23043817.775    94360591.908        -302.593          41.000  
G28  21185081.456   111328355.005       -1118.732          47.000    21185071.055    86749326.616        -871.765          47.000  
G26  20389626.510   107148207.989         857.270          46.000    20389619.562    83492090.841         667.907          46.000  
G31  20634789.787   108436549.718         240.108          47.000    20634779.408    84495971.527         186.882          45.000  
G04  24679185.922   129689995.534        3197.278          36.000    24679182.979   101057139.299        2491.465          41.000  
C33  22468498.447   116999363.394        -516.414          49.000                                                                  
C06  36563255.663   190394466.898        -172.418          45.000    36563238.175   147225008.014        -133.352          47.000  
C14  22542393.649   117384146.664       -2106.770          44.000    22542378.921    90768814.850       -1629.331          50.000  
C16  36989231.875   192612632.043        -206.430          48.000    36989219.831   148940257.442        -159.589          48.000  
C24  21793631.056   113485156.422        -786.864          49.000                                                                  
C26  24277522.388   126419427.298       -2547.150          44.000                                                                  
G03  22887800.093   120276203.029          90.898          40.000    22887794.208    93721687.193          70.890          40.000  
G16  22608454.454   118808231.221        3089.185          33.000                                                                  
C09  37715344.325   196393695.834        -162.717          42.000    37715330.220   151864005.504        -125.914          46.000  
C25  23743786.837   123640128.774        1636.286          44.000                                                                  
C13  38231407.343   199080969.692       -2231.637          36.000    38231401.297   153942010.379       -1725.346          41.000  
C08  39048993.326   203338354.589       -2440.006          26.000    39048981.680   157234048.616       -1887.002          41.000  
C10  40552023.241                         926.106          32.000    40552024.394   163286240.473         716.639          36.000  
C35  25981155.874   135290699.218         527.113          38.000                                                                  
G25  24166414.689   126995363.434       -3901.566          37.000    24166408.152    98957385.469       -3040.553          37.000  
> 2025 10 30 06 15 03.8800000  0 21                     
G32  21853297.329   114839853.228       -2784.710          46.000    21853291.003    89485571.967       -2170.337          44.000  
G29  23043829.629   121096154.512        -388.595          43.000    23043820.719    94360604.013        -302.600          41.000  
G28  21185089.962   111328399.751       -1118.633          47.000    21185079.561    86749361.488        -871.809          47.000  
G26  20389620.007   107148173.698         857.282          46.000    20389613.036    83492064.124         667.907          46.000  
G31  20634787.955   108436540.107         240.298          47.000    20634777.587    84495964.044         187.018          45.000  
G04  24679161.588   129689867.649        3197.086          36.000    24679158.617   101057039.638        2491.473          42.000  
C33  22468502.427   116999384.046        -516.338          49.000                                                                  
C06  36563256.983   190394473.801        -172.561          45.000    36563239.531   147225013.339        -133.201          47.000  
C14  22542409.845   117384230.946       -2106.915          44.000    22542395.123    90768880.017       -1629.213          50.000  
C16  36989233.491   192612640.293        -206.280          48.000    36989221.372   148940263.820        -159.463          48.000  
C24  21793637.121   113485187.894        -786.828          49.000                                                                  
C26  24277541.932   126419529.202       -2547.431          44.000                                                                  
G03  22887799.392   120276199.384          91.010          40.000    22887793.508    93721684.343          71.161          40.000  
G16  22608430.899   118808107.624        3089.795          33.000                                                                  
C09  37715345.589   196393702.351        -162.839          42.000    37715331.475   151864010.536        -125.826          46.000  
C25  23743774.278   123640063.322        1636.267          44.000                                                                  
C13  38231424.492   199081058.932       -2231.134          36.000    38231418.437   153942079.394       -1725.354          41.000  
C08  39049012.067   203338452.163       -2439.600          27.000    39049000.440   157234124.098       -1886.995          41.000  
C10  40552016.091                         926.995          32.000    40552017.270   163286211.812         716.533          36.000  
C35  25981151.815   135290678.097         527.818          38.000                                                                  
G25  24166444.389   126995519.498       -3901.561          37.000    24166437.862    98957507.073       -3040.362          37.000  
> 2025 10 30 06 15 03.9200000  0 21                     
G32  21853318.519   114839964.606       -2784.496          46.000    21853312.182    89485658.759       -2170.069          44.000  
G29  23043832.569   121096170.050        -388.484          43.000    23043823.690    94360616.122        -302.766          41.000  
G28  21185098.487   111328444.489       -1118.438          46.000    21185088.088    86749396.357        -871.789          47.000  
G26  20389613.465   107148139.402         857.355          46.000    20389606.512    83492037.401         668.030          46.000  
G31  20634786.117   108436530.505         240.136          47.000    20634775.778    84495956.570         186.901          45.000  
G04  24679137.259   129689739.728        3197.650          36.000    24679134.263   101056939.963        2491.728          42.000  
C33  22468506.388   116999404.699        -516.319          49.000                                                                  
C06  36563258.322   190394480.696        -172.450          45.000    36563240.885   147225018.676        -133.315          47.000  
C14  22542426.013   117384315.230       -2107.042          44.000    22542411.318    90768945.190       -1629.285          50.000  
C16  36989235.063   192612648.546        -206.267          48.000    36989222.910   148940270.200        -159.468          48.000  
C24  21793643.196   113485219.364        -786.778          49.000                                                                  
C26  24277561.489   126419631.111       -2547.682          44.000                                                                  
G03  22887798.692   120276195.748          90.953          40.000    22887792.818    93721681.506          71.071          40.000  
G16  22608407.396   118807984.037        3089.883          30.000                                                                  
C09  37715346.840   196393708.870        -162.986          42.000    37715332.744   151864015.574        -125.886          46.000  
C25  23743761.688   123639997.875        1636.194          44.000                                                                  
C13  38231441.650   199081148.181       -2231.137          36.000    38231435.607   153942148.396       -1725.092          41.000  
C08  39049030.815   203338549.758       -2439.578          27.000    39049019.206   157234199.577       -1886.978          41.000  
C10  40552009.087                         926.717          32.000    40552010.165   163286183.138         716.744          36.000  
C35  25981147.741   135290656.966         528.395          38.000                                                                  
G25  24166474.104   126995675.564       -3901.625          37.000    24166467.561    98957628.661       -3039.902          37.000  
> 2025 10 30 06 15 03.9600000  0 21                     
G32  21853339.702   114840075.987       -2784.482          46.000    21853333.398    89485745.557       -2170.009          44.000  
G29  23043835.529   121096185.612        -388.857          43.000    23043826.648    94360628.232        -302.809          41.000  
G28  21185107.028   111328489.248       -1118.775          46.000    21185096.612    86749431.224        -871.729          47.000  
G26  20389606.942   107148105.112         857.262          46.000    20389599.985    83492010.677         668.054          46.000  
G31  20634784.298   108436520.908         239.995          47.000    20634773.962    84495949.094         186.857          45.000  
G04  24679112.922   129689611.806        3198.049          36.000    24679109.933   101056840.294        2491.769          42.000  
C33  22468510.330   116999425.360        -516.469          49.000                                                                  
C06  36563259.657   190394487.595        -172.463          45.000    36563242.227   147225024.013        -133.387          47.000  
C14  22542442.185   117384399.512       -2107.066          44.000    22542427.495    90769010.363       -1629.318          50.000  
C16  36989236.649   192612656.804        -206.375          48.000    36989224.485   148940276.589        -159.639          48.000  
C24  21793649.180   113485250.845        -786.957          49.000                                                                  
C26  24277581.029   126419733.026       -2547.919          44.000                                                                  
G03  22887798.002   120276192.110          90.882          40.000    22887792.151    93721678.665          71.084          40.000  
G16  22608383.870   118807860.479        3089.402          30.000                                                                  
C09  37715348.103   196393715.373        -162.768          42.000    37715333.989   151864020.607        -125.815          46.000  
C25  23743749.128   123639932.433        1636.029          44.000                                                                  
C13  38231458.790   199081237.411       -2230.796          36.000    38231452.742   153942217.402       -1725.076          41.000  
C08  39049049.576   203338647.353       -2439.613          27.000    39049037.938   157234275.074       -1887.288          41.000  
C10  40552001.946                         926.563          32.000    40552003.019   163286154.465         716.799          36.000  
C35  25981143.687   135290635.861         528.022          38.000                                                                  
G25  24166503.788   126995831.625       -3901.561          37.000    24166497.266    98957750.270       -3039.964          37.000  
> 2025 10 30 06 15 04.0000000  0 21                     
G32  21853360.923   114840187.382       -2784.782          46.000    21853354.582    89485832.349       -2169.866          44.000  
G29  23043838.492   121096201.162        -388.867          43.000    23043829.610    94360640.354        -303.051          41.000  
G28  21185115.550   111328534.015       -1119.090          46.000    21185105.166    86749466.107        -871.982          47.000  
G26  20389600.433   107148070.827         857.133          46.000    20389593.490    83491983.964         667.875          46.000  
G31  20634782.439   108436511.312         239.922          47.000    20634772.131    84495941.620         186.796          45.000  
G04  24679088.565   129689483.924        3197.422          36.000    24679085.616   101056740.642        2491.457          42.000  
C33  22468514.316   116999446.024        -516.601          49.000                                                                  
C06  36563260.994   190394494.500        -172.589          45.000    36563243.569   147225029.353        -133.491          47.000  
C14  22542458.379   117384483.813       -2107.452          44.000    22542443.686    90769075.545       -1629.521          49.000  
C16  36989238.242   192612665.071        -206.615          48.000    36989226.046   148940282.980        -159.760          48.000  
C24  21793655.207   113485282.333        -787.162          49.000                                                                  
C26  24277600.601   126419834.936       -2547.944          44.000                                                                  
G03  22887797.308   120276188.477          90.757          40.000    22887791.465    93721675.838          70.826          40.000  
G16  22608360.325   118807736.918        3089.052          30.000                                                                  
C09  37715349.341   196393721.889        -162.858          42.000    37715335.196   151864025.640        -125.811          46.000  
C25  23743736.575   123639866.989        1635.986          44.000                                                                  
C13  38231475.922   199081326.650       -2230.856          36.000    38231469.873   153942286.420       -1725.302          41.000  
C08  39049068.328   203338744.955       -2439.735          27.000    39049056.697   157234350.559       -1887.260          40.000  
C10  40551994.280                         927.617          32.000    40551995.884   163286125.815         716.424          36.000  
C35  25981139.643   135290614.784         527.278          38.000                                                                  
G25  24166533.474   126995987.679       -3901.381          37.000    24166526.984    98957871.886       -3040.241          37.000  
> 2025 10 30 06 15 04.0400000  0 21                     
G32  21853382.128   114840298.773       -2784.821          47.000    21853375.773    89485919.152       -2169.987          45.000  
G29  23043841.460   121096216.719        -388.999          43.000    23043832.571    94360652.480        -303.204          41.000  
G28  21185124.054   111328578.772       -1119.071          46.000    21185113.701    86749500.987        -872.054          47.000  
G26  20389593.912   107148036.547         856.967          46.000    20389586.990    83491957.261         667.611          46.000  
G31  20634780.611   108436501.735         239.484          47.000    20634770.273    84495934.142         186.864          45.000  
G04  24679064.261   129689356.028        3197.357          36.000    24679061.272   101056640.979        2491.496          42.000  
C33  22468518.275   116999466.690        -516.693          49.000                                                                  
C06  36563262.355   190394501.396        -172.500          45.000    36563244.887   147225034.691        -133.507          47.000  
C14  22542474.584   117384568.103       -2107.434          44.000    22542459.865    90769140.724       -1629.556          49.000  
C16  36989239.842   192612673.338        -206.684          48.000    36989227.638   148940289.372        -159.846          48.000  
C24  21793661.268   113485313.817        -787.208          50.000                                                                  
C26  24277620.169   126419936.848       -2547.922          45.000                                                                  
G03  22887796.602   120276184.835          90.891          40.000    22887790.766    93721673.001          70.852          40.000  
G16  22608336.814   118807613.372        3088.638          30.000                                                                  
C09  37715350.579   196393728.413        -163.046          42.000    37715336.445   151864030.679        -125.920          46.000  
C25  23743724.023   123639801.543        1636.078          44.000                                                                  
C13  38231493.064   199081415.891       -2230.952          36.000    38231487.002   153942355.457       -1725.856          41.000  
C08  39049087.121   203338842.567       -2439.964          27.000    39049075.438   157234426.044       -1887.266          40.000  
C10  40551987.379                         927.899          32.000    40551988.733   163286097.162         716.277          36.000  
C35  25981135.588   135290593.708         526.883          38.000                                                                  
G25  24166563.180   126996143.743       -3901.497          37.000    24166556.712    98957993.511       -3040.512          37.000  
> 2025 10 30 06 15 04.0800000  0 21                     
G32  21853403.342   114840410.178       -2785.099          47.000    21853396.964    89486005.960       -2170.183          45.000  
G29  23043844.430   121096232.279        -389.071          43.000    23043835.515    94360664.596        -303.087          41.000  
G28  21185132.546   111328623.532       -1119.063          45.000    21185122.221    86749535.875        -872.208          48.000  
G26  20389587.386   107148002.272         856.820          47.000    20389580.473    83491930.558         667.507          46.000  
G31  20634778.766   108436492.153         239.412          47.000    20634768.464    84495926.674         186.717          45.000  
G04  24679039.898   129689228.120        3197.518          36.000    24679036.952   101056541.332        2491.224          42.000  
C33  22468522.248   116999487.355        -516.721          49.000                                                                  
C06  36563263.672   190394508.304        -172.639          45.000    36563246.195   147225040.033        -133.597          47.000  
C14  22542490.784   117384652.391       -2107.322          44.000    22542476.078    90769205.907       -1629.617          49.000  
C16  36989241.468   192612681.602        -206.687          47.000    36989229.209   148940295.766        -159.886          48.000  
C24  21793667.297   113485345.308        -787.305          50.000                                                                  
C26  24277639.745   126420038.760       -2547.914          45.000                                                                  
G03  22887795.927   120276181.193          90.934          40.000    22887790.077    93721670.177          70.620          40.000  
G16  22608313.314   118807489.850        3088.067          30.000                                                                  
C09  37715351.837   196393734.935        -163.126          42.000    37715337.679   151864035.718        -126.014          46.000  
C25  23743711.444   123639736.105        1635.950          44.000                                                                  
C13  38231510.182   199081505.134       -2231.076          36.000    38231504.157   153942424.481       -1725.820          41.000  
C08  39049105.870   203338940.213       -2440.524          27.000    39049094.192   157234501.529       -1887.179          40.000  
C10  40551980.428                         926.514          32.000    40551981.601   163286068.491         716.567          37.000  
C35  25981131.553   135290572.646         526.451          38.000                                                                  
G25  24166592.899   126996299.845       -3902.292          37.000    24166586.405    98958115.149       -3040.858          37.000  
> 2025 10 30 06 15 04.1200000  0 21                     
G32  21853424.529   114840521.576       -2785.096          47.000    21853418.175    89486092.768       -2170.270          45.000  
G29  23043847.407   121096247.845        -389.180          43.000    23043838.475    94360676.726        -303.230          41.000  
G28  21185141.048   111328668.286       -1118.981          45.000    21185130.734    86749570.753        -872.112          48.000  
G26  20389580.885   107147967.996         856.815          47.000    20389573.960    83491903.850         667.589          46.000  
G31  20634776.937   108436482.569         239.438          47.000    20634766.644    84495919.201         186.754          45.000  
G04  24679015.586   129689100.211        3197.634          35.000    24679012.617   101056441.667        2491.449          42.000  
C33  22468526.258   116999508.023        -516.750          49.000                                                                  
C06  36563264.990   190394515.214        -172.760          45.000    36563247.500   147225045.376        -133.625          48.000  
C14  22542506.997   117384736.684       -2107.307          44.000    22542492.263    90769271.094       -1629.722          49.000  
C16  36989243.076   192612689.858        -206.510          47.000    36989230.806   148940302.153        -159.774          48.000  
C24  21793673.404   113485376.790        -787.195          50.000                                                                  
C26  24277659.319   126420140.670       -2547.846          45.000                                                                  
G03  22887795.242   120276177.556          90.896          38.000    22887789.385    93721667.344          70.699          40.000  
G16  22608289.809   118807366.304        3088.271          34.000                                                                  
C09  37715353.094   196393741.465        -163.302          42.000    37715338.903   151864040.758        -126.044          46.000  
C25  23743698.886   123639670.655        1636.127          44.000                                                                  
C13  38231527.319   199081594.397       -2231.556          36.000    38231521.294   153942493.496       -1725.568          41.000  
C08  39049124.637   203339037.917       -2442.144          32.000    39049112.962   157234577.013       -1887.054          40.000  
C10  40551973.236                         926.258          32.000    40551974.467   163286039.831         716.527          37.000  
C35  25981127.524   135290551.587         526.292          38.000                                                                  
G25  24166622.601   126996455.915       -3902.143          37.000    24166616.120    98958236.753       -3040.435          37.000  
> 2025 10 30 06 15 04.1600000  0 21                     
G32  21853445.711   114840632.973       -2785.050          47.000    21853439.368    89486179.578       -2170.337          45.000  
G29  23043850.369   121096263.409        -389.177          42.000    23043841.442    94360688.849        -303.184          41.000  
G28  21185149.575   111328713.047       -1119.006          45.000    21185139.228    86749605.630        -871.996          48.000  
G26  20389574.336   107147933.714         856.908          47.000    20389567.424    83491877.132         667.836          46.000  
G31  20634775.085   108436472.968         239.815          47.000    20634764.819    84495911.724         186.872          45.000  
G04  24678991.235   129688972.317        3197.521          35.000    24678988.282   101056342.011        2491.373          42.000  
C33  22468530.233   116999528.686        -516.666          49.000                                                                  
C06  36563266.331   190394522.107        -172.524          45.000    36563248.820   147225050.711        -133.483          48.000  
C14  22542523.202   117384820.976       -2107.327          43.000    22542508.462    90769336.272       -1629.580          49.000  
C16  36989244.667   192612698.118        -206.512          47.000    36989232.420   148940308.539        -159.683          48.000  
C24  21793679.456   113485408.274        -787.169          50.000                                                                  
C26  24277678.899   126420242.582       -2547.839          45.000                                                                  
G03  22887794.569   120276173.938          90.500          38.000    22887788.714    93721664.522          70.556          40.000  
G16  22608266.306   118807242.763        3088.360          34.000                                                                  
C09  37715354.358   196393747.980        -163.075          42.000    37715340.163   151864045.794        -125.966          46.000  
C25  23743686.336   123639605.206        1636.212          44.000                                                                  
C13  38231544.476   199081683.646       -2231.445          36.000    38231538.418   153942562.500       -1725.258          41.000  
C08  39049143.389   203339135.549       -2441.659          32.000    39049131.721   157234652.519       -1887.452          40.000  
C10  40551966.286                         926.413          32.000    40551967.332   163286011.171         716.455          37.000  
C35  25981123.476   135290530.515         526.520          39.000                                                                  
G25  24166652.291   126996611.960       -3901.526          37.000    24166645.808    98958358.350       -3040.142          37.000  
> 2025 10 30 06 15 04.2000000  0 21                     
G32  21853466.900   114840744.370       -2785.003          47.000    21853460.565    89486266.376       -2170.165          45.000  
G29  23043853.313   121096278.957        -388.862          42.000    23043844.395    94360700.973        -303.139          41.000  
G28  21185158.097   111328757.803       -1118.995          45.000    21185147.742    86749640.510        -871.991          47.000  
G26  20389567.842   107147899.448         856.674          47.000    20389560.904    83491850.419         667.847          46.000  
G31  20634773.279   108436463.376         239.838          47.000    20634762.976    84495904.249         186.877          45.000  
G04  24678966.901   129688844.435        3197.195          35.000    24678963.946   101056242.346        2491.525          42.000  
C33  22468534.216   116999549.353        -516.698          49.000                                                                  
C06  36563267.644   190394529.007        -172.509          45.000    36563250.113   147225056.047        -133.433          48.000  
C14  22542539.367   117384905.279       -2107.556          43.000    22542524.666    90769401.451       -1629.536          49.000  
C16  36989246.223   192612706.379        -206.513          47.000    36989234.024   148940314.928        -159.713          48.000  
C24  21793685.515   113485439.759        -787.156          50.000                                                                  
C26  24277698.467   126420344.484       -2547.659          44.000                                                                  
G03  22887793.878   120276170.320          90.381          38.000    22887788.031    93721661.689          70.702          40.000  
G16  22608242.777   118807119.206        3088.696          36.000                                                                  
C09  37715355.614   196393754.499        -163.025          42.000    37715341.395   151864050.836        -126.009          46.000  
C25  23743673.742   123639539.754        1636.298          44.000                                                                  
C13  38231561.614   199081772.914       -2231.794          36.000    38231555.578   153942631.520       -1725.391          41.000  
C08  39049162.121   203339233.154       -2440.665          32.000    39049150.469   157234728.006       -1887.303          40.000  
C10  40551959.438                         926.371          32.000    40551960.217   163285982.504         716.637          37.000  
C35  25981119.424   135290509.435         526.842          39.000                                                                  
G25  24166681.990   126996768.024       -3901.533          37.000    24166675.486    98958479.933       -3039.731          36.000  
> 2025 10 30 06 15 04.2400000  0 21                     
G32  21853488.107   114840855.768       -2784.981          47.000    21853481.758    89486353.178       -2170.112          45.000  
G29  23043856.252   121096294.511        -388.821          41.000    23043847.341    94360713.104        -303.252          41.000  
G28  21185166.626   111328802.572       -1119.174          45.000    21185156.265    86749675.394        -872.080          47.000  
G26  20389561.323   107147865.183         856.570          47.000    20389554.369    83491823.715         667.674          46.000  
G31  20634771.481   108436453.788         239.745          47.000    20634761.173    84495896.787         186.625          45.000  
G04  24678942.568   129688716.557        3196.907          35.000    24678939.594   101056142.682        2491.594          42.000  
C33  22468538.179   116999570.031        -516.895          49.000                                                                  
C06  36563268.944   190394535.913        -172.603          45.000    36563251.422   147225061.385        -133.428          48.000  
C14  22542555.565   117384989.581       -2107.628          43.000    22542540.834    90769466.636       -1629.619          49.000  
C16  36989247.768   192612714.651        -206.748          47.000    36989235.610   148940321.320        -159.778          48.000  
C24  21793691.580   113485471.243        -787.129          50.000                                                                  
C26  24277718.026   126420446.395       -2547.698          44.000                                                                  
G03  22887793.198   120276166.710          90.197          38.000    22887787.329    93721658.869          70.519          40.000  
G16  22608219.276   118806995.670        3088.516          36.000                                                                  
C09  37715356.869   196393761.011        -162.887          42.000    37715342.651   151864055.879        -126.073          46.000  
C25  23743661.180   123639474.317        1636.005          44.000                                                                  
C13  38231578.760   199081862.166       -2231.584          36.000    38231572.697   153942700.534       -1725.373          41.000  
C08  39049180.872   203339330.787       -2440.521          32.000    39049169.213   157234803.495       -1887.278          40.000  
C10  40551951.738                         926.664          32.000    40551953.107   163285953.844         716.519          37.000  
C35  25981115.366   135290488.351         527.059          40.000                                                                  
G25  24166711.709   126996924.092       -3901.568          37.000    24166705.172    98958601.559       -3040.310          36.000  
> 2025 10 30 06 15 04.2800000  0 21                     
G32  21853509.304   114840967.171       -2785.040          47.000    21853502.988    89486439.986       -2170.171          45.000  
G29  23043859.224   121096310.076        -389.050          41.000    23043850.295    94360725.231        -303.205          41.000  
G28  21185175.151   111328847.344       -1119.325          45.000    21185164.767    86749710.279        -872.130          47.000  
G26  20389554.775   107147830.919         856.516          47.000    20389547.842    83491797.017         667.502          46.000  
G31  20634769.678   108436444.220         239.314          47.000    20634759.351    84495889.316         186.662          45.000  
G04  24678918.249   129688588.664        3197.089          35.000    24678915.260   101056043.035        2491.269          42.000  
C33  22468542.124   116999590.710        -517.018          49.000                                                                  
C06  36563270.259   190394542.820        -172.723          44.000    36563252.740   147225066.732        -133.573          48.000  
C14  22542571.740   117385073.881       -2107.579          43.000    22542557.007    90769531.830       -1629.814          49.000  
C16  36989249.335   192612722.925        -206.865          47.000    36989237.216   148940327.721        -159.996          48.000  
C24  21793697.591   113485502.739        -787.367          49.000                                                                  
C26  24277737.598   126420548.306       -2547.752          44.000                                                                  
G03  22887792.492   120276163.070          90.679          38.000    22887786.637    93721656.046          70.477          40.000  
G16  22608195.794   118806872.155        3087.957          36.000                                                                  
C09  37715358.131   196393767.545        -163.199          42.000    37715343.916   151864060.918        -126.034          46.000  
C25  23743648.631   123639408.877        1635.931          44.000                                                                  
C13  38231595.905   199081951.389       -2230.816          36.000    38231589.872   153942769.568       -1725.765          41.000  
C08  39049199.621   203339428.379       -2439.747          32.000    39049187.987   157234878.986       -1887.292          40.000  
C10  40551944.398                         926.997          32.000    40551945.998   163285925.181         716.479          37.000  
C35  25981111.295   135290467.285         526.855          40.000                                                                  
G25  24166741.421   126997080.175       -3901.883          37.000    24166734.869    98958723.187       -3040.724          36.000  
> 2025 10 30 06 15 04.3200000  0 21                     
G32  21853530.503   114841078.585       -2785.265          47.000    21853524.193    89486526.794       -2170.229          45.000  
G29  23043862.210   121096325.648        -389.287          41.000    23043853.239    94360737.354        -303.150          41.000  
G28  21185183.697   111328892.120       -1119.429          45.000    21185173.304    86749745.164        -872.125          47.000  
G26  20389548.232   107147796.650         856.615          47.000    20389541.311    83491770.317         667.454          46.000  
G31  20634767.862   108436434.639         239.353          47.000    20634757.543    84495881.851         186.595          45.000  
G04  24678893.932   129688460.764        3197.347          35.000    24678890.944   101055943.389        2491.141          42.000  
C33  22468546.093   116999611.392        -517.117          49.000                                                                  
C06  36563271.585   190394549.733        -172.855          44.000    36563254.062   147225072.084        -133.761          48.000  
C14  22542587.910   117385158.180       -2107.521          43.000    22542573.185    90769597.019       -1629.830          49.000  
C16  36989250.914   192612731.193        -206.822          47.000    36989238.807   148940334.122        -160.094          48.000  
C24  21793703.634   113485534.230        -787.360          49.000                                                                  
C26  24277757.205   126420650.211       -2547.693          44.000                                                                  
G03  22887791.827   120276159.453          90.519          38.000    22887785.933    93721653.227          70.384          40.000  
G16  22608172.313   118806748.613        3088.350          36.000                                                                  
C09  37715359.400   196393774.072        -163.261          42.000    37715345.145   151864065.967        -126.199          46.000  
C25  23743636.086   123639343.443        1635.785          44.000                                                                  
C13  38231613.033   199082040.637       -2230.876          36.000    38231607.001   153942838.598       -1725.843          41.000  
C08  39049218.361                       -2441.641          32.000    39049206.751   157234954.482       -1887.398          40.000  
C10  40551937.013                         926.955          32.000    40551938.882   163285896.519         716.487          37.000  
C35  25981107.229   135290446.226         526.572          40.000                                                                  
G25  24166771.126   126997236.252       -3902.056          37.000    24166764.570    98958844.804       -3040.547          36.000  
> 2025 10 30 06 15 04.3600000  0 21                     
G32  21853551.690   114841189.993       -2785.287          47.000    21853545.401    89486613.601       -2170.231          45.000  
G29  23043865.180   121096341.226        -389.497          41.000    23043856.192    94360749.490        -303.371          41.000  
G28  21185192.214   111328936.888       -1119.361          45.000    21185181.813    86749780.045        -872.085          47.000  
G26  20389541.721   107147762.388         856.535          47.000    20389534.783    83491743.619         667.405          46.000  
G31  20634766.018   108436425.050         239.526          47.000    20634755.730    84495874.388         186.540          45.000  
G04  24678869.564   129688332.858        3197.506          35.000    24678866.617   101055843.736        2491.207          42.000  
C33  22468550.080   116999632.068        -517.022          49.000                                                                  
C06  36563272.912   190394556.635        -172.704          44.000    36563255.397   147225077.423        -133.644          48.000  
C14  22542604.086   117385242.492       -2107.744          43.000    22542589.390    90769662.206       -1629.764          49.000  
C16  36989252.513   192612739.456        -206.704          47.000    36989240.377   148940340.515        -159.965          48.000  
C24  21793709.683   113485565.721        -787.336          49.000                                                                  
C26  24277776.759   126420752.133       -2547.963          44.000                                                                  
G03  22887791.130   120276155.845          90.287          38.000    22887785.265    93721650.409          70.394          39.000  
G16  22608148.804   118806625.073        3088.444          36.000                                                                  
C09  37715360.667   196393780.592        -163.131          42.000    37715346.396   151864071.014        -126.261          47.000  
C25  23743623.529   123639278.001        1635.938          44.000                                                                  
C13  38231630.166   199082129.906       -2231.459          36.000    38231624.154   153942907.610       -1725.549          41.000  
C08  39049237.087                       -2440.771          32.000    39049225.521   157235029.985       -1887.575          40.000  
C10  40551929.784                         926.483          32.000    40551931.758   163285867.851         716.661          37.000  
C35  25981103.184   135290425.172         526.356          40.000                                                                  
G25  24166800.833   126997392.335       -3902.178          37.000    24166794.267    98958966.430       -3040.621          36.000  
> 2025 10 30 06 15 04.4000000  0 21                     
G32  21853572.886   114841301.393       -2785.112          47.000    21853566.612    89486700.416       -2170.365          45.000  
G29  23043868.150   121096356.793        -389.347          41.000    23043859.147    94360761.616        -303.281          41.000  
G28  21185200.733   111328981.652       -1119.190          45.000    21185190.339    86749814.929        -872.105          47.000  
G26  20389535.191   107147728.119         856.646          47.000    20389528.251    83491716.925         667.301          46.000  
G31  20634764.222   108436415.471         239.439          47.000    20634753.897    84495866.931         186.398          45.000  
G04  24678845.244   129688205.012        3196.638          35.000    24678842.282   101055744.077        2491.394          42.000  
C33  22468554.056   116999652.751        -517.084          49.000                                                                  
C06  36563274.238   190394563.549        -172.843          44.000    36563256.728   147225082.756        -133.453          48.000  
C14  22542620.305   117385326.802       -2107.843          43.000    22542605.555    90769727.394       -1629.719          49.000  
C16  36989254.087   192612747.726        -206.762          47.000    36989241.955   148940346.903        -159.777          48.000  
C24  21793715.739   113485597.216        -787.385          49.000                                                                  
C26  24277796.318   126420854.040       -2547.856          44.000                                                                  
G03  22887790.443   120276152.222          90.499          38.000    22887784.574    93721647.595          70.352          39.000  
G16  22608125.306   118806501.522        3088.687          36.000                                                                  
C09  37715361.912   196393787.120        -163.175          42.000    37715347.646   151864076.064        -126.315          47.000  
C25  23743610.943   123639212.563        1635.925          44.000                                                                  
C13  38231647.326   199082219.178       -2231.754          36.000    38231641.323   153942976.622       -1725.357          41.000  
C08  39049255.827                       -2440.474          32.000    39049244.293   157235105.471       -1887.363          40.000  
C10  40551922.983                         926.555          32.000    40551924.651   163285839.181         716.734          37.000  
C35  25981099.134   135290404.086         526.881          40.000                                                                  
G25  24166830.525   126997548.413       -3902.113          37.000    24166823.972    98959088.039       -3040.346          36.000  
> 2025 10 30 06 15 04.4400000  0 21                     
G32  21853594.096   114841412.784       -2784.874          47.000    21853587.793    89486787.226       -2170.341          45.000  
G29  23043871.123   121096372.362        -389.296          41.000    23043862.106    94360773.741        -303.199          41.000  
G28  21185209.241   111329026.413       -1119.055          45.000    21185198.848    86749849.811        -872.079          47.000  
G26  20389528.685   107147693.854         856.615          47.000    20389521.713    83491690.221         667.468          46.000  
G31  20634762.390   108436405.881         239.637          47.000    20634752.058    84495859.463         186.578          45.000  
G04  24678820.920   129688077.112        3197.079          35.000    24678817.951   101055644.418        2491.455          42.000  
C33  22468558.010   116999673.432        -517.076          49.000                                                                  
C06  36563275.556   190394570.463        -172.897          44.000    36563258.079   147225088.093        -133.419          48.000  
C14  22542636.492   117385411.107       -2107.744          43.000    22542621.773    90769792.584       -1629.738          49.000  
C16  36989255.707   192612755.990        -206.657          47.000    36989243.559   148940353.287        -159.626          48.000  
C24  21793721.775   113485628.711        -787.383          49.000                                                                  
C26  24277815.878   126420955.953       -2547.869          44.000                                                                  
G03  22887789.769   120276148.608          90.385          38.000    22887783.892    93721644.788          70.157          39.000  
G16  22608101.837   118806377.972        3088.745          37.000                                                                  
C09  37715363.159   196393793.634        -162.958          42.000    37715348.915   151864081.105        -126.161          47.000  
C25  23743598.367   123639147.111        1636.206          44.000                                                                  
C13  38231664.477   199082308.451       -2231.899          36.000    38231658.487   153943045.643       -1725.471          41.000  
C08  39049274.570   203339818.921       -2440.356          32.000    39049263.038   157235180.970       -1887.507          40.000  
C10  40551916.001                         926.424          32.000    40551917.542   163285810.535         716.359          37.000  
C35  25981095.074   135290383.000         527.181          40.000                                                                  
G25  24166860.234   126997704.466       -3901.594          37.000    24166853.661    98959209.653       -3040.273          36.000  
> 2025 10 30 06 15 04.4800000  0 21                     
G32  21853615.314   114841524.180       -2784.842          47.000    21853608.987    89486874.033       -2170.253          45.000  
G29  23043874.049   121096387.925        -389.140          42.000    23043865.056    94360785.888        -303.563          41.000  
G28  21185217.776   111329071.184       -1119.211          45.000    21185207.371    86749884.685        -871.933          47.000  
G26  20389522.164   107147659.584         856.689          47.000    20389515.197    83491663.521         667.474          46.000  
G31  20634760.560   108436396.301         239.550          47.000    20634750.223    84495851.991         186.726          45.000  
G04  24678796.572   129687949.189        3197.720          35.000    24678793.614   101055544.749        2491.659          42.000  
C33  22468561.987   116999694.118        -517.146          49.000                                                                  
C06  36563276.870   190394577.373        -172.825          44.000    36563259.429   147225093.438        -133.553          48.000  
C14  22542652.693   117385495.406       -2107.565          43.000    22542637.953    90769857.782       -1629.902          49.000  
C16  36989257.295   192612764.261        -206.749          47.000    36989245.121   148940359.678        -159.670          48.000  
C24  21793727.852   113485660.198        -787.266          49.000                                                                  
C26  24277835.451   126421057.861       -2547.765          44.000                                                                  
G03  22887789.075   120276144.996          90.309          38.000    22887783.201    93721641.948          70.647          39.000  
G16  22608078.350   118806254.426        3088.691          37.000                                                                  
C09  37715364.402   196393800.162        -163.101          42.000    37715350.169   151864086.146        -126.066          47.000  
C25  23743585.784   123639081.671        1636.108          44.000                                                                  
C13  38231681.623   199082397.691       -2231.413          36.000    38231675.639   153943114.669       -1725.563          41.000  
C08  39049293.312   203339916.559       -2440.705          33.000    39049281.818   157235256.468       -1887.544          40.000  
C10  40551909.230                         926.348          32.000    40551910.438   163285781.872         716.524          37.000  
C35  25981091.014   135290361.936         526.873          40.000                                                                  
G25  24166889.949   126997860.531       -3901.499          37.000    24166883.360    98959331.259       -3040.221          36.000  
> 2025 10 30 06 15 04.5200000  0 21                     
G32  21853636.516   114841635.596       -2785.219          47.000    21853630.194    89486960.834       -2170.138          45.000  
G29  23043877.009   121096403.487        -389.066          42.000    23043868.020    94360798.019        -303.466          41.000  
G28  21185226.290   111329115.954       -1119.277          45.000    21185215.904    86749919.576        -872.151          47.000  
G26  20389515.663   107147625.323         856.541          47.000    20389508.670    83491636.820         667.505          46.000  
G31  20634758.732   108436386.719         239.513          47.000    20634748.400    84495844.525         186.682          45.000  
G04  24678772.233   129687821.303        3197.375          35.000    24678769.268   101055445.106        2491.278          42.000  
C33  22468565.988   116999714.801        -517.144          49.000                                                                  
C06  36563278.183   190394584.281        -172.731          44.000    36563260.798   147225098.781        -133.611          48.000  
C14  22542668.891   117385579.716       -2107.655          43.000    22542654.138    90769922.978       -1629.951          49.000  
C16  36989258.881   192612772.528        -206.724          47.000    36989246.688   148940366.080        -159.938          48.000  
C24  21793733.880   113485691.695        -787.366          49.000                                                                  
C26  24277855.036   126421159.775       -2547.804          45.000                                                                  
G03  22887788.400   120276141.393          90.090          38.000    22887782.523    93721639.145          70.242          39.000  
G16  22608054.858   118806130.900        3088.302          37.000                                                                  
C09  37715365.657   196393806.682        -163.057          42.000    37715351.426   151864091.184        -125.985          47.000  
C25  23743573.202   123639016.238        1635.883          44.000                                                                  
C13  38231698.775   199082486.971       -2231.844          36.000    38231692.798   153943183.690       -1725.531          40.000  
C08  39049312.037   203340014.220       -2441.379          33.000    39049300.578   157235331.951       -1887.265          40.000  
C10  40551902.205                         927.361          32.000    40551903.316   163285753.214         716.498          37.000  
C35  25981086.942   135290340.875         526.628          40.000                                                                  
G25  24166919.640   126998016.631       -3902.134          37.000    24166913.054    98959452.875       -3040.404          36.000  
> 2025 10 30 06 15 04.5600000  0 21                     
G32  21853657.737   114841747.013       -2785.440          47.000    21853651.401    89487047.646       -2170.239          45.000  
G29  23043879.973   121096419.056        -389.162          42.000    23043870.998    94360810.150        -303.339          41.000  
G28  21185234.801   111329160.729       -1119.387          45.000    21185224.433    86749954.459        -872.113          47.000  
G26  20389509.147   107147591.063         856.467          47.000    20389502.144    83491610.127         667.350          46.000  
G31  20634756.914   108436377.141         239.427          47.000    20634746.598    84495837.069         186.435          45.000  
G04  24678747.881   129687693.410        3197.248          35.000    24678744.944   101055345.454        2491.204          42.000  
C33  22468569.973   116999735.487        -517.162          49.000                                                                  
C06  36563279.507   190394591.194        -172.780          44.000    36563262.123   147225104.125        -133.628          48.000  
C14  22542685.078   117385664.017       -2107.534          43.000    22542670.312    90769988.170       -1629.891          49.000  
C16  36989260.476   192612780.798        -206.762          47.000    36989248.277   148940372.478        -160.024          48.000  
C24  21793739.888   113485723.197        -787.528          49.000                                                                  
C26  24277874.638   126421261.685       -2547.774          45.000                                                                  
G03  22887787.691   120276137.771          90.312          38.000    22887781.856    93721636.353          69.772          39.000  
G16  22608031.359   118806007.358        3088.390          37.000                                                                  
C09  37715366.944   196393813.199        -162.969          42.000    37715352.669   151864096.248        -126.418          46.000  
C25  23743560.655   123638950.801        1635.858          44.000                                                                  
C13  38231715.931   199082576.227       -2231.649          36.000    38231709.967   153943252.702       -1725.357          40.000  
C08  39049330.765   203340111.845       -2441.119          33.000    39049319.320   157235407.454       -1887.471          40.000  
C10  40551894.947                         926.519          32.000    40551896.207   163285724.541         716.711          37.000  
C35  25981082.892   135290319.828         526.223          39.000                                                                  
G25  24166949.329   126998172.706       -3902.033          37.000    24166942.756    98959574.518       -3041.005          36.000  
> 2025 10 30 06 15 04.6000000  0 21                     
G32  21853678.898   114841858.422       -2785.386          47.000    21853672.605    89487134.459       -2170.337          45.000  
G29  23043882.950   121096434.630        -389.324          43.000    23043873.963    94360822.289        -303.413          41.000  
G28  21185243.323   111329205.499       -1119.346          45.000    21185232.947    86749989.344        -872.129          47.000  
G26  20389502.637   107147556.797         856.542          47.000    20389495.628    83491583.432         667.339          46.000  
G31  20634755.086   108436367.562         239.415          47.000    20634744.779    84495829.606         186.467          45.000  
G04  24678723.555   129687565.531        3197.044          35.000    24678720.647   101055245.812        2491.085          42.000  
C33  22468573.957   116999756.172        -517.161          49.000                                                                  
C06  36563280.854   190394598.101        -172.709          44.000    36563263.467   147225109.469        -133.638          48.000  
C14  22542701.274   117385748.326       -2107.656          43.000    22542686.524    90770053.360       -1629.810          49.000  
C16  36989262.071   192612789.072        -206.859          47.000    36989249.869   148940378.878        -160.073          48.000  
C24  21793745.961   113485754.693        -787.496          49.000                                                                  
C26  24277894.207   126421363.594       -2547.733          45.000                                                                  
G03  22887786.992   120276134.158          90.280          38.000    22887781.174    93721633.542          69.968          38.000  
G16  22608007.842   118805883.813        3088.519          37.000                                                                  
C09  37715368.198   196393819.721        -162.987          42.000    37715353.909   151864101.299        -126.394          46.000  
C25  23743548.096   123638885.367        1635.809          44.000                                                                  
C13  38231733.086   199082665.478       -2231.412          36.000    38231727.101   153943321.730       -1725.564          40.000  
C08  39049349.495   203340209.507       -2441.531          33.000    39049338.072   157235482.956       -1887.562          40.000  
C10  40551887.891                         927.374          32.000    40551889.075   163285695.871         716.778          37.000  
C35  25981078.825   135290298.776         526.160          39.000                                                                  
G25  24166979.031   126998328.776       -3901.768          37.000    24166972.453    98959696.121       -3040.533          36.000  
> 2025 10 30 06 15 04.6400000  0 21                     
G32  21853700.080   114841969.811       -2784.998          47.000    21853693.786    89487221.261       -2170.170          45.000  
G29  23043885.916   121096450.198        -389.272          43.000    23043876.930    94360834.422        -303.382          41.000  
G28  21185251.857   111329250.265       -1119.244          46.000    21185241.464    86750024.222        -872.032          47.000  
G26  20389496.113   107147522.526         856.709          47.000    20389489.113    83491556.731         667.462          46.000  
G31  20634753.279   108436357.988         239.342          47.000    20634742.962    84495822.132         186.720          45.000  
G04  24678699.206   129687437.626        3197.481          35.000    24678696.319   101055146.160        2491.140          42.000  
C33  22468577.928   116999776.856        -517.135          49.000                                                                  
C06  36563282.188   190394604.997        -172.495          44.000    36563264.790   147225114.811        -133.583          48.000  
C14  22542717.490   117385832.634       -2107.694          43.000    22542702.705    90770118.549       -1629.760          49.000  
C16  36989263.665   192612797.336        -206.699          47.000    36989251.487   148940385.267        -159.910          48.000  
C24  21793752.016   113485786.189        -787.476          49.000                                                                  
C26  24277913.785   126421465.509       -2547.814          45.000                                                                  
G03  22887786.311   120276130.541          90.369          38.000    22887780.487    93721630.714          70.358          38.000  
G16  22607984.301   118805760.276        3088.408          37.000                                                                  
C09  37715369.443   196393826.238        -162.937          43.000    37715355.167   151864106.337        -126.119          46.000  
C25  23743535.537   123638819.921        1636.035          44.000                                                                  
C13  38231750.236   199082754.734       -2231.319          36.000    38231744.234   153943390.754       -1725.619          40.000  
C08  39049368.237   203340307.117       -2440.852          33.000    39049356.830   157235558.444       -1887.384          40.000  
C10  40551880.504                         926.919          32.000    40551881.974   163285667.212         716.598          37.000  
C35  25981074.771   135290277.706         526.516          39.000                                                                  
G25  24167008.716   126998484.851       -3901.782          37.000    24167002.166    98959817.752       -3040.733          36.000  
> 2025 10 30 06 15 04.6800000  0 21                     
G32  21853721.271   114842081.215       -2785.030          47.000    21853715.010    89487308.073       -2170.292          45.000  
G29  23043888.873   121096465.773        -389.379          43.000    23043879.894    94360846.554        -303.345          41.000  
G28  21185260.340   111329295.029       -1119.133          46.000    21185249.999    86750059.103        -872.050          48.000  
G26  20389489.594   107147488.266         856.566          47.000    20389482.613    83491530.036         667.388          46.000  
G31  20634751.442   108436348.411         239.348          46.000    20634741.133    84495814.666         186.688          45.000  
G04  24678674.838   129687309.735        3197.301          35.000    24678671.966   101055046.487        2491.592          42.000  
C33  22468581.889   116999797.547        -517.264          49.000                                                                  
C06  36563283.512   190394611.899        -172.496          44.000    36563266.118   147225120.147        -133.474          48.000  
C14  22542733.667   117385916.957       -2107.965          43.000    22542718.916    90770183.744       -1629.830          49.000  
C16  36989265.238   192612805.606        -206.734          47.000    36989253.107   148940391.650        -159.703          48.000  
C24  21793758.054   113485817.678        -787.338          49.000                                                                  
C26  24277933.380   126421567.416       -2547.727          45.000                                                                  
G03  22887785.632   120276126.949          89.883          38.000    22887779.813    93721627.898          70.386          38.000  
G16  22607960.790   118805636.735        3088.455          37.000                                                                  
C09  37715370.693   196393832.767        -163.115          43.000    37715356.424   151864111.375        -125.969          46.000  
C25  23743522.975   123638754.480        1636.041          44.000                                                                  
C13  38231767.364   199082843.999       -2231.642          36.000    38231761.391   153943459.777       -1725.613          40.000  
C08  39049387.029   203340404.738       -2440.600          33.000    39049375.585   157235633.944       -1887.502          41.000  
C10  40551873.429                         925.903          32.000    40551874.843   163285638.550         716.496          37.000  
C35  25981070.721   135290256.632         526.803          38.000                                                                  
G25  24167038.416   126998640.927       -3901.866          37.000    24167031.865    98959939.379       -3040.729          36.000  
> 2025 10 30 06 15 04.7200000  0 21                     
G32  21853742.474   114842192.615       -2784.993          47.000    21853736.214    89487394.888       -2170.381          45.000  
G29  23043891.827   121096481.336        -389.183          43.000    23043882.871    94360858.691        -303.422          41.000  
G28  21185268.852   111329339.795       -1119.138          46.000    21185258.527    86750093.988        -872.125          48.000  
G26  20389483.086   107147454.003         856.567          47.000    20389476.097    83491503.338         667.394          46.000  
G31  20634749.618   108436338.827         239.521          46.000    20634739.297    84495807.196         186.756          45.000  
G04  24678650.501   129687181.879        3196.652          35.000    24678647.638   101054946.829        2491.611          42.000  
C33  22468585.871   116999818.235        -517.261          49.000                                                                  
C06  36563284.858   190394618.807        -172.606          44.000    36563267.425   147225125.483        -133.411          48.000  
C14  22542749.874   117386001.267       -2107.845          43.000    22542735.121    90770248.939       -1629.881          49.000  
C16  36989266.797   192612813.870        -206.650          47.000    36989254.699   148940398.037        -159.656          48.000  
C24  21793764.095   113485849.168        -787.250          49.000                                                                  
C26  24277952.936   126421669.318       -2547.612          45.000                                                                  
G03  22887784.967   120276123.335          90.115          38.000    22887779.138    93721625.079          70.493          38.000  
G16  22607937.256   118805513.209        3088.162          37.000                                                                  
C09  37715371.941   196393839.286        -163.025          43.000    37715357.652   151864116.409        -125.839          46.000  
C25  23743510.396   123638689.038        1636.041          44.000                                                                  
C13  38231784.525   199082933.247       -2231.460          36.000    38231778.543   153943528.784       -1725.275          40.000  
C08  39049405.797   203340502.362       -2440.591          33.000    39049394.322   157235709.419       -1887.116          41.000  
C10  40551866.414                         925.089          32.000    40551867.736   163285609.878         716.663          37.000  
C35  25981066.666   135290235.585         526.442          38.000                                                                  
G25  24167068.133   126998797.003       -3901.935          37.000    24167061.549    98960060.956       -3039.844          36.000  
> 2025 10 30 06 15 04.7600000  0 21                     
G32  21853763.706   114842304.021       -2785.094          47.000    21853757.413    89487481.686       -2170.158          45.000  
G29  23043894.772   121096496.903        -389.165          43.000    23043885.833    94360870.827        -303.492          41.000  
G28  21185277.374   111329384.562       -1119.175          46.000    21185267.051    86750128.868        -872.097          48.000  
G26  20389476.572   107147419.754         856.289          47.000    20389469.571    83491476.642         667.370          46.000  
G31  20634747.785   108436329.244         239.595          46.000    20634737.483    84495799.737         186.571          45.000  
G04  24678626.179   129687053.991        3196.913          35.000    24678623.288   101054847.172        2491.497          42.000  
C33  22468589.863   116999838.917        -517.158          49.000                                                                  
C06  36563286.197   190394625.715        -172.698          44.000    36563268.760   147225130.816        -133.342          48.000  
C14  22542766.089   117386085.575       -2107.730          43.000    22542751.324    90770314.134       -1629.912          49.000  
C16  36989268.358   192612822.134        -206.602          47.000    36989256.296   148940404.431        -159.776          48.000  
C24  21793770.121   113485880.657        -787.227          49.000                                                                  
C26  24277972.510   126421771.222       -2547.576          45.000                                                                  
G03  22887784.267   120276119.725          90.204          38.000    22887778.459    93721622.258          70.438          38.000  
G16  22607913.724   118805389.674        3088.165          37.000                                                                  
C09  37715373.195   196393845.804        -162.982          43.000    37715358.882   151864121.448        -125.882          45.000  
C25  23743497.815   123638623.596        1636.029          44.000                                                                  
C13  38231801.669   199083022.525       -2231.826          36.000    38231795.692   153943597.813       -1725.552          40.000  
C08  39049424.523   203340599.982       -2440.466          33.000    39049413.071   157235784.914       -1887.257          41.000  
C10  40551858.944                         926.508          31.000    40551860.626   163285581.208         716.679          37.000  
C35  25981062.613   135290214.539         526.186          38.000                                                                  
G25  24167097.823   126998953.064       -3901.672          37.000    24167091.246    98960182.570       -3040.043          36.000  
> 2025 10 30 06 15 04.8000000  0 21                     
G32  21853784.919   114842415.431       -2785.250          47.000    21853778.626    89487568.490       -2170.137          45.000  
G29  23043897.732   121096512.474        -389.249          43.000    23043888.787    94360882.959        -303.376          41.000  
G28  21185285.882   111329429.327       -1119.156          46.000    21185275.553    86750163.755        -872.174          48.000  
G26  20389470.041   107147385.499         856.315          47.000    20389463.061    83491449.949         667.333          46.000  
G31  20634745.939   108436319.655         239.698          46.000    20634735.667    84495792.271         186.577          45.000  
G04  24678601.854   129686926.095        3197.327          35.000    24678598.963   101054747.519        2491.372          42.000  
C33  22468593.872   116999859.597        -517.043          49.000                                                                  
C06  36563287.523   190394632.628        -172.805          44.000    36563270.076   147225136.155        -133.412          48.000  
C14  22542782.294   117386169.879       -2107.618          43.000    22542767.509    90770379.325       -1629.841          49.000  
C16  36989269.910   192612830.402        -206.675          47.000    36989257.874   148940410.827        -159.899          48.000  
C24  21793776.145   113485912.158        -787.413          49.000                                                                  
C26  24277992.066   126421873.134       -2547.734          45.000                                                                  
G03  22887783.591   120276116.123          90.071          39.000    22887777.778    93721619.471          69.758          38.000  
G16  22607890.229   118805266.140        3088.246          37.000                                                                  
C09  37715374.465   196393852.321        -162.957          44.000    37715360.125   151864126.496        -126.093          45.000  
C25  23743485.237   123638558.160        1635.925          44.000                                                                  
C13  38231818.785   199083111.782       -2231.605          36.000    38231812.841   153943666.840       -1725.670          40.000  
C08  39049443.267   203340697.626       -2440.940          33.000    39049431.843   157235860.424       -1887.624          41.000  
C10  40551852.046                         927.281          31.000    40551853.518   163285552.542         716.641          37.000  
C35  25981058.573   135290193.472         526.466          37.000                                                                  
G25  24167127.531   126999109.142       -3901.772          37.000    24167120.950    98960304.188       -3040.323          36.000  
> 2025 10 30 06 15 04.8400000  0 21                     
G32  21853806.096   114842526.844       -2785.343          47.000    21853799.815    89487655.301       -2170.248          45.000  
G29  23043900.721   121096528.051        -389.418          43.000    23043891.735    94360895.113        -303.767          41.000  
G28  21185294.431   111329474.098       -1119.249          46.000    21185284.066    86750198.634        -872.051          48.000  
G26  20389463.503   107147351.228         856.599          47.000    20389456.523    83491423.244         667.499          46.000  
G31  20634744.128   108436310.072         239.655          46.000    20634733.847    84495784.814         186.436          45.000  
G04  24678577.509   129686798.176        3197.876          35.000    24678574.647   101054647.864        2491.377          42.000  
C33  22468597.810   116999880.287        -517.160          49.000                                                                  
C06  36563288.848   190394639.533        -172.708          45.000    36563271.384   147225141.494        -133.445          48.000  
C14  22542798.504   117386254.189       -2107.658          43.000    22542783.681    90770444.522       -1629.905          49.000  
C16  36989271.485   192612838.665        -206.636          47.000    36989259.446   148940417.216        -159.818          48.000  
C24  21793782.167   113485943.656        -787.467          49.000                                                                  
C26  24278011.665   126421975.044       -2547.777          45.000                                                                  
G03  22887782.909   120276112.523          89.945          39.000    22887777.102    93721616.655          70.030          38.000  
G16  22607866.728   118805142.595        3088.494          37.000                                                                  
C09  37715375.716   196393858.835        -162.896          44.000    37715361.395   151864131.541        -126.135          45.000  
C25  23743472.676   123638492.726        1635.864          44.000                                                                  
C13  38231835.920   199083201.048       -2231.623          36.000    38231829.966   153943735.868       -1725.768          40.000  
C08  39049461.990   203340795.254       -2440.810          33.000    39049450.607   157235935.911       -1887.408          41.000  
C10  40551845.285                         927.402          31.000    40551846.384   163285523.869         716.723          37.000  
C35  25981054.523   135290172.441         526.001          37.000                                                                  
G25  24167157.224   126999265.203       -3901.533          37.000    24167150.658    98960425.807       -3040.494          36.000  
> 2025 10 30 06 15 04.8800000  0 21                     
G32  21853827.290   114842638.248       -2785.215          47.000    21853821.026    89487742.117       -2170.367          45.000  
G29  23043903.682   121096543.620        -389.334          44.000    23043894.701    94360907.254        -303.725          41.000  
G28  21185302.934   111329518.861       -1119.147          46.000    21185292.576    86750233.516        -872.060          48.000  
G26  20389456.995   107147316.967         856.574          47.000    20389450.010    83491396.554         667.289          46.000  
G31  20634742.320   108436300.493         239.544          46.000    20634732.044    84495777.353         186.461          45.000  
G04  24678553.178   129686670.278        3197.820          35.000    24678550.288   101054548.201        2491.515          42.000  
C33  22468601.798   116999900.973        -517.166          49.000                                                                  
C06  36563290.185   190394646.430        -172.532          45.000    36563272.755   147225146.842        -133.636          48.000  
C14  22542814.680   117386338.503       -2107.760          43.000    22542799.898    90770509.716       -1629.872          49.000  
C16  36989273.092   192612846.921        -206.476          46.000    36989261.017   148940423.599        -159.663          48.000  
C24  21793788.231   113485975.155        -787.505          49.000                                                                  
C26  24278031.248   126422076.959       -2547.859          45.000                                                                  
G03  22887782.242   120276108.911          90.110          39.000    22887776.410    93721613.844          70.126          38.000  
G16  22607843.218   118805019.051        3088.605          37.000                                                                  
C09  37715376.948   196393865.360        -163.075          44.000    37715362.635   151864136.568        -125.822          45.000  
C25  23743460.123   123638427.279        1636.023          44.000                                                                  
C13  38231853.052   199083290.290       -2231.225          36.000    38231847.118   153943804.899       -1725.873          40.000  
C08  39049480.711   203340892.895       -2441.017          33.000    39049469.356   157236011.404       -1887.376          41.000  
C10  40551838.050                         927.176          31.000    40551839.259   163285495.207         716.596          38.000  
C35  25981050.479   135290151.402         525.834          37.000                                                                  
G25  24167186.945   126999421.303       -3902.139          37.000    24167180.354    98960547.402       -3040.160          36.000  
> 2025 10 30 06 15 04.9200000  0 21                     
G32  21853848.494   114842749.640       -2784.920          47.000    21853842.239    89487828.927       -2170.305          45.000  
G29  23043906.652   121096559.189        -389.277          43.000    23043897.659    94360919.387        -303.503          41.000  
G28  21185311.440   111329563.626       -1119.115          46.000    21185301.090    86750268.398        -872.032          48.000  
G26  20389450.473   107147282.708         856.500          47.000    20389443.494    83491369.860         667.302          46.000  
G31  20634740.468   108436290.908         239.581          46.000    20634730.216    84495769.883         186.646          45.000  
G04  24678528.848   129686542.412        3196.817          35.000    24678525.965   101054448.542        2491.506          42.000  
C33  22468605.782   116999921.657        -517.135          49.000                                                                  
C06  36563291.513   190394653.324        -172.379          45.000    36563274.050   147225152.172        -133.413          48.000  
C14  22542830.859   117386422.816       -2107.816          43.000    22542816.075    90770574.909       -1629.859          49.000  
C16  36989274.683   192612855.181        -206.466          46.000    36989262.602   148940429.988        -159.665          48.000  
C24  21793794.270   113486006.642        -787.313          49.000                                                                  
C26  24278050.844   126422178.859       -2547.665          45.000                                                                  
G03  22887781.573   120276105.309          90.060          39.000    22887775.739    93721611.026          70.398          38.000  
G16  22607819.684   118804895.501        3088.701          37.000                                                                  
C09  37715378.201   196393871.876        -163.010          44.000    37715363.881   151864141.606        -125.858          45.000  
C25  23743447.589   123638361.830        1636.169          44.000                                                                  
C13  38231870.199   199083379.537       -2231.129          36.000    38231864.265   153943873.908       -1725.436          39.000  
C08  39049499.484   203340990.497       -2440.396          33.000    39049488.118   157236086.880       -1887.030          41.000  
C10  40551831.435                         926.986          31.000    40551832.148   163285466.557         716.293          38.000  
C35  25981046.447   135290130.311         526.813          35.000                                                                  
G25  24167216.637   126999577.381       -3902.180          37.000    24167210.069    98960669.038       -3040.626          36.000  
