     3.04           OBSERVATION DATA    M: Mixed            RINEX VERSION / TYPE
RTKCONV 2.4.3 b34                       20251030 064146 UTC PGM / RUN BY / DATE 
format: u-blox UBX                                          COMMENT             
log: D:\GPdata\10_30\fingure_290_phone_10_30_3.ubx          COMMENT             
                                                            MARKER NAME         
                                                            MARKER NUMBER       
                                                            MARKER TYPE         
                                                            OBSERVER / AGENCY   
                                                            REC # / TYPE / VERS 
                                                            ANT # / TYPE        
        0.0000        0.0000        0.0000                  APPROX POSITION XYZ 
        0.0000        0.0000        0.0000                  ANTENNA: DELTA H/E/N
G    8 C1C L1C D1C S1C C2L L2L D2L S2L                      SYS / # / OBS TYPES 
C    8 C2I L2I D2I S2I C7I L7I D7I S7I                      SYS / # / OBS TYPES 
  2025    10    30    06    22   43.1600000     GPS         TIME OF FIRST OBS   
  2025    10    30    06    23   04.4800000     GPS         TIME OF LAST OBS    
G L1C                                                       SYS / PHASE SHIFT   
G L2L  0.00000                                              SYS / PHASE SHIFT   
C L2I                                                       SYS / PHASE SHIFT   
C L7I                                                       SYS / PHASE SHIFT   
  0                                                         GLONASS SLOT / FRQ #
 C1C    0.000 C1P    0.000 C2C    0.000 C2P    0.000        GLONASS COD/PHS/BIS 
                                                            END OF HEADER       
> 2025 10 30 06 22 43.1600000  0 23                     
G32  22105273.545   116163992.4801      -2979.607          45.000    22105267.798    90517360.9441      -2321.864          41.000  
G29  23090446.013   121341126.9421       -678.270          41.000    23090437.478    94551497.4951       -528.452          40.000  
G28  21287403.342   111866060.9971      -1222.651          45.000    21287393.148    87168318.4131       -952.676          47.000  
G26  20325618.447   106811846.5341        607.511          48.000    20325611.337    83229991.8311        473.461          46.000  
G31  20619346.057   108355392.6371        113.275          47.000    20619335.181    84432732.5221         88.268          46.000  
G04  24400812.234   128227111.1711       3169.451          37.000    24400808.271    99917258.1921       2469.794          41.000  
C33  22525827.028   117297887.3781       -783.256          50.000                                                                  
C06  36577709.116   190469730.3961       -155.085          45.000    36577691.639   147283206.7611       -119.972          48.000  
C14  22737879.403   118402089.7641      -2323.339          44.000    22737864.808    91555952.4271      -1796.488          49.000  
C16  37006486.225   192702482.2361       -184.568          47.000    37006474.211   149009735.4521       -142.743          48.000  
C24  21867922.067   113872013.0411       -896.334          50.000                                                                  
C26  24503204.523   127594612.9771      -2568.536          43.000                                                                  
G03  22893299.713   120305110.5701       -216.792          39.000    22893296.245    93744236.5751       -168.377          41.000  
G16  22345217.921   117424983.1661       2932.063          43.000                                                                  
C09  37728882.590   196464201.2031       -143.850          43.000    37728868.659   151918520.5141       -111.231          48.000  
C25  23603499.446   122909627.7481       1544.696          44.000                                                                  
C08  39265563.191                1      -2469.266          31.000    39265551.566   158106109.0701      -1909.063          35.000  
C10  40469859.342                1        934.898          23.000    40469859.566                1        723.550          29.000  
C35  25943607.976   135095184.5691        322.695          38.000                                                                  
C13  38430316.487   200116745.8021      -2277.942          41.000    38430310.339   154742922.8741      -1761.531          42.000  
C12  26388798.700   137413422.1571       2317.337          33.000    26388796.786   106256770.0451       1791.520          42.000  
G25  24508260.771   128791786.8151      -3918.353          33.000    24508257.014   100357200.2651      -3052.825          37.000  
C07                                                                  39528536.915   159165035.2881        864.828          35.000  
> 2025 10 30 06 22 43.2000000  0 23                     
G32  22105296.215   116164111.663       -2979.554          45.000    22105290.476    90517453.826       -2322.017          41.000  
G29  23090451.198   121341154.075        -678.258          41.000    23090442.644    94551518.640        -528.514          40.000  
G28  21287412.650   111866109.890       -1222.438          45.000    21287402.451    87168356.516        -952.616          47.000  
G26  20325613.808   106811822.223         607.680          48.000    20325606.689    83229972.886         473.560          46.000  
G31  20619345.167   108355388.098         113.441          47.000    20619334.330    84432728.984          88.373          46.000  
G04  24400788.110   128226984.368        3169.980          37.000    24400784.150    99917159.402        2469.777          41.000  
C33  22525833.067   117297918.699        -783.109          50.000                                                                  
C06  36577710.333   190469736.593        -154.982          45.000    36577692.837   147283211.550        -119.817          48.000  
C14  22737897.252   118402182.675       -2322.984          44.000    22737882.661    91556024.278       -1796.354          49.000  
C16  37006487.641   192702489.615        -184.476          48.000    37006475.607   149009741.162        -142.770          48.000  
C24  21867928.988   113872048.881        -896.113          50.000                                                                  
C26  24503224.240   127594715.715       -2568.464          43.000                                                                  
G03  22893301.396   120305119.223        -216.561          39.000    22893297.894    93744243.328        -168.631          41.000  
G16  22345195.595   117424865.880        2932.092          43.000                                                                  
C09  37728883.674   196464206.946        -143.673          43.000    37728869.779   151918524.959        -111.175          48.000  
C25  23603487.597   122909565.958        1544.727          44.000                                                                  
C08  39265582.150                       -2468.113          31.000    39265570.549   158106185.429       -1909.054          35.000  
C10  40469852.150                         935.030          23.000    40469852.382                         723.648          29.000  
C35  25943605.498   135095171.663         322.742          38.000                                                                  
C13  38430333.976   200116836.906       -2277.640          41.000    38430327.835   154742993.324       -1761.371          42.000  
C12  26388780.913   137413329.510        2316.526          33.000    26388778.971   106256698.377        1791.539          42.000  
G25  24508290.630   128791943.550       -3918.529          33.000    24508286.833   100357322.376       -3052.816          37.000  
C07                                                                  39528528.312   159165000.666         865.277          35.000  
> 2025 10 30 06 22 43.2400000  0 23                     
G32  22105318.901   116164230.849       -2979.609          45.000    22105313.155    90517546.704       -2322.024          41.000  
G29  23090456.383   121341181.217        -678.452          41.000    23090447.813    94551539.781        -528.529          40.000  
G28  21287421.966   111866158.792       -1222.496          45.000    21287411.761    87168394.616        -952.512          47.000  
G26  20325609.160   106811797.914         607.722          48.000    20325602.064    83229953.953         473.379          46.000  
G31  20619344.290   108355383.562         113.434          47.000    20619333.447    84432725.447          88.422          46.000  
G04  24400763.976   128226857.581        3169.923          37.000    24400760.035    99917060.619        2469.652          41.000  
C33  22525839.104   117297950.026        -783.131          50.000                                                                  
C06  36577711.529   190469742.789        -154.908          45.000    36577694.019   147283216.349        -119.920          48.000  
C14  22737915.070   118402275.602       -2323.070          44.000    22737900.509    91556096.128       -1796.260          49.000  
C16  37006489.038   192702496.994        -184.450          48.000    37006477.036   149009746.871        -142.745          48.000  
C24  21867935.858   113872084.729        -896.153          50.000                                                                  
C26  24503243.943   127594818.450       -2568.367          43.000                                                                  
G03  22893303.041   120305127.865        -216.261          39.000    22893299.570    93744250.085        -168.856          41.000  
G16  22345173.274   117424748.597        2932.024          43.000                                                                  
C09  37728884.793   196464212.696        -143.740          43.000    37728870.893   151918529.404        -111.151          48.000  
C25  23603475.733   122909504.161        1544.862          45.000                                                                  
C08  39265601.163                       -2469.614          31.000    39265589.552   158106261.809       -1909.367          35.000  
C10  40469844.994                         935.338          23.000    40469845.206                         723.368          29.000  
C35  25943603.032   135095158.760         322.657          38.000                                                                  
C13  38430351.468   200116928.015       -2277.660          41.000    38430345.362   154743063.784       -1761.445          42.000  
C12  26388763.130   137413236.836        2316.604          33.000    26388761.179   106256626.709        1791.600          42.000  
G25  24508320.444   128792100.252       -3917.990          33.000    24508316.651   100357444.490       -3052.965          37.000  
C07                                                                  39528519.714   159164966.079         864.913          35.000  
> 2025 10 30 06 22 43.2800000  0 23                     
G32  22105341.569   116164350.033       -2979.595          45.000    22105335.816    90517639.557       -2321.571          41.000  
G29  23090461.550   121341208.356        -678.532          41.000    23090452.991    94551560.930        -528.672          40.000  
G28  21287431.275   111866207.694       -1222.517          45.000    21287421.074    87168432.727        -952.682          47.000  
G26  20325604.542   106811773.611         607.622          48.000    20325597.454    83229935.016         473.374          46.000  
G31  20619343.451   108355379.024         113.452          47.000    20619332.593    84432721.908          88.477          46.000  
G04  24400739.846   128226730.818        3169.451          37.000    24400735.908    99916961.827        2469.719          41.000  
C33  22525845.119   117297981.349        -783.099          50.000                                                                  
C06  36577712.715   190469748.995        -155.060          45.000    36577695.210   147283221.142        -119.881          48.000  
C14  22737932.884   118402368.531       -2323.179          44.000    22737918.375    91556167.983       -1796.333          49.000  
C16  37006490.420   192702504.376        -184.531          48.000    37006478.455   149009752.585        -142.822          48.000  
C24  21867942.732   113872120.575        -896.156          50.000                                                                  
C26  24503263.690   127594921.178       -2568.201          43.000                                                                  
G03  22893304.692   120305136.504        -216.051          39.000    22893301.216    93744256.825        -168.710          41.000  
G16  22345150.966   117424631.308        2932.114          43.000                                                                  
C09  37728885.889   196464218.449        -143.817          43.000    37728872.007   151918533.849        -111.134          48.000  
C25  23603463.867   122909442.368        1544.843          45.000                                                                  
C08  39265620.137                       -2469.357          31.000    39265608.520   158106338.168       -1909.236          35.000  
C10  40469837.793                         935.417          23.000    40469838.075                         722.979          29.000  
C35  25943600.558   135095145.839         322.933          38.000                                                                  
C13  38430368.964   200117019.121       -2277.605          41.000    38430362.866   154743134.242       -1761.488          42.000  
C12  26388745.319   137413144.184        2316.247          33.000    26388743.361   106256555.047        1791.508          42.000  
G25  24508350.250   128792256.945       -3917.445          33.000    24508346.482   100357566.601       -3052.806          37.000  
C07                                                                  39528511.116   159164931.454         865.308          35.000  
> 2025 10 30 06 22 43.3200000  0 23                     
G32  22105364.243   116164469.226       -2979.765          45.000    22105358.476    90517732.425       -2321.641          41.000  
G29  23090466.717   121341235.490        -678.450          41.000    23090458.173    94551582.081        -528.833          40.000  
G28  21287440.587   111866256.605       -1222.700          45.000    21287430.409    87168470.840        -952.813          47.000  
G26  20325599.918   106811749.312         607.479          48.000    20325592.836    83229916.070         473.511          46.000  
G31  20619342.590   108355374.489         113.396          47.000    20619331.733    84432718.377          88.297          46.000  
G04  24400715.730   128226604.055        3169.189          37.000    24400711.782    99916863.042        2469.609          41.000  
C33  22525851.116   117298012.677        -783.157          50.000                                                                  
C06  36577713.911   190469755.194        -155.047          45.000    36577696.361   147283225.942        -119.994          48.000  
C14  22737950.738   118402461.454       -2323.154          44.000    22737936.210    91556239.849       -1796.561          49.000  
C16  37006491.815   192702511.761        -184.622          48.000    37006479.867   149009758.297        -142.848          48.000  
C24  21867949.617   113872156.424        -896.203          50.000                                                                  
C26  24503283.398   127595023.916       -2568.328          43.000                                                                  
G03  22893306.341   120305145.170        -216.444          39.000    22893302.838    93744263.559        -168.484          41.000  
G16  22345128.652   117424514.024        2932.115          43.000                                                                  
C09  37728886.976   196464224.204        -143.904          43.000    37728873.124   151918538.304        -111.311          48.000  
C25  23603451.969   122909380.579        1544.737          45.000                                                                  
C08  39265639.060                       -2468.666          30.000    39265627.485   158106414.551       -1909.570          35.000  
C10  40469830.635                         935.420          24.000    40469830.883                         722.661          29.000  
C35  25943598.061   135095132.944         322.578          38.000                                                                  
C13  38430386.456   200117110.250       -2278.056          41.000    38430380.346   154743204.705       -1761.618          42.000  
C12  26388727.488   137413051.467        2317.458          33.000    26388725.558   106256483.382        1791.533          42.000  
G25  24508380.058   128792413.622       -3916.853          33.000    24508376.286   100357688.709       -3052.750          37.000  
C07                                                                  39528502.532   159164896.843         865.306          35.000  
> 2025 10 30 06 22 43.3600000  0 23                     
G32  22105386.947   116164588.423       -2979.931          46.000    22105381.179    90517825.321       -2322.171          41.000  
G29  23090471.872   121341262.642        -678.736          41.000    23090463.325    94551603.238        -528.974          40.000  
G28  21287449.896   111866305.510       -1222.690          45.000    21287439.718    87168508.948        -952.808          47.000  
G26  20325595.295   106811725.006         607.542          48.000    20325588.198    83229897.127         473.573          46.000  
G31  20619341.759   108355369.957         113.304          47.000    20619330.882    84432714.868          87.811          46.000  
G04  24400691.600   128226477.290        3169.066          37.000    24400687.666    99916764.269        2469.349          41.000  
C33  22525857.075   117298044.008        -783.278          50.000                                                                  
C06  36577715.074   190469761.396        -155.052          45.000    36577697.519   147283230.743        -120.070          48.000  
C14  22737968.608   118402554.383       -2323.243          44.000    22737954.042    91556311.709       -1796.597          49.000  
C16  37006493.252   192702519.148        -184.704          48.000    37006481.287   149009764.009        -142.826          48.000  
C24  21867956.427   113872192.278        -896.333          50.000                                                                  
C26  24503303.124   127595126.656       -2568.456          43.000                                                                  
G03  22893307.981   120305153.832        -216.619          39.000    22893304.487    93744270.311        -168.732          41.000  
G16  22345106.327   117424396.744        2931.999          43.000                                                                  
C09  37728888.085   196464229.953        -143.852          43.000    37728874.235   151918542.750        -111.227          47.000  
C25  23603440.114   122909318.791        1544.664          45.000                                                                  
C08  39265658.071                       -2469.836          30.000    39265646.458   158106490.952       -1909.999          35.000  
C10  40469823.447                         934.669          24.000    40469823.749                         722.710          29.000  
C35  25943595.593   135095120.052         322.231          38.000                                                                  
C13  38430403.954   200117201.385       -2278.412          41.000    38430397.863   154743275.168       -1761.623          41.000  
C12  26388709.677   137412958.789        2317.232          33.000    26388707.791   106256411.722        1791.453          42.000  
G25  24508409.845   128792570.325       -3917.088          33.000    24508406.089   100357810.835       -3052.994          37.000  
C07                                                                  39528493.954   159164862.269         864.624          35.000  
> 2025 10 30 06 22 43.4000000  0 23                     
G32  22105409.639   116164707.635       -2980.287          46.000    22105403.855    90517918.209       -2322.372          41.000  
G29  23090477.053   121341289.803        -679.070          41.000    23090468.500    94551624.412        -529.301          40.000  
G28  21287459.218   111866354.433       -1223.011          45.000    21287449.035    87168547.071        -953.057          47.000  
G26  20325590.678   106811700.708         607.430          48.000    20325583.583    83229878.197         473.342          46.000  
G31  20619340.889   108355365.441         112.953          47.000    20619330.024    84432711.344          87.887          46.000  
G04  24400667.456   128226350.514        3169.160          37.000    24400663.544    99916665.489        2469.403          41.000  
C33  22525863.054   117298075.347        -783.485          50.000                                                                  
C06  36577716.260   190469767.617        -155.432          45.000    36577698.709   147283235.549        -120.149          48.000  
C14  22737986.456   118402647.335       -2323.698          44.000    22737971.882    91556383.581       -1796.816          49.000  
C16  37006494.664   192702526.548        -184.980          48.000    37006482.672   149009769.731        -143.019          48.000  
C24  21867963.290   113872228.145        -896.636          50.000                                                                  
C26  24503322.858   127595229.417       -2568.920          43.000                                                                  
G03  22893309.648   120305162.535        -217.406          39.000    22893306.147    93744277.072        -168.987          41.000  
G16  22345084.005   117424279.485        2931.584          43.000                                                                  
C09  37728889.201   196464235.719        -144.093          43.000    37728875.350   151918547.206        -111.365          47.000  
C25  23603428.247   122909257.017        1544.418          45.000                                                                  
C08  39265677.050                       -2469.881          30.000    39265665.431   158106567.336       -1909.896          35.000  
C10  40469816.293                         934.615          24.000    40469816.560                         722.587          29.000  
C35  25943593.137   135095107.174         321.891          38.000                                                                  
C13  38430421.438   200117292.527       -2278.694          41.000    38430415.374   154743345.643       -1761.863          41.000  
C12  26388691.878   137412866.123        2316.750          33.000    26388690.005   106256340.070        1791.287          42.000  
G25  24508439.671   128792727.044       -3917.715          33.000    24508435.897   100357932.949       -3052.986          37.000  
C07                                                                  39528485.386   159164827.701         864.143          35.000  
> 2025 10 30 06 22 43.4400000  0 23                     
G32  22105432.324   116164826.846       -2980.412          45.000    22105426.560    90518011.097       -2322.379          41.000  
G29  23090482.226   121341316.972        -679.290          41.000    23090473.671    94551645.560        -528.967          40.000  
G28  21287468.523   111866403.359       -1223.184          45.000    21287458.358    87168585.186        -953.014          47.000  
G26  20325586.069   106811676.416         607.294          48.000    20325578.957    83229859.272         473.119          46.000  
G31  20619340.023   108355360.921         112.887          47.000    20619329.146    84432707.826          87.883          46.000  
G04  24400643.329   128226223.740        3169.273          37.000    24400639.419    99916566.716        2469.301          41.000  
C33  22525869.069   117298106.683        -783.513          50.000                                                                  
C06  36577717.472   190469773.834        -155.525          45.000    36577699.905   147283240.348        -120.058          48.000  
C14  22738004.332   118402740.281       -2323.791          44.000    22737989.740    91556455.455       -1796.925          49.000  
C16  37006496.109   192702533.942        -184.983          48.000    37006484.067   149009775.449        -143.014          48.000  
C24  21867970.160   113872264.011        -896.748          50.000                                                                  
C26  24503342.578   127595332.181       -2569.209          42.000                                                                  
G03  22893311.291   120305171.214        -217.300          39.000    22893307.820    93744283.818        -168.800          41.000  
G16  22345061.689   117424162.224        2931.409          43.000                                                                  
C09  37728890.294   196464241.490        -144.296          43.000    37728876.468   151918551.655        -111.307          47.000  
C25  23603416.377   122909195.229        1544.549          45.000                                                                  
C08  39265696.020                       -2469.661          30.000    39265684.410   158106643.719       -1909.729          35.000  
C10  40469809.105                         934.392          24.000    40469809.365                         722.214          29.000  
C35  25943590.671   135095094.311         321.445          37.000                                                                  
C13  38430438.963   200117383.654       -2278.444          41.000    38430432.848   154743416.107       -1761.732          41.000  
C12  26388674.093   137412773.432        2316.966          33.000    26388672.236   106256268.409        1791.381          41.000  
G25  24508469.496   128792883.762       -3918.071          33.000    24508465.729   100358055.101       -3053.563          37.000  
C07                                                                  39528476.810   159164793.148         863.713          35.000  
> 2025 10 30 06 22 43.4800000  0 23                     
G32  22105454.979   116164946.055       -2980.367          45.000    22105449.237    90518103.983       -2322.293          41.000  
G29  23090487.375   121341344.123        -679.018          41.000    23090478.831    94551666.697        -528.532          40.000  
G28  21287477.837   111866452.265       -1222.908          45.000    21287467.650    87168623.284        -952.667          48.000  
G26  20325581.429   106811652.117         607.358          48.000    20325574.333    83229840.339         473.190          46.000  
G31  20619339.154   108355356.395         112.993          48.000    20619328.281    84432704.295          88.136          46.000  
G04  24400619.202   128226096.984        3169.009          37.000    24400615.293    99916467.933        2469.416          41.000  
C33  22525875.095   117298138.017        -783.464          50.000                                                                  
C06  36577718.650   190469780.036        -155.267          45.000    36577701.111   147283245.140        -119.863          48.000  
C14  22738022.173   118402833.226       -2323.798          44.000    22738007.563    91556527.333       -1797.022          48.000  
C16  37006497.551   192702541.323        -184.726          48.000    37006485.461   149009781.157        -142.818          48.000  
C24  21867977.030   113872299.867        -896.575          50.000                                                                  
C26  24503362.311   127595434.949       -2569.342          42.000                                                                  
G03  22893312.940   120305179.872        -216.766          39.000    22893309.444    93744290.575        -168.927          41.000  
G16  22345039.360   117424044.959        2931.456          42.000                                                                  
C09  37728891.412   196464247.240        -143.954          43.000    37728877.573   151918556.094        -111.091          47.000  
C25  23603404.507   122909133.446        1544.543          45.000                                                                  
C08  39265714.984                       -2468.331          30.000    39265703.380   158106720.103       -1909.656          35.000  
C10  40469801.984                         934.605          24.000    40469802.168                         722.406          29.000  
C35  25943588.233   135095081.474         320.872          37.000                                                                  
C13  38430456.474   200117474.791       -2278.481          41.000    38430450.360   154743486.575       -1761.750          41.000  
C12  26388656.308   137412680.786        2316.363          33.000    26388654.435   106256196.742        1791.603          41.000  
G25  24508499.339   128793040.478       -3918.152          33.000    24508495.555   100358177.195       -3052.777          37.000  
C07                                                                  39528468.241   159164758.555         864.202          35.000  
> 2025 10 30 06 22 43.5200000  0 23                     
G32  22105477.650   116165065.257       -2980.181          45.000    22105471.920    90518196.870       -2322.266          41.000  
G29  23090492.525   121341371.271        -678.780          41.000    23090483.991    94551687.832        -528.312          40.000  
G28  21287487.134   111866501.154       -1222.400          46.000    21287476.947    87168661.378        -952.410          48.000  
G26  20325576.793   106811627.820         607.390          47.000    20325569.726    83229821.412         473.134          45.000  
G31  20619338.285   108355351.859         113.271          48.000    20619327.392    84432700.737          88.770          46.000  
G04  24400595.074   128225970.215        3169.138          37.000    24400591.164    99916369.154        2469.436          41.000  
C33  22525881.108   117298169.349        -783.356          50.000                                                                  
C06  36577719.826   190469786.232        -154.974          45.000    36577702.337   147283249.927        -119.698          48.000  
C14  22738040.015   118402926.176       -2323.878          44.000    22738025.418    91556599.217       -1797.177          47.000  
C16  37006498.970   192702548.702        -184.522          48.000    37006486.869   149009786.847        -142.397          48.000  
C24  21867983.936   113872335.708        -896.204          51.000                                                                  
C26  24503382.069   127595537.714       -2569.312          42.000                                                                  
G03  22893314.594   120305188.520        -216.324          39.000    22893311.081    93744297.297        -168.348          41.000  
G16  22345017.042   117423927.699        2931.423          42.000                                                                  
C09  37728892.520   196464252.982        -143.607          43.000    37728878.679   151918560.528        -110.885          47.000  
C25  23603392.658   122909071.654        1544.703          45.000                                                                  
C08  39265733.972                       -2470.223          30.000    39265722.372   158106796.501       -1909.891          35.000  
C10  40469794.804                         934.462          24.000    40469794.984                         722.347          29.000  
C35  25943585.752   135095068.599         321.361          37.000                                                                  
C13  38430473.963   200117565.936       -2278.603          41.000    38430467.876   154743557.043       -1761.794          41.000  
C12  26388638.506   137412588.122        2316.390          33.000    26388636.616   106256125.087        1791.485          40.000  
G25  24508529.137   128793197.207       -3918.456          33.000    24508525.362   100358299.303       -3052.618          37.000  
C07                                                                  39528459.661   159164723.972         864.341          35.000  
> 2025 10 30 06 22 43.5600000  0 23                     
G32  22105500.326   116165184.464       -2980.182          45.000    22105494.600    90518289.769       -2322.487          41.000  
G29  23090497.691   121341398.399        -678.329          41.000    23090489.142    94551708.967        -528.278          40.000  
G28  21287496.435   111866550.047       -1222.239          47.000    21287486.250    87168699.478        -952.444          48.000  
G26  20325572.176   106811603.529         607.240          47.000    20325565.103    83229802.487         473.023          45.000  
G31  20619337.422   108355347.320         113.430          48.000    20619326.531    84432697.200          88.637          46.000  
G04  24400570.944   128225843.464        3168.845          37.000    24400567.046    99916270.382        2469.324          41.000  
C33  22525887.111   117298200.689        -783.503          49.000                                                                  
C06  36577720.997   190469792.419        -154.731          45.000    36577703.556   147283254.707        -119.512          48.000  
C14  22738057.877   118403019.143       -2324.177          44.000    22738043.286    91556671.103       -1797.248          47.000  
C16  37006500.389   192702556.083        -184.489          48.000    37006488.302   149009792.540        -142.285          48.000  
C24  21867990.820   113872371.546        -895.979          51.000                                                                  
C26  24503401.804   127595640.457       -2568.883          43.000                                                                  
G03  22893316.267   120305197.173        -216.173          39.000    22893312.720    93744304.042        -168.499          41.000  
G16  22344994.715   117423810.442        2931.308          42.000                                                                  
C09  37728893.597   196464258.707        -143.184          43.000    37728879.791   151918564.969        -110.968          47.000  
C25  23603380.768   122909009.881        1544.406          44.000                                                                  
C08  39265752.968                       -2471.295          30.000    39265741.330   158106872.900       -1909.982          35.000  
C10  40469787.658                         934.085          24.000    40469787.799                         721.526          29.000  
C35  25943583.285   135095055.703         322.040          37.000                                                                  
C13  38430491.459   200117657.096       -2278.991          40.000    38430485.387   154743627.505       -1761.652          41.000  
C12  26388620.691   137412495.456        2316.546          33.000    26388618.799   106256053.405        1791.885          39.000  
G25  24508558.964   128793353.965       -3919.086          33.000    24508555.187   100358421.439       -3053.085          37.000  
C07                                                                  39528451.073   159164689.364         864.877          35.000  
> 2025 10 30 06 22 43.6000000  0 23                     
G32  22105523.012   116165303.709       -2980.869          45.000    22105517.303    90518382.689       -2322.973          41.000  
G29  23090502.877   121341425.573        -679.012          41.000    23090494.316    94551730.149        -529.190          40.000  
G28  21287505.742   111866598.966       -1222.668          47.000    21287495.567    87168737.609        -953.044          47.000  
G26  20325567.570   106811579.274         606.469          46.000    20325560.492    83229783.593         472.427          45.000  
G31  20619336.589   108355342.812         112.892          48.000    20619325.669    84432693.679          88.211          46.000  
G04  24400546.836   128225716.752        3167.999          36.000    24400542.929    99916171.627        2468.931          42.000  
C33  22525893.132   117298232.075        -784.428          48.000                                                                  
C06  36577722.153   190469798.631        -155.082          45.000    36577704.769   147283259.522        -120.096          48.000  
C14  22738075.745   118403112.150       -2325.059          44.000    22738061.122    91556743.002       -1797.530          47.000  
C16  37006501.783   192702563.488        -184.921          48.000    37006489.740   149009798.269        -142.943          48.000  
C24  21867997.677   113872407.413        -896.442          50.000                                                                  
C26  24503421.533   127595743.219       -2568.964          43.000                                                                  
G03  22893317.918   120305205.881        -217.261          39.000    22893314.372    93744310.828        -169.393          41.000  
G16  22344972.406   117423693.199        2931.076          41.000                                                                  
C09  37728894.678   196464264.463        -143.627          42.000    37728880.906   151918569.439        -111.559          47.000  
C25  23603368.917   122908948.144        1543.550          44.000                                                                  
C08  39265771.945                       -2470.608          30.000    39265760.313   158106949.318       -1910.352          35.000  
C10  40469780.532                         933.801          24.000    40469780.632                         721.598          29.000  
C35  25943580.808   135095042.833         321.851          38.000                                                                  
C13  38430508.963   200117748.258       -2279.187          40.000    38430502.876   154743697.999       -1762.219          39.000  
C12  26388602.909   137412402.803        2316.386          33.000    26388601.013   106255981.737        1791.803          38.000  
G25  24508588.794   128793510.721       -3919.320          33.000    24508585.012   100358543.595       -3053.756          37.000  
C07                                                                  39528442.486   159164654.839         863.628          35.000  
> 2025 10 30 06 22 43.6400000  0 23                     
G32  22105545.694   116165422.955       -2981.227          45.000    22105539.997    90518475.616       -2323.253          41.000  
G29  23090508.075   121341452.747        -679.351          43.000    23090499.480    94551751.340        -529.800          40.000  
G28  21287515.065   111866647.904       -1223.242          47.000    21287504.901    87168775.754        -953.595          47.000  
G26  20325562.967   106811555.039         605.798          45.000    20325555.910    83229764.710         471.985          44.000  
G31  20619335.775   108355338.311         112.506          48.000    20619324.821    84432690.179          87.614          46.000  
G04  24400522.750   128225590.036        3167.688          37.000    24400518.819    99916072.872        2468.788          43.000  
C33  22525899.162   117298263.473        -785.059          48.000                                                                  
C06  36577723.326   190469804.870        -155.738          45.000    36577705.991   147283264.353        -120.666          48.000  
C14  22738093.609   118403205.165       -2325.581          44.000    22738078.986    91556814.916       -1797.872          46.000  
C16  37006503.181   192702570.907        -185.384          48.000    37006491.178   149009804.009        -143.476          48.000  
C24  21868004.569   113872443.298        -897.010          50.000                                                                  
C26  24503441.266   127595846.000       -2569.352          44.000                                                                  
G03  22893319.611   120305214.582        -217.667          39.000    22893316.037    93744317.621        -169.923          42.000  
G16  22344950.098   117423575.976        2930.644          40.000                                                                  
C09  37728895.778   196464270.247        -144.386          42.000    37728881.996   151918573.921        -112.057          47.000  
C25  23603357.058   122908886.418        1542.956          44.000                                                                  
C08  39265790.973                       -2470.643          30.000    39265779.286   158107025.723       -1910.294          35.000  
C10  40469773.376                3        933.249          24.000    40469773.434                         721.465          29.000  
C35  25943578.331   135095030.010         320.933          39.000                                                                  
C13  38430526.484   200117839.415       -2279.061          38.000    38430520.436   154743768.494       -1762.439          39.000  
C12  26388585.119   137412310.121        2316.830          33.000    26388583.221   106255910.088        1791.421          38.000  
G25  24508618.627   128793667.474       -3919.231          33.000    24508614.851   100358665.777       -3054.479          37.000  
C07                                                                  39528433.904   159164620.276         863.635          35.000  
> 2025 10 30 06 22 43.6800000  0 23                     
G32  22105568.386   116165542.172       -2980.797          45.000    22105562.706    90518568.530       -2323.065          41.000  
G29  23090513.226   121341479.902        -679.110          44.000    23090504.650    94551772.514        -529.692          42.000  
G28  21287524.373   111866696.825       -1223.245          47.000    21287514.233    87168813.886        -953.596          46.000  
G26  20325558.359   106811530.801         605.589          44.000    20325551.298    83229745.818         472.017          44.000  
G31  20619334.921   108355333.800         112.551          47.000    20619323.966    84432686.681          87.328          45.000  
G04  24400498.629   128225463.284        3168.304          37.000    24400494.698    99915974.094        2469.158          43.000  
C33  22525905.192   117298294.855        -784.970          48.000                                                                  
C06  36577724.543   190469811.096        -155.842          44.000    36577707.204   147283269.175        -120.784          47.000  
C14  22738111.481   118403298.145       -2325.079          44.000    22738096.849    91556886.807       -1797.584          46.000  
C16  37006504.624   192702578.316        -185.434          47.000    37006492.604   149009809.739        -143.522          47.000  
C24  21868011.444   113872479.165        -896.931          48.000                                                                  
C26  24503460.986   127595948.756       -2569.125          45.000                                                                  
G03  22893321.252   120305223.256        -217.196          37.000    22893317.694    93744324.397        -169.799          42.000  
G16  22344927.775   117423458.727        2930.892          39.000                                                                  
C09  37728896.881   196464276.033        -144.774          42.000    37728883.124   151918578.391        -112.032          47.000  
C25  23603345.192   122908824.674        1543.170          43.000                                                                  
C08  39265809.932                       -2469.547          30.000    39265798.250   158107102.088       -1909.522          32.000  
C10  40469765.994                3        933.846          24.000    40469766.297                         720.377          28.000  
C35  25943575.866   135095017.152         321.120          39.000                                                                  
C13  38430544.009   200117930.555       -2278.479          33.000    38430537.949   154743838.976       -1762.245          37.000  
C12  26388567.330   137412217.425        2317.415          29.000    26388565.420   106255838.405        1791.754          38.000  
G25  24508648.462   128793824.224       -3919.037          33.000    24508644.669   100358787.910       -3053.916          37.000  
C07                                                                  39528425.322   159164585.737         863.331          35.000  
> 2025 10 30 06 22 43.7200000  0 23                     
G32  22105591.060   116165661.357       -2979.942          45.000    22105585.391    90518661.398       -2322.091          41.000  
G29  23090518.399   121341507.047        -678.747          44.000    23090509.825    94551793.679        -529.403          41.000  
G28  21287533.672   111866745.735       -1222.982          47.000    21287523.543    87168852.021        -953.566          46.000  
G26  20325553.739   106811506.543         606.014          44.000    20325546.659    83229726.914         472.338          44.000  
G31  20619334.045   108355329.290         112.626          46.000    20619323.091    84432683.162          87.657          44.000  
G04  24400474.487   128225336.479        3169.584          39.000    24400470.572    99915875.304        2469.616          44.000  
C33  22525911.213   117298326.232        -784.739          47.000                                                                  
C06  36577725.747   190469817.320        -155.802          43.000    36577708.408   147283273.987        -120.571          47.000  
C14  22738129.294   118403391.107       -2324.404          43.000    22738114.716    91556958.679       -1797.036          45.000  
C16  37006506.058   192702585.728        -185.464          46.000    37006494.019   149009815.472        -143.523          47.000  
C24  21868018.343   113872515.047        -897.134          47.000                                                                  
C26  24503480.698   127596051.492       -2568.618          46.000                                                                  
G03  22893322.851   120305231.926        -216.875          37.000    22893319.333    93744331.142        -169.025          42.000  
G16  22344905.466   117423341.428        2932.050          37.000                                                                  
C09  37728898.016   196464281.817        -144.856          41.000    37728884.227   151918582.853        -111.783          47.000  
C25  23603333.320   122908762.945        1543.062          42.000                                                                  
C08  39265828.925                       -2469.447          30.000    39265817.256   158107178.651       -1912.685          27.000  
C10  40469758.612                3        930.404          24.000    40469759.111                         720.180          28.000  
C35  25943573.388   135095004.273         321.702          41.000                                                                  
C13  38430561.461   200118021.459       -2273.678          29.000    38430555.437   154743909.394       -1760.951          35.000  
C12  26388549.490   137412124.651        2318.949          29.000    26388547.613   106255766.731        1791.803          38.000  
G25  24508678.309   128793980.936       -3918.195          33.000    24508674.484   100358910.032       -3053.289          37.000  
C07                                                                  39528416.739   159164551.155         863.867          32.000  
> 2025 10 30 06 22 43.7600000  0 23                     
G32  22105613.714   116165780.529       -2979.316          45.000    22105608.089    90518754.258       -2321.497          41.000  
G29  23090523.549   121341534.171        -678.203          44.000    23090514.992    94551814.836        -529.085          41.000  
G28  21287542.967   111866794.633       -1222.607          46.000    21287532.862    87168890.143        -953.317          45.000  
G26  20325549.122   106811482.274         606.500          44.000    20325542.039    83229708.000         472.737          44.000  
G31  20619333.230   108355324.798         112.325          45.000    20619322.250    84432679.656          87.621          43.000  
G04  24400450.353   128225209.652        3170.644          42.000    24400446.429    99915776.482        2470.381          45.000  
C33  22525917.239   117298357.610        -784.576          47.000                                                                  
C06  36577726.910   190469823.551        -155.902          43.000    36577709.589   147283278.803        -120.494          45.000  
C14  22738147.136   118403484.061       -2323.911          42.000    22738132.521    91557030.533       -1796.448          45.000  
C16  37006507.478   192702593.137        -185.415          45.000    37006495.450   149009821.200        -143.386          45.000  
C24  21868025.211   113872550.961        -897.858          44.000                                                                  
C26  24503500.413   127596154.221       -2568.225          46.000                                                                  
G03  22893324.484   120305240.587        -216.564          35.000    22893320.979    93744337.880        -168.522          42.000  
G16  22344883.117   117423224.098        2933.175          34.000                                                                  
C09  37728899.128   196464287.590        -144.611          39.000    37728885.338   151918587.325        -111.840          45.000  
C25  23603321.448   122908701.205        1543.279          42.000                                                                  
C08  39265847.928                3      -2471.044          30.000    39265836.232                       -1911.433          27.000  
C10  40469751.236                3        934.087          23.000    40469751.947                         719.680          28.000  
C35  25943570.882   135094991.366         322.540          41.000                                                                  
C13  38430578.918   200118112.309       -2271.057          29.000    38430572.904   154743979.838       -1760.827          35.000  
C12  26388531.700   137412031.894        2319.510          29.000    26388529.835   106255695.073        1791.550          38.000  
G25  24508708.130   128794137.630       -3917.432          36.000    24508704.298   100359032.116       -3052.325          37.000  
C07                                                                  39528408.152   159164516.603         864.071          32.000  
> 2025 10 30 06 22 43.8000000  0 23                     
G32  22105636.415   116165899.731       -2979.635          45.000    22105630.791    90518847.149       -2321.772          41.000  
G29  23090528.732   121341561.317        -678.434          44.000    23090520.165    94551836.006        -529.219          40.000  
G28  21287552.268   111866843.555       -1222.859          45.000    21287542.182    87168928.283        -953.434          45.000  
G26  20325544.486   106811458.007         606.716          44.000    20325537.389    83229689.079         473.025          44.000  
G31  20619332.381   108355320.318         111.962          44.000    20619321.397    84432676.165          87.300          43.000  
G04  24400426.214   128225082.847        3170.647          43.000    24400422.292    99915677.668        2470.537          46.000  
C33  22525923.263   117298388.975        -784.242          47.000                                                                  
C06  36577728.112   190469829.796        -156.169          41.000    36577710.791   147283283.629        -120.632          44.000  
C14  22738164.995   118403577.023       -2323.885          42.000    22738150.356    91557102.393       -1796.322          44.000  
C16  37006508.888   192702600.566        -185.721          44.000    37006496.864   149009826.948        -143.649          44.000  
C24  21868032.110   113872586.925        -899.012          42.000                                                                  
C26  24503520.131   127596256.960       -2568.268          46.000                                                                  
G03  22893326.109   120305249.161        -214.734          32.000    22893322.642    93744344.628        -168.546          41.000  
G16  22344860.797   117423106.770        2933.685          31.000                                                                  
C09  37728900.231   196464293.389        -144.946          37.000    37728886.419   151918591.810        -112.119          44.000  
C25  23603309.597   122908639.461        1543.501          42.000                                                                  
C08  39265866.842                3      -2470.087          24.000    39265855.201                       -1910.043          27.000  
C10  40469744.120                3        934.087          23.000    40469744.809                         719.233          28.000  
C35  25943568.392   135094978.459         322.853          41.000                                                                  
C13  38430596.420   200118203.332       -2271.441          29.000    38430590.399   154744050.245       -1760.208          32.000  
C12  26388513.877   137411939.225        2318.772          29.000    26388512.058   106255623.439        1790.922          38.000  
G25  24508737.927   128794294.315       -3916.968          36.000    24508734.114   100359154.236       -3052.556          39.000  
C07                                                                  39528399.571   159164482.002         864.543          27.000  
> 2025 10 30 06 22 43.8400000  0 23                     
G32  22105659.102   116166018.959       -2980.339          45.000    22105653.470    90518940.053       -2322.287          41.000  
G29  23090533.883   121341588.483        -678.958          43.000    23090525.334    94551857.186        -529.475          40.000  
G28  21287561.581   111866892.496       -1223.344          43.000    21287551.497    87168966.418        -953.412          45.000  
G26  20325539.895   106811433.735         606.874          44.000    20325532.757    83229670.159         473.121          44.000  
G31  20619331.510   108355315.841         111.799          43.000    20619320.534    84432672.681          87.074          43.000  
G04  24400402.065   128224956.064        3170.085          43.000    24400398.189    99915578.879        2470.092          46.000  
C33  22525929.317   117298420.332        -783.942          48.000                                                                  
C06  36577729.303   190469836.058        -156.588          40.000    36577711.997   147283288.451        -120.627          44.000  
C14  22738182.853   118403669.984       -2323.912          42.000    22738168.180    91557174.261       -1796.490          44.000  
C16  37006510.309   192702607.992        -185.768          44.000    37006498.259   149009832.688        -143.643          44.000  
C24  21868039.043   113872622.849        -898.773          42.000                                                                  
C26  24503539.868   127596359.707       -2568.496          46.000                                                                  
G03  22893327.719   120305257.873        -216.945          26.000    22893324.314    93744351.388        -168.826          40.000  
G16  22344838.459   117422989.497        2932.671          31.000                                                                  
C09  37728901.343   196464299.206        -145.441          35.000    37728887.530   151918596.305        -112.399          44.000  
C25  23603297.740   122908577.700        1543.919          42.000                                                                  
C08  39265885.458                3      -2467.911          24.000    39265874.118                       -1909.261          27.000  
C10  40469737.021                3        934.087          23.000    40469737.620                         720.098          28.000  
C35  25943565.906   135094965.580         322.377          42.000                                                                  
C13  38430613.966                3      -2274.287          29.000    38430607.893   154744120.657       -1760.083          28.000  
C12  26388496.078                        2317.738          29.000    26388494.280   106255551.800        1790.777          38.000  
G25  24508767.763   128794451.040       -3917.566          36.000    24508763.924   100359276.344       -3052.604          39.000  
C07                                                                  39528390.977   159164447.347         865.419          27.000  
> 2025 10 30 06 22 43.8800000  0 23                     
G32  22105681.809   116166138.194       -2980.838          45.000    22105676.170    90519032.959       -2322.632          41.000  
G29  23090539.046   121341615.666        -679.553          41.000    23090530.506    94551878.370        -529.659          40.000  
G28  21287570.890   111866941.438       -1223.646          42.000    21287560.826    87169004.551        -953.357          45.000  
G26  20325535.280   106811409.458         607.007          44.000    20325528.152    83229651.244         473.006          44.000  
G31  20619330.633   108355311.347         112.109          43.000    20619319.696    84432669.182          87.310          43.000  
G04  24400377.940   128224829.294        3169.481          43.000    24400374.053    99915480.107        2469.523          46.000  
C33  22525935.305   117298451.685        -783.768          48.000                                                                  
C06  36577730.522   190469842.295        -156.261          40.000    36577713.211   147283293.273        -120.605          44.000  
C14  22738200.714   118403762.947       -2324.000          41.000    22738186.044    91557246.139       -1796.805          43.000  
C16  37006511.727   192702615.407        -185.548          44.000    37006499.657   149009838.420        -143.437          44.000  
C24  21868045.919   113872658.722        -897.534          43.000                                                                  
C26  24503559.614   127596462.475       -2568.997          45.000                                                                  
G03  22893329.371                3       -217.583          26.000    22893325.956    93744358.152        -169.046          40.000  
G16  22344816.140   117422872.187        2932.709          31.000                                                                  
C09  37728902.465   196464305.024        -145.626          35.000    37728888.633   151918600.776        -112.035          44.000  
C25  23603285.891   122908515.928        1544.306          42.000                                                                  
C08  39265904.372                3      -2468.139          24.000    39265893.095                       -1909.134          28.000  
C10  40469730.243                3        934.087          23.000    40469730.423                         721.420          28.000  
C35  25943563.431   135094952.713         321.847          42.000                                                                  
C13  38430631.720                3      -2276.769          29.000    38430625.362   154744191.115       -1761.135          28.000  
C12  26388478.288                        2316.790          29.000    26388476.505   106255480.143        1791.131          38.000  
G25  24508797.608   128794607.775       -3918.136          36.000    24508793.750   100359398.468       -3052.885          39.000  
C07                                                                  39528382.375   159164412.761         865.321          27.000  
> 2025 10 30 06 22 43.9200000  0 23                     
G32  22105704.505   116166257.430       -2981.059          45.000    22105698.878    90519125.872       -2322.872          41.000  
G29  23090544.212   121341642.849        -679.808          41.000    23090535.690    94551899.553        -529.713          40.000  
G28  21287580.205   111866990.380       -1223.761          42.000    21287570.122    87169042.676        -953.215          45.000  
G26  20325530.644   106811385.187         606.898          44.000    20325523.545    83229632.333         472.868          44.000  
G31  20619329.785   108355306.838         112.552          43.000    20619318.829    84432665.670          87.705          43.000  
G04  24400353.835   128224702.550        3168.735          43.000    24400349.941    99915381.345        2469.041          45.000  
C33  22525941.319   117298483.046        -783.890          49.000                                                                  
C06  36577731.744   190469848.521        -155.881          39.000    36577714.403   147283298.082        -120.343          44.000  
C14  22738218.586   118403855.896       -2323.770          40.000    22738203.881    91557318.022       -1797.075          43.000  
C16  37006513.148   192702622.804        -185.117          45.000    37006501.063   149009844.148        -143.306          44.000  
C24  21868052.799   113872694.565        -896.321          44.000                                                                  
C26  24503579.360   127596565.250       -2569.391          45.000                                                                  
G03  22893330.934                3       -214.213          26.000    22893327.629    93744364.929        -169.414          38.000  
G16  22344793.810   117422754.958        2931.290          31.000                                                                  
C09  37728903.576   196464310.826        -145.276          36.000    37728889.756   151918605.237        -111.643          44.000  
C25  23603274.054   122908454.166        1544.285          42.000                                                                  
C08  39265924.018                3      -2467.785          24.000    39265912.083                       -1910.485          32.000  
C10  40469723.321                3        934.087          24.000    40469723.250                         722.513          28.000  
C35  25943560.973   135094939.853         321.450          43.000                                                                  
C13  38430649.527                3      -2278.882          33.000    38430642.904   154744261.589       -1761.841          28.000  
C12  26388460.511                        2315.639          29.000    26388458.707   106255408.470        1791.680          40.000  
G25  24508827.451   128794764.527       -3918.741          36.000    24508823.567   100359520.602       -3053.242          39.000  
C07                                                                  39528373.850                         864.045          27.000  
> 2025 10 30 06 22 43.9600000  0 23                     
G32  22105727.183   116166376.660       -2980.985          45.000    22105721.594    90519218.780       -2322.926          41.000  
G29  23090549.377   121341670.037        -679.888          41.000    23090540.884    94551920.739        -529.735          40.000  
G28  21287589.527   111867039.321       -1223.748          41.000    21287579.457    87169080.811        -953.300          45.000  
G26  20325526.036   106811360.920         606.723          45.000    20325518.933    83229613.438         472.451          44.000  
G31  20619328.906   108355302.327         112.822          43.000    20619317.955    84432662.160          87.852          43.000  
G04  24400329.713   128224575.811        3168.300          43.000    24400325.818    99915282.584        2468.848          45.000  
C33  22525947.333   117298514.418        -784.172          49.000                                                                  
C06  36577732.962   190469854.750        -155.761          39.000    36577715.570   147283302.887        -120.155          45.000  
C14  22738236.390   118403948.858       -2323.940          40.000    22738221.739    91557389.910       -1797.266          43.000  
C16  37006514.575   192702630.216        -185.186          45.000    37006502.478   149009849.881        -143.344          44.000  
C24  21868059.687   113872730.428        -896.170          45.000                                                                  
C26  24503599.108   127596668.018       -2569.409          45.000                                                                  
G03  22893332.877                3       -216.495          26.000    22893329.298    93744371.711        -169.672          38.000  
G16  22344771.499   117422637.758        2930.054          31.000                                                                  
C09  37728904.688   196464316.600        -144.500          36.000    37728890.881   151918609.699        -111.491          45.000  
C25  23603262.193   122908392.409        1544.092          42.000                                                                  
C08  39265943.198                3      -2468.507          25.000    39265931.096                       -1910.320          33.000  
C10  40469716.363                3        934.087          24.000    40469716.061                         723.438          29.000  
C35  25943558.494   135094926.988         321.396          43.000                                                                  
C13  38430667.338                3      -2279.143          34.000    38430660.374   154744332.136       -1763.020          28.000  
C12  26388442.737                        2315.452          30.000    26388440.915   106255336.824        1791.375          40.000  
G25  24508857.302   128794921.272       -3918.857          37.000    24508853.391   100359642.758       -3053.761          39.000  
C07                                                                  39528365.248                         864.496          28.000  
> 2025 10 30 06 22 44.0000000  0 23                     
G32  22105749.853   116166495.880       -2980.725          45.000    22105744.295    90519311.672       -2322.542          41.000  
G29  23090554.540   121341697.214        -679.685          41.000    23090546.050    94551941.909        -529.423          40.000  
G28  21287598.851   111867088.264       -1223.705          41.000    21287588.789    87169118.946        -953.386          45.000  
G26  20325521.439   106811336.667         606.387          45.000    20325514.326    83229594.534         472.449          44.000  
G31  20619328.041   108355297.829         112.629          43.000    20619317.083    84432658.634          88.115          43.000  
G04  24400305.601   128224449.053        3168.481          43.000    24400301.706    99915183.809        2469.054          45.000  
C33  22525953.352   117298545.794        -784.403          49.000                                                                  
C06  36577734.159   190469860.987        -155.834          39.000    36577716.768   147283307.711        -120.383          45.000  
C14  22738254.239   118404041.820       -2324.034          40.000    22738239.591    91557461.772       -1796.807          43.000  
C16  37006516.022   192702637.625        -185.189          45.000    37006503.890   149009855.616        -143.410          44.000  
C24  21868066.573   113872766.309        -896.566          46.000                                                                  
C26  24503618.851   127596770.777       -2569.216          45.000                                                                  
G03  22893334.965                3       -216.866          26.000    22893330.975    93744378.500        -169.846          38.000  
G16  22344749.171   117422520.492        2930.759          31.000                                                                  
C09  37728905.791   196464322.366        -144.089          36.000    37728891.986   151918614.168        -111.599          45.000  
C25  23603250.341   122908330.662        1543.789          42.000                                                                  
C08  39265962.153                3      -2470.367          25.000    39265950.079                       -1910.364          33.000  
C10  40469708.983                3        933.102          24.000    40469708.891                         723.610          28.000  
C35  25943556.052   135094914.135         321.226          43.000                                                                  
C13  38430685.087                3      -2279.233          34.000    38430677.913   154744402.643       -1763.377          28.000  
C12  26388424.949                        2315.617          30.000    26388423.133   106255265.167        1791.437          40.000  
G25  24508887.121   128795078.014       -3918.762          37.000    24508883.202   100359764.897       -3053.685          39.000  
C07                                                                  39528356.661                         864.350          28.000  
> 2025 10 30 06 22 44.0400000  0 23                     
G32  22105772.501   116166615.089       -2980.392          45.000    22105766.989    90519404.571       -2322.467          41.000  
G29  23090559.698   121341724.393        -679.578          40.000    23090551.222    94551963.093        -529.530          40.000  
G28  21287608.152   111867137.203       -1223.615          41.000    21287598.105    87169157.087        -953.516          45.000  
G26  20325516.834   106811312.413         606.235          45.000    20325509.714    83229575.637         472.344          44.000  
G31  20619327.176   108355293.336         112.431          43.000    20619316.216    84432655.145          87.546          42.000  
G04  24400281.459   128224322.294        3168.700          43.000    24400277.601    99915085.042        2469.086          44.000  
C33  22525959.396   117298577.172        -784.524          49.000                                                                  
C06  36577735.374   190469867.219        -155.796          39.000    36577717.944   147283312.536        -120.586          45.000  
C14  22738272.122   118404134.785       -2324.102          40.000    22738257.431    91557533.642       -1796.735          43.000  
C16  37006517.443   192702645.033        -185.199          45.000    37006505.296   149009861.353        -143.453          44.000  
C24  21868073.460   113872802.206        -897.142          46.000                                                                  
C26  24503638.566   127596873.529       -2568.953          45.000                                                                  
G03  22893337.001                3       -217.155          26.000    22893332.639    93744385.265        -169.328          36.000  
G16  22344726.862   117422403.223        2931.271          31.000                                                                  
C09  37728906.904   196464328.157        -144.362          36.000    37728893.069   151918618.652        -111.918          45.000  
C25  23603238.486   122908268.913        1543.643          42.000                                                                  
C08  39265980.915                3      -2470.471          25.000    39265969.078                       -1909.947          33.000  
C10  40469701.999                3        933.102          23.000    40469701.661                         723.477          29.000  
C35  25943553.588   135094901.270         321.420          43.000                                                                  
C13  38430703.017                3      -2278.963          34.000    38430695.417   154744473.147       -1763.442          28.000  
C12  26388407.158                        2315.879          30.000    26388405.357   106255193.508        1791.480          40.000  
G25  24508916.964   128795234.745       -3918.513          37.000    24508913.024   100359887.024       -3053.409          39.000  
C07                                                                  39528348.071                         864.301          28.000  
> 2025 10 30 06 22 44.0800000  0 23                     
G32  22105795.180   116166734.301       -2980.230          45.000    22105789.693    90519497.501       -2322.944          40.000  
G29  23090564.879   121341751.589        -679.866          40.000    23090556.388    94551984.275        -529.542          40.000  
G28  21287617.462   111867186.146       -1223.619          40.000    21287607.410    87169195.217        -953.369          45.000  
G26  20325512.201   106811288.161         606.163          45.000    20325505.095    83229556.737         472.353          44.000  
G31  20619326.296   108355288.842         112.352          43.000    20619315.387    84432651.644          87.467          42.000  
G04  24400257.319   128224195.528        3168.952          44.000    24400253.468    99914986.260        2469.336          44.000  
C33  22525965.401   117298608.547        -784.493          49.000                                                                  
C06  36577736.564   190469873.469        -156.166          39.000    36577719.113   147283317.367        -120.768          45.000  
C14  22738289.986   118404227.765       -2324.410          39.000    22738275.273    91557605.515       -1796.796          43.000  
C16  37006518.877   192702652.438        -185.148          44.000    37006506.726   149009867.094        -143.554          44.000  
C24  21868080.367   113872838.096        -897.327          47.000                                                                  
C26  24503658.310   127596976.292       -2569.032          45.000                                                                  
G03  22893338.433                3       -217.552          26.000    22893334.272    93744392.016        -168.887          36.000  
G16  22344704.541   117422285.965        2931.376          31.000                                                                  
C09  37728907.993   196464333.916        -143.992          35.000    37728894.197   151918623.140        -112.187          45.000  
C25  23603226.629   122908207.166        1543.589          42.000                                                                  
C08  39265999.687                3      -2470.221          25.000    39265988.081                       -1909.522          33.000  
C10  40469695.328                3        933.102          23.000    40469694.533                         723.335          29.000  
C35  25943551.121   135094888.424         321.149          43.000                                                                  
C13  38430720.749                2      -2278.961          34.000    38430712.914   154744543.621       -1763.144          28.000  
C12  26388389.349                        2316.544          30.000    26388387.564   106255121.848        1791.455          41.000  
G25  24508946.781   128795391.468       -3918.248          37.000    24508942.839   100360009.149       -3053.131          39.000  
C07                                                                  39528339.450                         864.526          28.000  
> 2025 10 30 06 22 44.1200000  0 23                     
G32  22105817.859   116166853.522       -2980.395          44.000    22105812.397    90519590.410       -2322.860          40.000  
G29  23090570.024   121341778.792        -680.176          40.000    23090561.563    94552005.449        -529.417          40.000  
G28  21287626.778   111867235.100       -1223.799          38.000    21287616.719    87169233.343        -953.235          45.000  
G26  20325507.577   106811263.910         606.178          45.000    20325500.481    83229537.832         472.491          44.000  
G31  20619325.423   108355284.344         112.365          43.000    20619314.533    84432648.149          87.313          41.000  
G04  24400233.205   128224068.768        3168.972          44.000    24400229.362    99914887.488        2469.319          44.000  
C33  22525971.446   117298639.922        -784.472          49.000                                                                  
C06  36577737.779   190469879.713        -156.196          39.000    36577720.316   147283322.193        -120.753          45.000  
C14  22738307.836   118404320.728       -2324.266          39.000    22738293.142    91557677.411       -1797.214          42.000  
C16  37006520.281   192702659.846        -185.183          44.000    37006508.164   149009872.832        -143.539          44.000  
C24  21868087.285   113872873.989        -897.419          47.000                                                                  
C26  24503678.044   127597079.083       -2569.573          45.000                                                                  
G03  22893339.728                3       -216.548          26.000    22893335.930    93744398.793        -169.190          36.000  
G16  22344682.203   117422168.679        2931.997          32.000                                                                  
C09  37728909.079   196464339.689        -144.116          35.000    37728895.312   151918627.617        -112.079          44.000  
C25  23603214.788   122908145.396        1544.014          42.000                                                                  
C08  39266018.953                2      -2469.963          25.000    39266007.066                       -1909.669          33.000  
C10  40469688.520                3        933.102          23.000    40469687.362                         723.278          29.000  
C35  25943548.682   135094875.571         321.171          43.000                                                                  
C13  38430738.967                2      -2278.648          36.000    38430730.405   154744614.056       -1762.308          28.000  
C12  26388371.563                        2316.789          33.000    26388369.768   106255050.191        1791.424          42.000  
G25  24508976.599   128795548.195       -3918.156          37.000    24508972.676   100360131.296       -3053.430          39.000  
C07                                                                  39528330.825                         864.749          28.000  
> 2025 10 30 06 22 44.1600000  0 23                     
G32  22105840.560   116166972.739       -2980.431          44.000    22105835.069    90519683.301       -2322.456          40.000  
G29  23090575.204   121341806.010        -680.551          40.000    23090566.732    94552026.625        -529.394          40.000  
G28  21287636.091   111867284.056       -1224.009          38.000    21287626.061    87169271.475        -953.251          45.000  
G26  20325502.938   106811239.658         606.217          44.000    20325495.854    83229518.939         472.366          44.000  
G31  20619324.547   108355279.841         112.500          43.000    20619313.675    84432644.655          87.271          41.000  
G04  24400209.087   128223942.009        3168.989          44.000    24400205.242    99914788.714        2469.323          44.000  
C33  22525977.480   117298671.292        -784.338          48.000                                                                  
C06  36577738.949   190469885.941        -155.903          39.000    36577721.526   147283327.019        -120.716          45.000  
C14  22738325.675   118404413.705       -2324.398          39.000    22738310.989    91557749.290       -1797.152          42.000  
C16  37006521.713   192702667.248        -185.112          44.000    37006509.583   149009878.562        -143.389          43.000  
C24  21868094.172   113872909.871        -897.249          47.000                                                                  
C26  24503697.791   127597181.874       -2569.861          45.000                                                                  
G03  22893341.355                3       -216.197          26.000    22893337.605    93744405.570        -169.378          33.000  
G16  22344659.888   117422051.462        2931.023          32.000                                                                  
C09  37728910.194   196464345.458        -144.270          33.000    37728896.448   151918632.093        -111.995          44.000  
C25  23603202.913   122908083.617        1544.377          42.000                                                                  
C08  39266038.216                2      -2469.627          26.000    39266026.002                       -1909.436          33.000  
C10  40469681.200                3        931.482          23.000    40469680.195                         722.353          29.000  
C35  25943546.224   135094862.721         321.142          43.000                                                                  
C13  38430756.494                2      -2279.080          36.000    38430747.875   154744684.459       -1761.281          28.000  
C12  26388353.735                        2316.984          34.000    26388351.978   106254978.540        1791.288          43.000  
G25  24509006.432   128795704.939       -3918.390          37.000    24509002.507   100360253.452       -3053.814          38.000  
C07                                                                  39528322.251                3        865.027          28.000  
> 2025 10 30 06 22 44.2000000  0 23                     
G32  22105863.236   116167091.961       -2980.547          44.000    22105857.775    90519776.213       -2322.639          38.000  
G29  23090580.368   121341833.224        -680.539          40.000    23090571.907    94552047.819        -529.762          40.000  
G28  21287645.413   111867332.980       -1223.464          38.000    21287635.387    87169309.603        -953.235          45.000  
G26  20325498.325   106811215.404         606.292          44.000    20325491.261    83229500.050         472.237          44.000  
G31  20619323.691   108355275.343         112.463          43.000    20619312.812    84432641.155          87.377          41.000  
G04  24400184.956   128223815.258        3168.837          43.000    24400181.114    99914689.955        2469.084          43.000  
C33  22525983.506   117298702.666        -784.377          48.000                                                                  
C06  36577740.153   190469892.179        -155.932          39.000    36577722.723   147283331.835        -120.520          44.000  
C14  22738343.537   118404506.673       -2324.281          39.000    22738328.825    91557821.183       -1797.341          42.000  
C16  37006523.157   192702674.650        -185.062          44.000    37006511.024   149009884.293        -143.287          43.000  
C24  21868101.076   113872945.756        -897.202          47.000                                                                  
C26  24503717.530   127597284.664       -2569.900          45.000                                                                  
G03  22893343.172                3       -215.166          26.000    22893339.261    93744412.348        -169.548          33.000  
G16  22344637.566   117421934.232        2930.714          35.000                                                                  
C09  37728911.280   196464351.233        -144.396          33.000    37728897.541   151918636.563        -111.824          43.000  
C25  23603191.063   122908021.834        1544.634          42.000                                                                  
C08  39266057.042                2      -2469.364          26.000    39266044.960   158108095.153       -1909.649          33.000  
C10  40469673.909                3        931.482          23.000    40469673.053                         721.756          29.000  
C35  25943543.776   135094849.878         321.037          41.000                                                                  
C13  38430774.595                2      -2278.845          36.000    38430765.334   154744754.893       -1760.932          28.000  
C12  26388335.922                        2316.206          34.000    26388334.186   106254906.901        1790.993          44.000  
G25  24509036.269   128795861.670       -3918.264          37.000    24509032.328   100360375.586       -3053.612          38.000  
C07                                                                  39528313.655                2        864.708          28.000  
> 2025 10 30 06 22 44.2400000  0 23                     
G32  22105885.947   116167211.192       -2980.782          43.000    22105880.439    90519869.098       -2322.223          38.000  
G29  23090585.541   121341860.424        -680.224          40.000    23090577.083    94552069.023        -530.121          40.000  
G28  21287654.702   111867381.914       -1223.306          38.000    21287644.692    87169347.738        -953.328          45.000  
G26  20325493.718   106811191.161         606.130          43.000    20325486.650    83229481.153         472.287          44.000  
G31  20619322.834   108355270.846         112.401          43.000    20619311.968    84432637.656          87.439          41.000  
G04  24400160.837   128223688.509        3168.729          43.000    24400157.016    99914591.195        2468.974          43.000  
C33  22525989.511   117298734.046        -784.479          47.000                                                                  
C06  36577741.341   190469898.396        -155.554          39.000    36577723.935   147283336.651        -120.420          44.000  
C14  22738361.401   118404599.641       -2324.211          39.000    22738346.671    91557893.067       -1797.260          42.000  
C16  37006524.543   192702682.058        -185.150          44.000    37006512.435   149009890.022        -143.219          43.000  
C24  21868107.967   113872981.645        -897.256          48.000                                                                  
C26  24503737.251   127597387.453       -2569.860          45.000                                                                  
G03  22893345.075                3       -217.173          26.000    22893340.933    93744419.133        -169.650          33.000  
G16  22344615.244   117421816.979        2931.033          35.000                                                                  
C09  37728912.405   196464356.974        -143.808          33.000    37728898.678   151918641.032        -111.732          43.000  
C25  23603179.232   122907960.061        1544.514          42.000                                                                  
C08  39266076.827                2      -2468.658          26.000    39266063.891   158108171.543       -1909.824          33.000  
C10  40469666.994                3        931.482          23.000    40469665.893                         722.088          29.000  
C35  25943541.308   135094837.033         321.078          41.000                                                                  
C13  38430792.632                2      -2278.611          36.000    38430782.786   154744825.339       -1760.857          28.000  
C12  26388318.117                        2315.819          34.000    26388316.379   106254835.271        1790.730          44.000  
G25  24509066.088   128796018.403       -3918.313          37.000    24509062.154   100360497.703       -3053.157          38.000  
C07                                                                  39528305.092                2        864.803          28.000  
> 2025 10 30 06 22 44.2800000  0 23                     
G32  22105908.644   116167330.427       -2980.876          43.000    22105903.132    90519962.020       -2322.752          36.000  
G29  23090590.701   121341887.629        -680.118          40.000    23090582.246    94552090.227        -530.253          41.000  
G28  21287664.005   111867430.871       -1223.741          38.000    21287654.003    87169385.888        -953.678          45.000  
G26  20325489.100   106811166.921         605.969          43.000    20325482.029    83229462.259         472.300          43.000  
G31  20619321.987   108355266.357         112.253          43.000    20619311.089    84432634.157          87.457          41.000  
G04  24400136.729   128223561.778        3168.353          43.000    24400132.878    99914492.437        2468.879          43.000  
C33  22525995.512   117298765.443        -784.858          47.000                                                                  
C06  36577742.558   190469904.631        -155.632          38.000    36577725.152   147283341.472        -120.498          44.000  
C14  22738379.245   118404692.619       -2324.437          39.000    22738364.528    91557964.976       -1797.692          41.000  
C16  37006525.954   192702689.478        -185.434          43.000    37006513.875   149009895.753        -143.229          43.000  
C24  21868114.868   113873017.540        -897.358          48.000                                                                  
C26  24503756.977   127597490.232       -2569.637          45.000                                                                  
G03  22893346.922                3       -216.802          26.000    22893342.595    93744425.949        -170.308          33.000  
G16  22344592.922   117421699.735        2931.071          35.000                                                                  
C09  37728913.511   196464362.716        -143.469          33.000    37728899.798   151918645.499        -111.638          43.000  
C25  23603167.369   122907898.294        1544.255          43.000                                                                  
C08  39266095.764                2      -2468.866          32.000    39266082.874   158108247.946       -1910.130          33.000  
C10  40469659.968                3        935.120          24.000    40469658.748                         722.323          30.000  
C35  25943538.830   135094824.173         321.386          40.000                                                                  
C13  38430809.727                2      -2278.636          37.000    38430800.284   154744895.765       -1760.612          28.000  
C12  26388300.314                        2315.594          37.000    26388298.576   106254763.637        1790.688          45.000  
G25  24509095.890   128796175.135       -3918.293          37.000    24509091.996   100360619.844       -3053.357          38.000  
C07                                                                  39528296.449                2        863.979          28.000  
> 2025 10 30 06 22 44.3200000  0 23                     
G32  22105931.324   116167449.654       -2980.780          43.000    22105925.819    90520054.930       -2322.797          36.000  
G29  23090595.859   121341914.835        -680.139          40.000    23090587.413    94552111.424        -530.131          41.000  
G28  21287673.338   111867479.844       -1224.227          38.000    21287663.323    87169424.021        -953.533          45.000  
G26  20325484.466   106811142.680         605.928          43.000    20325477.402    83229443.361         472.394          43.000  
G31  20619321.123   108355261.866         112.180          43.000    20619310.221    84432630.642          87.765          41.000  
G04  24400112.611   128223435.036        3168.394          43.000    24400108.758    99914393.669        2469.031          43.000  
C33  22526001.537   117298796.830        -784.825          46.000                                                                  
C06  36577743.781   190469910.902        -156.337          38.000    36577726.372   147283346.292        -120.512          44.000  
C14  22738397.113   118404785.599       -2324.573          38.000    22738382.412    91558036.886       -1797.853          41.000  
C16  37006527.377   192702696.896        -185.543          43.000    37006515.311   149009901.491        -143.398          43.000  
C24  21868121.773   113873053.430        -897.334          48.000                                                                  
C26  24503776.701   127597593.006       -2569.424          45.000                                                                  
G03  22893348.335                3       -216.714          26.000    22893344.254    93744432.728        -169.779          33.000  
G16  22344570.592   117421582.493        2930.977          35.000                                                                  
C09  37728914.602   196464368.500        -144.099          29.000    37728900.895   151918649.976        -111.787          42.000  
C25  23603155.523   122907836.530        1544.051          43.000                                                                  
C08  39266114.815                2      -2469.485          32.000    39266101.855   158108324.297       -1909.283          34.000  
C10  40469652.964                3        935.120          24.000    40469651.555                         723.193          33.000  
C35  25943536.392   135094811.316         321.465          40.000                                                                  
C13  38430827.744                2      -2278.705          37.000    38430817.818   154744966.253       -1761.179          28.000  
C12  26388282.505                        2316.397          37.000    26388280.787   106254691.992        1790.936          45.000  
G25  24509125.693   128796331.850       -3917.998          35.000    24509121.815   100360741.974       -3053.236          38.000  
C07                                                                  39528287.885                2        864.857          29.000  
> 2025 10 30 06 22 44.3600000  0 23                     
G32  22105954.028   116167568.878       -2980.703          42.000    22105948.485    90520147.835       -2322.675          36.000  
G29  23090601.038   121341942.034        -680.015          40.000    23090592.567    94552132.608        -529.775          41.000  
G28  21287682.646   111867528.816       -1224.475          38.000    21287672.634    87169462.151        -953.352          45.000  
G26  20325479.835   106811118.437         605.954          43.000    20325472.793    83229424.458         472.486          43.000  
G31  20619320.254   108355257.368         112.316          42.000    20619309.366    84432627.141          87.640          41.000  
G04  24400088.470   128223308.276        3168.799          43.000    24400084.663    99914294.894        2469.213          43.000  
C33  22526007.581   117298828.212        -784.695          45.000                                                                  
C06  36577744.967   190469917.135        -156.035          38.000    36577727.576   147283351.111        -120.505          44.000  
C14  22738414.975   118404878.587       -2324.779          38.000    22738400.273    91558108.774       -1797.432          41.000  
C16  37006528.783   192702704.304        -185.340          43.000    37006516.747   149009907.237        -143.610          43.000  
C24  21868128.684   113873089.310        -897.112          48.000                                                                  
C26  24503796.455   127597695.778       -2569.294          44.000                                                                  
G03  22893350.079                3       -216.310          27.000    22893345.912    93744439.522        -169.922          33.000  
G16  22344548.265   117421465.238        2931.163          35.000                                                                  
C09  37728915.662   196464374.231        -143.246          29.000    37728901.993   151918654.452        -111.896          42.000  
C25  23603143.641   122907774.755        1544.176          43.000                                                                  
C08  39266133.763                2      -2469.853          31.000    39266120.797                1      -1908.594          34.000  
C10  40469645.469                3        935.120          24.000    40469644.394                         722.709          33.000  
C35  25943533.917   135094798.435         321.908          39.000                                                                  
C13  38430844.750   200119485.1533      -2278.342          37.000    38430835.319   154745036.714       -1761.319          29.000  
C12  26388264.721                        2316.932          37.000    26388263.023   106254620.344        1791.127          45.000  
G25  24509155.533   128796488.573       -3917.996          35.000    24509151.639   100360864.119       -3053.494          38.000  
C07                                                                  39528279.278                2        865.398          33.000  
> 2025 10 30 06 22 44.4000000  0 23                     
G32  22105976.736   116167688.098       -2980.547          43.000    22105971.153    90520240.744       -2322.687          36.000  
G29  23090606.211   121341969.233        -679.941          41.000    23090597.739    94552153.786        -529.498          41.000  
G28  21287691.986   111867577.776       -1224.303          39.000    21287681.959    87169500.266        -953.014          46.000  
G26  20325475.242   106811094.185         606.172          42.000    20325468.158    83229405.555         472.585          43.000  
G31  20619319.397   108355252.875         112.304          43.000    20619308.516    84432623.630          87.701          41.000  
G04  24400064.344   128223181.505        3169.203          44.000    24400060.536    99914196.118        2469.359          42.000  
C33  22526013.607   117298859.588        -784.459          45.000                                                                  
C06  36577746.157   190469923.369        -155.825          38.000    36577728.757   147283355.922        -120.355          43.000  
C14  22738432.849   118404971.563       -2324.582          38.000    22738418.139    91558180.667       -1797.307          39.000  
C16  37006530.204   192702711.707        -185.174          43.000    37006518.140   149009912.965        -143.396          43.000  
C24  21868135.631   113873125.181        -896.856          48.000                                                                  
C26  24503816.188   127597798.542       -2569.113          43.000                                                                  
G03  22893351.954                3       -216.351          27.000    22893347.554    93744446.239        -168.482          33.000  
G16  22344525.973   117421347.986        2931.232          36.000                                                                  
C09  37728916.778   196464380.103        -144.636          29.000    37728903.115   151918658.923        -111.843          42.000  
C25  23603131.795   122907712.982        1544.250          41.000                                                                  
C08  39266152.437                2      -2468.425          31.000    39266139.725                       -1908.122          34.000  
C10  40469638.605                3        934.538          24.000    40469637.206                         723.444          33.000  
C35  25943531.482   135094785.580         321.587          39.000                                                                  
C13  38430862.043   200119576.2602      -2277.782          37.000    38430852.811   154745107.171       -1761.363          29.000  
C12  26388246.908   137410549.500        2316.621          37.000    26388245.225   106254548.691        1791.286          45.000  
G25  24509185.382   128796645.290       -3917.993          35.000    24509181.450   100360986.235       -3053.192          38.000  
C07                                                                  39528270.659                2        865.411          33.000  
> 2025 10 30 06 22 44.4400000  0 23                     
G32  22105999.393   116167807.322       -2980.523          43.000    22105993.843    90520333.623       -2322.116          36.000  
G29  23090611.384   121341996.440        -680.091          41.000    23090602.922    94552174.952        -529.127          41.000  
G28  21287701.289   111867626.722       -1223.949          39.000    21287691.282    87169538.393        -953.068          46.000  
G26  20325470.605   106811069.930         606.339          42.000    20325463.547    83229386.649         472.640          43.000  
G31  20619318.543   108355248.380         112.366          43.000    20619307.662    84432620.135          87.473          41.000  
G04  24400040.197   128223054.733        3169.385          43.000    24400036.411    99914097.340        2469.424          42.000  
C33  22526019.652   117298890.950        -784.094          44.000                                                                  
C06  36577747.344   190469929.600        -155.749          38.000    36577729.926   147283360.728        -120.183          44.000  
C14  22738450.697   118405064.512       -2324.032          38.000    22738436.014    91558252.559       -1797.253          39.000  
C16  37006531.624   192702719.110        -185.080          42.000    37006519.553   149009918.678        -142.970          43.000  
C24  21868142.561   113873161.052        -896.720          48.000                                                                  
C26  24503835.911   127597901.313       -2569.135          42.000                                                                  
G03  22893353.654                2       -216.520          27.000    22893349.230    93744453.011        -168.701          32.000  
G16  22344503.681   117421230.716        2931.582          36.000                                                                  
C09  37728917.928                        -146.592          29.000    37728904.199   151918663.376        -111.436          42.000  
C25  23603119.936   122907651.197        1544.515          40.000                                                                  
C08  39266171.825                2      -2468.471          31.000    39266158.712   158108549.8531      -1909.016          34.000  
C10  40469631.435                3        934.538          24.000    40469630.042                         723.604          33.000  
C35  25943529.051   135094772.724         321.345          37.000                                                                  
C13  38430879.334   200119667.3672      -2277.557          37.000    38430870.284   154745177.658       -1761.754          29.000  
C12  26388229.107   137410456.833        2316.732          37.000    26388227.421   106254477.036        1791.408          45.000  
G25  24509215.185   128796802.039       -3918.436          35.000    24509211.278   100361108.320       -3052.327          38.000  
C07                                                                  39528262.027                2        865.337          33.000  
> 2025 10 30 06 22 44.4800000  0 23                     
G32  22106022.079   116167926.553       -2980.709          43.000    22106016.527    90520426.514       -2322.098          36.000  
G29  23090616.575   121342023.637        -679.967          41.000    23090608.092    94552196.130        -529.244          41.000  
G28  21287710.592   111867675.647       -1223.320          39.000    21287700.593    87169576.518        -953.092          46.000  
G26  20325465.992   106811045.679         606.356          42.000    20325458.955    83229367.740         472.725          42.000  
G31  20619317.703   108355243.880         112.483          42.000    20619306.803    84432616.627          87.573          41.000  
G04  24400016.085   128222927.959        3169.495          43.000    24400012.288    99913998.555        2469.617          42.000  
C33  22526025.680   117298922.329        -784.254          44.000                                                                  
C06  36577748.544   190469935.834        -155.747          38.000    36577731.109   147283365.526        -119.962          43.000  
C14  22738468.547   118405157.440       -2323.304          38.000    22738453.860    91558324.455       -1797.373          38.000  
C16  37006533.048   192702726.515        -185.065          41.000    37006520.954   149009924.389        -142.741          43.000  
C24  21868149.435   113873196.920        -896.646          48.000                                                                  
C26  24503855.640   127598004.079       -2569.115          41.000                                                                  
G03  22893355.327                2       -217.066          27.000    22893350.902    93744459.843        -169.922          28.000  
G16  22344481.322   117421113.436        2931.938          36.000                                                                  
C09  37728919.073                        -146.697          29.000    37728905.260   151918667.830        -111.323          43.000  
C25  23603108.066   122907589.432        1544.274          40.000                                                                  
C08  39266191.420                2      -2468.961          31.000    39266177.703   158108626.178       -1908.348          34.000  
C10  40469624.084                3        938.617          24.000    40469622.888                         722.951          33.000  
C35  25943526.586   135094759.824         322.115          37.000                                                                  
C13  38430896.690   200119758.4932      -2277.899          37.000    38430887.776   154745248.116       -1761.723          29.000  
C12  26388211.308   137410364.175        2316.527          36.000    26388209.629   106254405.378        1791.462          45.000  
G25  24509244.989   128796958.768       -3918.336          35.000    24509241.087   100361230.456       -3052.891          38.000  
C07                                                                  39528253.424   159163896.4903        864.783          33.000  
> 2025 10 30 06 22 44.5200000  0 23                     
G32  22106044.778   116168045.781       -2980.748          42.000    22106039.219    90520519.414       -2322.369          36.000  
G29  23090621.725   121342050.813        -679.545          41.000    23090613.270    94552217.327        -529.681          41.000  
G28  21287719.912   111867724.570       -1223.022          39.000    21287709.903    87169614.643        -953.102          46.000  
G26  20325461.349   106811021.417         606.510          42.000    20325454.338    83229348.833         472.712          42.000  
G31  20619316.849   108355239.367         112.766          42.000    20619305.931    84432613.111          87.819          41.000  
G04  24399991.985   128222801.189        3169.417          42.000    24399988.172    99913899.777        2469.534          41.000  
C33  22526031.704   117298953.704        -784.327          44.000                                                                  
C06  36577749.758   190469942.033        -155.159          38.000    36577732.308   147283370.322        -119.848          43.000  
C14  22738486.423   118405250.403       -2323.746          38.000    22738471.709    91558396.355       -1797.545          38.000  
C16  37006534.481   192702733.913        -184.945          41.000    37006522.355   149009930.105        -142.747          43.000  
C24  21868156.299   113873232.793        -896.711          48.000                                                                  
C26  24503875.389   127598106.825       -2568.771          41.000                                                                  
G03  22893357.084                2       -217.690          28.000    22893352.552    93744466.620        -169.855          28.000  
G16  22344458.977   117420996.159        2932.043          36.000                                                                  
C09  37728920.184                        -145.687          29.000    37728906.348   151918672.284        -111.265          43.000  
C25  23603096.231   122907527.685        1543.818          38.000                                                                  
C08  39266210.708                2      -2468.965          31.000    39266196.668   158108702.549       -1908.771          34.000  
C10  40469616.724                3        938.021          24.000    40469615.714                         723.401          33.000  
C35  25943524.132   135094746.959         321.877          37.000                                                                  
C13  38430914.076   200119849.6312      -2278.356          37.000    38430905.269   154745318.569       -1761.600          29.000  
C12  26388193.505   137410271.477        2317.130          36.000    26388191.815   106254333.708        1791.708          45.000  
G25  24509274.805   128797115.489       -3918.182          35.000    24509270.910   100361352.589       -3053.161          38.000  
C07                                                                  39528244.849   159163861.8792        865.028          33.000  
> 2025 10 30 06 22 44.5600000  0 23                     
G32  22106067.477   116168165.012       -2980.781          41.000    22106061.912    90520612.347       -2323.126          36.000  
G29  23090626.896   121342077.997        -679.506          41.000    23090618.427    94552238.510        -529.705          41.000  
G28  21287729.248   111867773.499       -1223.025          39.000    21287719.225    87169652.770        -953.175          46.000  
G26  20325456.726   106810997.153         606.608          42.000    20325449.734    83229329.931         472.587          42.000  
G31  20619315.995   108355234.860         112.814          42.000    20619305.059    84432609.590          88.053          41.000  
G04  24399967.893   128222674.439        3168.976          42.000    24399964.063    99913801.000        2469.443          41.000  
C33  22526037.720   117298985.079        -784.418          43.000                                                                  
C06  36577750.956   190469948.218        -154.643          38.000    36577733.479   147283375.118        -119.817          43.000  
C14  22738504.273   118405343.378       -2324.199          38.000    22738489.570    91558468.274       -1797.869          37.000  
C16  37006535.905   192702741.307        -184.840          41.000    37006523.759   149009935.828        -142.941          43.000  
C24  21868163.214   113873268.660        -896.683          48.000                                                                  
C26  24503895.120   127598209.577       -2568.690          41.000                                                                  
G03  22893359.028                2       -218.245          28.000    22893354.206    93744473.353        -169.338          28.000  
G16  22344436.662   117420878.915        2931.515          36.000                                                                  
C09  37728921.298                        -144.949          29.000    37728907.444   151918676.738        -111.308          43.000  
C25  23603084.385   122907465.944        1543.387          38.000                                                                  
C08  39266228.768                2      -2468.726          31.000    39266215.627   158108778.917       -1909.104          33.000  
C10  40469609.157                3        938.021          25.000    40469608.541                         723.205          33.000  
C35  25943521.679   135094734.087         321.805          37.000                                                                  
C13  38430931.223   200119940.7532      -2278.274          37.000    38430922.727                       -1761.583          29.000  
C12  26388175.697   137410178.819        2316.766          36.000    26388174.038   106254262.061        1791.361          45.000  
G25  24509304.631   128797272.224       -3918.292          32.000    24509300.737   100361474.723       -3053.303          38.000  
C07                                                                  39528236.265   159163827.2822        864.844          33.000  
> 2025 10 30 06 22 44.6000000  0 23                     
G32  22106090.171   116168284.224       -2980.496          41.000    22106084.609    90520705.242       -2322.791          36.000  
G29  23090632.094   121342105.177        -679.478          41.000    23090623.608    94552259.698        -529.740          41.000  
G28  21287738.563   111867822.420       -1222.959          41.000    21287728.539    87169690.896        -953.160          46.000  
G26  20325452.151   106810972.895         606.524          43.000    20325445.133    83229311.026         472.574          42.000  
G31  20619315.169   108355230.353         112.732          42.000    20619304.195    84432606.078          87.915          41.000  
G04  24399943.759   128222547.684        3168.817          42.000    24399939.940    99913702.242        2469.037          41.000  
C33  22526043.737   117299016.459        -784.486          43.000                                                                  
C06  36577752.154   190469954.432        -154.932          38.000    36577734.653   147283379.937        -120.263          43.000  
C14  22738522.126   118405436.347       -2324.320          38.000    22738507.390    91558540.160       -1797.504          37.000  
C16  37006537.307   192702748.702        -184.847          41.000    37006525.182   149009941.539        -142.853          43.000  
C24  21868170.112   113873304.539        -896.859          48.000                                                                  
C26  24503914.849   127598312.330       -2568.706          41.000                                                                  
G03  22893360.707                2       -218.468          28.000    22893355.836    93744480.099        -169.084          28.000  
G16  22344414.344   117420761.669        2931.204          36.000                                                                  
C09  37728922.386                        -144.072          29.000    37728908.548   151918681.191        -111.316          43.000  
C25  23603072.543   122907404.175        1543.741          38.000                                                                  
C08  39266247.981                2      -2469.209          31.000    39266234.580   158108855.262       -1908.864          33.000  
C10  40469601.952                3        931.458          25.000    40469601.353                         723.313          33.000  
C35  25943519.209   135094721.207         321.951          37.000                                                                  
C13  38430948.576   200120031.8722      -2278.070          37.000    38430940.190                       -1761.688          29.000  
C12  26388157.915   137410086.144        2316.821          36.000    26388156.259   106254190.408        1791.270          45.000  
G25  24509334.454   128797428.946       -3918.119          33.000    24509330.548   100361596.843       -3053.123          38.000  
C07                                                                  39528227.658   159163792.6782        864.929          33.000  
> 2025 10 30 06 22 44.6400000  0 23                     
G32  22106112.837   116168403.437       -2980.347          41.000    22106107.288    90520798.120       -2322.211          36.000  
G29  23090637.271   121342132.358        -679.498          41.000    23090628.761    94552280.871        -529.478          41.000  
G28  21287747.872   111867871.346       -1223.064          41.000    21287737.848    87169729.011        -952.975          46.000  
G26  20325447.537   106810948.624         606.711          43.000    20325440.525    83229292.116         472.693          42.000  
G31  20619314.302   108355225.845         112.664          41.000    20619303.327    84432602.561          87.946          41.000  
G04  24399919.624   128222420.909        3169.089          42.000    24399915.836    99913603.465        2469.159          41.000  
C33  22526049.781   117299047.826        -784.293          43.000                                                                  
C06  36577753.343   190469960.646        -155.113          38.000    36577735.838   147283384.742        -120.248          43.000  
C14  22738539.994   118405529.308       -2324.168          38.000    22738525.224    91558612.029       -1796.875          37.000  
C16  37006538.728   192702756.081        -184.586          40.000    37006526.631   149009947.255        -142.873          43.000  
C24  21868177.036   113873340.410        -896.824          48.000                                                                  
C26  24503934.562   127598415.070       -2568.508          41.000                                                                  
G03  22893362.353                2       -218.388          28.000    22893357.490                        -169.751          27.000  
G16  22344392.041   117420644.401        2931.447          36.000                                                                  
C09  37728923.466                        -143.410          29.000    37728909.667   151918685.661        -111.614          43.000  
C25  23603060.696   122907342.399        1544.142          38.000                                                                  
C08  39266266.954                2      -2469.842          31.000    39266253.532   158108931.633       -1909.154          33.000  
C10  40469594.651                3        933.113          25.000    40469594.113                         722.551          33.000  
C35  25943516.737   135094708.325         322.121          37.000                                                                  
C13  38430965.989   200120122.9752      -2277.663          37.000    38430957.683                       -1761.090          28.000  
C12  26388140.105   137409993.450        2317.190          36.000    26388138.453   106254118.743        1791.474          45.000  
G25  24509364.285   128797585.691       -3918.479          33.000    24509360.347   100361718.962       -3053.027          38.000  
C07                                                                  39528219.040   159163758.0362        865.616          33.000  
> 2025 10 30 06 22 44.6800000  0 23                     
G32  22106135.521   116168522.651       -2980.261          41.000    22106129.952    90520891.003       -2322.035          36.000  
G29  23090642.438   121342159.534        -679.405          41.000    23090633.934    94552302.047        -529.398          41.000  
G28  21287757.208   111867920.273       -1223.152          41.000    21287747.150    87169767.130        -952.927          46.000  
G26  20325442.902   106810924.357         606.734          43.000    20325435.904    83229273.201         472.842          42.000  
G31  20619313.459   108355221.329         112.818          41.000    20619302.473    84432599.042          87.939          41.000  
G04  24399895.497   128222294.131        3169.304          42.000    24399891.705    99913504.671        2469.592          40.000  
C33  22526055.828   117299079.181        -783.978          43.000                                                                  
C06  36577754.535   190469966.871        -155.447          38.000    36577737.035   147283389.535        -120.002          43.000  
C14  22738557.843   118405622.273       -2324.134          38.000    22738543.062    91558683.904       -1796.767          37.000  
C16  37006540.152   192702763.468        -184.601          40.000    37006528.056   149009952.966        -142.828          43.000  
C24  21868183.933   113873376.276        -896.699          48.000                                                                  
C26  24503954.284   127598517.825       -2568.652          41.000                                                                  
G03  22893364.136                2       -218.434          28.000    22893359.157                        -169.350          27.000  
G16  22344369.735   117420527.146        2931.451          36.000                                                                  
C09  37728924.558                        -142.806          29.000    37728910.763   151918690.110        -111.408          43.000  
C25  23603048.851   122907280.623        1544.394          38.000                                                                  
C08  39266286.434                2      -2468.918          31.000    39266272.503   158109008.012       -1909.439          33.000  
C10  40469587.845                3        933.113          25.000    40469586.944                         723.581          33.000  
C35  25943514.282   135094695.458         321.873          37.000                                                                  
C13  38430983.573   200120214.1102      -2278.065          37.000    38430975.174                       -1761.523          28.000  
C12  26388122.301   137409900.745        2317.533          36.000    26388120.687   106254047.078        1791.621          45.000  
G25  24509394.105   128797742.387       -3917.795          33.000    24509390.159   100361841.070       -3052.825          38.000  
C07                                                                  39528210.474                2        865.199          33.000  
> 2025 10 30 06 22 44.7200000  0 23                     
G32  22106158.201   116168641.869       -2980.405          39.000    22106152.631    90520983.908       -2322.464          37.000  
G29  23090647.594   121342186.714        -679.405          41.000    23090639.092    94552323.218        -529.269          42.000  
G28  21287766.533   111867969.201       -1223.217          41.000    21287756.450    87169805.248        -952.947          46.000  
G26  20325438.286   106810900.091         606.715          43.000    20325431.263    83229254.280         473.003          43.000  
G31  20619312.593   108355216.815         112.854          41.000    20619301.642    84432595.531          87.822          41.000  
G04  24399871.384   128222167.363        3169.272          41.000    24399867.585    99913405.886        2469.655          40.000  
C33  22526061.824   117299110.555        -784.168          43.000                                                                  
C06  36577755.726   190469973.064        -155.075          38.000    36577738.209   147283394.329        -119.911          43.000  
C14  22738575.692   118405715.227       -2323.899          38.000    22738560.889    91558755.793       -1797.036          37.000  
C16  37006541.575   192702770.851        -184.587          40.000    37006529.492   149009958.680        -142.856          43.000  
C24  21868190.864   113873412.138        -896.598          48.000                                                                  
C26  24503974.019   127598620.580       -2568.760          41.000                                                                  
G03  22893365.955                2       -218.064          28.000    22893360.830                        -169.250          28.000  
G16  22344347.394   117420409.874        2931.673          36.000                                                                  
C09  37728925.671                        -143.311          29.000    37728911.866   151918694.547        -111.120          43.000  
C25  23603036.989   122907218.852        1544.331          36.000                                                                  
C08  39266305.853                2      -2468.958          31.000    39266291.432   158109084.376       -1909.256          33.000  
C10  40469580.478                3        933.664          25.000    40469579.737                         723.461          33.000  
C35  25943511.823   135094682.596         321.545          37.000                                                                  
C13  38431001.464   200120305.2102      -2277.646          37.000    38430992.696                       -1761.192          28.000  
C12  26388104.523   137409808.103        2316.402          36.000    26388102.898   106253975.406        1791.806          45.000  
G25  24509423.919   128797899.092       -3917.596          33.000    24509419.988   100361963.195       -3053.019          38.000  
C07                                                                  39528201.896   159163688.8362        864.907          33.000  
> 2025 10 30 06 22 44.7600000  0 23                     
G32  22106180.880   116168761.092       -2980.527          39.000    22106175.308    90521076.812       -2322.675          37.000  
G29  23090652.754   121342213.888        -679.331          41.000    23090644.269    94552344.399        -529.414          42.000  
G28  21287775.839   111868018.121       -1223.124          41.000    21287765.783    87169843.373        -953.096          46.000  
G26  20325433.637   106810875.814         606.850          43.000    20325426.663    83229235.373         472.814          43.000  
G31  20619311.748   108355212.302         112.829          41.000    20619300.780    84432592.004          88.007          41.000  
G04  24399847.276   128222040.600        3169.154          41.000    24399843.457    99913307.105        2469.574          40.000  
C33  22526067.842   117299141.930        -784.340          43.000                                                                  
C06  36577756.919   190469979.258        -154.849          38.000    36577739.407   147283399.124        -119.903          43.000  
C14  22738593.551   118405808.178       -2323.764          38.000    22738578.720    91558827.690       -1797.360          37.000  
C16  37006543.006   192702778.229        -184.465          40.000    37006530.943   149009964.391        -142.824          43.000  
C24  21868197.727   113873448.012        -896.739          48.000                                                                  
C26  24503993.749   127598723.334       -2568.873          40.000                                                                  
G03  22893367.620                2       -217.635          28.000    22893362.499                3       -168.256          28.000  
G16  22344325.079   117420292.606        2931.732          36.000                                                                  
C09  37728926.843                        -143.668          30.000    37728912.976   151918698.999        -111.232          43.000  
C25  23603025.138   122907157.085        1544.281          36.000                                                                  
C08  39266325.284                2      -2468.582          31.000    39266310.423   158109160.734       -1909.009          33.000  
C10  40469573.182                3        934.225          26.000    40469572.592                         722.376          33.000  
C35  25943509.350   135094669.740         321.381          37.000                                                                  
C13  38431018.721   200120396.3252      -2277.733          37.000    38431010.216                       -1760.943          28.000  
C12  26388086.725   137409715.458        2315.906          36.000    26388085.109   106253903.740        1791.755          45.000  
G25  24509453.736   128798055.844       -3918.323          33.000    24509449.796   100362085.311       -3052.971          38.000  
C07                                                                  39528193.313   159163654.2202        865.098          33.000  
> 2025 10 30 06 22 44.8000000  0 23                     
G32  22106203.572   116168880.304       -2980.382          40.000    22106198.010    90521169.720       -2322.781          37.000  
G29  23090657.929   121342241.067        -679.470          41.000    23090649.451    94552365.589        -529.663          42.000  
G28  21287785.173   111868067.036       -1222.981          41.000    21287775.108    87169881.502        -953.252          46.000  
G26  20325429.025   106810851.549         606.706          43.000    20325422.051    83229216.472         472.577          43.000  
G31  20619310.898   108355207.789         112.804          41.000    20619299.930    84432588.488          87.957          41.000  
G04  24399823.168   128221913.836        3169.110          41.000    24399819.346    99913208.337        2469.315          40.000  
C33  22526073.861   117299173.293        -784.225          43.000                                                                  
C06  36577758.091   190469985.466        -155.021          38.000    36577740.556   147283403.919        -119.859          43.000  
C14  22738611.422   118405901.138       -2323.909          38.000    22738596.577    91558899.593       -1797.589          37.000  
C16  37006544.436   192702785.620        -184.656          40.000    37006532.338   149009970.099        -142.743          43.000  
C24  21868204.645   113873483.881        -896.787          48.000                                                                  
C26  24504013.472   127598826.068       -2568.497          40.000                                                                  
G03  22893369.424                2       -217.574          28.000    22893364.224                3       -165.669          27.000  
G16  22344302.753   117420175.332        2931.831          36.000                                                                  
C09  37728927.941                        -144.519          30.000    37728914.090   151918703.440        -111.119          43.000  
C25  23603013.298   122907095.327        1544.091          36.000                                                                  
C08  39266344.219                2      -2469.616          31.000    39266329.398   158109237.095       -1908.929          33.000  
C10  40469565.864                3        935.722          26.000    40469565.413                         722.985          33.000  
C35  25943506.882   135094656.858         321.736          37.000                                                                  
C13  38431036.320   200120487.4512      -2278.017          37.000    38431027.709                       -1761.409          28.000  
C12  26388068.940   137409622.765        2316.743          36.000    26388067.329   106253832.078        1791.606          45.000  
G25  24509483.548   128798212.573       -3918.389          33.000    24509479.603   100362207.424       -3052.922          38.000  
C07                                                                  39528184.678   159163619.6312        864.758          33.000  
> 2025 10 30 06 22 44.8400000  0 23                     
G32  22106226.261   116168999.514       -2980.294          40.000    22106220.695    90521262.610       -2322.540          37.000  
G29  23090663.105   121342268.240        -679.363          41.000    23090654.606    94552386.783        -529.866          42.000  
G28  21287794.461   111868115.955       -1222.972          41.000    21287784.410    87169919.633        -953.364          46.000  
G26  20325424.409   106810827.288         606.525          43.000    20325417.443    83229197.571         472.397          43.000  
G31  20619310.046   108355203.278         112.767          41.000    20619299.070    84432584.974          87.865          41.000  
G04  24399799.045   128221787.081        3168.942          41.000    24399795.243    99913109.569        2469.122          40.000  
C33  22526079.868   117299204.669        -784.371          43.000                                                                  
C06  36577759.283   190469991.671        -155.110          38.000    36577741.747   147283408.723        -120.045          43.000  
C14  22738629.289   118405994.119       -2324.366          38.000    22738614.427    91558971.474       -1797.311          37.000  
C16  37006545.847   192702793.017        -184.875          40.000    37006533.768   149009975.813        -142.815          43.000  
C24  21868211.534   113873519.757        -896.909          48.000                                                                  
C26  24504033.177   127598928.817       -2568.599          40.000                                                                  
G03  22893371.015                2       -217.520          28.000    22893365.861                3       -165.669          19.000  
G16  22344280.443   117420058.089        2931.390          36.000                                                                  
C09  37728929.103                        -143.510          30.000    37728915.193   151918707.895        -111.312          43.000  
C25  23603001.492   122907033.561        1544.066          36.000                                                                  
C08  39266363.553                2      -2469.384          31.000    39266348.351   158109313.467       -1909.166          33.000  
C10  40469558.400                3        934.678          26.000    40469558.261                         723.367          33.000  
C35  25943504.419   135094643.994         321.686          37.000                                                                  
C13  38431054.104   200120578.6152      -2278.817          37.000    38431045.211                       -1762.588          28.000  
C12  26388051.129   137409530.068        2317.247          36.000    26388049.529   106253760.424        1791.360          45.000  
G25  24509513.372   128798369.303       -3918.413          33.000    24509509.420   100362329.558       -3053.230          38.000  
C07                                                                  39528176.052   159163585.0462        864.541          33.000  
> 2025 10 30 06 22 44.8800000  0 23                     
G32  22106248.945   116169118.737       -2980.491          40.000    22106243.380    90521355.504       -2322.374          37.000  
G29  23090668.292   121342295.436        -679.756          41.000    23090659.778    94552407.977        -529.963          42.000  
G28  21287803.780   111868164.876       -1222.994          41.000    21287793.704    87169957.759        -953.297          46.000  
G26  20325419.800   106810803.027         606.465          43.000    20325412.818    83229178.664         472.493          43.000  
G31  20619309.206   108355198.767         112.712          41.000    20619298.213    84432581.464          87.742          41.000  
G04  24399774.915   128221660.327        3168.835          41.000    24399771.132    99913010.786        2469.364          40.000  
C33  22526085.910   117299236.038        -784.298          43.000                                                                  
C06  36577760.484   190469997.876        -155.134          38.000    36577742.921   147283413.533        -120.278          43.000  
C14  22738647.154   118406087.105       -2324.615          38.000    22738632.271    91559043.350       -1797.019          37.000  
C16  37006547.266   192702800.414        -184.985          40.000    37006535.193   149009981.524        -142.820          43.000  
C24  21868218.395   113873555.642        -897.126          48.000                                                                  
C26  24504052.935   127599031.565       -2568.605          40.000                                                                  
G03  22893373.089                2       -217.297          28.000    22893367.524                3       -165.669          19.000  
G16  22344258.134   117419940.859        2930.890          36.000                                                                  
C09  37728930.193                        -143.522          30.000    37728916.328   151918712.344        -111.342          43.000  
C25  23602989.650   122906971.810        1543.807          36.000                                                                  
C08  39266382.509                2      -2468.370          30.000    39266367.322   158109389.888       -1910.196          33.000  
C10  40469550.912                3        935.882          26.000    40469551.085                         722.647          33.000  
C35  25943501.931   135094631.149         321.277          37.000                                                                  
C13  38431071.647   200120669.7622      -2278.962          37.000    38431062.748                       -1762.349          28.000  
C12  26388033.309   137409437.385        2317.239          36.000    26388031.730   106253688.762        1791.404          45.000  
G25  24509543.207   128798526.033       -3918.323          33.000    24509539.249   100362451.679       -3053.204          38.000  
C07                                                                  39528167.437   159163550.4572        864.556          33.000  
> 2025 10 30 06 22 44.9200000  0 23                     
G32  22106271.652   116169237.976       -2980.861          40.000    22106266.060    90521448.416       -2322.635          37.000  
G29  23090673.473   121342322.634        -679.996          41.000    23090664.940    94552429.158        -529.725          42.000  
G28  21287813.098   111868213.805       -1223.179          41.000    21287803.021    87169995.882        -953.196          46.000  
G26  20325415.183   106810778.757         606.590          43.000    20325408.204    83229159.751         472.656          43.000  
G31  20619308.358   108355194.264         112.558          41.000    20619297.354    84432577.959          87.576          41.000  
G04  24399750.797   128221533.569        3168.853          41.000    24399747.017    99912912.007        2469.423          40.000  
C33  22526091.920   117299267.411        -784.343          43.000                                                                  
C06  36577761.674   190470004.097        -155.473          38.000    36577744.135   147283418.329        -120.106          43.000  
C14  22738665.015   118406180.085       -2324.608          38.000    22738650.102    91559115.238       -1797.139          37.000  
C16  37006548.694   192702807.799        -184.771          40.000    37006536.586   149009987.242        -142.916          43.000  
C24  21868225.323   113873591.519        -897.071          48.000                                                                  
C26  24504072.660   127599134.313       -2568.676          40.000                                                                  
G03  22893375.024                2       -217.752          28.000    22893369.260                3       -165.669          19.000  
G16  22344235.855   117419823.611        2930.985          36.000                                                                  
C09  37728931.310                        -144.824          30.000    37728917.439   151918716.797        -111.411          43.000  
C25  23602977.804   122906910.059        1543.723          37.000                                                                  
C08  39266401.696                2      -2469.412          30.000    39266386.304   158109466.227       -1909.413          33.000  
C10  40469543.586                3        935.833          26.000    40469543.928                         723.005          33.000  
C35  25943499.472   135094618.301         321.066          37.000                                                                  
C13  38431089.512   200120760.8872      -2278.522          37.000    38431080.236                       -1761.705          28.000  
C12  26388015.520   137409344.713        2316.948          36.000    26388013.924   106253617.105        1791.361          45.000  
G25  24509573.024   128798682.740       -3917.861          33.000    24509569.058   100362573.807       -3053.280          38.000  
C07                                                                  39528158.806   159163515.8272        865.441          33.000  
> 2025 10 30 06 22 44.9600000  0 23                     
G32  22106294.331   116169357.193       -2980.638          40.000    22106288.753    90521541.309       -2322.443          37.000  
G29  23090678.667   121342349.832        -680.086          41.000    23090670.085    94552450.331        -529.458          42.000  
G28  21287822.420   111868262.744       -1223.458          41.000    21287812.314    87170034.009        -953.218          46.000  
G26  20325410.564   106810754.495         606.528          43.000    20325403.611    83229140.845         472.630          43.000  
G31  20619307.513   108355189.759         112.547          41.000    20619296.500    84432574.451          87.577          41.000  
G04  24399726.661   128221406.803        3169.027          41.000    24399722.903    99912813.234        2469.376          40.000  
C33  22526097.963   117299298.785        -784.354          44.000                                                                  
C06  36577762.877   190470010.301        -155.299          38.000    36577745.300   147283423.129        -120.046          43.000  
C14  22738682.881   118406273.037       -2324.052          38.000    22738667.972    91559187.150       -1797.634          38.000  
C16  37006550.112   192702815.176        -184.507          40.000    37006538.006   149009992.949        -142.792          43.000  
C24  21868232.226   113873627.393        -896.943          48.000                                                                  
C26  24504092.410   127599237.079       -2569.044          40.000                                                                  
G03  22893376.629                2       -218.000          28.000    22893371.101                3       -165.669          19.000  
G16  22344213.515   117419706.353        2931.266          36.000                                                                  
C09  37728932.424                        -144.418          30.000    37728918.558   151918721.255        -111.510          43.000  
C25  23602965.947   122906848.300        1543.872          37.000                                                                  
C08  39266420.690                2      -2469.501          30.000    39266405.276   158109542.619       -1909.770          33.000  
C10  40469536.404                2        935.828          26.000    40469536.737                         723.545          33.000  
C35  25943497.009   135094605.429         321.422          37.000                                                                  
C13  38431106.668   200120851.9992      -2277.937          37.000    38431097.736                       -1761.061          28.000  
C12  26387997.744   137409252.001        2317.496          36.000    26387996.102   106253545.439        1791.535          45.000  
G25  24509602.815   128798839.461       -3917.823          33.000    24509598.879   100362695.934       -3053.237          38.000  
C07                                                                  39528150.204   159163481.2272        865.328          33.000  
> 2025 10 30 06 22 45.0000000  0 23                     
G32  22106317.001   116169476.425       -2980.795          40.000    22106311.442    90521634.229       -2322.774          37.000  
G29  23090683.835   121342377.023        -679.997          41.000    23090675.268    94552471.528        -529.746          42.000  
G28  21287831.723   111868311.677       -1223.516          41.000    21287821.608    87170072.129        -953.113          46.000  
G26  20325405.960   106810730.244         606.286          43.000    20325398.973    83229121.948         472.425          43.000  
G31  20619306.675   108355185.263         112.350          41.000    20619295.635    84432570.944          87.552          41.000  
G04  24399702.537   128221280.036        3169.128          41.000    24399698.789    99912714.459        2469.314          40.000  
C33  22526103.974   117299330.162        -784.456          44.000                                                                  
C06  36577764.039   190470016.509        -155.260          38.000    36577746.501   147283427.933        -120.073          43.000  
C14  22738700.730   118406365.999       -2324.010          38.000    22738685.843    91559259.040       -1797.481          38.000  
C16  37006551.538   192702822.563        -184.558          40.000    37006539.421   149009998.670        -142.969          43.000  
C24  21868239.129   113873663.270        -896.952          48.000                                                                  
C26  24504112.165   127599339.836       -2569.053          40.000                                                                  
G03  22893378.783                2       -218.122          28.000    22893372.796                3       -167.046          20.000  
G16  22344191.180   117419589.097        2931.372          36.000                                                                  
C09  37728933.537                        -144.347          30.000    37728919.677   151918725.705        -111.393          43.000  
C25  23602954.099   122906786.533        1544.056          37.000                                                                  
C08  39266439.331                2      -2469.564          30.000    39266424.231   158109618.975       -1909.323          33.000  
C10  40469529.070                2        935.180          26.000    40469529.575                         722.772          33.000  
C35  25943494.555   135094592.566         321.503          37.000                                                                  
C13  38431124.673   200120943.1242      -2278.082          37.000    38431115.230                       -1761.629          28.000  
C12  26387979.941   137409159.361        2316.441          36.000    26387978.304   106253473.776        1791.571          45.000  
G25  24509632.647   128798996.192       -3918.085          33.000    24509628.699   100362818.047       -3052.980          38.000  
C07                                                                  39528141.601   159163446.6412        864.944          33.000  
> 2025 10 30 06 22 45.0400000  0 23                     
G32  22106339.692   116169595.648       -2980.699          40.000    22106334.125    90521727.148       -2322.977          37.000  
G29  23090689.006   121342404.210        -679.822          41.000    23090680.447    94552492.726        -529.988          42.000  
G28  21287841.052   111868360.605       -1223.394          41.000    21287830.935    87170110.263        -953.293          46.000  
G26  20325401.331   106810705.998         606.133          43.000    20325394.354    83229103.053         472.321          43.000  
G31  20619305.813   108355180.757         112.474          42.000    20619294.783    84432567.433          87.639          41.000  
G04  24399678.407   128221153.273        3169.105          41.000    24399674.663    99912615.690        2469.167          40.000  
C33  22526109.998   117299361.552        -784.760          44.000                                                                  
C06  36577765.226   190470022.732        -155.452          38.000    36577747.659   147283432.730        -119.994          43.000  
C14  22738718.571   118406458.975       -2324.268          38.000    22738703.671    91559330.925       -1797.343          38.000  
C16  37006552.963   192702829.957        -184.729          40.000    37006540.855   149010004.382        -142.927          43.000  
C24  21868246.030   113873699.150        -897.024          48.000                                                                  
C26  24504131.889   127599442.577       -2568.722          40.000                                                                  
G03  22893380.447                2       -218.543          28.000    22893374.834                3       -167.046          20.000  
G16  22344168.854   117419471.852        2931.229          36.000                                                                  
C09  37728934.630                        -143.315          30.000    37728920.802   151918730.158        -111.373          43.000  
C25  23602942.251   122906724.761        1544.308          37.000                                                                  
C08  39266457.909                2      -2469.183          30.000    39266443.182   158109695.354       -1909.471          33.000  
C10  40469521.705                2        934.814          26.000    40469522.403                         723.042          33.000  
C35  25943492.111   135094579.717         321.288          39.000                                                                  
C13  38431142.591   200121034.2392      -2277.941          37.000    38431132.734                       -1761.424          28.000  
C12  26387962.152   137409066.714        2316.062          36.000    26387960.506   106253402.118        1791.472          45.000  
G25  24509662.454   128799152.924       -3918.326          33.000    24509658.523   100362940.180       -3053.175          38.000  
C07                                                                  39528132.999   159163412.0472        864.799          33.000  
> 2025 10 30 06 22 45.0800000  0 23                     
G32  22106362.393   116169714.889       -2981.005          40.000    22106356.803    90521820.040       -2322.560          37.000  
G29  23090694.191   121342431.401        -679.829          41.000    23090685.628    94552513.927        -530.091          42.000  
G28  21287850.327   111868409.527       -1223.195          41.000    21287840.231    87170148.391        -953.274          46.000  
G26  20325396.702   106810681.750         606.117          44.000    20325389.754    83229084.169         472.073          43.000  
G31  20619304.932   108355176.249         112.616          42.000    20619293.935    84432563.927          87.602          41.000  
G04  24399654.298   128221026.528        3168.777          41.000    24399650.557    99912516.932        2468.938          40.000  
C33  22526116.044   117299392.943        -784.854          44.000                                                                  
C06  36577766.413   190470028.948        -155.475          38.000    36577748.832   147283437.539        -120.195          43.000  
C14  22738736.429   118406551.957       -2324.546          38.000    22738721.516    91559402.820       -1797.380          38.000  
C16  37006554.387   192702837.362        -185.066          40.000    37006542.267   149010010.102        -143.010          43.000  
C24  21868252.973   113873735.030        -897.050          48.000                                                                  
C26  24504151.596   127599545.343       -2568.983          40.000                                                                  
G03  22893382.376                2       -218.521          28.000    22893376.304                3       -167.046          19.000  
G16  22344146.517   117419354.599        2931.252          36.000                                                                  
C09  37728935.752                        -143.450          30.000    37728921.909   151918734.607        -111.311          43.000  
C25  23602930.395   122906662.989        1544.337          37.000                                                                  
C08  39266477.125                2      -2468.881          30.000    39266462.131   158109771.715       -1909.274          33.000  
C10  40469514.329                2        934.631          27.000    40469515.209                         723.136          33.000  
C35  25943489.682   135094566.872         321.108          39.000                                                                  
C13  38431159.606   200121125.3672      -2278.164          37.000    38431150.259                       -1761.317          28.000  
C12  26387944.347   137408974.022        2316.823          36.000    26387942.696   106253330.462        1791.392          45.000  
G25  24509692.278   128799309.661       -3918.445          33.000    24509688.357   100363062.299       -3053.019          38.000  
C07                                                                  39528124.443   159163377.4752        864.491          33.000  
> 2025 10 30 06 22 45.1200000  0 23                     
G32  22106385.086   116169834.113       -2980.804          40.000    22106379.480    90521912.937       -2322.383          37.000  
G29  23090699.373   121342458.599        -679.960          41.000    23090690.791    94552535.114        -529.909          42.000  
G28  21287859.630   111868458.448       -1223.046          41.000    21287849.546    87170186.523        -953.312          46.000  
G26  20325392.073   106810657.495         606.237          44.000    20325385.121    83229065.267         472.294          43.000  
G31  20619304.071   108355171.753         112.449          42.000    20619293.080    84432560.419          87.658          41.000  
G04  24399630.189   128220899.767        3168.868          41.000    24399626.409    99912418.161        2469.053          40.000  
C33  22526122.089   117299424.320        -784.633          44.000                                                                  
C06  36577767.601   190470035.152        -155.278          38.000    36577750.046   147283442.345        -120.258          43.000  
C14  22738754.278   118406644.939       -2324.615          38.000    22738739.362    91559474.722       -1797.517          38.000  
C16  37006555.792   192702844.754        -185.020          40.000    37006543.682   149010015.815        -142.896          43.000  
C24  21868259.898   113873770.908        -897.000          48.000                                                                  
C26  24504171.331   127599648.088       -2568.740          40.000                                                                  
G03  22893384.178                2       -218.613          29.000    22893378.049                3       -171.547          20.000  
G16  22344124.213   117419237.335        2931.463          36.000                                                                  
C09  37728936.847                        -143.474          31.000    37728922.988   151918739.056        -111.287          43.000  
C25  23602918.539   122906601.228        1544.164          37.000                                                                  
C08  39266496.278                2      -2469.269          30.000    39266481.104   158109848.102       -1909.603          33.000  
C10  40469507.196                2        934.417          27.000    40469508.068                         722.671          33.000  
C35  25943487.223   135094554.022         321.066          39.000                                                                  
C13  38431177.241   200121216.4992      -2278.348          37.000    38431167.768                       -1761.921          28.000  
C12  26387926.513   137408881.328        2317.303          36.000    26387924.920   106253258.797        1791.547          45.000  
G25  24509722.122   128799466.406       -3918.531          33.000    24509718.184   100363184.429       -3053.190          38.000  
C07                                                                  39528115.845   159163342.8782        864.634          33.000  
> 2025 10 30 06 22 45.1600000  0 23                     
G32  22106407.761   116169953.342       -2980.783          40.000    22106402.171    90522005.848       -2322.632          37.000  
G29  23090704.559   121342485.803        -680.115          41.000    23090695.978    94552556.302        -529.791          42.000  
G28  21287868.947   111868507.381       -1223.188          41.000    21287858.850    87170224.651        -953.256          46.000  
G26  20325387.477   106810633.236         606.404          44.000    20325380.512    83229046.367         472.457          43.000  
G31  20619303.223   108355167.251         112.493          42.000    20619292.227    84432556.917          87.560          41.000  
G04  24399606.051   128220773.003        3168.995          41.000    24399602.278    99912319.374        2469.458          40.000  
C33  22526128.114   117299455.692        -784.412          44.000                                                                  
C06  36577768.839   190470041.353        -155.069          38.000    36577751.258   147283447.145        -120.121          43.000  
C14  22738772.116   118406737.916       -2324.567          38.000    22738757.202    91559546.607       -1797.294          38.000  
C16  37006557.197   192702852.132        -184.693          40.000    37006545.140   149010021.530        -142.918          43.000  
C24  21868266.791   113873806.788        -897.021          48.000                                                                  
C26  24504191.061   127599750.845       -2568.866          40.000                                                                  
G03  22893385.996                2       -218.492          29.000    22893379.732                3       -171.547          20.000  
G16  22344101.899   117419120.104        2930.993          36.000                                                                  
C09  37728937.996                        -144.542          31.000    37728924.095   151918743.511        -111.343          43.000  
C25  23602906.706   122906539.477        1543.838          37.000                                                                  
C08  39266515.845                2      -2469.031          30.000    39266500.005   158109924.461       -1909.204          33.000  
C10  40469500.198                2        934.511          27.000    40469500.877                         723.442          32.000  
C35  25943484.771   135094541.173         321.126          39.000                                                                  
C13  38431194.257   200121307.6412      -2278.581          37.000    38431185.317                       -1761.404          28.000  
C12  26387908.729   137408788.662        2316.968          36.000    26387907.139   106253187.134        1791.577          45.000  
G25  24509751.931   128799623.128       -3918.219          33.000    24509747.998   100363306.548       -3053.014          38.000  
C07                                                                  39528107.237   159163308.2872        864.697          34.000  
> 2025 10 30 06 22 45.2000000  0 23                     
G32  22106430.458   116170072.570       -2980.772          40.000    22106424.855    90522098.755       -2322.722          37.000  
G29  23090709.753   121342512.989        -679.814          41.000    23090701.177    94552577.490        -529.704          42.000  
G28  21287878.240   111868556.309       -1223.218          41.000    21287868.155    87170262.772        -953.098          46.000  
G26  20325382.858   106810608.979         606.428          44.000    20325375.889    83229027.458         472.635          43.000  
G31  20619302.343   108355162.744         112.592          42.000    20619291.348    84432553.391          87.954          41.000  
G04  24399581.927   128220646.235        3169.136          41.000    24399578.144    99912220.592        2469.581          40.000  
C33  22526134.138   117299487.070        -784.388          44.000                                                                  
C06  36577770.004   190470047.542        -154.777          39.000    36577752.418   147283451.932        -119.813          44.000  
C14  22738789.971   118406830.879       -2324.254          38.000    22738775.074    91559618.498       -1797.251          38.000  
C16  37006558.617   192702859.513        -184.514          40.000    37006546.588   149010027.243        -142.886          44.000  
C24  21868273.720   113873842.663        -896.935          48.000                                                                  
C26  24504210.800   127599853.589       -2568.728          40.000                                                                  
G03  22893387.915                2       -218.442          29.000    22893381.426                3       -171.547          20.000  
G16  22344079.548   117419002.848        2931.172          36.000                                                                  
C09  37728939.098                        -144.550          31.000    37728925.168   151918747.965        -111.349          44.000  
C25  23602894.849   122906477.712        1543.894          37.000                                                                  
C08  39266535.351                2      -2469.084          29.000    39266518.969   158110000.791       -1908.501          33.000  
C10  40469493.216                2        934.903          27.000    40469493.717                         723.572          33.000  
C35  25943482.271   135094528.304         321.541          39.000                                                                  
C13  38431212.138   200121398.7802      -2278.586          37.000    38431202.813                       -1761.506          29.000  
C12  26387890.966   137408695.991        2316.820          36.000    26387889.332   106253115.461        1791.750          46.000  
G25  24509781.712   128799779.818       -3917.489          33.000    24509777.822   100363428.662       -3052.852          38.000  
C07                                                                  39528098.635   159163273.6612        865.378          34.000  
> 2025 10 30 06 22 45.2400000  0 23                     
G32  22106453.163   116170191.798       -2980.726          40.000    22106447.545    90522191.667       -2322.863          37.000  
G29  23090714.923   121342540.186        -679.890          41.000    23090706.366    94552598.680        -529.699          42.000  
G28  21287887.543   111868605.234       -1223.198          41.000    21287877.479    87170300.895        -953.051          46.000  
G26  20325378.249   106810584.722         606.440          44.000    20325371.275    83229008.555         472.608          43.000  
G31  20619301.511   108355158.239         112.622          43.000    20619290.478    84432549.874          87.983          41.000  
G04  24399557.811   128220519.465        3169.209          41.000    24399554.022    99912121.796        2469.889          40.000  
C33  22526140.179   117299518.444        -784.321          44.000                                                                  
C06  36577771.182   190470053.762        -155.199          38.000    36577753.603   147283456.725        -119.750          44.000  
C14  22738807.826   118406923.837       -2323.933          38.000    22738792.948    91559690.395       -1797.433          39.000  
C16  37006560.044   192702866.895        -184.509          40.000    37006548.041   149010032.952        -142.804          44.000  
C24  21868280.640   113873878.533        -896.807          48.000                                                                  
C26  24504230.521   127599956.336       -2568.693          40.000                                                                  
G03  22893390.159                2       -217.836          29.000    22893383.195                3       -167.697          20.000  
G16  22344057.239   117418885.582        2931.573          35.000                                                                  
C09  37728940.207                        -144.047          31.000    37728926.257   151918752.409        -111.171          44.000  
C25  23602882.970   122906415.948        1544.005          37.000                                                                  
C08  39266554.780                2      -2469.791          29.000    39266537.913   158110077.174       -1909.122          33.000  
C10  40469486.090                2        935.067          27.000    40469486.515                         723.660          33.000  
C35  25943479.808   135094515.443         321.581          39.000                                                                  
C13  38431229.856   200121489.8792      -2277.777          37.000    38431220.307                       -1761.717          29.000  
C12  26387873.171   137408603.306        2316.986          36.000    26387871.511   106253043.793        1791.755          46.000  
G25  24509811.515   128799936.529       -3917.419          33.000    24509807.644   100363550.794       -3053.093          38.000  
C07                                                                  39528090.019   159163239.0502        865.522          34.000  
> 2025 10 30 06 22 45.2800000  0 23                     
G32  22106475.852   116170311.022       -2980.643          40.000    22106470.221    90522284.568       -2322.635          37.000  
G29  23090720.098   121342567.375        -679.822          40.000    23090711.523    94552619.866        -529.700          42.000  
G28  21287896.864   111868654.165       -1223.291          41.000    21287886.796    87170339.024        -953.182          46.000  
G26  20325373.652   106810560.475         606.253          44.000    20325366.653    83228989.653         472.557          43.000  
G31  20619300.653   108355153.731         112.677          43.000    20619289.642    84432546.376          87.594          41.000  
G04  24399533.680   128220392.700        3169.158          41.000    24399529.912    99912023.039        2469.308          40.000  
C33  22526146.183   117299549.826        -784.464          45.000                                                                  
C06  36577772.370   190470059.955        -155.004          39.000    36577754.781   147283461.532        -119.989          44.000  
C14  22738825.679   118407016.809       -2324.047          39.000    22738810.799    91559762.293       -1797.507          39.000  
C16  37006561.441   192702874.293        -184.789          40.000    37006549.490   149010038.670        -142.956          44.000  
C24  21868287.536   113873914.413        -896.943          48.000                                                                  
C26  24504250.199   127600059.095       -2568.894          40.000                                                                  
G03  22893392.211                2       -218.079          29.000    22893385.068                3       -167.697          20.000  
G16  22344034.870   117418768.321        2931.676          35.000                                                                  
C09  37728941.336                        -143.594          31.000    37728927.340   151918756.858        -111.226          44.000  
C25  23602871.119   122906354.205        1543.698          37.000                                                                  
C08  39266573.711                2      -2468.855          29.000    39266556.913   158110153.545       -1909.247          33.000  
C10  40469479.283                2        935.507          27.000    40469479.348                         723.002          33.000  
C35  25943477.327   135094502.576         321.653          39.000                                                                  
C13  38431247.537   200121581.0112      -2278.008          37.000    38431237.814                       -1761.710          28.000  
C12  26387855.361   137408510.609        2317.300          36.000    26387853.751   106252972.134        1791.545          46.000  
G25  24509841.333   128800093.259       -3917.883          34.000    24509837.460   100363672.917       -3053.092          38.000  
C07                                                                  39528081.413   159163204.4472        865.367          34.000  
> 2025 10 30 06 22 45.3200000  0 23                     
G32  22106498.556   116170430.263       -2980.917          40.000    22106492.891    90522377.481       -2322.809          37.000  
G29  23090725.292   121342594.591        -680.264          40.000    23090716.704    94552641.053        -529.676          42.000  
G28  21287906.171   111868703.109       -1223.545          41.000    21287896.113    87170377.159        -953.358          46.000  
G26  20325369.061   106810536.230         606.123          44.000    20325362.023    83228970.767         472.252          43.000  
G31  20619299.805   108355149.233         112.529          43.000    20619288.792    84432542.873          87.553          41.000  
G04  24399509.568   128220265.944        3168.951          41.000    24399505.792    99911924.265        2469.254          40.000  
C33  22526152.216   117299581.230        -784.938          45.000                                                                  
C06  36577773.573   190470066.187        -155.566          39.000    36577755.946   147283466.354        -120.376          44.000  
C14  22738843.550   118407109.779       -2324.138          39.000    22738828.636    91559834.203       -1797.732          39.000  
C16  37006562.822   192702881.679        -184.734          40.000    37006550.905   149010044.377        -142.838          44.000  
C24  21868294.414   113873950.295        -897.053          48.000                                                                  
C26  24504269.909   127600161.865       -2569.192          40.000                                                                  
G03  22893394.683                2       -218.260          29.000    22893386.913                3       -167.697          19.000  
G16  22344012.551   117418651.110        2930.707          35.000                                                                  
C09  37728942.427   196464512.674        -143.367          34.000    37728928.450   151918761.311        -111.276          44.000  
C25  23602859.252   122906292.459        1543.582          37.000                                                                  
C08  39266592.279                2      -2468.743          29.000    39266575.885   158110229.919       -1909.366          34.000  
C10  40469472.194                2        935.302          27.000    40469472.242                         722.707          33.000  
C35  25943474.884   135094489.724         321.392          39.000                                                                  
C13  38431265.184   200121672.1322      -2277.946          37.000    38431255.359                       -1761.741          28.000  
C12  26387837.575   137408417.942        2316.836          36.000    26387835.972   106252900.477        1791.428          46.000  
G25  24509871.190   128800250.010       -3918.519          34.000    24509867.274   100363795.051       -3053.282          38.000  
C07                                                                  39528072.795   159163169.8392        865.308          34.000  
> 2025 10 30 06 22 45.3600000  0 23                     
G32  22106521.237   116170549.496       -2980.932          40.000    22106515.596    90522470.396       -2322.930          37.000  
G29  23090730.499   121342621.794        -680.268          40.000    23090721.868    94552662.264        -530.130          42.000  
G28  21287915.460   111868752.051       -1223.661          41.000    21287905.412    87170415.288        -953.340          46.000  
G26  20325364.446   106810511.984         606.106          44.000    20325357.424    83228951.879         472.111          43.000  
G31  20619298.967   108355144.739         112.363          43.000    20619287.923    84432539.369          87.498          41.000  
G04  24399485.428   128220139.190        3168.824          41.000    24399481.687    99911825.497        2469.148          40.000  
C33  22526158.247   117299612.620        -784.919          45.000                                                                  
C06  36577774.783   190470072.408        -155.704          39.000    36577757.114   147283471.152        -120.177          44.000  
C14  22738861.404   118407202.762       -2324.450          39.000    22738846.495    91559906.085       -1797.361          39.000  
C16  37006564.231   192702889.079        -184.946          40.000    37006552.341   149010050.103        -143.077          44.000  
C24  21868301.326   113873986.181        -897.180          48.000                                                                  
C26  24504289.625   127600264.624       -2569.125          40.000                                                                  
G03  22893396.806                2       -218.276          29.000    22893388.556                3       -167.697          19.000  
G16  22343990.221   117418533.888        2930.339          35.000                                                                  
C09  37728943.536   196464518.443        -143.841          34.000    37728929.542   151918765.768        -111.401          44.000  
C25  23602847.409   122906230.691        1543.990          37.000                                                                  
C08  39266611.550                2      -2470.284          29.000    39266594.821   158110306.316       -1909.781          34.000  
C10  40469464.780                2        934.968          27.000    40469465.081                         722.829          33.000  
C35  25943472.419   135094476.887         320.993          39.000                                                                  
C13  38431283.132   200121763.2652      -2278.150          37.000    38431272.840                       -1761.843          28.000  
C12  26387819.785   137408325.279        2316.579          36.000    26387818.169   106252828.816        1791.447          46.000  
G25  24509900.999   128800406.760       -3918.828          34.000    24509897.091   100363917.174       -3053.213          38.000  
C07                                                                  39528064.140   159163135.2352        865.199          34.000  
> 2025 10 30 06 22 45.4000000  0 23                     
G32  22106543.939   116170668.734       -2981.021          41.000    22106538.267    90522563.294       -2322.688          37.000  
G29  23090735.683   121342648.991        -680.073          41.000    23090727.019    94552683.472        -530.307          42.000  
G28  21287924.753   111868800.983       -1223.522          42.000    21287914.720    87170453.420        -953.348          46.000  
G26  20325359.802   106810487.736         606.151          45.000    20325352.805    83228932.985         472.195          43.000  
G31  20619298.105   108355140.242         112.352          43.000    20619287.049    84432535.850          87.769          41.000  
G04  24399461.287   128220012.441        3168.666          42.000    24399457.574    99911726.738        2468.939          40.000  
C33  22526164.290   117299644.004        -784.789          45.000                                                                  
C06  36577775.970   190470078.598        -155.181          39.000    36577758.315   147283475.953        -120.071          44.000  
C14  22738879.271   118407295.747       -2324.662          39.000    22738864.342    91559977.979       -1797.370          39.000  
C16  37006565.657   192702896.468        -184.824          40.000    37006553.746   149010055.811        -142.870          44.000  
C24  21868308.238   113874022.061        -897.116          48.000                                                                  
C26  24504309.345   127600367.369       -2568.833          40.000                                                                  
G03  22893398.834                2       -217.841          30.000    22893390.174                3       -167.697          19.000  
G16  22343967.908   117418416.641        2930.726          36.000                                                                  
C09  37728944.665   196464524.199        -143.943          35.000    37728930.651   151918770.218        -111.350          44.000  
C25  23602835.535   122906168.926        1544.137          37.000                                                                  
C08  39266630.682                2      -2470.236          29.000    39266613.768   158110382.715       -1910.080          34.000  
C10  40469457.756                2        934.937          27.000    40469457.948                         722.420          33.000  
C35  25943469.955   135094464.041         320.992          39.000                                                                  
C13  38431300.632   200121854.4132      -2278.631          37.000    38431290.359                       -1762.044          28.000  
C12  26387801.984   137408232.604        2316.635          36.000    26387800.390   106252757.163        1791.331          46.000  
G25  24509930.813   128800563.481       -3918.406          34.000    24509926.903   100364039.291       -3052.997          38.000  
C07                                                                  39528055.538   159163100.6282        865.188          34.000  
> 2025 10 30 06 22 45.4400000  0 23                     
G32  22106566.626   116170787.967       -2980.938          41.000    22106560.945    90522656.218       -2323.027          37.000  
G29  23090740.845   121342676.181        -679.875          41.000    23090732.190    94552704.665        -530.099          42.000  
G28  21287934.083   111868849.912       -1223.335          42.000    21287924.009    87170491.547        -953.260          46.000  
G26  20325355.182   106810463.493         606.064          45.000    20325348.186    83228914.098         472.108          43.000  
G31  20619297.230   108355135.733         112.611          43.000    20619286.207    84432532.345          87.670          41.000  
G04  24399437.167   128219885.676        3168.887          42.000    24399433.448    99911627.962        2469.195          40.000  
C33  22526170.338   117299675.390        -784.679          45.000                                                                  
C06  36577777.123   190470084.812        -155.270          39.000    36577759.511   147283480.740        -119.802          44.000  
C14  22738897.167   118407388.732       -2324.732          39.000    22738882.227    91560049.875       -1797.416          39.000  
C16  37006567.069   192702903.870        -185.010          40.000    37006555.157   149010061.526        -142.845          44.000  
C24  21868315.140   113874057.938        -897.036          48.000                                                                  
C26  24504329.054   127600470.105       -2568.483          40.000                                                                  
G03  22893399.811                2       -217.628          30.000    22893391.660                3       -167.697          19.000  
G16  22343945.568   117418299.387        2931.045          36.000                                                                  
C09  37728945.789   196464529.955        -144.097          35.000    37728931.795   151918774.683        -111.525          44.000  
C25  23602823.708   122906107.167        1544.056          38.000                                                                  
C08  39266649.745                2      -2469.840          29.000    39266632.760   158110459.074       -1909.420          34.000  
C10  40469450.493                2        935.265          27.000    40469450.789   162953701.2421        722.652          33.000  
C35  25943467.510   135094451.192         321.070          39.000                                                                  
C13  38431318.128   200121945.5622      -2278.808          37.000    38431307.848                       -1761.835          28.000  
C12  26387784.205   137408139.923        2316.796          36.000    26387782.548   106252685.485        1791.775          46.000  
G25  24509960.622   128800720.206       -3918.273          34.000    24509956.729   100364161.427       -3053.184          38.000  
C07                                                                  39528046.956   159163066.0472        864.773          34.000  
> 2025 10 30 06 22 45.4800000  0 23                     
G32  22106589.308   116170907.206       -2981.002          41.000    22106583.644    90522749.128       -2322.921          37.000  
G29  23090746.025   121342703.398        -680.281          41.000    23090737.347    94552725.856        -529.862          42.000  
G28  21287943.388   111868898.854       -1223.489          42.000    21287933.331    87170529.691        -953.524          46.000  
G26  20325350.569   106810439.249         606.071          45.000    20325343.573    83228895.195         472.415          43.000  
G31  20619296.356   108355131.228         112.641          43.000    20619285.358    84432528.847          87.485          41.000  
G04  24399413.055   128219758.922        3168.834          42.000    24399409.314    99911529.189        2469.214          40.000  
C33  22526176.368   117299706.776        -784.655          45.000                                                                  
C06  36577778.321   190470091.020        -155.251          39.000    36577760.688   147283485.543        -119.962          44.000  
C14  22738915.042   118407481.724       -2324.841          39.000    22738900.093    91560121.776       -1797.478          39.000  
C16  37006568.497   192702911.257        -184.827          40.000    37006556.575   149010067.233        -142.739          44.000  
C24  21868322.033   113874093.821        -897.047          48.000                                                                  
C26  24504348.747   127600572.877       -2568.967          40.000                                                                  
G03  22893402.148                2       -218.248          30.000    22893393.276                3       -167.697          19.000  
G16  22343923.238   117418182.141        2931.100          36.000                                                                  
C09  37728946.894   196464535.745        -144.594          35.000    37728932.924   151918779.132        -111.345          44.000  
C25  23602811.857   122906045.408        1543.981          38.000                                                                  
C08  39266668.047                2      -2469.774          29.000    39266651.704   158110535.428       -1908.853          34.000  
C10  40469443.198                2        935.081          27.000    40469443.630   162953672.280         723.648          33.000  
C35  25943465.046   135094438.361         320.834          39.000                                                                  
C13  38431335.684   200122036.7072      -2278.781          37.000    38431325.351                       -1761.930          28.000  
C12  26387766.423   137408047.255        2316.679          36.000    26387764.749   106252613.820        1791.731          46.000  
G25  24509990.442   128800876.918       -3917.939          34.000    24509986.554   100364283.556       -3053.223          38.000  
C07                                                                  39528038.370   159163031.4752        864.319          34.000  
> 2025 10 30 06 22 45.5200000  0 23                     
G32  22106611.998   116171026.434       -2980.853          41.000    22106606.310    90522842.028       -2322.688          37.000  
G29  23090751.231   121342730.602        -680.260          41.000    23090742.541    94552747.056        -529.944          42.000  
G28  21287952.697   111868947.792       -1223.502          42.000    21287942.637    87170567.823        -953.433          46.000  
G26  20325345.961   106810415.007         606.015          45.000    20325338.943    83228876.296         472.507          43.000  
G31  20619295.521   108355126.744         112.234          43.000    20619284.531    84432525.347          87.412          41.000  
G04  24399388.934   128219632.167        3168.843          42.000    24399385.201    99911430.416        2469.237          40.000  
C33  22526182.385   117299738.166        -784.733          45.000                                                                  
C06  36577779.539   190470097.234        -155.350          39.000    36577761.912   147283490.357        -120.255          44.000  
C14  22738932.891   118407574.705       -2324.698          39.000    22738917.937    91560193.678       -1797.572          39.000  
C16  37006569.941   192702918.647        -184.778          40.000    37006557.992   149010072.956        -142.981          44.000  
C24  21868328.939   113874129.708        -897.160          48.000                                                                  
C26  24504368.465   127600675.630       -2568.937          40.000                                                                  
G03  22893403.861                2       -218.307          30.000    22893394.982                3       -185.106          19.000  
G16  22343900.924   117418064.900        2931.053          36.000                                                                  
C09  37728947.971   196464541.506        -144.311          35.000    37728934.025   151918783.581        -111.252          44.000  
C25  23602799.998   122905983.640        1544.061          38.000                                                                  
C08  39266687.263                2      -2469.597          29.000    39266670.659   158110611.768       -1908.626          34.000  
C10  40469436.039                2        935.005          28.000    40469436.443   162953643.341         723.682          33.000  
C35  25943462.579   135094425.518         320.950          39.000                                                                  
C13  38431353.446   200122127.8172      -2278.103          37.000    38431342.846                       -1761.586          28.000  
C12  26387748.640   137407954.573        2316.901          36.000    26387746.956   106252542.160        1791.588          46.000  
G25  24510020.214   128801033.638       -3917.904          34.000    24510016.369   100364405.666       -3052.979          38.000  
C07                                                                  39528029.769   159162996.8892        864.263          34.000  
> 2025 10 30 06 22 45.5600000  0 23                     
G32  22106634.703   116171145.683       -2981.098          41.000    22106628.996    90522934.951       -2322.950          37.000  
G29  23090756.396   121342757.812        -680.271          41.000    23090747.726    94552768.260        -530.069          42.000  
G28  21287962.014   111868996.718       -1223.274          42.000    21287951.948    87170605.952        -953.313          46.000  
G26  20325341.337   106810390.764         606.028          45.000    20325334.342    83228857.417         472.144          43.000  
G31  20619294.687   108355122.249         112.198          43.000    20619283.672    84432521.846          87.469          41.000  
G04  24399364.810   128219505.414        3168.794          42.000    24399361.066    99911331.633        2469.470          40.000  
C33  22526188.383   117299769.567        -784.992          45.000                                                                  
C06  36577780.746   190470103.443        -155.253          39.000    36577763.106   147283495.159        -120.217          44.000  
C14  22738950.742   118407667.695       -2324.774          39.000    22738935.792    91560265.580       -1797.608          39.000  
C16  37006571.343   192702926.037        -184.795          40.000    37006559.398   149010078.676        -143.069          44.000  
C24  21868335.854   113874165.603        -897.340          48.000                                                                  
C26  24504388.200   127600778.387       -2568.896          40.000                                                                  
G03  22893405.569                2       -218.539          30.000    22893396.918                3       -185.106          19.000  
G16  22343878.589   117417947.667        2930.894          35.000                                                                  
C09  37728949.068   196464547.258        -144.053          34.000    37728935.120   151918788.031        -111.235          44.000  
C25  23602788.155   122905921.882        1544.005          38.000                                                                  
C08  39266706.822                2      -2469.407          29.000    39266689.620   158110688.159       -1909.365          34.000  
C10  40469428.716                2        935.025          28.000    40469429.298   162953614.399         723.595          33.000  
C35  25943460.143   135094412.664         321.163          39.000                                                                  
C13  38431370.948   200122218.9692      -2278.530          37.000    38431360.400                       -1761.031          28.000  
C12  26387730.875   137407861.903        2316.765          36.000    26387729.188   106252470.502        1791.441          46.000  
G25  24510050.032   128801190.371       -3918.105          34.000    24510046.212   100364527.793       -3053.116          38.000  
C07                                                                  39528021.178   159162962.3032        864.336          34.000  
> 2025 10 30 06 22 45.6000000  0 23                     
G32  22106657.399   116171264.921       -2981.015          41.000    22106651.687    90523027.845       -2322.586          37.000  
G29  23090761.561   121342785.025        -680.383          41.000    23090752.917    94552789.469        -530.255          42.000  
G28  21287971.338   111869045.659       -1223.418          42.000    21287961.247    87170644.084        -953.315          46.000  
G26  20325336.738   106810366.524         605.960          45.000    20325329.724    83228838.538         471.928          43.000  
G31  20619293.826   108355117.755         112.229          43.000    20619282.789    84432518.343          87.543          41.000  
G04  24399340.683   128219378.664        3168.730          42.000    24399336.941    99911232.860        2469.363          40.000  
C33  22526194.385   117299800.969        -785.103          45.000                                                                  
C06  36577781.945   190470109.666        -155.455          39.000    36577764.290   147283499.971        -120.323          44.000  
C14  22738968.597   118407760.678       -2324.679          39.000    22738953.635    91560337.498       -1797.944          39.000  
C16  37006572.794   192702933.423        -184.710          40.000    37006560.822   149010084.400        -143.134          44.000  
C24  21868342.781   113874201.487        -897.270          48.000                                                                  
C26  24504407.933   127600881.145       -2568.929          40.000                                                                  
G03  22893407.091                2       -218.889          31.000    22893398.825                3       -185.106          19.000  
G16  22343856.276   117417830.450        2930.506          35.000                                                                  
C09  37728950.182   196464553.011        -143.970          34.000    37728936.262   151918792.492        -111.466          44.000  
C25  23602776.312   122905860.141        1543.611          38.000                                                                  
C08  39266725.520                2      -2469.383          29.000    39266708.611   158110764.577       -1910.153          34.000  
C10  40469421.134                2        934.943          28.000    40469422.081   162953585.503         722.788          33.000  
C35  25943457.671   135094399.824         321.042          39.000                                                                  
C13  38431387.761   200122310.1072      -2278.536          37.000    38431377.902                       -1761.530          28.000  
C12  26387713.075   137407769.219        2317.049          36.000    26387711.407   106252398.847        1791.361          46.000  
G25  24510079.837   128801347.117       -3918.545          34.000    24510076.056   100364649.928       -3053.314          38.000  
C07                                                                  39528012.555   159162927.7022        864.742          34.000  
> 2025 10 30 06 22 45.6400000  0 23                     
G32  22106680.087   116171384.155       -2980.885          41.000    22106674.402    90523120.767       -2322.861          37.000  
G29  23090766.745   121342812.234        -680.376          41.000    23090758.101    94552810.672        -530.229          42.000  
G28  21287980.649   111869094.589       -1223.353          42.000    21287970.569    87170682.215        -953.303          46.000  
G26  20325332.121   106810342.282         605.992          45.000    20325325.114    83228819.650         472.049          43.000  
G31  20619292.980   108355113.263         112.267          43.000    20619281.944    84432514.829          87.777          41.000  
G04  24399316.553   128219251.918        3168.629          42.000    24399312.819    99911134.103        2469.025          40.000  
C33  22526200.443   117299832.361        -784.978          45.000                                                                  
C06  36577783.137   190470115.874        -155.281          39.000    36577765.486   147283504.778        -120.293          44.000  
C14  22738986.434   118407853.655       -2324.541          39.000    22738971.485    91560409.390       -1797.622          39.000  
C16  37006574.224   192702940.820        -184.859          41.000    37006562.248   149010090.111        -142.938          44.000  
C24  21868349.693   113874237.369        -897.150          48.000                                                                  
C26  24504427.689   127600983.908       -2569.036          40.000                                                                  
G03  22893409.003                2       -218.059          31.000    22893400.597                3       -185.106          19.000  
G16  22343833.958   117417713.214        2930.729          35.000                                                                  
C09  37728951.300   196464558.750        -143.523          34.000    37728937.382   151918796.947        -111.410          44.000  
C25  23602764.438   122905798.381        1543.792          38.000                                                                  
C08  39266743.817                2      -2469.332          29.000    39266727.599   158110840.994       -1910.573          34.000  
C10  40469413.816                2        934.950          28.000    40469414.936   162953556.633         721.926          33.000  
C35  25943455.217   135094386.997         320.766          39.000                                                                  
C13  38431405.343   200122401.2592      -2278.794          37.000    38431395.470                       -1762.005          28.000  
C12  26387695.266   137407676.542        2317.067          36.000    26387693.607   106252327.187        1791.424          46.000  
G25  24510109.680   128801503.851       -3918.590          34.000    24510105.893   100364772.073       -3053.556          38.000  
C07                                                                  39528003.971   159162893.0912        865.145          34.000  
> 2025 10 30 06 22 45.6800000  0 23                     
G32  22106702.787   116171503.398       -2981.031          41.000    22106697.105    90523213.692       -2323.125          37.000  
G29  23090771.929   121342839.449        -680.449          41.000    23090763.275    94552831.871        -530.104          42.000  
G28  21287989.990   111869143.530       -1223.459          42.000    21287979.898    87170720.362        -953.582          46.000  
G26  20325327.504   106810318.049         605.830          45.000    20325320.504    83228800.759         472.187          43.000  
G31  20619292.144   108355108.773         112.199          43.000    20619281.083    84432511.346          87.258          41.000  
G04  24399292.426   128219125.162        3168.766          42.000    24399288.732    99911035.348        2468.818          40.000  
C33  22526206.478   117299863.763        -785.066          45.000                                                                  
C06  36577784.340   190470122.089        -155.295          39.000    36577766.694   147283509.579        -120.141          44.000  
C14  22739004.273   118407946.636       -2324.537          39.000    22738989.337    91560481.287       -1797.462          39.000  
C16  37006575.641   192702948.223        -185.101          41.000    37006563.684   149010095.819        -142.764          44.000  
C24  21868356.579   113874273.262        -897.296          48.000                                                                  
C26  24504447.407   127601086.661       -2568.950          40.000                                                                  
G03  22893410.577   120305654.5873       -218.174          31.000    22893402.250                3       -185.106          19.000  
G16  22343811.611   117417596.000        2930.501          35.000                                                                  
C09  37728952.411   196464564.501        -143.595          34.000    37728938.485   151918801.406        -111.486          44.000  
C25  23602752.608   122905736.617        1543.896          38.000                                                                  
C08  39266762.763                2      -2469.275          29.000    39266746.566   158110917.352       -1909.637          34.000  
C10  40469406.837                2        934.800          28.000    40469407.748   162953527.720         722.321          33.000  
C35  25943452.764   135094374.164         320.720          39.000                                                                  
C13  38431423.171   200122492.4172      -2279.009          37.000    38431412.997                       -1762.051          28.000  
C12  26387677.464   137407583.863        2317.017          36.000    26387675.791   106252255.530        1791.386          46.000  
G25  24510139.532   128801660.569       -3918.307          34.000    24510135.695   100364894.175       -3052.878          38.000  
C07                                                                  39527995.347   159162858.4682        865.552          34.000  
> 2025 10 30 06 22 45.7200000  0 23                     
G32  22106725.467   116171622.649       -2981.224          41.000    22106719.807    90523306.605       -2322.994          37.000  
G29  23090777.118   121342866.664        -680.460          41.000    23090768.453    94552853.077        -530.179          42.000  
G28  21287999.325   111869192.481       -1223.713          42.000    21287989.222    87170758.507        -953.671          46.000  
G26  20325322.873   106810293.820         605.676          45.000    20325315.875    83228781.871         472.173          43.000  
G31  20619291.295   108355104.276         112.323          43.000    20619280.217    84432507.841          87.444          41.000  
G04  24399268.312   128218998.412        3168.730          42.000    24399264.609    99910936.574        2469.081          40.000  
C33  22526212.505   117299895.161        -785.045          45.000                                                                  
C06  36577785.561   190470128.299        -155.281          39.000    36577767.856   147283514.370        -119.917          44.000  
C14  22739022.166   118408039.643       -2325.033          39.000    22739007.203    91560553.200       -1797.673          39.000  
C16  37006577.070   192702955.615        -185.010          41.000    37006565.111   149010101.536        -142.848          44.000  
C24  21868363.486   113874309.154        -897.352          48.000                                                                  
C26  24504467.132   127601189.418       -2568.990          40.000                                                                  
G03  22893412.821   120305663.3142       -218.118          31.000    22893403.917                3       -180.245          19.000  
G16  22343789.283   117417478.758        2930.789          35.000                                                                  
C09  37728953.519   196464570.287        -144.342          34.000    37728939.601   151918805.863        -111.479          44.000  
C25  23602740.766   122905674.865        1543.778          38.000                                                                  
C08  39266781.417                2      -2469.310          29.000    39266765.538   158110993.707       -1909.091          34.000  
C10  40469399.465                2        934.953          28.000    40469400.534                         723.163          33.000  
C35  25943450.310   135094361.328         320.824          39.000                                                                  
C13  38431440.523   200122583.5572      -2278.724          37.000    38431430.502                       -1762.137          28.000  
C12  26387659.680   137407491.194        2316.844          36.000    26387657.979   106252183.873        1791.368          46.000  
G25  24510169.367   128801817.299       -3918.341          35.000    24510165.513   100365016.284       -3052.675          38.000  
C07                                                                  39527986.751   159162823.8842        865.024          34.000  
> 2025 10 30 06 22 45.7600000  0 23                     
G32  22106748.136   116171741.894       -2981.252          41.000    22106742.497    90523399.520       -2322.946          38.000  
G29  23090782.310   121342893.878        -680.390          40.000    23090773.630    94552874.280        -530.115          42.000  
G28  21288008.636   111869241.429       -1223.777          42.000    21287998.531    87170796.637        -953.427          46.000  
G26  20325318.283   106810269.579         605.883          45.000    20325311.271    83228762.982         472.198          43.000  
G31  20619290.433   108355099.772         112.520          43.000    20619279.351    84432504.335          87.586          41.000  
G04  24399244.199   128218871.662        3168.696          42.000    24399240.486    99910837.803        2469.199          40.000  
C33  22526218.523   117299926.555        -784.910          45.000                                                                  
C06  36577786.758   190470134.508        -155.213          39.000    36577769.038   147283519.170        -119.957          44.000  
C14  22739040.030   118408132.631       -2324.898          39.000    22739025.014    91560625.099       -1797.525          39.000  
C16  37006578.478   192702962.995        -184.689          41.000    37006566.529   149010107.256        -142.986          44.000  
C24  21868370.387   113874345.043        -897.309          48.000                                                                  
C26  24504486.853   127601292.196       -2569.296          40.000                                                                  
G03  22893414.684   120305672.0592       -218.452          31.000    22893405.681                3       -180.245          19.000  
G16  22343766.942   117417361.511        2931.034          35.000                                                                  
C09  37728954.620   196464576.038        -144.086          34.000    37728940.730   151918810.307        -111.218          44.000  
C25  23602728.926   122905613.091        1544.223          38.000                                                                  
C08  39266800.549                2      -2469.851          29.000    39266784.536   158111070.067       -1908.860          34.000  
C10  40469392.248                2        934.865          28.000    40469393.346                         723.334          32.000  
C35  25943447.843   135094348.493         320.868          39.000                                                                  
C13  38431458.088   200122674.6872      -2278.354          37.000    38431448.040                       -1762.314          28.000  
C12  26387641.884   137407398.547        2316.377          36.000    26387640.179   106252112.206        1791.609          46.000  
G25  24510199.197   128801974.012       -3918.081          35.000    24510195.319   100365138.418       -3053.046          38.000  
C07                                                                  39527978.190   159162789.3092        864.561          34.000  
> 2025 10 30 06 22 45.8000000  0 23                     
G32  22106770.834   116171861.138       -2981.168          42.000    22106765.197    90523492.441       -2322.990          38.000  
G29  23090787.470   121342921.082        -680.204          40.000    23090778.796    94552895.494        -530.296          42.000  
G28  21288017.951   111869290.346       -1223.251          42.000    21288007.838    87170834.760        -953.187          46.000  
G26  20325313.657   106810245.332         606.082          45.000    20325306.675    83228744.105         471.948          43.000  
G31  20619289.572   108355095.272         112.550          43.000    20619278.488    84432500.831          87.641          41.000  
G04  24399220.069   128218744.901        3168.904          42.000    24399216.366    99910739.038        2469.156          40.000  
C33  22526224.547   117299957.941        -784.716          45.000                                                                  
C06  36577787.965   190470140.717        -155.240          39.000    36577770.226   147283523.968        -119.939          44.000  
C14  22739057.914   118408225.606       -2324.566          39.000    22739042.853    91560696.986       -1797.215          39.000  
C16  37006579.872   192702970.384        -184.695          41.000    37006567.964   149010112.971        -142.929          44.000  
C24  21868377.330   113874380.923        -897.098          48.000                                                                  
C26  24504506.578   127601394.932       -2568.770          40.000                                                                  
G03  22893416.476   120305680.8012       -218.672          31.000    22893407.651                3       -180.245          19.000  
G16  22343744.624   117417244.251        2931.365          35.000                                                                  
C09  37728955.729   196464581.795        -143.942          34.000    37728941.805   151918814.742        -110.904          44.000  
C25  23602717.087   122905551.345        1543.852          38.000                                                                  
C08  39266819.336                2      -2469.554          29.000    39266803.525   158111146.454       -1909.412          34.000  
C10  40469385.010                2        934.972          28.000    40469386.169   162953440.910         723.383          32.000  
C35  25943445.380   135094335.648         321.069          39.000                                                                  
C13  38431476.290   200122765.8032      -2277.961          37.000    38431465.553                       -1762.372          28.000  
C12  26387624.081   137407305.829        2317.463          36.000    26387622.390   106252040.536        1791.731          46.000  
G25  24510229.000   128802130.740       -3918.192          35.000    24510225.134   100365260.542       -3053.141          38.000  
C07                                                                  39527969.585   159162754.7212        864.594          34.000  
> 2025 10 30 06 22 45.8400000  0 23                     
G32  22106793.527   116171980.376       -2981.040          42.000    22106787.888    90523585.355       -2323.002          38.000  
G29  23090792.628   121342948.281        -680.031          40.000    23090783.970    94552916.692        -530.096          42.000  
G28  21288027.283   111869339.284       -1223.313          42.000    21288017.131    87170872.888        -953.142          46.000  
G26  20325309.038   106810221.081         606.261          45.000    20325302.053    83228725.219         472.012          43.000  
G31  20619288.713   108355090.778         112.420          43.000    20619277.621    84432497.328          87.579          41.000  
G04  24399195.949   128218618.141        3168.992          42.000    24399192.240    99910640.263        2469.287          41.000  
C33  22526230.560   117299989.328        -784.663          46.000                                                                  
C06  36577789.167   190470146.924        -155.271          39.000    36577771.420   147283528.772        -120.052          44.000  
C14  22739075.800   118408318.597       -2324.664          39.000    22739060.693    91560768.888       -1797.413          41.000  
C16  37006581.281   192702977.769        -184.647          41.000    37006569.366   149010118.680        -142.786          44.000  
C24  21868384.212   113874416.804        -897.026          48.000                                                                  
C26  24504526.279   127601497.689       -2568.888          40.000                                                                  
G03  22893417.979   120305689.5052       -218.015          31.000    22893409.333                3       -168.693          20.000  
G16  22343722.290   117417127.039        2930.678          35.000                                                                  
C09  37728956.881   196464587.570        -144.209          34.000    37728942.899   151918819.191        -111.077          44.000  
C25  23602705.236   122905489.597        1543.698          38.000                                                                  
C08  39266838.132                2      -2469.933          29.000    39266822.525   158111222.848       -1909.911          34.000  
C10  40469378.067                2        935.356          28.000    40469378.952   162953411.976         723.327          32.000  
C35  25943442.898   135094322.809         321.047          39.000                                                                  
C13  38431492.970   200122856.9472      -2278.309          37.000    38431483.053                       -1762.563          28.000  
C12  26387606.290   137407213.153        2317.257          36.000    26387604.585   106251968.868        1791.762          46.000  
G25  24510258.831   128802287.455       -3917.987          35.000    24510254.971   100365382.668       -3053.202          38.000  
C07                                                                  39527960.972   159162720.1132        864.962          34.000  
> 2025 10 30 06 22 45.8800000  0 23                     
G32  22106816.224   116172099.610       -2980.866          42.000    22106810.587    90523678.261       -2322.821          38.000  
G29  23090797.803   121342975.489        -680.121          40.000    23090789.175    94552937.901        -530.208          42.000  
G28  21288036.597   111869388.206       -1223.114          42.000    21288026.478    87170911.025        -953.301          46.000  
G26  20325304.449   106810196.841         606.109          45.000    20325297.443    83228706.327         472.219          43.000  
G31  20619287.859   108355086.280         112.426          43.000    20619276.787    84432493.827          87.554          41.000  
G04  24399171.810   128218491.387        3168.906          43.000    24399168.125    99910541.487        2469.409          41.000  
C33  22526236.568   117300020.722        -784.761          46.000                                                                  
C06  36577790.353   190470153.125        -155.125          39.000    36577772.604   147283533.580        -120.139          44.000  
C14  22739093.645   118408411.580       -2324.549          39.000    22739078.551    91560840.794       -1797.617          41.000  
C16  37006582.695   192702985.150        -184.532          42.000    37006570.785   149010124.382        -142.556          44.000  
C24  21868391.127   113874452.693        -897.141          48.000                                                                  
C26  24504545.999   127601600.446       -2568.949          40.000                                                                  
G03  22893420.103   120305698.2512       -218.408          31.000    22893410.946                3       -165.060          20.000  
G16  22343699.991   117417009.817        2930.517          35.000                                                                  
C09  37728957.988   196464593.288        -143.207          30.000    37728943.968   151918823.642        -111.250          44.000  
C25  23602693.378   122905427.835        1543.940          38.000                                                                  
C08  39266856.691                2      -2468.716          29.000    39266841.556   158111299.225       -1909.792          34.000  
C10  40469370.810                2        935.467          28.000    40469371.790   162953383.032         723.566          32.000  
C35  25943440.459   135094309.972         320.957          39.000                                                                  
C13  38431510.229   200122948.0962      -2278.691          37.000    38431500.591                       -1762.061          28.000  
C12  26387588.496   137407120.491        2316.775          36.000    26387586.824   106251897.207        1791.619          46.000  
G25  24510288.642   128802444.175       -3917.970          35.000    24510284.783   100365504.802       -3053.340          38.000  
C07                                                                  39527952.337   159162685.4962        865.336          34.000  
> 2025 10 30 06 22 45.9200000  0 23                     
G32  22106838.921   116172218.855       -2981.008          42.000    22106833.270    90523771.185       -2323.000          38.000  
G29  23090802.980   121343002.711        -680.476          40.000    23090794.360    94552959.103        -530.140          42.000  
G28  21288045.917   111869437.138       -1223.203          42.000    21288035.785    87170949.160        -953.366          47.000  
G26  20325299.839   106810172.612         605.835          45.000    20325292.838    83228687.438         472.249          43.000  
G31  20619286.993   108355081.783         112.407          43.000    20619275.927    84432490.312          87.751          41.000  
G04  24399147.709   128218364.634        3168.862          43.000    24399144.003    99910442.705        2469.541          41.000  
C33  22526242.613   117300052.131        -785.103          46.000                                                                  
C06  36577791.527   190470159.311        -154.824          38.000    36577773.765   147283538.378        -120.066          44.000  
C14  22739111.488   118408504.572       -2324.691          39.000    22739096.398    91560912.698       -1797.618          41.000  
C16  37006584.094   192702992.538        -184.653          42.000    37006572.143   149010130.089        -142.617          44.000  
C24  21868398.039   113874488.578        -897.140          48.000                                                                  
C26  24504565.736   127601703.191       -2568.793          40.000                                                                  
G03  22893421.895   120305706.9962       -218.555          31.000    22893412.531                3       -165.060          21.000  
G16  22343677.678   117416892.575        2930.804          35.000                                                                  
C09  37728959.097   196464599.013        -142.911          30.000    37728945.087   151918828.102        -111.462          44.000  
C25  23602681.554   122905366.070        1544.149          38.000                                                                  
C08  39266875.762                2      -2469.021          28.000    39266860.511   158111375.601       -1909.560          34.000  
C10  40469363.681                2        935.489          28.000    40469364.629   162953354.165         722.235          32.000  
C35  25943437.997   135094297.136         320.882          39.000                                                                  
C13  38431528.134   200123039.2162      -2278.295          37.000    38431518.088                       -1761.573          28.000  
C12  26387570.663   137407027.820        2316.771          36.000    26387569.018   106251825.548        1791.509          46.000  
G25  24510318.466   128802600.912       -3918.297          35.000    24510314.594   100365626.930       -3053.280          38.000  
C07                                                                  39527943.748   159162650.9452        864.347          34.000  
> 2025 10 30 06 22 45.9600000  0 23                     
G32  22106861.590   116172338.096       -2981.054          42.000    22106855.966    90523864.106       -2323.030          38.000  
G29  23090808.152   121343029.918        -680.350          40.000    23090799.555    94552980.307        -530.084          42.000  
G28  21288055.235   111869486.074       -1223.367          42.000    21288045.107    87170987.291        -953.344          47.000  
G26  20325295.216   106810148.381         605.719          45.000    20325288.235    83228668.544         472.379          43.000  
G31  20619286.134   108355077.295         112.235          44.000    20619275.079    84432486.809          87.615          41.000  
G04  24399123.583   128218237.880        3168.850          43.000    24399119.894    99910343.945        2469.191          41.000  
C33  22526248.642   117300083.530        -785.104          46.000                                                                  
C06  36577792.688   190470165.514        -154.991          38.000    36577774.943   147283543.170        -119.912          44.000  
C14  22739129.355   118408597.568       -2324.855          39.000    22739114.250    91560984.598       -1797.567          41.000  
C16  37006585.503   192702999.923        -184.660          42.000    37006573.549   149010135.801        -142.735          44.000  
C24  21868404.933   113874524.469        -897.258          48.000                                                                  
C26  24504585.458   127601805.939       -2568.743          40.000                                                                  
G03  22893424.154   120305715.7642       -219.074          31.000    22893414.249                3       -170.248          28.000  
G16  22343655.342   117416775.349        2930.641          35.000                                                                  
C09  37728960.208   196464604.789        -143.555          30.000    37728946.210   151918832.551        -111.390          44.000  
C25  23602669.686   122905304.307        1544.129          39.000                                                                  
C08  39266894.922                2      -2468.790          28.000    39266879.530   158111451.999       -1909.905          34.000  
C10  40469356.124                2        935.210          28.000    40469357.443   162953325.232         722.701          32.000  
C35  25943435.538   135094284.293         321.022          39.000                                                                  
C13  38431544.936   200123130.3732      -2278.783          37.000    38431535.582                       -1761.218          28.000  
C12  26387552.891   137406935.150        2316.741          36.000    26387551.221   106251753.881        1791.595          46.000  
G25  24510348.301   128802757.652       -3918.557          35.000    24510344.415   100365749.053       -3053.180          38.000  
C07                                                                  39527935.146   159162616.3472        864.517          34.000  
> 2025 10 30 06 22 46.0000000  0 23                     
G32  22106884.313   116172457.342       -2981.144          43.000    22106878.647    90523957.018       -2322.941          38.000  
G29  23090813.323   121343057.137        -680.473          40.000    23090804.734    94553001.521        -530.284          42.000  
G28  21288064.560   111869535.024       -1223.677          42.000    21288054.410    87171025.423        -953.337          47.000  
G26  20325290.603   106810124.139         605.914          45.000    20325283.618    83228649.664         472.160          43.000  
G31  20619285.302   108355072.804         112.186          44.000    20619274.216    84432483.307          87.522          41.000  
G04  24399099.441   128218111.111        3169.084          43.000    24399095.784    99910245.176        2469.171          41.000  
C33  22526254.638   117300114.936        -785.190          46.000                                                                  
C06  36577793.902   190470171.716        -155.055          38.000    36577776.136   147283547.963        -119.857          44.000  
C14  22739147.232   118408690.542       -2324.542          39.000    22739132.112    91561056.499       -1797.528          41.000  
C16  37006586.938   192703007.313        -184.729          42.000    37006574.975   149010141.525        -143.074          44.000  
C24  21868411.852   113874560.354        -897.203          48.000                                                                  
C26  24504605.159   127601908.689       -2568.760          40.000                                                                  
G03  22893426.589   120305724.4752       -218.108          31.000    22893416.194                3       -169.894          28.000  
G16  22343633.014   117416658.118        2930.641          35.000                                                                  
C09  37728961.323                        -143.614          30.000    37728947.305   151918836.998        -111.260          44.000  
C25  23602657.817   122905242.543        1544.110          40.000                                                                  
C08  39266913.843                2      -2468.622          28.000    39266898.486   158111528.341       -1909.058          34.000  
C10  40469349.050                2        935.304          28.000    40469350.273   162953296.320         722.646          32.000  
C35  25943433.071   135094271.461         320.883          40.000                                                                  
C13  38431562.795   200123221.5252      -2278.923          37.000    38431553.093                       -1761.166          28.000  
C12  26387535.087   137406842.474        2316.783          36.000    26387533.423   106251682.219        1791.546          46.000  
G25  24510378.098   128802914.379       -3918.433          35.000    24510374.250   100365871.174       -3053.056          38.000  
C07                                                                  39527926.521   159162581.7332        865.161          34.000  
> 2025 10 30 06 22 46.0400000  0 23                     
G32  22106907.014   116172576.589       -2981.225          43.000    22106901.335    90524049.932       -2322.876          38.000  
G29  23090818.535   121343084.363        -680.677          40.000    23090809.902    94553022.721        -530.121          42.000  
G28  21288073.886   111869583.967       -1223.705          42.000    21288063.725    87171063.562        -953.456          47.000  
G26  20325285.982   106810099.899         605.957          45.000    20325278.981    83228630.780         472.111          43.000  
G31  20619284.457   108355068.299         112.470          44.000    20619273.373    84432479.816          87.338          41.000  
G04  24399075.316   128217984.352        3169.039          43.000    24399071.664    99910146.408        2469.164          41.000  
C33  22526260.646   117300146.332        -785.016          46.000                                                                  
C06  36577795.073   190470177.933        -155.277          38.000    36577777.312   147283552.761        -119.891          44.000  
C14  22739165.069   118408783.524       -2324.520          40.000    22739149.975    91561128.408       -1797.655          41.000  
C16  37006588.355   192703014.708        -184.856          42.000    37006576.392   149010147.251        -143.205          44.000  
C24  21868418.758   113874596.236        -897.092          48.000                                                                  
C26  24504624.879   127602011.452       -2569.054          40.000                                                                  
G03  22893428.362   120305733.2382       -218.501          30.000    22893418.028                3       -169.894          28.000  
G16  22343610.705   117416540.866        2931.052          35.000                                                                  
C09  37728962.400                        -144.318          30.000    37728948.424   151918841.447        -111.230          44.000  
C25  23602645.939   122905180.801        1543.710          40.000                                                                  
C08  39266932.930                2      -2469.137          28.000    39266917.427   158111604.706       -1909.021          33.000  
C10  40469342.113                2        935.229          28.000    40469343.049   162953267.368         723.401          33.000  
C35  25943430.602   135094258.618         321.010          40.000                                                                  
C13  38431580.962   200123312.6442      -2278.280          37.000    38431570.614                       -1761.111          28.000  
C12  26387517.267   137406749.782        2317.160          36.000    26387515.637   106251610.550        1791.650          46.000  
G25  24510407.920   128803071.091       -3918.041          35.000    24510404.065   100365993.285       -3052.836          38.000  
C07                                                                  39527917.899   159162547.1402        864.949          34.000  
> 2025 10 30 06 22 46.0800000  0 23                     
G32  22106929.713   116172695.823       -2981.002          43.000    22106924.031    90524142.839       -2322.762          38.000  
G29  23090823.741   121343111.574        -680.438          40.000    23090815.065    94553043.926        -530.115          42.000  
G28  21288083.206   111869632.905       -1223.599          42.000    21288073.034    87171101.696        -953.419          47.000  
G26  20325281.362   106810075.656         606.031          45.000    20325274.365    83228611.897         472.068          43.000  
G31  20619283.611   108355063.803         112.420          44.000    20619272.513    84432476.312          87.475          41.000  
G04  24399051.177   128217857.592        3169.052          43.000    24399047.534    99910047.649        2469.015          41.000  
C33  22526266.689   117300177.723        -784.833          46.000                                                                  
C06  36577796.279   190470184.142        -155.320          38.000    36577778.509   147283557.572        -120.153          44.000  
C14  22739182.932   118408876.516       -2324.693          40.000    22739167.823    91561200.307       -1797.519          41.000  
C16  37006589.816   192703022.089        -184.673          42.000    37006577.792   149010152.960        -142.952          44.000  
C24  21868425.694   113874632.115        -897.003          48.000                                                                  
C26  24504644.603   127602114.197       -2568.875          40.000                                                                  
G03  22893430.657   120305741.9882       -218.654          30.000    22893419.860                3       -174.188          28.000  
G16  22343588.391   117416423.629        2930.969          35.000                                                                  
C09  37728963.520                        -143.667          30.000    37728949.524   151918845.887        -111.086          44.000  
C25  23602634.079   122905119.045        1543.766          40.000                                                                  
C08  39266951.913                2      -2469.342          28.000    39266936.417   158111681.074       -1909.094          33.000  
C10  40469335.207                2        935.060          28.000    40469335.887   162953238.429         723.603          33.000  
C35  25943428.158   135094245.789         320.834          40.000                                                                  
C13  38431597.999   200123403.7752      -2278.214          37.000    38431588.126                       -1761.295          29.000  
C12  26387499.449   137406657.078        2317.553          36.000    26387497.852   106251538.886        1791.619          46.000  
G25  24510437.724   128803227.812       -3917.932          35.000    24510433.873   100366115.414       -3053.042          38.000  
C07                                                                  39527909.294   159162512.5382        864.934          34.000  
> 2025 10 30 06 22 46.1200000  0 23                     
G32  22106952.416   116172815.068       -2981.083          43.000    22106946.723    90524235.766       -2323.055          38.000  
G29  23090828.914   121343138.793        -680.450          40.000    23090820.233    94553065.142        -530.327          42.000  
G28  21288092.505   111869681.826       -1223.207          42.000    21288082.353    87171139.833        -953.471          47.000  
G26  20325276.756   106810051.423         605.906          45.000    20325269.754    83228593.022         471.887          43.000  
G31  20619282.745   108355059.304         112.451          44.000    20619271.655    84432472.799          87.728          41.000  
G04  24399027.048   128217730.833        3168.996          43.000    24399023.402    99909948.861        2469.438          41.000  
C33  22526272.683   117300209.122        -784.913          46.000                                                                  
C06  36577797.458   190470190.352        -155.334          38.000    36577779.710   147283562.360        -119.886          44.000  
C14  22739200.787   118408969.505       -2324.763          40.000    22739185.664    91561272.208       -1797.514          41.000  
C16  37006591.270   192703029.475        -184.656          42.000    37006579.191   149010158.653        -142.492          44.000  
C24  21868432.602   113874667.995        -896.968          48.000                                                                  
C26  24504664.312   127602216.964       -2569.072          40.000                                                                  
G03  22893433.169   120305750.7402       -218.592          30.000    22893421.241                3       -168.442          29.000  
G16  22343566.062   117416306.401        2930.824          35.000                                                                  
C09  37728964.641   196464627.773        -142.868          30.000    37728950.609   151918850.344        -111.344          44.000  
C25  23602622.239   122905057.283        1543.939          40.000                                                                  
C08  39266970.841                2      -2469.456          28.000    39266955.400   158111757.466       -1909.613          34.000  
C10  40469328.419                2        934.935          28.000    40469328.736   162953209.556         722.312          33.000  
C35  25943425.710   135094232.956         320.816          40.000                                                                  
C13  38431615.469   200123494.9062      -2278.191          37.000    38431605.648                       -1761.787          29.000  
C12  26387481.652   137406564.396        2317.335          36.000    26387480.066   106251467.217        1791.675          46.000  
G25  24510467.569   128803384.522       -3917.759          35.000    24510463.689   100366237.541       -3053.126          38.000  
C07                                                                  39527900.684   159162477.9332        865.096          34.000  
> 2025 10 30 06 22 46.1600000  0 23                     
G32  22106975.096   116172934.307       -2981.039          44.000    22106969.409    90524328.689       -2323.156          38.000  
G29  23090834.107   121343166.016        -680.588          40.000    23090825.435    94553086.352        -530.312          42.000  
G28  21288101.814   111869730.757       -1223.164          42.000    21288091.656    87171177.956        -953.225          47.000  
G26  20325272.142   106810027.197         605.651          45.000    20325265.130    83228574.130         472.100          43.000  
G31  20619281.898   108355054.808         112.445          44.000    20619270.791    84432469.287          87.788          41.000  
G04  24399002.931   128217604.075        3168.907          43.000    24398999.282    99909850.079        2469.568          41.000  
C33  22526278.689   117300240.531        -785.148          46.000                                                                  
C06  36577798.655   190470196.552        -155.192          38.000    36577780.903   147283567.157        -119.904          44.000  
C14  22739218.625   118409062.495       -2324.792          40.000    22739203.524    91561344.096       -1797.242          41.000  
C16  37006592.674   192703036.862        -184.671          42.000    37006580.595   149010164.358        -142.497          44.000  
C24  21868439.468   113874703.877        -897.003          48.000                                                                  
C26  24504684.055   127602319.720       -2569.001          40.000                                                                  
G03  22893434.840   120305759.5222       -219.267          30.000    22893422.732                3       -167.236          29.000  
G16  22343543.729   117416189.188        2930.441          35.000                                                                  
C09  37728965.727                        -143.492          30.000    37728951.714   151918854.781        -111.094          44.000  
C25  23602610.386   122904995.521        1544.019          40.000                                                                  
C08  39266989.607                2      -2469.453          28.000    39266974.353   158111833.824       -1909.304          34.000  
C10  40469321.403                2        935.086          28.000    40469321.562   162953180.617         722.779          33.000  
C35  25943423.251   135094220.111         321.050          40.000                                                                  
C13  38431632.858   200123586.0342      -2278.198          37.000    38431623.146                       -1761.608          29.000  
C12  26387463.844   137406471.732        2316.848          36.000    26387462.270   106251395.548        1791.699          46.000  
G25  24510497.396   128803541.243       -3917.881          35.000    24510493.499   100366359.638       -3052.588          38.000  
C07                                                                  39527892.093   159162443.3402        864.991          34.000  
> 2025 10 30 06 22 46.2000000  0 23                     
G32  22106997.770   116173053.547       -2981.040          44.000    22106992.111    90524421.611       -2323.135          38.000  
G29  23090839.278   121343193.236        -680.582          40.000    23090830.609    94553107.554        -530.163          42.000  
G28  21288111.121   111869779.690       -1223.246          42.000    21288100.975    87171216.086        -953.224          47.000  
G26  20325267.525   106810002.964         605.709          45.000    20325260.535    83228555.237         472.249          43.000  
G31  20619281.046   108355050.316         112.309          44.000    20619269.929    84432465.780          87.707          41.000  
G04  24398978.796   128217477.307        3169.055          43.000    24398975.163    99909751.290        2469.738          41.000  
C33  22526284.732   117300271.924        -784.967          46.000                                                                  
C06  36577799.842   190470202.764        -155.339          38.000    36577782.117   147283571.954        -119.946          44.000  
C14  22739236.485   118409155.480       -2324.681          40.000    22739221.382    91561416.003       -1797.500          41.000  
C16  37006594.094   192703044.240        -184.535          42.000    37006581.998   149010170.058        -142.453          44.000  
C24  21868446.356   113874739.758        -897.024          48.000                                                                  
C26  24504703.795   127602422.472       -2568.867          40.000                                                                  
G03  22893436.682   120305768.2442       -218.560          30.000    22893424.383                3       -167.760          29.000  
G16  22343521.401   117416071.933        2931.065          35.000                                                                  
C09  37728966.826                        -144.288          30.000    37728952.841   151918859.232        -111.229          44.000  
C25  23602598.531   122904933.748        1544.259          40.000                                                                  
C08  39267009.036                2      -2469.529          28.000    39266993.268   158111910.225       -1909.745          34.000  
C10  40469314.382                2        935.137          28.000    40469314.371   162953151.679         723.196          32.000  
C35  25943420.771   135094207.262         321.223          40.000                                                                  
C13  38431650.456   200123677.1622      -2278.211          37.000    38431640.647                       -1761.999          29.000  
C12  26387446.065   137406379.039        2317.096          36.000    26387444.483   106251323.881        1791.687          46.000  
G25  24510527.232   128803697.967       -3918.035          36.000    24510523.327   100366481.752       -3052.684          38.000  
C07                                                                  39527883.465   159162408.7252        865.293          34.000  
> 2025 10 30 06 22 46.2400000  0 23                     
G32  22107020.465   116173172.793       -2981.130          44.000    22107014.818    90524514.517       -2322.850          38.000  
G29  23090844.450   121343220.448        -680.483          40.000    23090835.782    94553128.770        -530.363          42.000  
G28  21288120.426   111869828.631       -1223.431          42.000    21288110.291    87171254.224        -953.386          47.000  
G26  20325262.920   106809978.725         605.866          45.000    20325255.917    83228536.357         472.086          43.000  
G31  20619280.199   108355045.812         112.513          44.000    20619269.084    84432462.288          87.355          41.000  
G04  24398954.666   128217350.555        3168.846          43.000    24398951.048    99909652.532        2469.226          41.000  
C33  22526290.764   117300303.325        -785.032          46.000                                                                  
C06  36577801.008   190470208.957        -155.034          38.000    36577783.346   147283576.744        -119.842          44.000  
C14  22739254.330   118409248.476       -2324.828          40.000    22739239.266    91561487.914       -1797.736          41.000  
C16  37006595.524   192703051.619        -184.501          42.000    37006583.455   149010175.780        -142.859          44.000  
C24  21868453.231   113874775.648        -897.214          48.000                                                                  
C26  24504723.524   127602525.200       -2568.369          40.000                                                                  
G03  22893438.934   120305776.9712       -218.107          30.000    22893426.259                3       -170.290          29.000  
G16  22343499.102   117415954.702        2930.977          35.000                                                                  
C09  37728967.916                        -143.064          30.000    37728953.957   151918863.668        -110.992          44.000  
C25  23602586.669   122904871.998        1543.950          40.000                                                                  
C08  39267027.696                2      -2469.165          28.000    39267012.235   158111986.611       -1909.845          34.000  
C10  40469307.070                2        934.842          28.000    40469307.189   162953122.736         723.544          33.000  
C35  25943418.343   135094194.423         321.036          40.000                                                                  
C13  38431667.509   200123768.2942      -2278.229          37.000    38431658.189                       -1762.194          29.000  
C12  26387428.260   137406286.358        2317.021          36.000    26387426.673   106251252.216        1791.619          46.000  
G25  24510557.069   128803854.702       -3918.315          36.000    24510553.182   100366603.880       -3052.957          38.000  
C07                                                                  39527874.881   159162374.1222        865.283          34.000  
> 2025 10 30 06 22 46.2800000  0 23                     
G32  22107043.159   116173292.041       -2981.240          44.000    22107037.514    90524607.416       -2322.579          38.000  
G29  23090849.612   121343247.658        -680.365          40.000    23090840.950    94553149.986        -530.474          42.000  
G28  21288129.738   111869877.578       -1223.604          42.000    21288119.626    87171292.359        -953.411          47.000  
G26  20325258.312   106809954.492         605.815          45.000    20325251.321    83228517.474         472.062          43.000  
G31  20619279.348   108355041.329         112.186          44.000    20619268.227    84432458.784          87.424          41.000  
G04  24398930.543   128217223.794        3168.877          43.000    24398926.941    99909553.760        2469.195          42.000  
C33  22526296.764   117300334.733        -785.210          47.000                                                                  
C06  36577802.223   190470215.146        -154.749          38.000    36577784.543   147283581.547        -120.026          44.000  
C14  22739272.190   118409341.462       -2324.732          40.000    22739257.122    91561559.819       -1797.738          41.000  
C16  37006596.921   192703059.006        -184.626          42.000    37006584.886   149010181.495        -142.908          44.000  
C24  21868460.112   113874811.538        -897.314          48.000                                                                  
C26  24504743.228   127602627.949       -2568.490          40.000                                                                  
G03  22893440.476   120305785.7152       -218.316          30.000    22893427.921                3       -171.275          29.000  
G16  22343476.783   117415837.484        2930.579          35.000                                                                  
C09  37728968.967                        -143.561          30.000    37728955.078   151918868.121        -111.199          44.000  
C25  23602574.847   122904810.255        1543.611          40.000                                                                  
C08  39267046.643                2      -2469.206          28.000    39267031.178   158112062.978       -1909.531          34.000  
C10  40469300.060                2        935.259          28.000    40469300.025                         722.904          33.000  
C35  25943415.893   135094181.591         320.822          40.000                                                                  
C13  38431684.930   200123859.4272      -2278.291          37.000    38431675.760                       -1762.536          29.000  
C12  26387410.439   137406193.682        2316.923          36.000    26387408.878   106251180.552        1791.576          46.000  
G25  24510586.896   128804011.438       -3918.499          36.000    24510583.006   100366726.009       -3053.135          38.000  
C07                                                                  39527866.276   159162339.5732        864.135          34.000  
> 2025 10 30 06 22 46.3200000  0 23                     
G32  22107065.847   116173411.283       -2981.178          44.000    22107060.209    90524700.336       -2322.853          38.000  
G29  23090854.805   121343274.879        -680.496          40.000    23090846.149    94553171.190        -530.242          42.000  
G28  21288139.016   111869926.526       -1223.734          42.000    21288128.930    87171330.491        -953.361          47.000  
G26  20325253.698   106809930.261         605.740          45.000    20325246.697    83228498.592         472.044          43.000  
G31  20619278.509   108355036.837         112.168          44.000    20619267.365    84432455.282          87.468          41.000  
G04  24398906.393   128217097.033        3168.946          43.000    24398902.811    99909454.996        2469.057          42.000  
C33  22526302.793   117300366.140        -785.263          47.000                                                                  
C06  36577803.375   190470221.353        -154.940          38.000    36577785.738   147283586.357        -120.231          44.000  
C14  22739290.036   118409434.446       -2324.651          40.000    22739274.987    91561631.731       -1797.823          41.000  
C16  37006598.304   192703066.400        -184.812          42.000    37006586.327   149010187.205        -142.832          44.000  
C24  21868467.021   113874847.430        -897.354          48.000                                                                  
C26  24504762.986   127602730.697       -2568.612          40.000                                                                  
G03  22893442.293   120305794.4342       -218.012          30.000    22893429.502                3       -170.889          29.000  
G16  22343454.472   117415720.255        2930.552          35.000                                                                  
C09  37728970.072                        -143.730          30.000    37728956.194   151918872.574        -111.324          44.000  
C25  23602563.000   122904748.498        1543.717          40.000                                                                  
C08  39267065.697                2      -2469.117          28.000    39267050.138   158112139.353       -1909.402          33.000  
C10  40469293.085                2        935.434          28.000    40469292.840                         723.032          33.000  
C35  25943413.441   135094168.772         320.460          40.000                                                                  
C13  38431702.272   200123950.5672      -2278.476          37.000    38431693.241                       -1762.480          29.000  
C12  26387392.605   137406100.992        2317.133          36.000    26387391.078   106251108.885        1791.613          46.000  
G25  24510616.737   128804168.144       -3917.921          36.000    24510612.830   100366848.151       -3053.456          38.000  
C07                                                                  39527857.657   159162304.9622        864.619          34.000  
> 2025 10 30 06 22 46.3600000  0 23                     
G32  22107088.561   116173530.542       -2981.415          44.000    22107082.893    90524793.268       -2323.213          38.000  
G29  23090859.998   121343302.112        -680.807          40.000    23090851.323    94553192.410        -530.448          42.000  
G28  21288148.328   111869975.471       -1223.765          42.000    21288138.226    87171368.629        -953.475          47.000  
G26  20325249.079   106809906.031         605.697          45.000    20325242.095    83228479.711         472.026          44.000  
G31  20619277.652   108355032.348         112.156          44.000    20619266.527    84432451.793          87.253          41.000  
G04  24398882.256   128216970.274        3168.988          43.000    24398878.685    99909356.224        2469.177          42.000  
C33  22526308.798   117300397.560        -785.495          47.000                                                                  
C06  36577804.577   190470227.580        -155.402          38.000    36577786.967   147283591.151        -120.028          44.000  
C14  22739307.900   118409527.431       -2324.659          40.000    22739292.842    91561703.630       -1797.605          41.000  
C16  37006599.714   192703073.782        -184.670          42.000    37006587.750   149010192.919        -142.885          44.000  
C24  21868473.949   113874883.318        -897.305          48.000                                                                  
C26  24504782.703   127602833.463       -2569.052          40.000                                                                  
G03  22893443.655   120305803.2352       -219.450          30.000    22893431.483                1       -170.697          29.000  
G16  22343432.187   117415603.034        2930.433          35.000                                                                  
C09  37728971.183   196464662.317        -144.570          30.000    37728957.284   151918877.026        -111.406          44.000  
C25  23602551.161   122904686.743        1543.811          40.000                                                                  
C08  39267084.414                2      -2468.847          28.000    39267069.098   158112215.707       -1909.094          33.000  
C10  40469285.872                2        935.187          28.000    40469285.717   162953035.987         723.116          33.000  
C35  25943410.980   135094155.942         320.542          40.000                                                                  
C13  38431719.581   200124041.7102      -2278.573          37.000    38431710.779                       -1762.603          29.000  
C12  26387374.822   137406008.318        2316.985          36.000    26387373.264   106251037.223        1791.576          46.000  
G25  24510646.544   128804324.873       -3918.091          36.000    24510642.665   100366970.251       -3052.815          38.000  
C07                                                                  39527849.064   159162270.3642        864.707          34.000  
> 2025 10 30 06 22 46.4000000  0 23                     
G32  22107111.232   116173649.784       -2981.240          44.000    22107105.599    90524886.195       -2323.343          38.000  
G29  23090865.174   121343329.345        -680.960          40.000    23090856.488    94553213.623        -530.423          42.000  
G28  21288157.642   111870024.409       -1223.627          42.000    21288147.547    87171406.764        -953.424          47.000  
G26  20325244.471   106809881.800         605.710          45.000    20325237.472    83228460.835         471.952          44.000  
G31  20619276.812   108355027.861         112.107          44.000    20619265.655    84432448.280          87.611          41.000  
G04  24398858.157   128216843.508        3169.092          43.000    24398854.554    99909257.427        2469.697          42.000  
C33  22526314.850   117300428.969        -785.388          47.000                                                                  
C06  36577805.769   190470233.788        -155.341          38.000    36577788.152   147283595.939        -119.794          44.000  
C14  22739325.782   118409620.414       -2324.615          40.000    22739310.701    91561775.531       -1797.517          41.000  
C16  37006601.118   192703081.164        -184.572          42.000    37006589.200   149010198.626        -142.768          44.000  
C24  21868480.836   113874919.201        -897.178          49.000                                                                  
C26  24504802.424   127602936.241       -2569.479          40.000                                                                  
G03  22893445.370   120305811.9812       -219.175          30.000    22893433.206                        -170.734          29.000  
G16  22343409.882   117415485.797        2930.722          35.000                                                                  
C09  37728972.297   196464668.083        -144.545          30.000    37728958.396   151918881.475        -111.339          43.000  
C25  23602539.311   122904624.967        1544.198          40.000                                                                  
C08  39267103.968                2      -2469.392          28.000    39267088.098   158112292.088       -1909.398          33.000  
C10  40469278.568                2        934.684          28.000    40469278.530   162953007.040         723.639          33.000  
C35  25943408.489   135094143.099         320.800          40.000                                                                  
C13  38431737.406   200124132.8322      -2278.227          37.000    38431728.276                       -1762.322          29.000  
C12  26387357.003   137405915.638        2317.035          36.000    26387355.444   106250965.549        1791.749          46.000  
G25  24510676.363   128804481.586       -3917.938          36.000    24510672.497   100367092.372       -3052.897          38.000  
C07                                                                  39527840.470   159162235.7252        865.593          34.000  
> 2025 10 30 06 22 46.4400000  0 23                     
G32  22107133.927   116173769.026       -2981.118          44.000    22107128.302    90524979.107       -2323.069          38.000  
G29  23090870.348   121343356.582        -681.063          40.000    23090861.679    94553234.832        -530.310          42.000  
G28  21288166.943   111870073.348       -1223.569          42.000    21288156.854    87171444.897        -953.413          47.000  
G26  20325239.842   106809857.570         605.723          45.000    20325232.869    83228441.953         472.022          44.000  
G31  20619275.989   108355023.368         112.212          44.000    20619264.809    84432444.793          87.346          41.000  
G04  24398834.033   128216716.751        3168.960          43.000    24398830.442    99909158.653        2469.546          42.000  
C33  22526320.895   117300460.373        -785.216          47.000                                                                  
C06  36577806.984   190470239.997        -155.290          38.000    36577789.330   147283600.740        -119.959          44.000  
C14  22739343.631   118409713.415       -2324.928          40.000    22739328.529    91561847.444       -1797.756          41.000  
C16  37006602.528   192703088.557        -184.750          42.000    37006590.591   149010204.344        -142.939          44.000  
C24  21868487.759   113874955.080        -897.024          49.000                                                                  
C26  24504822.154   127603038.992       -2569.148          40.000                                                                  
G03  22893446.965   120305820.7412       -219.299          30.000    22893435.065                        -170.777          29.000  
G16  22343387.570   117415368.571        2930.680          35.000                                                                  
C09  37728973.381   196464673.852        -144.558          30.000    37728959.513   151918885.924        -111.248          43.000  
C25  23602527.467   122904563.213        1544.037          40.000                                                                  
C08  39267122.658                2      -2469.166          28.000    39267107.063   158112368.469       -1909.707          33.000  
C10  40469271.335                2        935.272          28.000    40469271.355   162952978.107         723.534          33.000  
C35  25943406.048   135094130.255         320.994          40.000                                                                  
C13  38431754.970   200124223.9702      -2278.364          37.000    38431745.780                       -1761.951          29.000  
C12  26387339.206   137405822.953        2317.072          36.000    26387337.619   106250893.881        1791.718          46.000  
G25  24510706.189   128804638.286       -3917.607          36.000    24510702.314   100367214.494       -3052.959          38.000  
C07                                                                  39527831.877   159162201.1352        865.105          34.000  
> 2025 10 30 06 22 46.4800000  0 23                     
G32  22107156.596   116173888.276       -2981.212          44.000    22107150.983    90525072.019       -2322.894          38.000  
G29  23090875.541   121343383.800        -680.718          40.000    23090866.860    94553256.047        -530.392          42.000  
G28  21288176.237   111870122.285       -1223.506          42.000    21288166.166    87171483.037        -953.477          47.000  
G26  20325235.223   106809833.348         605.568          45.000    20325228.262    83228423.080         471.903          44.000  
G31  20619275.121   108355018.873         112.311          44.000    20619263.974    84432441.293          87.439          41.000  
G04  24398809.885   128216589.981        3169.125          43.000    24398806.334    99909059.881        2469.405          42.000  
C33  22526326.896   117300491.780        -785.153          47.000                                                                  
C06  36577808.185   190470246.185        -154.872          38.000    36577790.524   147283605.541        -120.058          44.000  
C14  22739361.511   118409806.417       -2325.141          40.000    22739346.382    91561919.354       -1797.778          41.000  
C16  37006603.954   192703095.951        -184.858          42.000    37006591.976   149010210.054        -142.856          44.000  
C24  21868494.648   113874990.963        -897.016          49.000                                                                  
C26  24504841.884   127603141.742       -2568.893          40.000                                                                  
G03  22893449.070   120305829.4602       -218.418          30.000    22893436.900                        -170.286          29.000  
G16  22343365.247   117415251.344        2930.681          35.000                                                                  
C09  37728974.471   196464679.614        -144.250          30.000    37728960.625   151918890.380        -111.370          43.000  
C25  23602515.626   122904501.472        1543.599          40.000                                                                  
C08  39267141.656                2      -2469.603          28.000    39267126.039   158112444.833       -1909.414          33.000  
C10  40469264.370                2        935.478          28.000    40469264.160   162952949.176         723.362          33.000  
C35  25943403.589   135094117.423         320.879          40.000                                                                  
C13  38431772.302   200124315.1082      -2278.500          38.000    38431763.274                       -1761.586          29.000  
C12  26387321.395   137405730.262        2317.200          36.000    26387319.796   106250822.216        1791.631          46.000  
G25  24510736.011   128804795.020       -3918.025          36.000    24510732.155   100367336.642       -3053.481          38.000  
C07                                                                  39527823.252   159162166.5502        864.645          34.000  
> 2025 10 30 06 22 46.5200000  0 23                     
G32  22107179.301   116174007.531       -2981.354          44.000    22107173.673    90525164.944       -2323.040          38.000  
G29  23090880.706   121343411.017        -680.483          40.000    23090872.034    94553277.268        -530.541          42.000  
G28  21288185.533   111870171.227       -1223.583          42.000    21288175.468    87171521.170        -953.423          47.000  
G26  20325230.606   106809809.131         605.408          45.000    20325223.653    83228404.207         471.842          44.000  
G31  20619274.269   108355014.384         112.255          44.000    20619263.110    84432437.799          87.352          41.000  
G04  24398785.752   128216463.220        3169.056          43.000    24398782.216    99908961.112        2469.259          42.000  
C33  22526332.910   117300523.189        -785.225          47.000                                                                  
C06  36577809.366   190470252.390        -154.973          38.000    36577791.676   147283610.343        -120.106          44.000  
C14  22739379.375   118409899.413       -2325.051          40.000    22739364.190    91561991.259       -1797.687          41.000  
C16  37006605.403   192703103.336        -184.757          42.000    37006593.368   149010215.770        -142.915          44.000  
C24  21868501.520   113875026.857        -897.242          49.000                                                                  
C26  24504861.648   127603244.487       -2568.602          40.000                                                                  
G03  22893450.770   120305838.2482       -219.305          30.000    22893438.543                        -170.145          29.000  
G16  22343342.947   117415134.132        2930.400          35.000                                                                  
C09  37728975.585   196464685.352        -143.688          31.000    37728961.718   151918894.824        -111.217          43.000  
C25  23602503.778   122904439.719        1543.631          40.000                                                                  
C08  39267160.131                2      -2469.573          28.000    39267145.026   158112521.230       -1909.704          33.000  
C10  40469257.067                2        935.280          28.000    40469256.995   162952920.247         723.206          33.000  
C35  25943401.123   135094104.605         320.507          40.000                                                                  
C13  38431789.286   200124406.2482      -2278.505          38.000    38431780.776                       -1761.405          29.000  
C12  26387303.591   137405637.573        2317.268          36.000    26387301.989   106250750.553        1791.551          46.000  
G25  24510765.844   128804951.755       -3918.367          36.000    24510761.970   100367458.761       -3053.293          38.000  
C07                                                                  39527814.651   159162131.9682        864.403          34.000  
> 2025 10 30 06 22 46.5600000  0 23                     
G32  22107201.995   116174126.778       -2981.279          44.000    22107196.385    90525257.861       -2322.994          38.000  
G29  23090885.891   121343438.248        -680.653          40.000    23090877.213    94553298.479        -530.390          42.000  
G28  21288194.848   111870220.164       -1223.514          42.000    21288184.775    87171559.298        -953.291          47.000  
G26  20325225.978   106809784.904         605.553          45.000    20325219.032    83228385.333         471.843          44.000  
G31  20619273.401   108355009.895         112.224          44.000    20619262.248    84432434.295          87.506          41.000  
G04  24398761.627   128216336.468        3168.879          43.000    24398758.107    99908862.343        2469.150          42.000  
C33  22526338.940   117300554.599        -785.271          47.000                                                                  
C06  36577810.558   190470258.606        -155.195          38.000    36577792.882   147283615.141        -120.063          44.000  
C14  22739397.221   118409992.410       -2324.971          40.000    22739382.047    91562063.162       -1797.625          41.000  
C16  37006606.829   192703110.714        -184.579          42.000    37006594.796   149010221.486        -142.933          44.000  
C24  21868508.434   113875062.747        -897.289          49.000                                                                  
C26  24504881.383   127603347.239       -2568.615          40.000                                                                  
G03  22893453.268   120305847.0182       -219.457          30.000    22893440.442                        -170.458          29.000  
G16  22343320.628   117415016.893        2930.777          35.000                                                                  
C09  37728976.689   196464691.114        -143.783          31.000    37728962.801   151918899.263        -111.048          43.000  
C25  23602491.942   122904377.973        1543.576          40.000                                                                  
C08  39267179.185                2      -2469.365          28.000    39267163.999   158112597.587       -1909.250          33.000  
C10  40469249.480                2        935.480          28.000    40469249.810   162952891.317         723.137          33.000  
C35  25943398.657   135094091.770         320.688          40.000                                                                  
C13  38431806.746   200124497.3922      -2278.566          38.000    38431798.247                       -1761.489          29.000  
C12  26387285.793   137405544.912        2316.725          36.000    26387284.175   106250678.887        1791.582          46.000  
G25  24510795.672   128805108.497       -3918.658          36.000    24510791.794   100367580.885       -3053.174          38.000  
C07                                                                  39527806.035   159162097.3812        864.435          34.000  
> 2025 10 30 06 22 46.6000000  0 23                     
G32  22107224.691   116174246.026       -2981.231          44.000    22107219.079    90525350.773       -2322.873          38.000  
G29  23090891.084   121343465.482        -680.833          40.000    23090882.391    94553319.698        -530.477          42.000  
G28  21288204.132   111870269.099       -1223.422          42.000    21288194.085    87171597.433        -953.320          47.000  
G26  20325221.361   106809760.676         605.634          45.000    20325214.421    83228366.458         471.875          44.000  
G31  20619272.539   108355005.408         112.169          44.000    20619261.392    84432430.800          87.364          41.000  
G04  24398737.507   128216209.717        3168.746          43.000    24398733.962    99908763.581        2468.983          42.000  
C33  22526344.965   117300586.019        -785.466          47.000                                                                  
C06  36577811.761   190470264.813        -155.186          38.000    36577794.081   147283619.945        -120.107          44.000  
C14  22739415.083   118410085.404       -2324.908          40.000    22739399.913    91562135.082       -1797.938          41.000  
C16  37006608.248   192703118.098        -184.608          42.000    37006596.188   149010227.186        -142.662          44.000  
C24  21868515.316   113875098.642        -897.398          49.000                                                                  
C26  24504901.120   127603449.999       -2568.842          40.000                                                                  
G03  22893454.826   120305855.7722       -219.065          30.000    22893442.081                        -170.477          29.000  
G16  22343298.317   117414899.673        2930.626          35.000                                                                  
C09  37728977.779   196464696.842        -143.353          31.000    37728963.894   151918903.708        -111.103          43.000  
C25  23602480.105   122904316.212        1543.830          40.000                                                                  
C08  39267198.323                2      -2469.157          28.000    39267182.954   158112673.991       -1909.902          33.000  
C10  40469242.243                2        935.314          28.000    40469242.620   162952862.422         722.427          33.000  
C35  25943396.190   135094078.932         320.845          40.000                                                                  
C13  38431824.172   200124588.5312      -2278.547          38.000    38431815.741                       -1761.587          29.000  
C12  26387267.983   137405452.218        2317.109          36.000    26387266.375   106250607.217        1791.687          46.000  
G25  24510825.457   128805265.206       -3918.156          36.000    24510821.600   100367702.995       -3052.898          38.000  
C07                                                                  39527797.443   159162062.7452        865.466          34.000  
> 2025 10 30 06 22 46.6400000  0 23                     
G32  22107247.377   116174365.286       -2981.386          44.000    22107241.773    90525443.708       -2323.237          38.000  
G29  23090896.291   121343492.712        -680.794          40.000    23090887.568    94553340.917        -530.540          42.000  
G28  21288213.453   111870318.049       -1223.643          42.000    21288203.414    87171635.580        -953.578          47.000  
G26  20325216.758   106809736.456         605.540          45.000    20325209.812    83228347.575         472.043          44.000  
G31  20619271.677   108355000.924         112.083          44.000    20619260.555    84432427.304          87.321          41.000  
G04  24398713.365   128216082.955        3168.879          43.000    24398709.843    99908664.811        2469.001          42.000  
C33  22526350.980   117300617.439        -785.532          46.000                                                                  
C06  36577812.964   190470271.014        -155.066          38.000    36577795.248   147283624.741        -119.995          44.000  
C14  22739432.971   118410178.401       -2324.974          40.000    22739417.764    91562206.989       -1797.813          41.000  
C16  37006609.694   192703125.478        -184.524          42.000    37006597.619   149010232.899        -142.770          44.000  
C24  21868522.222   113875134.534        -897.366          49.000                                                                  
C26  24504920.833   127603552.752       -2568.824          40.000                                                                  
G03  22893456.806   120305864.5202       -218.758          30.000    22893443.631                        -170.253          29.000  
G16  22343275.999   117414782.440        2930.720          35.000                                                                  
C09  37728978.905   196464702.616        -144.036          31.000    37728965.001   151918908.158        -111.191          43.000  
C25  23602468.241   122904254.460        1543.786          40.000                                                                  
C08  39267216.996                2      -2469.430          28.000    39267201.908   158112750.334       -1909.297          33.000  
C10  40469234.971                2        935.226          28.000    40469235.472   162952833.522         722.313          33.000  
C35  25943393.731   135094066.105         320.718          40.000                                                                  
C13  38431841.652   200124679.6682      -2278.429          37.000    38431833.284                       -1761.266          29.000  
C12  26387250.149   137405359.560        2316.578          36.000    26387248.589   106250535.553        1791.606          46.000  
G25  24510855.282   128805421.930       -3918.129          36.000    24510851.411   100367825.118       -3052.969          38.000  
C07                                                                  39527788.820   159162028.1612        864.994          34.000  
> 2025 10 30 06 22 46.6800000  0 23                     
G32  22107270.052   116174484.535       -2981.308          44.000    22107264.473    90525536.642       -2323.322          38.000  
G29  23090901.453   121343519.947        -680.849          40.000    23090892.758    94553362.146        -530.732          42.000  
G28  21288222.755   111870366.992       -1223.636          42.000    21288212.737    87171673.720        -953.542          47.000  
G26  20325212.151   106809712.233         605.540          45.000    20325205.188    83228328.698         471.992          44.000  
G31  20619270.818   108354996.434         112.157          44.000    20619259.696    84432423.816          87.180          41.000  
G04  24398689.230   128215956.197        3168.918          43.000    24398685.729    99908566.031        2469.300          42.000  
C33  22526357.036   117300648.847        -785.325          47.000                                                                  
C06  36577814.149   190470277.238        -155.477          38.000    36577796.423   147283629.532        -119.846          44.000  
C14  22739450.807   118410271.399       -2324.986          40.000    22739435.623    91562278.910       -1797.996          41.000  
C16  37006611.119   192703132.870        -184.735          42.000    37006599.026   149010238.615        -142.860          44.000  
C24  21868529.131   113875170.421        -897.267          49.000                                                                  
C26  24504940.555   127603655.508       -2568.893          40.000                                                                  
G03  22893458.464   120305873.2432       -218.134          30.000    22893445.378                        -170.379          29.000  
G16  22343253.701   117414665.221        2930.552          35.000                                                                  
C09  37728979.981   196464708.374        -144.187          31.000    37728966.094   151918912.614        -111.342          43.000  
C25  23602456.382   122904192.693        1544.101          40.000                                                                  
C08  39267235.978                2      -2469.350          28.000    39267220.884   158112826.728       -1909.747          33.000  
C10  40469227.505                2        935.377          28.000    40469228.285   162952804.575         723.204          33.000  
C35  25943391.288   135094053.290         320.455          40.000                                                                  
C13  38431859.440   200124770.8142      -2278.578          38.000    38431850.790                       -1761.423          29.000  
C12  26387232.341   137405266.852        2317.239          37.000    26387230.769   106250463.884        1791.668          46.000  
G25  24510885.092   128805578.637       -3917.850          36.000    24510881.234   100367947.237       -3052.958          38.000  
C07                                                                  39527780.243   159161993.5512        865.103          34.000  
> 2025 10 30 06 22 46.7200000  0 23                     
G32  22107292.753   116174603.779       -2981.178          44.000    22107287.175    90525629.573       -2323.303          38.000  
G29  23090906.636   121343547.171        -680.674          40.000    23090897.947    94553383.368        -530.711          42.000  
G28  21288232.081   111870415.937       -1223.618          42.000    21288222.045    87171711.855        -953.462          47.000  
G26  20325207.532   106809688.006         605.621          45.000    20325200.589    83228309.829         471.817          44.000  
G31  20619269.959   108354991.942         112.250          44.000    20619258.833    84432420.312          87.427          41.000  
G04  24398665.122   128215829.442        3168.844          43.000    24398661.612    99908467.250        2469.443          42.000  
C33  22526363.087   117300680.253        -785.201          46.000                                                                  
C06  36577815.332   190470283.437        -155.212          38.000    36577797.643   147283634.326        -119.839          44.000  
C14  22739468.664   118410364.393       -2324.922          40.000    22739453.475    91562350.815       -1797.817          41.000  
C16  37006612.539   192703140.255        -184.733          42.000    37006600.452   149010244.310        -142.556          44.000  
C24  21868536.028   113875206.306        -897.177          49.000                                                                  
C26  24504960.281   127603758.258       -2568.824          40.000                                                                  
G03  22893460.505   120305881.9962       -218.484          30.000    22893446.973                        -170.510          29.000  
G16  22343231.392   117414548.002        2930.459          35.000                                                                  
C09  37728981.071   196464714.109        -143.710          31.000    37728967.183   151918917.056        -111.201          43.000  
C25  23602444.532   122904130.941        1543.877          40.000                                                                  
C08  39267254.750                2      -2469.087          28.000    39267239.841   158112903.104       -1909.810          33.000  
C10  40469220.290                2        935.238          28.000    40469221.094   162952775.638         723.449          33.000  
C35  25943388.823   135094040.468         320.421          40.000                                                                  
C13  38431877.294   200124861.9592      -2278.670          38.000    38431868.333                       -1761.874          29.000  
C12  26387214.558   137405174.162        2317.287          37.000    26387212.962   106250392.217        1791.656          46.000  
G25  24510914.928   128805735.356       -3917.833          36.000    24510911.061   100368069.361       -3053.165          38.000  
C07                                                                  39527771.626   159161958.9552        864.888          35.000  
> 2025 10 30 06 22 46.7600000  0 23                     
G32  22107315.461   116174723.038       -2981.356          44.000    22107309.862    90525722.490       -2323.063          38.000  
G29  23090911.828   121343574.404        -680.750          40.000    23090903.131    94553404.579        -530.424          42.000  
G28  21288241.398   111870464.879       -1223.578          42.000    21288231.345    87171749.984        -953.320          47.000  
G26  20325202.937   106809663.787         605.521          45.000    20325195.984    83228290.960         471.712          44.000  
G31  20619269.090   108354987.450         112.287          44.000    20619257.973    84432416.809          87.525          41.000  
G04  24398640.996   128215702.688        3168.806          43.000    24398637.501    99908368.485        2469.254          42.000  
C33  22526369.135   117300711.665        -785.247          46.000                                                                  
C06  36577816.532   190470289.637        -154.994          38.000    36577798.851   147283639.126        -119.941          44.000  
C14  22739486.507   118410457.391       -2325.000          40.000    22739471.321    91562422.731       -1797.886          41.000  
C16  37006613.955   192703147.648        -184.841          42.000    37006601.890   149010250.024        -142.695          44.000  
C24  21868542.910   113875242.201        -897.295          48.000                                                                  
C26  24504980.037   127603861.016       -2568.904          40.000                                                                  
G03  22893462.551   120305890.7532       -218.652          30.000    22893449.191                        -171.014          29.000  
G16  22343209.075   117414430.774        2930.591          35.000                                                                  
C09  37728982.175   196464719.844        -143.465          31.000    37728968.302   151918921.505        -111.228          43.000  
C25  23602432.675   122904069.189        1543.785          40.000                                                                  
C08  39267274.397                2      -2469.206          28.000    39267258.820   158112979.492       -1910.012          33.000  
C10  40469213.240                2        935.263          28.000    40469213.882   162952746.719         723.113          33.000  
C35  25943386.362   135094027.642         320.556          40.000                                                                  
C13  38431894.669   200124953.1012      -2278.664          38.000    38431885.837                       -1761.799          29.000  
C12  26387196.745   137405081.486        2316.965          37.000    26387195.137   106250320.546        1791.730          46.000  
G25  24510944.746   128805892.076       -3917.883          36.000    24510940.888   100368191.495       -3053.333          38.000  
C07                                                                  39527763.053   159161924.3462        865.024          35.000  
> 2025 10 30 06 22 46.8000000  0 23                     
G32  22107338.154   116174842.294       -2981.418          44.000    22107332.574    90525815.402       -2322.794          38.000  
G29  23090917.021   121343601.625        -680.563          40.000    23090908.328    94553425.798        -530.419          42.000  
G28  21288250.707   111870513.816       -1223.439          42.000    21288240.681    87171788.126        -953.462          47.000  
G26  20325198.330   106809639.564         605.534          45.000    20325191.361    83228272.078         471.931          44.000  
G31  20619268.226   108354982.968         112.101          44.000    20619257.128    84432413.314          87.401          41.000  
G04  24398616.864   128215575.933        3168.814          43.000    24398613.384    99908269.711        2469.290          42.000  
C33  22526375.166   117300743.091        -785.553          46.000                                                                  
C06  36577817.712   190470295.835        -154.925          38.000    36577800.053   147283643.922        -119.974          44.000  
C14  22739504.372   118410550.390       -2325.070          40.000    22739489.199    91562494.641       -1797.783          41.000  
C16  37006615.350   192703155.028        -184.688          42.000    37006603.310   149010255.732        -142.702          44.000  
C24  21868549.826   113875278.093        -897.328          48.000                                                                  
C26  24504999.761   127603963.772       -2568.937          40.000                                                                  
G03  22893464.560   120305899.5542       -219.677          30.000    22893451.192                        -171.952          29.000  
G16  22343186.774   117414313.550        2930.616          36.000                                                                  
C09  37728983.257   196464725.611        -144.026          31.000    37728969.407   151918925.959        -111.354          43.000  
C25  23602420.814   122904007.445        1543.632          40.000                                                                  
C08  39267293.765                2      -2469.155          28.000    39267277.814   158113055.893       -1910.274          33.000  
C10  40469206.355                2        935.194          28.000    40469206.710   162952717.779         723.337          33.000  
C35  25943383.904   135094014.804         320.800          40.000                                                                  
C13  38431911.887   200125044.2442      -2278.664          38.000    38431903.371                       -1762.174          29.000  
C12  26387178.954   137404988.817        2316.669          37.000    26387177.359   106250248.885        1791.575          46.000  
G25  24510974.612   128806048.815       -3918.274          36.000    24510970.706   100368313.626       -3053.407          38.000  
C07                                                                  39527754.473   159161889.7402        865.079          35.000  
> 2025 10 30 06 22 46.8400000  0 23                     
G32  22107360.839   116174961.555       -2981.510          44.000    22107355.270    90525908.338       -2323.118          38.000  
G29  23090922.214   121343628.867        -680.908          40.000    23090913.498    94553447.021        -530.513          42.000  
G28  21288260.013   111870562.755       -1223.473          43.000    21288249.995    87171826.270        -953.564          47.000  
G26  20325193.705   106809615.339         605.615          45.000    20325186.766    83228253.207         471.818          44.000  
G31  20619267.370   108354978.478         112.139          45.000    20619256.267    84432409.806          87.623          41.000  
G04  24398592.742   128215449.177        3168.849          44.000    24398589.259    99908170.945        2469.170          42.000  
C33  22526381.207   117300774.510        -785.568          47.000                                                                  
C06  36577818.914   190470302.012        -154.501          38.000    36577801.264   147283648.720        -119.978          44.000  
C14  22739522.245   118410643.394       -2325.170          40.000    22739507.038    91562566.554       -1797.817          41.000  
C16  37006616.766   192703162.405        -184.535          42.000    37006604.747   149010261.454        -142.974          44.000  
C24  21868556.715   113875313.988        -897.406          48.000                                                                  
C26  24505019.461   127604066.532       -2569.027          40.000                                                                  
G03  22893466.485   120305908.2752       -218.698          31.000    22893453.153                        -170.639          30.000  
G16  22343164.446   117414196.323        2930.685          36.000                                                                  
C09  37728984.345   196464731.405        -144.801          31.000    37728970.515   151918930.408        -111.328          43.000  
C25  23602408.958   122903945.702        1543.534          40.000                                                                  
C08  39267313.590                2      -2469.259          28.000    39267296.781   158113132.254       -1909.549          33.000  
C10  40469199.385                2        934.924          29.000    40469199.545   162952688.841         723.309          33.000  
C35  25943381.420   135094001.993         320.412          40.000                                                                  
C13  38431929.593   200125135.3802      -2278.459          38.000    38431920.846                       -1762.133          29.000  
C12  26387161.155   137404896.135        2316.838          37.000    26387159.571   106250177.214        1791.656          46.000  
G25  24511004.412   128806205.537       -3918.173          37.000    24511000.502   100368435.742       -3053.086          38.000  
C07                                                                  39527745.872   159161855.1622        864.639          35.000  
> 2025 10 30 06 22 46.8800000  0 23                     
G32  22107383.534   116175080.810       -2981.463          45.000    22107377.972    90526001.265       -2323.169          38.000  
G29  23090927.405   121343656.110        -681.073          40.000    23090918.696    94553468.244        -530.600          42.000  
G28  21288269.325   111870611.695       -1223.524          43.000    21288259.318    87171864.417        -953.707          47.000  
G26  20325189.078   106809591.129         605.341          45.000    20325182.161    83228234.340         471.688          44.000  
G31  20619266.537   108354973.998         112.016          45.000    20619255.418    84432406.324          87.203          41.000  
G04  24398568.608   128215322.414        3169.002          44.000    24398565.129    99908072.178        2469.158          42.000  
C33  22526387.246   117300805.923        -785.458          47.000                                                                  
C06  36577820.085   190470308.236        -155.230          38.000    36577802.446   147283653.528        -120.159          44.000  
C14  22739540.116   118410736.400       -2325.197          40.000    22739524.896    91562638.471       -1797.899          41.000  
C16  37006618.163   192703169.802        -184.818          42.000    37006606.168   149010267.169        -142.982          44.000  
C24  21868563.607   113875349.887        -897.494          48.000                                                                  
C26  24505039.181   127604169.278       -2568.842          40.000                                                                  
G03  22893468.456   120305917.0852       -219.887          31.000    22893454.875                        -170.047          30.000  
G16  22343142.163   117414079.113        2930.356          36.000                                                                  
C09  37728985.434   196464737.139        -144.130          31.000    37728971.637   151918934.855        -111.263          43.000  
C25  23602397.128   122903883.948        1543.738          40.000                                                                  
C08  39267332.614                2      -2469.393          28.000    39267315.718   158113208.630       -1909.432          33.000  
C10  40469192.121                2        934.826          29.000    40469192.361   162952659.935         722.739          33.000  
C35  25943378.960   135093989.162         320.617          40.000                                                                  
C13  38431947.154   200125226.5232      -2278.503          38.000    38431938.381                       -1762.159          29.000  
C12  26387143.353   137404803.454        2316.974          37.000    26387141.761   106250105.550        1791.600          46.000  
G25  24511034.239   128806362.277       -3918.490          37.000    24511030.317   100368557.863       -3053.019          38.000  
C07                                                                  39527737.282   159161820.5602        864.786          35.000  
> 2025 10 30 06 22 46.9200000  0 23                     
G32  22107406.226   116175200.068       -2981.462          45.000    22107400.661    90526094.189       -2323.190          38.000  
G29  23090932.579   121343683.349        -681.077          40.000    23090923.882    94553489.471        -530.699          42.000  
G28  21288278.646   111870660.651       -1223.827          43.000    21288268.631    87171902.556        -953.588          47.000  
G26  20325184.462   106809566.922         605.163          45.000    20325177.565    83228215.472         471.677          44.000  
G31  20619265.655   108354969.516         111.986          45.000    20619254.573    84432402.838          87.050          41.000  
G04  24398544.490   128215195.659        3168.961          44.000    24398541.016    99907973.401        2469.379          42.000  
C33  22526393.267   117300837.354        -785.712          47.000                                                                  
C06  36577821.295   190470314.450        -155.458          38.000    36577803.612   147283658.334        -120.198          44.000  
C14  22739557.976   118410829.410       -2325.310          40.000    22739542.766    91562710.382       -1797.847          41.000  
C16  37006619.542   192703177.184        -184.697          42.000    37006607.587   149010272.879        -142.807          44.000  
C24  21868570.510   113875385.779        -897.411          48.000                                                                  
C26  24505058.907   127604272.041       -2569.009          40.000                                                                  
G03  22893470.408   120305925.8402       -219.397          31.000    22893456.773                        -170.526          30.000  
G16  22343119.877   117413961.892        2930.479          36.000                                                                  
C09  37728986.535   196464742.861        -143.333          31.000    37728972.731   151918939.305        -111.290          43.000  
C25  23602385.272   122903822.201        1543.670          40.000                                                                  
C08  39267351.134                2      -2469.519          28.000    39267334.642   158113284.976       -1908.873          33.000  
C10  40469184.791                2        934.646          29.000    40469185.218   162952631.011         722.800          33.000  
C35  25943376.507   135093976.346         320.427          40.000                                                                  
C13  38431964.505   200125317.6552      -2278.381          38.000    38431955.902                       -1761.648          29.000  
C12  26387125.556   137404710.766        2317.171          37.000    26387123.966   106250033.884        1791.625          46.000  
G25  24511064.065   128806518.994       -3918.102          37.000    24511060.119   100368679.988       -3053.113          38.000  
C07                                                                  39527728.689   159161785.9812        864.485          35.000  
> 2025 10 30 06 22 46.9600000  0 23                     
G32  22107428.922   116175319.320       -2981.371          45.000    22107423.355    90526187.118       -2323.217          38.000  
G29  23090937.775   121343710.596        -681.200          40.000    23090929.070    94553510.699        -530.767          42.000  
G28  21288287.980   111870709.613       -1224.073          43.000    21288277.928    87171940.689        -953.436          47.000  
G26  20325179.831   106809542.705         605.277          45.000    20325172.954    83228196.603         471.671          44.000  
G31  20619264.805   108354965.039         111.906          45.000    20619253.720    84432399.343          87.144          41.000  
G04  24398520.359   128215068.900        3168.984          44.000    24398516.897    99907874.621        2469.504          42.000  
C33  22526399.308   117300868.774        -785.638          47.000                                                                  
C06  36577822.505   190470320.649        -155.221          38.000    36577804.767   147283663.125        -119.953          44.000  
C14  22739575.836   118410922.402       -2325.042          40.000    22739560.637    91562782.295       -1797.847          41.000  
C16  37006620.947   192703184.571        -184.682          42.000    37006609.033   149010278.581        -142.616          44.000  
C24  21868577.384   113875421.664        -897.222          48.000                                                                  
C26  24505078.597   127604374.811       -2569.235          40.000                                                                  
G03  22893472.655   120305934.6182       -219.510          31.000    22893458.332                        -170.604          30.000  
G16  22343097.581   117413844.672        2930.472          36.000                                                                  
C09  37728987.629   196464748.629        -143.887          31.000    37728973.830   151918943.756        -111.347          43.000  
C25  23602373.414   122903760.443        1543.849          40.000                                                                  
C08  39267370.302                2      -2469.478          28.000    39267353.659   158113361.341       -1908.899          33.000  
C10  40469177.716                2        934.801          29.000    40469178.061   162952602.107         722.611          33.000  
C35  25943374.078   135093963.525         320.436          40.000                                                                  
C13  38431981.517   200125408.7932      -2278.406          38.000    38431973.412                       -1761.952          29.000  
C12  26387107.776   137404618.078        2317.288          37.000    26387106.160   106249962.218        1791.631          46.000  
G25  24511093.865   128806675.712       -3917.881          37.000    24511089.946   100368802.110       -3053.093          38.000  
C07                                                                  39527720.073   159161751.3672        864.971          35.000  
