     3.04           OBSERVATION DATA    M: Mixed            RINEX VERSION / TYPE
RTKCONV 2.4.3 b34                       20251030 063804 UTC PGM / RUN BY / DATE 
format: u-blox UBX                                          COMMENT             
log: D:\GPdata\10_30\fingure_230_10_30_2.ubx                COMMENT             
                                                            MARKER NAME         
                                                            MARKER NUMBER       
                                                            MARKER TYPE         
                                                            OBSERVER / AGENCY   
                                                            REC # / TYPE / VERS 
                                                            ANT # / TYPE        
        0.0000        0.0000        0.0000                  APPROX POSITION XYZ 
        0.0000        0.0000        0.0000                  ANTENNA: DELTA H/E/N
G    8 C1C L1C D1C S1C C2L L2L D2L S2L                      SYS / # / OBS TYPES 
C    8 C2I L2I D2I S2I C7I L7I D7I S7I                      SYS / # / OBS TYPES 
  2025    10    30    06    19   51.6000000     GPS         TIME OF FIRST OBS   
  2025    10    30    06    20   16.2000000     GPS         TIME OF LAST OBS    
G L1C                                                       SYS / PHASE SHIFT   
G L2L  0.00000                                              SYS / PHASE SHIFT   
C L2I                                                       SYS / PHASE SHIFT   
C L7I                                                       SYS / PHASE SHIFT   
  0                                                         GLONASS SLOT / FRQ #
 C1C    0.000 C1P    0.000 C2C    0.000 C2P    0.000        GLONASS COD/PHS/BIS 
                                                            END OF HEADER       
> 2025 10 30 06 19 51.6000000  0 23                     
G32  22009162.554   115658926.8841      -2908.935          45.000    22009156.347    90123815.6991      -2266.699          43.000  
G29  23070071.422   121234053.8391       -570.719          42.000    23070062.490    94468063.5261       -444.739          41.000  
G28  21248126.926   111659658.3011      -1184.480          46.000    21248115.616    87007485.0531       -923.006          46.000  
G26  20346976.437   106924082.8711        699.864          48.000    20346970.011    83317448.4101        545.378          47.000  
G31  20623821.953   108378914.1341        159.967          47.000    20623811.331    84451060.9101        124.510          46.000  
G04  24504493.960                        3181.191          31.000    24504492.597   100341818.5811       2479.136          34.000  
C33  22501664.048   117172066.4151       -684.450          50.000                                                                  
C06  36572492.586   190442569.2391       -162.463          45.000    36572475.869   147262203.9671       -125.547          48.000  
C14  22662641.474   118010307.7921      -2244.736          46.000    22662626.968    91253001.9751      -1735.720          51.000  
C16  37000269.838   192670112.6641       -193.647          48.000    37000258.034   148984705.2571       -149.783          48.000  
C24  21839050.819   113721674.0561       -857.099          50.000                                                                  
C26  24418698.713   127154570.4721      -2562.117          44.000                                                                  
G03  22888104.463   120277794.1401       -102.915          39.000    22888099.612    93722932.9831        -80.051          40.000  
G16  22441931.197   117933157.2201       2991.542          41.000                                                                  
C09  37724025.889   196438904.4561       -151.947          43.000    37724012.008   151898964.0251       -117.534          48.000  
C25  23654955.305   123177569.0641       1577.965          45.000                                                                  
C13  38355544.658   199727380.6631      -2261.936          41.000    38355538.655   154441858.7781      -1749.163          43.000  
C08  39184385.134   204043369.8211      -2460.122          36.000    39184373.421   157779230.5911      -1901.996          43.000  
C10  40500635.278   210897435.9251        931.780          34.000    40500636.572   163079261.0241        720.284          38.000  
C35  25955518.671   135157196.5041        398.877          39.000                                                                  
C07  39565427.600   206027569.4951       1118.879          38.000    39565417.452   159313535.0651        865.283          41.000  
C12  26464950.537   137809956.5251       2304.131          35.000    26464948.841   106563399.7411       1781.510          43.000  
G25  24380421.783   128119986.5511      -3914.642          35.000    24380414.505    99833719.7011      -3050.565          35.000  
> 2025 10 30 06 19 51.6400000  0 23                     
G32  22009184.703   115659043.253       -2909.194          45.000    22009178.495    90123906.385       -2267.060          43.000  
G29  23070075.777   121234076.684        -571.038          42.000    23070066.850    94468081.341        -445.265          41.000  
G28  21248135.954   111659705.695       -1184.761          46.000    21248124.646    87007521.986        -923.240          46.000  
G26  20346971.137   106924054.884         699.690          48.000    20346964.699    83317426.603         545.185          47.000  
G31  20623820.744   108378907.750         159.671          47.000    20623810.114    84451055.936         124.332          46.000  
G04  24504469.736                        3181.340          31.000    24504468.414   100341719.491        2477.863          34.000  
C33  22501669.289   117172093.814        -684.856          50.000                                                                  
C06  36572493.819   190442575.749        -162.711          45.000    36572477.141   147262209.008        -125.891          48.000  
C14  22662658.745   118010397.606       -2245.198          46.000    22662644.231    91253071.420       -1736.063          51.000  
C16  37000271.335   192670120.430        -194.003          48.000    37000259.517   148984711.254        -149.894          48.000  
C24  21839057.373   113721708.355        -857.411          50.000                                                                  
C26  24418718.412   127154672.980       -2562.532          44.000                                                                  
G03  22888105.259   120277798.279        -103.407          39.000    22888100.412    93722936.189         -80.190          40.000  
G16  22441908.435   117933037.577        2991.228          41.000                                                                  
C09  37724027.065   196438910.545        -152.137          43.000    37724013.194   151898968.736        -117.742          48.000  
C25  23654943.185   123177505.960        1577.682          45.000                                                                  
C13  38355562.047   199727471.145       -2262.040          41.000    38355556.048   154441928.755       -1749.417          43.000  
C08  39184404.026   204043468.222       -2460.202          36.000    39184392.321   157779306.691       -1902.387          43.000  
C10  40500628.128   210897398.657         931.718          34.000    40500629.428   163079232.234         719.756          38.000  
C35  25955515.619   135157180.513         399.414          39.000                                                                  
C07  39565419.022   206027524.764        1118.486          38.000    39565408.867   159313500.480         864.861          41.000  
C12  26464932.838   137809864.392        2303.503          35.000    26464931.138   106563328.495        1781.190          43.000  
G25  24380451.587   128120143.167       -3915.305          35.000    24380444.310    99833841.722       -3050.614          35.000  
> 2025 10 30 06 19 51.6800000  0 23                     
G32  22009206.875   115659159.622       -2909.303          45.000    22009200.636    90123997.067       -2267.120          43.000  
G29  23070080.119   121234099.530        -571.151          42.000    23070071.195    94468099.139        -445.169          41.000  
G28  21248144.979   111659753.097       -1185.044          46.000    21248133.673    87007558.920        -923.365          46.000  
G26  20346965.818   106924026.891         699.729          48.000    20346959.384    83317404.798         545.062          47.000  
G31  20623819.549   108378901.366         159.524          47.000    20623808.901    84451050.955         124.388          46.000  
G04  24504445.508                        3180.553          31.000    24504444.191   100341620.317        2478.768          34.000  
C33  22501674.543   117172121.207        -684.926          50.000                                                                  
C06  36572495.070   190442582.266        -162.914          45.000    36572478.397   147262214.050        -126.066          48.000  
C14  22662676.009   118010487.403       -2245.134          46.000    22662661.487    91253140.858       -1736.083          51.000  
C16  37000272.842   192670128.183        -193.943          48.000    37000260.972   148984717.251        -149.956          48.000  
C24  21839063.953   113721742.655        -857.553          50.000                                                                  
C26  24418738.123   127154775.476       -2562.526          44.000                                                                  
G03  22888106.033   120277802.387        -102.997          39.000    22888101.218    93722939.413         -80.616          40.000  
G16  22441885.664   117932917.919        2991.322          41.000                                                                  
C09  37724028.236   196438916.637        -152.312          43.000    37724014.355   151898973.437        -117.643          48.000  
C25  23654931.078   123177442.850        1577.671          45.000                                                                  
C13  38355579.431   199727561.635       -2262.225          41.000    38355573.450   154441998.723       -1749.351          43.000  
C08  39184422.915   204043566.618       -2460.203          36.000    39184411.233   157779382.779       -1902.367          43.000  
C10  40500620.983   210897361.389         931.680          34.000    40500622.268   163079203.408         720.251          38.000  
C35  25955512.543   135157164.550         399.184          39.000                                                                  
C07  39565410.416   206027480.007        1118.732          38.000    39565400.276   159313465.873         865.023          41.000  
C12  26464915.123   137809772.238        2303.635          35.000    26464913.466   106563257.233        1781.333          43.000  
G25  24380481.362   128120299.737       -3914.785          35.000    24380474.093    99833963.707       -3050.063          35.000  
> 2025 10 30 06 19 51.7200000  0 23                     
G32  22009228.999   115659275.981       -2909.135          45.000    22009222.765    90124087.725       -2266.721          43.000  
G29  23070084.467   121234122.364        -571.004          42.000    23070075.535    94468116.930        -444.991          41.000  
G28  21248153.993   111659800.484       -1184.876          46.000    21248142.707    87007595.840        -923.191          46.000  
G26  20346960.483   106923998.899         699.754          48.000    20346954.043    83317382.982         545.244          47.000  
G31  20623818.312   108378894.973         159.698          47.000    20623807.674    84451045.975         124.444          46.000  
G04  24504421.279   128771596.455        3180.154          31.000    24504419.967   100341521.193        2478.357          34.000  
C33  22501679.837   117172148.595        -684.851          50.000                                                                  
C06  36572496.298   190442588.758        -162.554          45.000    36572479.647   147262219.069        -125.740          48.000  
C14  22662693.277   118010577.194       -2244.934          46.000    22662678.708    91253210.291       -1735.965          51.000  
C16  37000274.338   192670135.923        -193.669          48.000    37000262.465   148984723.239        -149.851          48.000  
C24  21839070.566   113721776.939        -857.314          50.000                                                                  
C26  24418757.806   127154877.957       -2562.200          44.000                                                                  
G03  22888106.796   120277806.485        -102.537          39.000    22888102.002    93722942.629         -80.590          40.000  
G16  22441862.883   117932798.260        2991.385          41.000                                                                  
C09  37724029.442   196438922.713        -152.061          43.000    37724015.531   151898978.137        -117.559          48.000  
C25  23654918.963   123177379.726        1577.937          45.000                                                                  
C13  38355596.809   199727652.118       -2262.218          41.000    38355590.815   154442068.684       -1749.169          43.000  
C08  39184441.821   204043665.038       -2460.502          36.000    39184430.122   157779458.860       -1902.145          43.000  
C10  40500613.842   210897324.118         931.731          34.000    40500615.111   163079174.581         720.607          38.000  
C35  25955509.444   135157148.585         399.123          39.000                                                                  
C07  39565401.813   206027435.250        1118.889          38.000    39565391.678   159313431.258         865.250          41.000  
C12  26464897.432   137809680.053        2304.357          35.000    26464895.774   106563185.962        1781.649          43.000  
G25  24380511.143   128120456.315       -3914.608          35.000    24380503.886    99834085.743       -3050.611          35.000  
> 2025 10 30 06 19 51.7600000  0 23                     
G32  22009251.141   115659392.371       -2909.695          45.000    22009244.895    90124178.417       -2267.223          43.000  
G29  23070088.812   121234145.238        -571.696          42.000    23070079.887    94468134.749        -445.406          41.000  
G28  21248162.997   111659847.899       -1185.331          46.000    21248151.735    87007632.785        -923.584          46.000  
G26  20346955.172   106923970.954         698.826          48.000    20346948.737    83317361.204         544.596          47.000  
G31  20623817.081   108378888.623         158.890          47.000    20623806.458    84451041.018         123.969          46.000  
G04  24504397.093                        3179.966          31.000    24504395.745   100341422.053        2478.416          34.000  
C33  22501685.072   117172176.010        -685.341          50.000                                                                  
C06  36572497.545   190442595.286        -163.048          45.000    36572480.906   147262224.113        -126.057          48.000  
C14  22662710.528   118010667.020       -2245.527          46.000    22662695.969    91253279.753       -1736.467          51.000  
C16  37000275.825   192670143.707        -194.376          48.000    37000263.944   148984729.259        -150.397          48.000  
C24  21839077.169   113721811.260        -857.898          50.000                                                                  
C26  24418777.462   127154980.478       -2562.810          44.000                                                                  
G03  22888107.570   120277810.625        -103.263          39.000    22888102.778    93722945.848         -80.637          40.000  
G16  22441840.099   117932678.644        2990.568          41.000                                                                  
C09  37724030.596   196438928.819        -152.528          43.000    37724016.678   151898982.870        -118.171          48.000  
C25  23654906.863   123177316.653        1577.054          45.000                                                                  
C13  38355614.186   199727742.639       -2262.965          41.000    38355608.184   154442138.679       -1749.737          43.000  
C08  39184460.698   204043763.450       -2460.574          36.000    39184449.018   157779534.967       -1902.526          43.000  
C10  40500606.667   210897286.883         931.064          34.000    40500607.946   163079145.759         720.632          38.000  
C35  25955506.389   135157132.666         398.154          39.000                                                                  
C07  39565393.227   206027390.540        1118.014          38.000    39565383.098   159313396.687         864.509          41.000  
C12  26464879.733   137809587.919        2303.558          35.000    26464878.096   106563114.728        1781.031          43.000  
G25  24380540.945   128120612.889       -3914.507          35.000    24380533.682    99834207.748       -3050.336          35.000  
> 2025 10 30 06 19 51.8000000  0 23                     
G32  22009273.296   115659508.830       -2911.161          45.000    22009267.051    90124269.174       -2268.596          43.000  
G29  23070093.184   121234168.177        -573.169          42.000    23070084.263    94468152.605        -446.249          41.000  
G28  21248172.020   111659895.378       -1186.684          46.000    21248160.784    87007669.786        -924.760          46.000  
G26  20346949.859   106923943.057         697.540          48.000    20346943.429    83317339.460         543.688          47.000  
G31  20623815.882   108378882.316         157.766          47.000    20623805.271    84451036.110         122.862          46.000  
G04  24504372.889   128771342.086        3178.835          31.000    24504371.558   100341322.984        2477.132          34.000  
C33  22501690.348   117172203.489        -686.707          50.000                                                                  
C06  36572498.823   190442601.886        -164.562          45.000    36572482.186   147262229.215        -127.185          48.000  
C14  22662727.788   118010756.905       -2246.901          46.000    22662713.232    91253349.256       -1737.442          51.000  
C16  37000277.363   192670151.542        -195.640          48.000    37000265.398   148984735.321        -151.378          48.000  
C24  21839083.788   113721845.641        -859.226          50.000                                                                  
C26  24418797.190   127155083.062       -2564.237          44.000                                                                  
G03  22888108.363   120277814.832        -104.770          39.000    22888103.564    93722949.129         -81.791          40.000  
G16  22441817.350   117932559.086        2989.144          41.000                                                                  
C09  37724031.748   196438934.989        -153.934          43.000    37724017.861   151898987.642        -119.170          48.000  
C25  23654894.778   123177253.633        1575.671          45.000                                                                  
C13  38355631.574   199727833.197       -2263.928          41.000    38355625.593   154442208.715       -1750.772          43.000  
C08  39184479.620   204043861.926       -2461.705          36.000    39184467.933   157779611.124       -1903.604          43.000  
C10  40500599.574   210897249.726         929.417          34.000    40500600.829   163079117.024         719.012          38.000  
C35  25955503.332   135157116.773         397.268          39.000                                                                  
C07  39565384.630   206027345.894        1116.450          38.000    39565374.504   159313362.153         863.452          41.000  
C12  26464862.049   137809495.828        2302.333          35.000    26464860.406   106563043.536        1779.979          43.000  
G25  24380570.740   128120769.597       -3916.871          35.000    24380563.497    99834329.839       -3051.763          35.000  
> 2025 10 30 06 19 51.8400000  0 23                     
G32  22009295.465   115659625.253       -2911.102          45.000    22009289.195    90124359.902       -2268.667          43.000  
G29  23070097.534   121234191.074        -573.015          42.000    23070088.619    94468170.452        -446.391          41.000  
G28  21248181.047   111659942.830       -1186.768          46.000    21248169.853    87007706.766        -924.889          47.000  
G26  20346944.549   106923915.123         697.786          48.000    20346938.120    83317317.700         543.661          47.000  
G31  20623814.693   108378875.984         157.834          47.000    20623804.061    84451031.174         122.979          46.000  
G04  24504348.755   128771214.908        3178.830          31.000    24504347.359   100341223.883        2477.085          34.000  
C33  22501695.618   117172230.941        -686.761          50.000                                                                  
C06  36572500.111   190442608.460        -164.734          45.000    36572483.432   147262234.298        -127.346          48.000  
C14  22662745.030   118010846.764       -2246.942          46.000    22662730.487    91253418.739       -1737.446          51.000  
C16  37000278.846   192670159.355        -195.769          48.000    37000266.911   148984741.365        -151.435          48.000  
C24  21839090.415   113721879.991        -859.238          50.000                                                                  
C26  24418816.890   127155185.613       -2564.259          44.000                                                                  
G03  22888109.166   120277819.019        -105.082          39.000    22888104.378    93722952.385         -81.767          40.000  
G16  22441794.595   117932439.504        2989.037          41.000                                                                  
C09  37724032.943   196438941.141        -154.161          43.000    37724019.045   151898992.385        -119.034          48.000  
C25  23654882.671   123177190.575        1575.845          45.000                                                                  
C13  38355648.970   199727923.733       -2263.828          41.000    38355642.994   154442278.720       -1750.562          43.000  
C08  39184498.532   204043960.365       -2461.491          36.000    39184486.845   157779687.255       -1903.656          43.000  
C10  40500592.450   210897212.539         929.208          34.000    40500593.686   163079088.268         718.608          38.000  
C35  25955500.273   135157100.871         397.130          38.000                                                                  
C07  39565376.062   206027301.196        1116.719          38.000    39565365.923   159313327.603         863.328          41.000  
C12  26464844.357   137809403.743        2301.847          35.000    26464842.731   106562972.306        1780.243          43.000  
G25  24380600.583   128120926.281       -3917.577          35.000    24380593.321    99834451.887       -3051.587          35.000  
> 2025 10 30 06 19 51.8800000  0 23                     
G32  22009317.605   115659741.624       -2910.004          45.000    22009311.336    90124450.571       -2267.498          43.000  
G29  23070101.872   121234213.922        -571.879          42.000    23070092.971    94468188.272        -445.899          41.000  
G28  21248190.068   111659990.220       -1185.608          46.000    21248178.876    87007743.696        -923.972          47.000  
G26  20346939.250   106923887.135         699.043          48.000    20346932.789    83317295.902         544.432          47.000  
G31  20623813.484   108378869.594         159.145          47.000    20623802.851    84451026.205         123.802          46.000  
G04  24504324.549   128771087.669        3180.137          31.000    24504323.164   100341124.754        2477.728          34.000  
C33  22501700.862   117172258.333        -685.558          50.000                                                                  
C06  36572501.366   190442614.964        -163.496          45.000    36572484.651   147262239.328        -126.417          48.000  
C14  22662762.264   118010936.571       -2245.859          46.000    22662747.715    91253488.190       -1736.756          51.000  
C16  37000280.325   192670167.113        -194.695          48.000    37000268.393   148984747.363        -150.550          48.000  
C24  21839096.970   113721914.287        -858.119          50.000                                                                  
C26  24418836.548   127155288.112       -2563.228          44.000                                                                  
G03  22888109.964   120277823.171        -104.374          39.000    22888105.196    93722955.603         -80.941          40.000  
G16  22441771.826   117932319.843        2990.558          41.000                                                                  
C09  37724034.100   196438947.227        -152.878          43.000    37724020.210   151898997.100        -118.306          48.000  
C25  23654870.557   123177127.464        1577.118          45.000                                                                  
C13  38355666.322   199728014.217       -2262.696          41.000    38355660.368   154442348.689       -1749.654          43.000  
C08  39184517.406   204044058.769       -2460.616          36.000    39184505.725   157779763.347       -1902.871          43.000  
C10  40500585.268   210897175.255         930.962          34.000    40500586.513   163079059.465         719.388          38.000  
C35  25955497.206   135157084.934         397.800          38.000                                                                  
C07  39565367.448   206027256.470        1117.469          38.000    39565357.303   159313292.996         864.429          41.000  
C12  26464826.676   137809311.590        2303.167          35.000    26464825.042   106562901.053        1780.961          43.000  
G25  24380630.362   128121082.800       -3914.783          35.000    24380623.122    99834573.917       -3051.141          35.000  
> 2025 10 30 06 19 51.9200000  0 23                     
G32  22009339.730   115659857.977       -2909.088          45.000    22009333.503    90124541.227       -2266.640          43.000  
G29  23070106.225   121234236.743        -570.813          42.000    23070097.310    94468206.065        -445.134          41.000  
G28  21248199.082   111660037.594       -1184.656          46.000    21248187.867    87007780.598        -922.944          47.000  
G26  20346933.918   106923859.139         699.808          48.000    20346927.439    83317274.086         545.182          47.000  
G31  20623812.230   108378863.192         160.004          47.000    20623801.632    84451021.208         124.736          46.000  
G04  24504300.342   128770960.428        3180.895          31.000    24504298.934   100341025.577        2478.969          34.000  
C33  22501706.088   117172285.708        -684.585          50.000                                                                  
C06  36572502.619   190442621.437        -162.235          45.000    36572485.885   147262244.345        -125.659          48.000  
C14  22662779.458   118011026.352       -2244.802          46.000    22662764.959    91253557.614       -1735.885          51.000  
C16  37000281.763   192670174.846        -193.634          48.000    37000269.913   148984753.334        -149.551          48.000  
C24  21839103.534   113721948.560        -857.104          50.000                                                                  
C26  24418856.203   127155390.587       -2562.264          44.000                                                                  
G03  22888110.756   120277827.267        -103.013          39.000    22888105.970    93722958.800         -80.117          40.000  
G16  22441749.024   117932200.186        2991.311          41.000                                                                  
C09  37724035.242   196438953.292        -151.862          43.000    37724021.369   151899001.797        -117.614          48.000  
C25  23654858.420   123177064.338        1578.015          45.000                                                                  
C13  38355683.680   199728104.691       -2261.968          41.000    38355677.719   154442418.646       -1748.987          43.000  
C08  39184536.291   204044157.147       -2459.697          36.000    39184524.628   157779839.429       -1902.249          43.000  
C10  40500578.100   210897137.958         932.132          34.000    40500579.334   163079030.636         720.312          38.000  
C35  25955494.126   135157068.939         399.314          38.000                                                                  
C07  39565358.849   206027211.677        1119.172          38.000    39565348.676   159313258.373         865.386          41.000  
C12  26464808.964   137809219.440        2303.688          35.000    26464807.338   106562829.786        1781.575          43.000  
G25  24380660.139   128121239.367       -3914.076          35.000    24380652.905    99834695.919       -3050.410          35.000  
> 2025 10 30 06 19 51.9600000  0 23                     
G32  22009361.888   115659974.373       -2909.505          45.000    22009355.660    90124631.929       -2267.114          43.000  
G29  23070110.566   121234259.617        -571.390          42.000    23070101.674    94468223.893        -445.445          41.000  
G28  21248208.095   111660085.013       -1185.037          46.000    21248196.875    87007817.544        -923.245          47.000  
G26  20346928.572   106923831.192         699.182          48.000    20346922.114    83317252.301         544.913          47.000  
G31  20623811.019   108378856.845         159.253          47.000    20623800.404    84451016.260         124.158          46.000  
G04  24504276.128   128770833.192        3181.177          31.000    24504274.721   100340926.449        2478.491          34.000  
C33  22501711.334   117172313.129        -685.043          50.000                                                                  
C06  36572503.895   190442627.978        -162.897          45.000    36572487.147   147262249.391        -125.842          48.000  
C14  22662796.699   118011116.179       -2245.216          46.000    22662782.207    91253627.076       -1736.212          51.000  
C16  37000283.216   192670182.624        -194.000          48.000    37000271.429   148984759.352        -149.980          48.000  
C24  21839110.161   113721982.884        -857.584          50.000                                                                  
C26  24418875.890   127155493.107       -2562.611          44.000                                                                  
G03  22888111.561   120277831.407        -103.179          39.000    22888106.758    93722962.029         -80.388          40.000  
G16  22441726.265   117932080.561        2991.012          41.000                                                                  
C09  37724036.403   196438959.408        -152.418          43.000    37724022.566   151899006.520        -117.814          48.000  
C25  23654846.300   123177001.264        1577.375          45.000                                                                  
C13  38355701.079   199728195.203       -2262.450          41.000    38355695.077   154442488.642       -1749.468          43.000  
C08  39184555.222   204044255.570       -2460.054          36.000    39184543.499   157779915.537       -1902.470          43.000  
C10  40500570.971   210897100.743         931.044          34.000    40500572.200   163079001.863         719.760          38.000  
C35  25955491.048   135157053.006         398.870          38.000                                                                  
C07  39565350.247   206027166.943        1118.900          38.000    39565340.089   159313223.780         865.248          41.000  
C12  26464791.267   137809127.307        2303.580          35.000    26464789.673   106562758.547        1781.276          43.000  
G25  24380689.940   128121395.990       -3914.839          35.000    24380682.697    99834817.947       -3050.425          35.000  
> 2025 10 30 06 19 52.0000000  0 23                     
G32  22009384.041   115660090.822       -2910.760          45.000    22009377.819    90124722.667       -2268.109          43.000  
G29  23070114.933   121234282.542        -572.654          42.000    23070106.044    94468241.760        -446.338          41.000  
G28  21248217.105   111660132.482       -1186.189          46.000    21248205.896    87007854.539        -924.355          47.000  
G26  20346923.267   106923803.290         697.925          48.000    20346916.809    83317230.555         543.978          47.000  
G31  20623809.832   108378850.536         158.069          47.000    20623799.208    84451011.347         123.128          46.000  
G04  24504251.949                        3179.364          31.000    24504250.527   100340827.347        2477.796          33.000  
C33  22501716.642   117172340.604        -686.380          50.000                                                                  
C06  36572505.180   190442634.559        -164.028          45.000    36572488.404   147262254.483        -126.849          48.000  
C14  22662813.972   118011206.060       -2246.516          46.000    22662799.435    91253696.576       -1737.161          51.000  
C16  37000284.710   192670190.456        -195.237          48.000    37000272.961   148984765.409        -151.009          48.000  
C24  21839116.765   113722017.261        -858.876          50.000                                                                  
C26  24418895.587   127155595.681       -2563.840          44.000                                                                  
G03  22888112.372   120277835.606        -104.481          39.000    22888107.556    93722965.300         -81.462          40.000  
G16  22441703.489   117931960.989        2989.801          41.000                                                                  
C09  37724037.589   196438965.561        -153.475          43.000    37724023.760   151899011.284        -118.719          48.000  
C25  23654834.190   123176938.234        1576.129          45.000                                                                  
C13  38355718.508   199728285.763       -2263.640          41.000    38355712.469   154442558.663       -1750.272          43.000  
C08  39184574.143   204044354.059       -2461.515          36.000    39184562.419   157779991.688       -1903.403          43.000  
C10  40500563.840   210897063.571         929.664          34.000    40500565.045   163078973.088         719.410          38.000  
C35  25955488.019   135157037.117         397.695          38.000                                                                  
C07  39565341.679   206027122.290        1117.183          38.000    39565331.507   159313189.244         864.042          41.000  
C12  26464773.584   137809035.224        2302.519          35.000    26464771.983   106562687.345        1780.319          43.000  
G25  24380719.767   128121552.668       -3916.248          35.000    24380712.511    99834940.044       -3051.835          35.000  
> 2025 10 30 06 19 52.0400000  0 23                     
G32  22009406.198   115660207.268       -2911.302          45.000    22009399.991    90124813.404       -2268.552          43.000  
G29  23070119.301   121234305.466        -573.217          42.000    23070110.420    94468259.612        -446.439          41.000  
G28  21248226.158   111660179.956       -1186.854          46.000    21248214.945    87007891.529        -924.824          47.000  
G26  20346917.974   106923775.380         697.537          48.000    20346911.496    83317208.809         543.568          47.000  
G31  20623808.634   108378844.223         157.636          47.000    20623798.026    84451006.427         122.837          46.000  
G04  24504227.759                        3178.413          31.000    24504226.344   100340728.301        2476.628          34.000  
C33  22501721.902   117172368.081        -687.014          50.000                                                                  
C06  36572506.439   190442641.135        -164.454          45.000    36572489.678   147262259.571        -127.272          48.000  
C14  22662831.252   118011295.942       -2247.152          46.000    22662816.716    91253766.070       -1737.484          51.000  
C16  37000286.192   192670198.285        -195.793          48.000    37000274.482   148984771.467        -151.505          48.000  
C24  21839123.359   113722051.630        -859.354          50.000                                                                  
C26  24418915.287   127155698.261       -2564.551          44.000                                                                  
G03  22888113.179   120277839.807        -105.121          39.000    22888108.376    93722968.568         -81.859          40.000  
G16  22441680.732   117931841.416        2989.212          41.000                                                                  
C09  37724038.786   196438971.719        -154.044          43.000    37724024.930   151899016.046        -119.125          48.000  
C25  23654822.096   123176875.192        1575.814          45.000                                                                  
C13  38355735.895   199728376.328       -2264.272          41.000    38355729.835   154442628.683       -1750.583          43.000  
C08  39184593.066   204044452.545       -2462.305          36.000    39184581.362   157780067.832       -1903.707          43.000  
C10  40500556.719   210897026.363         929.674          34.000    40500557.918   163078944.323         719.059          38.000  
C35  25955484.957   135157021.243         396.911          38.000                                                                  
C07  39565333.115   206027077.621        1116.514          38.000    39565322.954   159313154.717         863.267          41.000  
C12  26464755.893   137808943.105        2302.775          35.000    26464754.314   106562616.126        1780.218          43.000  
G25  24380749.602   128121709.339       -3916.874          35.000    24380742.321    99835062.102       -3051.811          35.000  
> 2025 10 30 06 19 52.0800000  0 23                     
G32  22009428.351   115660323.660       -2910.472          45.000    22009422.148    90124904.102       -2267.988          43.000  
G29  23070123.659   121234328.340        -572.455          42.000    23070114.771    94468277.430        -445.818          41.000  
G28  21248235.180   111660227.369       -1186.005          46.000    21248224.014    87007928.484        -924.377          47.000  
G26  20346912.675   106923747.423         698.336          48.000    20346906.188    83317187.029         544.072          47.000  
G31  20623807.432   108378837.862         158.442          47.000    20623796.811    84451001.472         123.432          46.000  
G04  24504203.585                        3179.013          31.000    24504202.136   100340629.193        2477.184          33.000  
C33  22501727.153   117172395.502        -686.188          50.000                                                                  
C06  36572507.666   190442647.670        -163.892          45.000    36572490.911   147262264.624        -126.783          48.000  
C14  22662848.499   118011385.775       -2246.453          46.000    22662833.960    91253835.538       -1737.071          51.000  
C16  37000287.666   192670206.063        -195.070          48.000    37000275.984   148984777.483        -150.900          48.000  
C24  21839129.957   113722085.951        -858.658          50.000                                                                  
C26  24418934.973   127155800.777       -2563.658          44.000                                                                  
G03  22888113.986   120277843.970        -104.591          39.000    22888109.160    93722971.817         -81.545          40.000  
G16  22441657.955   117931721.807        2989.711          41.000                                                                  
C09  37724039.957   196438977.826        -153.250          44.000    37724026.110   151899020.765        -118.447          48.000  
C25  23654809.959   123176812.105        1576.625          45.000                                                                  
C13  38355753.263   199728466.843       -2263.477          41.000    38355747.203   154442698.672       -1750.059          43.000  
C08  39184611.980   204044550.986       -2461.826          36.000    39184600.276   157780143.941       -1903.132          43.000  
C10  40500549.554   210896989.105         930.786          34.000    40500550.773   163078915.531         719.429          38.000  
C35  25955481.867   135157005.317         397.592          38.000                                                                  
C07  39565324.548   206027032.898        1117.330          38.000    39565314.363   159313120.135         863.909          41.000  
C12  26464738.201   137808850.971        2303.177          35.000    26464736.643   106562544.889        1780.615          43.000  
G25  24380779.397   128121865.903       -3915.160          35.000    24380772.104    99835184.115       -3050.802          35.000  
> 2025 10 30 06 19 52.1200000  0 23                     
G32  22009450.519   115660440.014       -2909.298          45.000    22009444.275    90124994.777       -2267.218          43.000  
G29  23070127.994   121234351.183        -571.412          42.000    23070119.109    94468295.220        -444.974          41.000  
G28  21248244.207   111660274.751       -1184.939          46.000    21248233.024    87007965.412        -923.582          47.000  
G26  20346907.338   106923719.440         699.286          48.000    20346900.870    83317165.219         544.943          47.000  
G31  20623806.216   108378831.470         159.495          47.000    20623795.571    84450996.491         124.282          46.000  
G04  24504179.342                        3181.498          31.000    24504177.910   100340530.031        2478.504          33.000  
C33  22501732.394   117172422.895        -685.194          50.000                                                                  
C06  36572508.914   190442654.161        -162.753          45.000    36572492.160   147262269.645        -125.900          48.000  
C14  22662865.743   118011475.564       -2245.183          46.000    22662851.198    91253904.976       -1736.278          51.000  
C16  37000289.145   192670213.801        -193.895          48.000    37000277.405   148984783.464        -149.912          48.000  
C24  21839136.506   113722120.233        -857.490          50.000                                                                  
C26  24418954.623   127155903.254       -2562.417          44.000                                                                  
G03  22888114.754   120277848.076        -103.168          39.000    22888109.953    93722975.032         -80.738          40.000  
G16  22441635.182   117931602.161        2990.705          41.000                                                                  
C09  37724041.111   196438983.896        -152.130          44.000    37724027.284   151899025.464        -117.714          48.000  
C25  23654797.793   123176748.988        1577.678          45.000                                                                  
C13  38355770.613   199728557.314       -2262.233          41.000    38355764.563   154442768.626       -1749.108          43.000  
C08  39184630.870   204044649.351       -2460.114          36.000    39184619.156   157780220.013       -1902.179          43.000  
C10  40500542.432   210896951.835         931.629          34.000    40500543.615   163078886.717         720.136          38.000  
C35  25955478.774   135156989.333         399.076          38.000                                                                  
C07  39565315.942   206026988.129        1118.668          38.000    39565305.757   159313085.527         864.838          41.000  
C12  26464720.515   137808758.809        2303.940          35.000    26464718.936   106562473.617        1781.508          43.000  
G25  24380809.186   128122022.485       -3914.651          35.000    24380801.889    99835306.101       -3049.856          35.000  
> 2025 10 30 06 19 52.1600000  0 23                     
G32  22009472.674   115660556.373       -2908.761          45.000    22009466.420    90125085.455       -2266.913          43.000  
G29  23070132.346   121234374.021        -570.828          42.000    23070123.456    94468313.027        -444.949          41.000  
G28  21248253.211   111660322.133       -1184.426          46.000    21248242.047    87008002.323        -922.896          47.000  
G26  20346902.007   106923691.449         699.870          48.000    20346895.535    83317143.414         545.279          47.000  
G31  20623804.980   108378825.074         160.045          47.000    20623794.342    84450991.506         124.716          46.000  
G04  24504155.089                        3182.397          31.000    24504153.699   100340430.906        2478.478          33.000  
C33  22501737.671   117172450.281        -684.587          50.000                                                                  
C06  36572510.165   190442660.658        -162.279          45.000    36572493.407   147262274.661        -125.381          48.000  
C14  22662882.979   118011565.358       -2244.662          46.000    22662868.432    91253974.411       -1735.839          51.000  
C16  37000290.652   192670221.546        -193.437          48.000    37000278.871   148984789.450        -149.534          48.000  
C24  21839143.108   113722154.515        -856.920          50.000                                                                  
C26  24418974.314   127156005.729       -2561.763          44.000                                                                  
G03  22888115.546   120277852.202        -102.804          39.000    22888110.722    93722978.232         -80.081          40.000  
G16  22441612.382   117931482.486        2991.759          41.000                                                                  
C09  37724042.267   196438989.973        -151.737          43.000    37724028.447   151899030.158        -117.283          48.000  
C25  23654785.664   123176685.868        1578.192          45.000                                                                  
C13  38355788.006   199728647.781       -2261.527          41.000    38355781.926   154442838.589       -1748.880          43.000  
C08  39184649.760   204044747.737       -2459.562          36.000    39184638.030   157780296.099       -1901.932          43.000  
C10  40500535.269   210896914.564         932.044          34.000    40500536.464   163078857.880         720.939          38.000  
C35  25955475.713   135156973.383         399.160          38.000                                                                  
C07  39565307.336   206026943.367        1119.233          38.000    39565297.157   159313050.916         865.332          41.000  
C12  26464702.817   137808666.671        2303.726          35.000    26464701.229   106562402.345        1781.942          43.000  
G25  24380839.000   128122179.062       -3914.332          35.000    24380831.688    99835428.119       -3049.903          35.000  
> 2025 10 30 06 19 52.2000000  0 23                     
G32  22009494.831   115660672.741       -2908.790          45.000    22009488.573    90125176.115       -2266.485          43.000  
G29  23070136.714   121234396.870        -570.848          42.000    23070127.807    94468330.830        -444.996          41.000  
G28  21248262.218   111660369.525       -1184.426          46.000    21248251.061    87008039.242        -922.732          46.000  
G26  20346896.685   106923663.466         699.885          48.000    20346890.220    83317121.604         545.428          47.000  
G31  20623803.777   108378818.684         160.084          47.000    20623793.122    84450986.528         124.700          46.000  
G04  24504130.905                        3181.569          31.000    24504129.495   100340331.748        2478.907          33.000  
C33  22501742.901   117172477.672        -684.473          50.000                                                                  
C06  36572511.382   190442667.146        -162.026          45.000    36572494.661   147262279.678        -125.222          48.000  
C14  22662900.203   118011655.163       -2244.764          46.000    22662885.697    91254043.847       -1735.701          51.000  
C16  37000292.138   192670229.291        -193.329          48.000    37000280.344   148984795.433        -149.396          48.000  
C24  21839149.683   113722188.809        -856.961          50.000                                                                  
C26  24418993.995   127156108.217       -2561.774          44.000                                                                  
G03  22888116.330   120277856.307        -102.346          39.000    22888111.514    93722981.436         -79.847          40.000  
G16  22441589.618   117931362.828        2991.883          41.000                                                                  
C09  37724043.430   196438996.052        -151.691          43.000    37724029.604   151899034.861        -117.310          48.000  
C25  23654773.532   123176622.757        1578.125          45.000                                                                  
C13  38355805.389   199728738.249       -2261.365          41.000    38355799.295   154442908.554       -1748.931          43.000  
C08  39184668.644   204044846.127       -2459.365          36.000    39184656.928   157780372.180       -1901.838          43.000  
C10  40500528.116   210896877.290         932.159          34.000    40500529.281   163078829.063         720.791          38.000  
C35  25955472.608   135156957.416         399.381          38.000                                                                  
C07  39565298.730   206026898.612        1119.255          38.000    39565288.528   159313016.289         865.767          41.000  
C12  26464685.125   137808574.502        2304.131          35.000    26464683.509   106562331.079        1781.914          43.000  
G25  24380868.802   128122335.645       -3914.247          35.000    24380861.488    99835550.137       -3050.056          35.000  
> 2025 10 30 06 19 52.2400000  0 23                     
G32  22009516.975   115660789.137       -2909.456          45.000    22009510.724    90125266.807       -2266.950          43.000  
G29  23070141.076   121234419.740        -571.359          42.000    23070132.165    94468348.662        -445.590          41.000  
G28  21248271.264   111660416.932       -1184.813          46.000    21248260.074    87008076.186        -923.177          46.000  
G26  20346891.369   106923635.507         699.337          48.000    20346884.891    83317099.819         544.943          47.000  
G31  20623802.567   108378812.314         159.637          47.000    20623791.905    84450981.558         124.457          46.000  
G04  24504106.700                        3180.803          31.000    24504105.278   100340232.618        2478.606          34.000  
C33  22501748.172   117172505.081        -684.887          50.000                                                                  
C06  36572512.620   190442673.668        -162.567          45.000    36572495.945   147262284.728        -125.804          48.000  
C14  22662917.450   118011744.998       -2245.448          46.000    22662902.957    91254113.305       -1736.143          51.000  
C16  37000293.639   192670237.050        -193.637          48.000    37000281.823   148984801.434        -149.722          48.000  
C24  21839156.277   113722223.119        -857.399          50.000                                                                  
C26  24419013.668   127156210.736       -2562.452          44.000                                                                  
G03  22888117.121   120277860.465        -103.264          39.000    22888112.319    93722984.662         -80.278          40.000  
G16  22441566.840   117931243.205        2991.178          41.000                                                                  
C09  37724044.620   196439002.153        -152.197          43.000    37724030.782   151899039.574        -117.610          48.000  
C25  23654761.395   123176559.659        1577.752          45.000                                                                  
C13  38355822.760   199728828.748       -2262.040          41.000    38355816.653   154442978.543       -1749.438          43.000  
C08  39184687.521   204044944.532       -2459.636          36.000    39184675.815   157780448.278       -1902.153          43.000  
C10  40500520.992   210896840.040         931.671          34.000    40500522.116   163078800.258         720.374          38.000  
C35  25955469.530   135156941.465         399.056          39.000                                                                  
C07  39565290.152   206026853.867        1118.972          38.000    39565279.943   159312981.695         865.333          41.000  
C12  26464667.418   137808482.340        2304.221          35.000    26464665.792   106562259.830        1781.474          43.000  
G25  24380898.611   128122492.245       -3914.614          35.000    24380891.282    99835672.176       -3050.679          35.000  
> 2025 10 30 06 19 52.2800000  0 23                     
G32  22009539.126   115660905.536       -2909.890          45.000    22009532.874    90125357.506       -2267.374          43.000  
G29  23070145.411   121234442.618        -571.849          42.000    23070136.545    94468366.500        -445.974          41.000  
G28  21248280.303   111660464.350       -1185.295          46.000    21248269.098    87008113.136        -923.572          47.000  
G26  20346886.081   106923607.552         698.959          48.000    20346879.584    83317078.037         544.589          47.000  
G31  20623801.359   108378805.959         159.052          47.000    20623790.698    84450976.605         124.001          46.000  
G04  24504082.507                        3179.880          31.000    24504081.063   100340133.476        2478.630          33.000  
C33  22501753.458   117172532.511        -685.496          50.000                                                                  
C06  36572513.861   190442680.204        -163.146          45.000    36572497.213   147262289.775        -126.090          48.000  
C14  22662934.681   118011834.826       -2245.703          46.000    22662920.194    91254182.771       -1736.542          51.000  
C16  37000295.133   192670244.826        -194.172          48.000    37000283.323   148984807.445        -150.099          48.000  
C24  21839162.852   113722257.442        -857.888          50.000                                                                  
C26  24419033.369   127156313.257       -2562.917          44.000                                                                  
G03  22888117.916   120277864.644        -104.212          39.000    22888113.115    93722987.907         -80.895          40.000  
G16  22441544.098   117931123.586        2990.667          41.000                                                                  
C09  37724045.792   196439008.252        -152.430          43.000    37724031.969   151899044.299        -118.004          48.000  
C25  23654749.269   123176496.577        1577.229          45.000                                                                  
C13  38355840.145   199728919.261       -2262.686          41.000    38355834.022   154443048.521       -1749.530          43.000  
C08  39184706.438   204045042.992       -2460.797          36.000    39184694.729   157780524.391       -1902.626          43.000  
C10  40500513.839   210896802.801         931.183          34.000    40500514.961   163078771.454         720.161          38.000  
C35  25955466.485   135156925.540         398.331          39.000                                                                  
C07  39565281.571   206026809.147        1118.329          38.000    39565271.369   159312947.114         864.763          41.000  
C12  26464649.726   137808390.174        2304.288          35.000    26464648.130   106562188.581        1781.215          43.000  
G25  24380928.418   128122648.899       -3915.875          35.000    24380921.072    99835794.200       -3050.719          35.000  
> 2025 10 30 06 19 52.3200000  0 23                     
G32  22009561.279   115661021.918       -2909.768          45.000    22009555.019    90125448.209       -2267.642          43.000  
G29  23070149.767   121234465.490        -571.905          42.000    23070140.883    94468384.308        -445.552          41.000  
G28  21248289.325   111660511.757       -1185.306          46.000    21248278.107    87008150.084        -923.747          46.000  
G26  20346880.752   106923579.592         698.862          48.000    20346874.267    83317056.253         544.480          47.000  
G31  20623800.139   108378799.594         158.968          47.000    20623789.480    84450971.652         123.756          46.000  
G04  24504058.273                        3180.767          31.000    24504056.839   100340034.331        2478.706          34.000  
C33  22501758.715   117172559.933        -685.659          50.000                                                                  
C06  36572515.131   190442686.715        -163.005          45.000    36572498.487   147262294.822        -126.224          48.000  
C14  22662951.948   118011924.640       -2245.563          46.000    22662937.441    91254252.226       -1736.535          51.000  
C16  37000296.638   192670252.595        -194.312          48.000    37000284.820   148984813.456        -150.306          48.000  
C24  21839169.459   113722291.752        -857.923          50.000                                                                  
C26  24419053.058   127156415.764       -2562.889          44.000                                                                  
G03  22888118.710   120277868.779        -103.829          39.000    22888113.915    93722991.154         -81.240          40.000  
G16  22441521.343   117931003.963        2990.464          41.000                                                                  
C09  37724046.950   196439014.350        -152.528          43.000    37724033.133   151899049.008        -117.902          48.000  
C25  23654737.170   123176433.486        1577.138          45.000                                                                  
C13  38355857.516   199729009.758       -2262.643          41.000    38355851.428   154443118.495       -1749.466          43.000  
C08  39184725.342   204045141.400       -2460.561          36.000    39184713.645   157780600.487       -1902.564          43.000  
C10  40500506.694   210896765.542         931.218          35.000    40500507.806   163078742.663         719.888          38.000  
C35  25955463.430   135156909.602         398.276          39.000                                                                  
C07  39565273.025   206026764.429        1117.939          38.000    39565262.777   159312912.532         864.530          41.000  
C12  26464632.031   137808298.039        2303.708          35.000    26464630.451   106562117.338        1781.032          43.000  
G25  24380958.216   128122805.502       -3915.541          35.000    24380950.855    99835916.225       -3050.709          35.000  
> 2025 10 30 06 19 52.3600000  0 23                     
G32  22009583.437   115661138.350       -2910.647          45.000    22009577.163    90125538.918       -2267.884          43.000  
G29  23070154.113   121234488.401        -572.739          42.000    23070145.230    94468402.155        -446.094          41.000  
G28  21248298.354   111660559.196       -1185.890          46.000    21248287.122    87008187.045        -924.086          46.000  
G26  20346875.446   106923551.674         697.993          48.000    20346868.957    83317034.499         543.828          47.000  
G31  20623798.930   108378793.269         158.136          47.000    20623788.285    84450966.729         123.048          46.000  
G04  24504034.079                        3179.587          31.000    24504032.639   100339935.229        2477.937          34.000  
C33  22501763.983   117172587.388        -686.396          50.000                                                                  
C06  36572516.391   190442693.267        -163.698          45.000    36572499.762   147262299.886        -126.648          48.000  
C14  22662969.179   118012014.506       -2246.478          46.000    22662954.684    91254321.711       -1737.104          51.000  
C16  37000298.144   192670260.400        -195.117          48.000    37000286.367   148984819.484        -150.765          48.000  
C24  21839175.998   113722326.101        -858.643          50.000                                                                  
C26  24419072.726   127156518.296       -2563.352          44.000                                                                  
G03  22888119.519   120277872.968        -104.639          39.000    22888114.707    93722994.419         -81.769          40.000  
G16  22441498.586   117930884.373        2989.755          41.000                                                                  
C09  37724048.129   196439020.485        -153.326          43.000    37724034.275   151899053.755        -118.569          48.000  
C25  23654725.086   123176370.438        1576.239          45.000                                                                  
C13  38355874.901   199729100.306       -2263.625          41.000    38355868.797   154443188.512       -1750.288          43.000  
C08  39184744.244   204045239.832       -2460.886          36.000    39184732.555   157780676.619       -1903.201          43.000  
C10  40500499.532   210896728.337         930.249          35.000    40500500.654   163078713.882         719.479          38.000  
C35  25955460.360   135156893.695         397.614          38.000                                                                  
C07  39565264.431   206026719.742        1117.180          38.000    39565254.219   159312877.970         864.012          41.000  
C12  26464614.356   137808205.936        2302.654          35.000    26464612.734   106562046.126        1780.312          43.000  
G25  24380988.003   128122962.081       -3914.929          35.000    24380980.667    99836038.279       -3051.218          35.000  
> 2025 10 30 06 19 52.4000000  0 23                     
G32  22009605.611   115661254.918       -2913.594          45.000    22009599.333    90125629.756       -2270.308          43.000  
G29  23070158.475   121234511.451        -575.771          42.000    23070149.619    94468420.092        -448.114          41.000  
G28  21248307.400   111660606.796       -1189.086          46.000    21248296.171    87008224.130        -926.475          46.000  
G26  20346870.127   106923523.911         694.710          48.000    20346863.656    83317012.858         541.408          47.000  
G31  20623797.740   108378787.093         154.923          47.000    20623787.082    84450961.901         120.919          46.000  
G04  24504009.924                        3177.432          31.000    24504008.467   100339836.231        2475.718          33.000  
C33  22501769.321   117172614.983        -689.325          50.000                                                                  
C06  36572517.711   190442699.957        -166.548          45.000    36572501.019   147262305.054        -128.710          48.000  
C14  22662986.487   118012104.518       -2249.714          46.000    22662971.969    91254391.304       -1739.345          51.000  
C16  37000299.689   192670268.350        -198.121          48.000    37000287.909   148984825.627        -153.066          48.000  
C24  21839182.637   113722360.596        -861.703          50.000                                                                  
C26  24419092.480   127156620.994       -2566.582          44.000                                                                  
G03  22888120.333   120277877.291        -107.539          39.000    22888115.519    93722997.774         -83.662          40.000  
G16  22441475.857   117930764.918        2986.955          41.000                                                                  
C09  37724049.354   196439026.763        -156.364          43.000    37724035.484   151899058.599        -120.754          48.000  
C25  23654713.048   123176307.526        1573.254          45.000                                                                  
C13  38355892.307   199729190.988       -2266.546          41.000    38355886.231   154443258.628       -1752.610          43.000  
C08  39184763.179   204045338.416       -2463.783          36.000    39184751.490   157780752.846       -1905.204          43.000  
C10  40500492.446   210896691.266         927.284          34.000    40500493.507   163078685.205         717.311          38.000  
C35  25955457.352   135156877.937         394.519          38.000                                                                  
C07  39565255.873   206026675.173        1114.724          38.000    39565245.670   159312843.540         861.310          41.000  
C12  26464596.691   137808113.999        2298.928          35.000    26464595.070   106561975.004        1778.306          43.000  
G25  24381017.806   128123118.818       -3917.443          35.000    24381010.506    99836160.427       -3053.258          35.000  
> 2025 10 30 06 19 52.4400000  0 23                     
G32  22009627.801   115661371.511       -2915.311          45.000    22009621.528    90125720.590       -2271.314          43.000  
G29  23070162.861   121234534.518        -577.309          42.000    23070154.024    94468438.067        -449.572          41.000  
G28  21248316.486   111660654.400       -1190.575          46.000    21248305.249    87008261.234        -927.886          46.000  
G26  20346864.858   106923496.134         693.590          48.000    20346858.367    83316991.214         540.486          47.000  
G31  20623796.558   108378780.902         153.903          47.000    20623785.899    84450957.082         119.957          46.000  
G04  24503985.778                        3175.179          31.000    24503984.295   100339737.266        2473.995          33.000  
C33  22501774.647   117172642.595        -690.846          50.000                                                                  
C06  36572519.033   190442706.680        -168.389          45.000    36572502.314   147262310.246        -130.021          48.000  
C14  22663003.794   118012194.525       -2250.939          46.000    22662989.276    91254460.910       -1740.558          51.000  
C16  37000301.209   192670276.300        -199.409          48.000    37000289.489   148984831.782        -154.287          48.000  
C24  21839189.295   113722395.097        -863.115          50.000                                                                  
C26  24419112.221   127156723.695       -2568.081          44.000                                                                  
G03  22888121.149   120277881.620        -108.847          39.000    22888116.336    93723001.162         -84.982          40.000  
G16  22441453.139   117930645.487        2985.313          41.000                                                                  
C09  37724050.570   196439033.043        -157.701          43.000    37724036.700   151899063.462        -121.960          48.000  
C25  23654700.975   123176244.611        1572.079          45.000                                                                  
C13  38355909.708   199729281.664       -2267.681          41.000    38355903.642   154443328.753       -1753.656          43.000  
C08  39184782.129   204045437.021       -2465.457          36.000    39184770.427   157780829.088       -1906.346          43.000  
C10  40500485.369   210896654.215         925.786          34.000    40500486.430   163078656.553         715.989          38.000  
C35  25955454.371   135156862.198         392.963          38.000                                                                  
C07  39565247.318   206026630.615        1113.497          38.000    39565237.119   159312809.094         860.397          41.000  
C12  26464579.062   137808022.039        2297.949          35.000    26464577.418   106561903.888        1777.398          43.000  
G25  24381047.642   128123275.603       -3919.689          35.000    24381040.338    99836282.587       -3054.362          35.000  
> 2025 10 30 06 19 52.4800000  0 23                     
G32  22009649.988   115661488.181       -2917.387          45.000    22009643.736    90125811.518       -2273.419          43.000  
G29  23070167.258   121234557.673        -579.460          42.000    23070158.436    94468456.131        -451.860          41.000  
G28  21248325.559   111660702.095       -1192.849          46.000    21248314.342    87008298.392        -929.435          46.000  
G26  20346859.600   106923468.461         691.357          48.000    20346853.095    83316969.649         538.738          47.000  
G31  20623795.406   108378774.816         151.697          47.000    20623784.741    84450952.342         118.173          46.000  
G04  24503961.652                        3172.949          31.000    24503960.138   100339638.383        2471.802          33.000  
C33  22501779.963   117172670.296        -693.052          50.000                                                                  
C06  36572520.325   190442713.480        -170.574          45.000    36572503.633   147262315.503        -131.766          48.000  
C14  22663021.080   118012284.631       -2253.158          46.000    22663006.564    91254530.593       -1742.413          51.000  
C16  37000302.733   192670284.339        -201.466          48.000    37000291.051   148984838.007        -156.036          48.000  
C24  21839195.926   113722429.690        -865.303          50.000                                                                  
C26  24419131.959   127156826.477       -2570.116          44.000                                                                  
G03  22888122.007   120277886.060        -111.354          39.000    22888117.173    93723004.640         -87.228          40.000  
G16  22441430.409   117930526.137        2983.182          41.000                                                                  
C09  37724051.812   196439039.428        -160.106          43.000    37724037.923   151899068.396        -123.727          48.000  
C25  23654688.922   123176181.813        1569.583          45.000                                                                  
C13  38355927.122   199729372.445       -2269.921          41.000    38355921.058   154443398.954       -1755.428          43.000  
C08  39184801.076   204045535.735       -2468.055          36.000    39184789.386   157780905.409       -1908.274          43.000  
C10  40500478.238   210896617.239         923.816          35.000    40500479.346   163078627.961         714.375          38.000  
C35  25955451.330   135156846.533         391.019          38.000                                                                  
C07  39565238.776   206026586.172        1110.952          38.000    39565228.568   159312774.715         858.914          41.000  
C12  26464561.425   137807930.166        2296.095          35.000    26464559.779   106561832.846        1775.731          43.000  
G25  24381077.501                       -3923.280          35.000    24381070.208    99836404.873       -3057.046          35.000  
> 2025 10 30 06 19 52.5200000  0 23                     
G32  22009672.207   115661604.802       -2916.835          45.000    22009665.950    90125902.398       -2273.136          43.000  
G29  23070171.680   121234580.744        -578.256          42.000    23070162.852    94468474.123        -451.103          41.000  
G28  21248334.625   111660749.746       -1192.601          46.000    21248323.425    87008335.527        -929.366          46.000  
G26  20346854.355   106923440.702         692.616          48.000    20346847.818    83316948.025         539.528          47.000  
G31  20623794.240   108378768.643         152.974          47.000    20623783.579    84450947.544         118.897          46.000  
G04  24503937.491                        3173.380          31.000    24503935.979   100339539.429        2472.500          34.000  
C33  22501785.294   117172697.932        -692.269          50.000                                                                  
C06  36572521.640   190442720.226        -170.067          45.000    36572504.921   147262320.735        -131.797          48.000  
C14  22663038.403   118012374.676       -2252.471          46.000    22663023.869    91254600.220       -1741.805          51.000  
C16  37000304.255   192670292.321        -200.831          48.000    37000292.593   148984844.187        -155.567          48.000  
C24  21839202.603   113722464.229        -864.834          50.000                                                                  
C26  24419151.696   127156929.219       -2569.773          44.000                                                                  
G03  22888122.859   120277890.433        -110.651          39.000    22888118.027    93723008.018         -85.880          40.000  
G16  22441407.705   117930406.729        2983.869          41.000                                                                  
C09  37724053.024   196439045.729        -159.021          43.000    37724039.144   151899073.273        -123.044          48.000  
C25  23654676.835   123176118.915        1570.948          45.000                                                                  
C13  38355944.563   199729463.129       -2268.507          41.000    38355938.471   154443469.092       -1754.570          43.000  
C08  39184820.032   204045634.394       -2467.845          36.000    39184808.324   157780981.707       -1908.404          43.000  
C10  40500471.128                         924.937          35.000    40500472.261   163078599.327         714.828          38.000  
C35  25955448.318   135156830.800         392.032          38.000                                                                  
C07  39565230.247   206026541.665        1111.377          38.000    39565220.040   159312740.300         859.311          41.000  
C12  26464543.794   137807838.228        2297.205          35.000    26464542.145   106561761.765        1776.196          43.000  
G25  24381107.362                       -3923.082          35.000    24381100.085    99836527.112       -3057.194          35.000  
> 2025 10 30 06 19 52.5600000  0 23                     
G32  22009694.352   115661721.125       -2910.793          45.000    22009688.067    90125993.025       -2268.101          43.000  
G29  23070176.010   121234603.562        -572.616          42.000    23070167.160    94468491.885        -446.224          41.000  
G28  21248343.618   111660797.087       -1186.654          46.000    21248332.420    87008372.412        -924.610          46.000  
G26  20346849.020   106923412.682         698.414          48.000    20346842.475    83316926.180         544.310          47.000  
G31  20623793.020   108378762.215         158.741          47.000    20623782.326    84450942.526         123.690          46.000  
G04  24503913.274                        3179.734          31.000    24503911.748                        2477.726          33.000  
C33  22501790.531   117172725.282        -686.251          50.000                                                                  
C06  36572522.869   190442726.675        -164.158          45.000    36572506.117   147262325.710        -126.870          48.000  
C14  22663055.608                       -2246.587          46.000    22663041.052    91254669.614       -1736.931          51.000  
C16  37000305.700   192670300.018        -195.021          48.000    37000294.059   148984850.124        -150.664          48.000  
C24  21839209.183   113722498.472        -858.903          50.000                                                                  
C26  24419171.351   127157031.664       -2563.988          44.000                                                                  
G03  22888123.634                        -104.588          39.000    22888118.770    93723011.194         -81.285          40.000  
G16  22441384.935   117930287.047        2989.548          41.000                                                                  
C09  37724054.180                        -153.230          43.000    37724040.316   151899077.918        -118.152          48.000  
C25  23654664.700                        1576.857          45.000                                                                  
C13  38355961.928                       -2263.065          41.000    38355955.846   154443539.001       -1749.594          43.000  
C08  39184838.909                       -2461.750          36.000    39184827.229   157781057.738       -1903.436          43.000  
C10  40500463.968                         930.908          34.000    40500465.099   163078570.475         719.428          38.000  
C35  25955445.252                         397.905          38.000                                                                  
C07  39565221.652                        1117.164          38.000    39565211.447   159312705.640         864.169          41.000  
C12  26464526.076                        2303.336          35.000    26464524.452   106561690.443        1781.137          43.000  
G25  24381137.122                       -3916.279          35.000    24381129.835                       -3051.156          35.000  
> 2025 10 30 06 19 52.6000000  0 23                     
G32  22009716.435                       -2906.243          45.000    22009710.147    90126083.609       -2264.815          43.000  
G29  23070180.290                        -568.352          42.000    23070171.475    94468509.607        -443.021          41.000  
G28  21248352.578                       -1181.512          46.000    21248341.369    87008409.217        -920.750          46.000  
G26  20346843.666   106923384.584         702.554          48.000    20346837.109    83316904.301         547.215          47.000  
G31  20623791.754   108378755.722         162.584          47.000    20623781.073    84450937.462         126.774          46.000  
G04  24503888.980                        3183.453          31.000    24503887.477                        2480.881          33.000  
C33  22501795.736                        -681.904          50.000                                                                  
C06  36572524.054                        -159.271          45.000    36572507.293   147262330.631        -123.361          48.000  
C14  22663072.808                       -2242.061          46.000    22663058.282    91254738.973       -1733.892          51.000  
C16  37000307.130                        -190.526          48.000    37000295.482   148984856.022        -147.493          48.000  
C24  21839215.696                        -854.238          50.000                                                                  
C26  24419190.987                       -2559.133          44.000                                                                  
G03  22888124.350                         -99.950          40.000    22888119.515    93723014.307         -77.826          40.000  
G16  22441362.090                        2994.138          41.000                                                                  
C09  37724055.311                        -148.754          43.000    37724041.445   151899082.528        -115.114          48.000  
C25  23654652.546                        1581.138          45.000                                                                  
C13  38355979.263                       -2258.874          41.000    38355973.186   154443608.883       -1746.748          43.000  
C08  39184857.778                       -2456.325          36.000    39184846.065   157781133.711       -1899.770          43.000  
C10  40500456.753                         934.526          34.000    40500457.870   163078541.549         722.911          38.000  
C35  25955442.152                         401.721          38.000                                                                  
C07  39565213.001                        1121.793          38.000    39565202.797   159312670.926         867.596          41.000  
C12  26464508.320                        2307.739          35.000    26464506.707   106561619.079        1784.301          44.000  
G25  24381166.870                       -3910.466          35.000    24381159.551                       -3047.316          35.000  
> 2025 10 30 06 19 52.6400000  0 23                     
G32  22009738.559                       -2904.647          45.000    22009732.264    90126174.183       -2263.293          43.000  
G29  23070184.569                        -566.946          42.000    23070175.783    94468527.322        -441.702          41.000  
G28  21248361.552                       -1179.933          46.000    21248350.334    87008446.044        -919.421          46.000  
G26  20346838.306                         703.811          48.000    20346831.772    83316882.413         548.374          47.000  
G31  20623790.512                         163.987          47.000    20623779.839    84450932.396         127.892          46.000  
G04  24503864.790                        3185.006          31.000    24503863.231                        2482.482          33.000  
C33  22501800.956                        -680.444          50.000                                                                  
C06  36572525.254                        -157.638          45.000    36572508.476   147262335.549        -121.818          48.000  
C14  22663090.036                       -2240.626          46.000    22663075.503    91254808.325       -1732.637          51.000  
C16  37000308.583                        -189.155          48.000    37000296.933   148984861.907        -146.076          48.000  
C24  21839222.243                        -852.705          50.000                                                                  
C26  24419210.623                       -2557.361          44.000                                                                  
G03  22888125.114                         -98.802          40.000    22888120.281    93723017.463         -77.354          40.000  
G16  22441339.279                        2995.888          41.000                                                                  
C09  37724056.465                        -147.193          43.000    37724042.579   151899087.130        -113.829          48.000  
C25  23654640.404                        1582.231          45.000                                                                  
C13  38355996.577                       -2257.828          41.000    38355990.557   154443678.759       -1745.651          43.000  
C08  39184876.640                       -2455.387          36.000    39184864.946   157781209.696       -1898.445          43.000  
C10  40500449.600                         936.416          34.000    40500450.702   163078512.629         724.252          38.000  
C35  25955439.058                         403.238          38.000                                                                  
C07  39565204.359                        1123.754          38.000    39565194.165   159312636.222         868.833          41.000  
C12  26464490.594                        2308.964          35.000    26464488.993   106561547.723        1785.265          44.000  
G25  24381196.645                       -3909.410          35.000    24381189.300                       -3046.151          35.000  
> 2025 10 30 06 19 52.6800000  0 23                     
G32  22009760.686                       -2906.125          45.000    22009754.365    90126264.828       -2264.303          43.000  
G29  23070188.935                        -568.583          42.000    23070180.102                        -442.554          41.000  
G28  21248370.580                       -1181.445          46.000    21248359.356    87008482.930        -920.292          46.000  
G26  20346832.995                         701.944          48.000    20346826.407    83316860.587         547.250          47.000  
G31  20623789.301                         162.579          47.000    20623778.624    84450927.396         126.599          46.000  
G04  24503840.625                        3184.114          31.000    24503838.998                        2481.727          33.000  
C33  22501806.182                        -682.310          50.000                                                                  
C06  36572526.475                        -159.126          45.000    36572509.700   147262340.539        -122.834          48.000  
C14  22663107.290                       -2242.199          46.000    22663092.735    91254877.739       -1733.671          51.000  
C16  37000310.097                        -190.627          48.000    37000298.372   148984867.864        -147.155          48.000  
C24  21839228.806                        -854.236          50.000                                                                  
C26  24419230.285                       -2558.885          44.000                                                                  
G03  22888125.925                        -100.833          40.000    22888121.056                         -78.527          40.000  
G16  22441316.480                        2994.304          41.000                                                                  
C09  37724057.613                        -148.927          43.000    37724043.730   151899091.794        -114.949          48.000  
C25  23654628.256                        1580.515          45.000                                                                  
C13  38356013.926                       -2259.476          41.000    38356007.943   154443748.690       -1746.725          43.000  
C08  39184895.532                       -2456.078          36.000    39184883.836   157781285.744       -1899.388          43.000  
C10  40500442.435                         934.875          34.000    40500443.524                         723.303          38.000  
C35  25955435.998                         401.538          38.000                                                                  
C07  39565195.770                        1122.349          38.000    39565185.564   159312601.572         867.998          41.000  
C12  26464472.920                        2306.854          35.000    26464471.275   106561476.424        1784.058          44.000  
G25  24381226.429                       -3911.805          35.000    24381219.093                       -3048.201          35.000  
> 2025 10 30 06 19 52.7200000  0 23                     
G32  22009782.828                       -2907.773          45.000    22009776.499                       -2265.625          43.000  
G29  23070193.300                        -569.726          42.000    23070184.461                        -443.978          41.000  
G28  21248379.595                       -1183.061          46.000    21248368.367    87008519.862        -921.945          46.000  
G26  20346827.666                         700.788          48.000    20346821.080    83316838.778         546.032          47.000  
G31  20623788.068                         161.204          47.000    20623777.405    84450922.408         125.410          46.000  
G04  24503816.399                        3182.756          31.000    24503814.772                        2480.956          33.000  
C33  22501811.536                        -683.547          50.000                                                                  
C06  36572527.748                        -160.682          45.000    36572510.950   147262345.555        -124.205          48.000  
C14  22663124.556                       -2243.757          46.000    22663109.988    91254947.176       -1734.972          51.000  
C16  37000311.648                        -191.933          48.000    37000299.850   148984873.843        -148.414          48.000  
C24  21839235.414                        -855.667          50.000                                                                  
C26  24419249.971                       -2560.693          44.000                                                                  
G03  22888126.723                        -101.875          40.000    22888121.836                         -79.370          40.000  
G16  22441293.707                        2992.810          41.000                                                                  
C09  37724058.785                        -150.262          43.000    37724044.916   151899096.483        -116.228          48.000  
C25  23654616.200                        1579.375          45.000                                                                  
C13  38356031.306                       -2260.284          41.000    38356025.333   154443818.625       -1747.632          43.000  
C08  39184914.427                       -2457.971          36.000    39184902.724   157781361.834       -1900.905          43.000  
C10  40500435.275                         933.421          34.000    40500436.350                         721.689          38.000  
C35  25955432.922                         400.677          38.000                                                                  
C07  39565187.166                        1120.809          38.000    39565176.975                         866.499          41.000  
C12  26464455.242                        2305.716          36.000    26464453.608   106561405.135        1782.981          44.000  
G25  24381256.228                       -3912.910          35.000    24381248.903                       -3049.298          35.000  
> 2025 10 30 06 19 52.7600000  0 23                     
G32  22009804.976                       -2908.801          45.000    22009798.630    90126446.177       -2266.651          43.000  
G29  23070197.665                        -570.506          42.000    23070188.819                        -444.924          41.000  
G28  21248388.593                       -1184.240          46.000    21248377.391    87008556.791        -922.928          46.000  
G26  20346822.343                         699.825          48.000    20346815.771    83316816.977         545.201          47.000  
G31  20623786.841                         160.243          47.000    20623776.207    84450917.422         124.728          46.000  
G04  24503792.207                        3182.760          31.000    24503790.569                        2479.000          33.000  
C33  22501816.792                        -684.629          50.000                                                                  
C06  36572528.962                        -161.882          45.000    36572512.228   147262350.577        -125.206          48.000  
C14  22663141.825                       -2244.729          46.000    22663127.280    91255016.620       -1735.869          51.000  
C16  37000313.145                        -192.952          48.000    37000301.341   148984879.836        -149.492          48.000  
C24  21839242.023                        -856.715          50.000                                                                  
C26  24419269.645                       -2561.628          44.000                                                                  
G03  22888127.520                        -103.211          40.000    22888122.617                         -80.138          40.000  
G16  22441270.949                        2991.895          41.000                                                                  
C09  37724059.935                        -151.193          43.000    37724046.077   151899101.178        -117.156          48.000  
C25  23654604.072                        1578.426          45.000                                                                  
C13  38356048.679                       -2261.043          41.000    38356042.712   154443888.582       -1748.597          43.000  
C08  39184933.307                       -2459.101          36.000    39184921.621   157781437.925       -1901.910          43.000  
C10  40500428.098                         932.468          35.000    40500429.216                         720.991          38.000  
C35  25955429.847                         399.398          38.000                                                                  
C07  39565178.560                        1119.504          38.000    39565168.407   159312532.360         865.316          41.000  
C12  26464437.548                        2304.705          36.000    26464435.919   106561333.863        1782.051          44.000  
G25  24381286.004                       -3913.661          35.000    24381278.706                       -3049.829          35.000  
> 2025 10 30 06 19 52.8000000  0 23                     
G32  22009827.152                       -2909.382          45.000    22009820.791    90126536.865       -2267.286          43.000  
G29  23070202.012                        -571.396          42.000    23070193.190    94468598.511        -445.521          41.000  
G28  21248397.616                       -1184.758          46.000    21248386.413    87008593.722        -923.416          46.000  
G26  20346816.982                         699.398          48.000    20346810.470    83316795.176         544.842          47.000  
G31  20623785.618                         159.686          47.000    20623774.997    84450912.432         124.510          46.000  
G04  24503767.948                        3181.893          31.000    24503766.355                        2477.582          33.000  
C33  22501822.033                        -685.099          50.000                                                                  
C06  36572530.185                        -162.418          45.000    36572513.468   147262355.599        -125.675          48.000  
C14  22663159.073                       -2245.256          46.000    22663144.507    91255086.064       -1736.270          51.000  
C16  37000314.647                        -193.551          48.000    37000302.833   148984885.821        -149.855          48.000  
C24  21839248.588                        -857.236          50.000                                                                  
C26  24419289.350                       -2561.996          44.000                                                                  
G03  22888128.290                        -103.345          40.000    22888123.410                         -80.600          40.000  
G16  22441248.185                        2991.118          41.000                                                                  
C09  37724061.114                        -151.736          43.000    37724047.240   151899105.868        -117.489          48.000  
C25  23654591.950                        1577.906          45.000                                                                  
C13  38356066.056                       -2261.799          41.000    38356060.091   154443958.551       -1749.273          43.000  
C08  39184952.202                       -2460.136          36.000    39184940.523   157781514.006       -1902.240          43.000  
C10  40500420.963                         931.959          35.000    40500422.069   163078397.299         720.307          38.000  
C35  25955426.788                         398.958          38.000                                                                  
C07  39565169.997                        1118.597          38.000    39565159.825   159312497.765         864.720          41.000  
C12  26464419.873                        2304.346          36.000    26464418.216   106561262.580        1781.809          44.000  
G25  24381315.818                       -3914.681          35.000    24381308.497                       -3050.298          35.000  
> 2025 10 30 06 19 52.8400000  0 23                     
G32  22009849.296                       -2909.320          45.000    22009842.936    90126627.531       -2267.135          43.000  
G29  23070206.357                        -571.456          42.000    23070197.548    94468616.307        -445.362          41.000  
G28  21248406.626                       -1184.723          46.000    21248395.424    87008630.635        -923.286          46.000  
G26  20346811.643                         699.587          48.000    20346805.128    83316773.360         545.042          47.000  
G31  20623784.395                         159.667          47.000    20623773.779    84450907.447         124.396          46.000  
G04  24503743.717                        3181.129          31.000    24503742.154                        2478.459          33.000  
C33  22501827.318                        -685.112          50.000                                                                  
C06  36572531.417                        -162.402          45.000    36572514.725   147262360.607        -125.582          48.000  
C14  22663176.345                       -2245.200          46.000    22663161.777    91255155.496       -1736.147          51.000  
C16  37000316.128                        -193.369          48.000    37000304.311   148984891.792        -149.695          48.000  
C24  21839255.189                        -857.163          50.000                                                                  
C26  24419309.033                       -2561.935          44.000                                                                  
G03  22888129.063                        -103.220          40.000    22888124.197    93723033.501         -80.453          40.000  
G16  22441225.412                        2990.927          41.000                                                                  
C09  37724062.296                        -151.852          43.000    37724048.414   151899110.544        -117.264          48.000  
C25  23654579.816                        1577.726          45.000                                                                  
C13  38356083.437                       -2261.894          41.000    38356077.448   154444028.500       -1749.172          43.000  
C08  39184971.105                       -2459.608          36.000    39184959.411   157781590.072       -1902.063          43.000  
C10  40500413.811                         932.068          35.000    40500414.908   163078368.482         720.071          38.000  
C35  25955423.722                         398.908          38.000                                                                  
C07  39565161.398                        1119.025          38.000    39565151.223   159312463.140         865.022          41.000  
C12  26464402.184                        2304.185          36.000    26464400.527   106561191.295        1781.855          44.000  
G25  24381345.608                       -3914.076          35.000    24381338.285                       -3049.943          35.000  
> 2025 10 30 06 19 52.8800000  0 23                     
G32  22009871.436                       -2908.923          45.000    22009865.051    90126718.194       -2266.888          43.000  
G29  23070210.705                        -571.062          42.000    23070201.892    94468634.077        -444.683          41.000  
G28  21248415.654                       -1184.390          46.000    21248404.448    87008667.532        -922.841          46.000  
G26  20346806.308   106923188.548         699.696          48.000    20346799.794    83316751.543         545.237          47.000  
G31  20623783.164   108378710.784         160.070          47.000    20623772.557    84450902.450         124.638          46.000  
G04  24503719.535                        3180.437          31.000    24503717.933                        2479.449          33.000  
C33  22501832.582                        -684.747          50.000                                                                  
C06  36572532.640                        -161.946          45.000    36572516.010   147262365.609        -125.321          48.000  
C14  22663193.580                       -2244.783          46.000    22663179.017    91255224.923       -1735.917          51.000  
C16  37000317.605                        -193.008          48.000    37000305.826   148984897.748        -149.252          48.000  
C24  21839261.789                        -856.976          50.000                                                                  
C26  24419328.716                       -2561.715          44.000                                                                  
G03  22888129.848                        -102.949          40.000    22888124.976    93723036.699         -80.216          40.000  
G16  22441202.632                        2991.408          41.000                                                                  
C09  37724063.457                        -151.534          43.000    37724049.543   151899115.215        -117.012          48.000  
C25  23654567.679                        1578.308          45.000                                                                  
C13  38356100.804                       -2261.714          41.000    38356094.810   154444098.451       -1749.030          43.000  
C08  39184989.984                       -2459.165          36.000    39184978.301   157781666.120       -1901.570          43.000  
C10  40500406.639                         932.238          35.000    40500407.746   163078339.638         720.541          38.000  
C35  25955420.668                         399.025          38.000                                                                  
C07  39565152.809                        1119.150          38.000    39565142.623   159312428.485         865.835          41.000  
C12  26464384.468                        2304.945          36.000    26464382.832   106561119.998        1782.165          44.000  
G25  24381375.396                       -3913.316          35.000    24381368.084                       -3049.620          35.000  
> 2025 10 30 06 19 52.9200000  0 23                     
G32  22009893.552   115662768.087       -2908.764          45.000    22009887.174    90126808.856       -2266.705          43.000  
G29  23070215.049   121234808.906        -571.233          42.000    23070206.231    94468651.887        -445.082          41.000  
G28  21248424.653   111661223.187       -1184.236          46.000    21248413.466    87008704.437        -922.696          46.000  
G26  20346800.980   106923160.554         699.741          48.000    20346794.458    83316729.724         545.356          47.000  
G31  20623781.938   108378704.378         160.070          47.000    20623771.329    84450897.454         124.799          46.000  
G04  24503695.296                        3180.581          31.000    24503693.706                        2479.449          33.000  
C33  22501837.798   117172971.546        -684.715          50.000                                                                  
C06  36572533.884                        -161.886          45.000    36572517.283   147262370.608        -125.135          48.000  
C14  22663210.831                       -2244.760          46.000    22663196.260    91255294.349       -1735.765          51.000  
C16  37000319.078   192670369.314        -193.069          48.000    37000307.327   148984903.709        -149.115          48.000  
C24  21839268.370   113722806.716        -856.912          50.000                                                                  
C26  24419348.407   127157953.638       -2561.685          44.000                                                                  
G03  22888130.627                        -102.887          40.000    22888125.778    93723039.915         -80.398          40.000  
G16  22441179.864   117929209.848        2991.506          41.000                                                                  
C09  37724064.640                        -151.306          43.000    37724050.705   151899119.900        -117.128          48.000  
C25  23654555.559                        1578.252          45.000                                                                  
C13  38356118.151   199730367.510       -2261.625          41.000    38356112.180   154444168.394       -1748.754          43.000  
C08  39185008.868                       -2459.416          36.000    39184997.173   157781742.176       -1901.475          43.000  
C10  40500399.465                         932.549          35.000    40500400.587   163078310.790         720.897          38.000  
C35  25955417.617                         399.022          38.000                                                                  
C07  39565144.209                        1119.501          38.000    39565134.015   159312393.849         865.952          41.000  
C12  26464366.735                        2305.172          36.000    26464365.144   106561048.709        1782.177          44.000  
G25  24381405.169                       -3913.665          35.000    24381397.860                       -3049.844          35.000  
> 2025 10 30 06 19 52.9600000  0 23                     
G32  22009915.696   115662884.493       -2909.808          45.000    22009909.320    90126899.551       -2267.192          43.000  
G29  23070219.391   121234831.796        -572.161          42.000    23070210.581    94468669.731        -445.870          41.000  
G28  21248433.698   111661270.603       -1185.102          46.000    21248422.506    87008741.383        -923.381          46.000  
G26  20346795.658   106923132.610         698.820          48.000    20346789.146    83316707.947         544.620          47.000  
G31  20623780.739   108378698.021         159.133          47.000    20623770.122    84450892.505         123.960          46.000  
G04  24503671.130                        3180.912          31.000    24503669.510                        2477.572          33.000  
C33  22501843.066   117172998.982        -685.642          50.000                                                                  
C06  36572535.129   190442791.252        -162.701          45.000    36572518.547   147262375.648        -125.774          48.000  
C14  22663228.102                       -2245.731          46.000    22663213.523    91255363.814       -1736.414          51.000  
C16  37000320.545   192670377.084        -193.992          48.000    37000308.844   148984909.721        -150.000          48.000  
C24  21839274.960   113722841.036        -857.773          50.000                                                                  
C26  24419368.105   127158056.153       -2562.587          44.000                                                                  
G03  22888131.448                        -103.963          40.000    22888126.567    93723043.163         -81.119          40.000  
G16  22441157.084   117929090.225        2990.782          41.000                                                                  
C09  37724065.828   196439112.141        -152.233          43.000    37724051.890   151899124.619        -117.863          48.000  
C25  23654543.454                        1577.223          45.000                                                                  
C13  38356135.564   199730458.008       -2262.365          41.000    38356129.551   154444238.364       -1749.147          43.000  
C08  39185027.756                       -2460.155          36.000    39185016.102   157781818.275       -1902.199          43.000  
C10  40500392.317                         931.006          35.000    40500393.423   163078281.989         720.239          38.000  
C35  25955414.568   135156654.926         398.483          38.000                                                                  
C07  39565135.615                        1118.629          38.000    39565125.437   159312359.259         865.125          41.000  
C12  26464349.032                        2304.111          36.000    26464347.435   106560977.460        1781.425          44.000  
G25  24381434.973                       -3915.100          35.000    24381427.660                       -3050.540          35.000  
> 2025 10 30 06 19 53.0000000  0 23                     
G32  22009937.847   115663000.912       -2910.533          45.000    22009931.464    90126990.256       -2267.585          43.000  
G29  23070223.739   121234854.692        -572.612          42.000    23070214.939    94468687.579        -446.331          41.000  
G28  21248442.733   111661318.036       -1185.798          46.000    21248431.545    87008778.348        -924.052          46.000  
G26  20346790.354   106923104.671         698.337          48.000    20346783.816    83316686.185         544.048          47.000  
G31  20623779.528   108378691.671         158.607          47.000    20623768.908    84450887.549         123.698          46.000  
G04  24503646.914                        3181.313          31.000    24503645.322                        2477.167          33.000  
C33  22501848.327   117173026.432        -686.330          50.000                                                                  
C06  36572536.404   190442797.784        -163.325          45.000    36572519.801   147262380.698        -126.268          48.000  
C14  22663245.367   118013452.024       -2246.323          46.000    22663230.788    91255433.292       -1736.944          51.000  
C16  37000322.019   192670384.863        -194.555          48.000    37000310.338   148984915.738        -150.477          48.000  
C24  21839281.577   113722875.372        -858.418          50.000                                                                  
C26  24419387.794   127158158.664       -2562.924          44.000                                                                  
G03  22888132.249                        -104.545          40.000    22888127.370    93723046.413         -81.383          40.000  
G16  22441134.341   117928970.617        2990.163          41.000                                                                  
C09  37724067.027   196439118.242        -152.662          43.000    37724053.079   151899129.342        -118.217          48.000  
C25  23654531.321   123175361.217        1576.864          45.000                                                                  
C13  38356152.947   199730548.523       -2262.937          41.000    38356146.944   154444308.353       -1749.660          43.000  
C08  39185046.642                       -2460.734          36.000    39185034.985   157781894.393       -1902.896          43.000  
C10  40500385.193                         930.660          35.000    40500386.277   163078253.200         719.689          38.000  
C35  25955411.506   135156639.016         397.788          38.000                                                                  
C07  39565127.037                        1118.016          38.000    39565116.852   159312324.683         864.495          41.000  
C12  26464331.358                        2303.067          36.000    26464329.735   106560906.212        1781.114          44.000  
G25  24381464.778                       -3915.820          35.000    24381457.466                       -3051.132          35.000  
> 2025 10 30 06 19 53.0400000  0 23                     
G32  22009959.995   115663117.286       -2909.940          45.000    22009953.590    90127080.936       -2267.305          43.000  
G29  23070228.091   121234877.548        -571.957          42.000    23070219.313    94468705.376        -445.438          41.000  
G28  21248451.759   111661365.426       -1185.279          46.000    21248440.573    87008815.280        -923.723          46.000  
G26  20346785.038   106923076.694         698.943          48.000    20346778.501    83316664.389         544.472          47.000  
G31  20623778.321   108378685.277         159.295          47.000    20623767.673    84450882.568         124.163          46.000  
G04  24503622.708                        3180.769          31.000    24503621.083                        2479.169          33.000  
C33  22501853.610   117173053.831        -685.599          50.000                                                                  
C06  36572537.680   190442804.283        -162.955          45.000    36572521.057   147262385.720        -125.919          48.000  
C14  22663262.605   118013541.835       -2245.804          46.000    22663248.013    91255502.737       -1736.530          51.000  
C16  37000323.505   192670392.599        -193.940          48.000    37000311.853   148984921.717        -149.984          48.000  
C24  21839288.131   113722909.657        -857.740          50.000                                                                  
C26  24419407.470   127158261.149       -2562.502          44.000                                                                  
G03  22888133.035                        -104.147          40.000    22888128.147    93723049.643         -81.065          40.000  
G16  22441111.608   117928850.965        2990.760          41.000                                                                  
C09  37724068.209   196439124.309        -152.121          43.000    37724054.267   151899134.027        -117.588          48.000  
C25  23654519.202   123175298.104        1577.379          45.000                                                                  
C13  38356170.297   199730638.979       -2262.007          41.000    38356164.323   154444378.322       -1749.493          43.000  
C08  39185065.558                       -2460.634          36.000    39185053.888   157781970.475       -1902.518          43.000  
C10  40500378.020                         931.919          35.000    40500379.119   163078224.350         720.669          38.000  
C35  25955408.445   135156623.055         398.505          38.000                                                                  
C07  39565118.442                        1118.777          38.000    39565108.247   159312290.063         865.012          41.000  
C12  26464313.629                        2303.517          36.000    26464312.038   106560834.937        1781.511          44.000  
G25  24381494.591                       -3914.866          35.000    24381487.251                       -3050.823          35.000  
> 2025 10 30 06 19 53.0800000  0 23                     
G32  22009982.135   115663233.619       -2908.842          45.000    22009975.718    90127171.602       -2266.851          43.000  
G29  23070232.432   121234900.358        -570.745          42.000    23070223.668    94468723.155        -444.605          41.000  
G28  21248460.780   111661412.773       -1184.191          46.000    21248449.579    87008852.174        -922.844          46.000  
G26  20346779.719   106923048.692         699.796          48.000    20346773.150    83316642.569         545.195          47.000  
G31  20623777.093   108378678.846         160.404          47.000    20623766.459    84450877.564         124.854          46.000  
G04  24503598.497                        3181.058          31.000    24503596.840                        2479.928          33.000  
C33  22501858.845   117173081.200        -684.597          50.000                                                                  
C06  36572538.924   190442810.726        -161.694          45.000    36572522.254   147262390.706        -125.044          48.000  
C14  22663279.826   118013631.600       -2244.636          46.000    22663265.261    91255572.159       -1735.830          51.000  
C16  37000324.959   192670400.283        -192.647          48.000    37000313.327   148984927.674        -149.247          48.000  
C24  21839294.692   113722943.909        -856.729          50.000                                                                  
C26  24419427.158   127158363.592       -2561.514          44.000                                                                  
G03  22888133.828                        -102.582          40.000    22888128.932    93723052.828         -80.073          40.000  
G16  22441088.827   117928731.285        2991.652          41.000                                                                  
C09  37724069.341   196439130.333        -151.051          43.000    37724055.431   151899138.686        -116.746          48.000  
C25  23654507.089   123175234.949        1578.464          45.000                                                                  
C13  38356187.668   199730729.410       -2261.071          41.000    38356181.671   154444448.257       -1748.758          43.000  
C08  39185084.446                       -2459.583          36.000    39185072.763   157782046.527       -1901.753          43.000  
C10  40500370.831                         933.045          35.000    40500371.937   163078195.493         721.336          38.000  
C35  25955405.355   135156607.060         399.522          38.000                                                                  
C07  39565109.847                        1119.469          38.000    39565099.681   159312255.434         865.496          41.000  
C12  26464295.927                        2305.022          36.000    26464294.330   106560763.635        1782.288          43.000  
G25  24381524.372                       -3913.066          35.000    24381517.036                       -3049.367          35.000  
> 2025 10 30 06 19 53.1200000  0 23                     
G32  22010004.256   115663349.945       -2908.155          45.000    22009997.859    90127262.246       -2266.213          43.000  
G29  23070236.767   121234923.178        -570.305          42.000    23070228.001    94468740.936        -444.361          41.000  
G28  21248469.771   111661460.112       -1183.479          46.000    21248458.588    87008889.062        -922.271          46.000  
G26  20346774.358   106923020.675         700.493          48.000    20346767.817    83316620.740         545.706          47.000  
G31  20623775.874   108378672.417         160.874          47.000    20623765.226    84450872.554         125.276          46.000  
G04  24503574.264                        3182.456          31.000    24503572.630                        2480.217          33.000  
C33  22501864.102   117173108.559        -683.959          50.000                                                                  
C06  36572540.173   190442817.158        -160.824          45.000    36572523.464   147262395.688        -124.541          48.000  
C14  22663297.065   118013721.366       -2244.068          46.000    22663282.503    91255641.570       -1735.308          51.000  
C16  37000326.429   192670407.975        -192.158          48.000    37000314.780   148984933.615        -148.583          48.000  
C24  21839301.274   113722978.151        -856.058          50.000                                                                  
C26  24419446.823   127158466.020       -2560.756          44.000                                                                  
G03  22888134.623   120277952.039        -102.321          40.000    22888129.701    93723056.016         -79.580          40.000  
G16  22441066.042   117928611.584        2992.506          41.000                                                                  
C09  37724070.488   196439136.358        -150.534          43.000    37724056.603   151899143.343        -116.323          48.000  
C25  23654494.951   123175171.784        1579.181          45.000                                                                  
C13  38356205.054   199730819.850       -2260.812          41.000    38356199.050   154444518.179       -1748.135          43.000  
C08  39185103.309                       -2457.984          36.000    39185091.655   157782122.571       -1901.168          43.000  
C10  40500363.683                         933.190          35.000    40500364.751   163078166.624         721.774          38.000  
C35  25955402.278   135156591.070         399.893          38.000                                                                  
C07  39565101.234                        1120.232          38.000    39565091.080   159312220.807         865.706          41.000  
C12  26464278.194                        2305.689          36.000    26464276.613   106560692.323        1782.833          43.000  
G25  24381554.145                       -3913.126          35.000    24381546.792                       -3049.080          35.000  
> 2025 10 30 06 19 53.1600000  0 23                     
G32  22010026.417   115663466.285       -2908.186          45.000    22010019.990    90127352.889       -2265.936          43.000  
G29  23070241.105   121234946.020        -570.653          42.000    23070232.346    94468758.734        -444.675          41.000  
G28  21248478.784   111661507.473       -1183.622          46.000    21248467.614    87008925.957        -922.172          46.000  
G26  20346769.060   106922992.678         700.328          48.000    20346762.484    83316598.919         545.718          47.000  
G31  20623774.681   108378666.003         160.685          47.000    20623764.009    84450867.558         125.162          46.000  
G04  24503550.068                        3181.220          30.000    24503548.400                        2479.343          33.000  
C33  22501869.330   117173135.939        -684.132          50.000                                                                  
C06  36572541.402   190442823.626        -161.189          45.000    36572524.703   147262400.683        -124.584          48.000  
C14  22663314.319   118013811.152       -2244.291          46.000    22663299.749    91255710.991       -1735.303          51.000  
C16  37000327.916   192670415.685        -192.315          48.000    37000316.234   148984939.568        -148.543          48.000  
C24  21839307.818   113723012.410        -856.111          50.000                                                                  
C26  24419466.489   127158568.479       -2561.019          44.000                                                                  
G03  22888135.398   120277956.161        -102.687          40.000    22888130.477    93723059.222         -79.793          40.000  
G16  22441043.267   117928491.906        2992.350          41.000                                                                  
C09  37724071.647   196439142.399        -150.697          43.000    37724057.726   151899148.016        -116.497          48.000  
C25  23654482.823   123175108.639        1579.046          45.000                                                                  
C13  38356222.383   199730910.292       -2260.794          41.000    38356216.433   154444588.111       -1748.086          43.000  
C08  39185122.189                       -2458.142          36.000    39185110.555   157782198.626       -1901.139          43.000  
C10  40500356.520                         932.947          35.000    40500357.597   163078137.768         721.716          38.000  
C35  25955399.206   135156575.081         399.988          38.000                                                                  
C07  39565092.628                        1120.093          38.000    39565082.503   159312186.165         866.002          41.000  
C12  26464260.484                        2305.610          35.000    26464258.899   106560621.023        1782.755          43.000  
G25  24381583.957                       -3913.076          35.000    24381576.593    99838478.769       -3049.183          35.000  
> 2025 10 30 06 19 53.2000000  0 23                     
G32  22010048.563   115663582.649       -2908.727          45.000    22010042.140    90127443.566       -2266.519          43.000  
G29  23070245.471   121234968.870        -571.033          42.000    23070236.706    94468776.540        -444.984          41.000  
G28  21248487.821   111661554.843       -1183.951          46.000    21248476.629    87008962.878        -922.675          46.000  
G26  20346763.745   106922964.694         699.894          48.000    20346757.159    83316577.112         545.403          47.000  
G31  20623773.477   108378659.606         160.178          47.000    20623762.796    84450862.574         124.790          46.000  
G04  24503525.839                        3181.292          30.000    24503524.193                        2479.088          33.000  
C33  22501874.583   117173163.341        -684.743          50.000                                                                  
C06  36572542.665   190442830.106        -161.674          45.000    36572525.941   147262405.694        -124.990          48.000  
C14  22663331.565   118013900.955       -2244.799          46.000    22663317.004    91255780.431       -1735.731          51.000  
C16  37000329.427   192670423.417        -192.930          48.000    37000317.734   148984945.544        -149.043          48.000  
C24  21839314.399   113723046.693        -856.678          50.000                                                                  
C26  24419486.165   127158670.952       -2561.501          44.000                                                                  
G03  22888136.161   120277960.296        -103.219          40.000    22888131.275    93723062.447         -80.300          40.000  
G16  22441020.497   117928372.262        2991.536          41.000                                                                  
C09  37724072.798   196439148.450        -151.015          43.000    37724058.903   151899152.699        -116.891          48.000  
C25  23654470.675   123175045.519        1578.378          45.000                                                                  
C13  38356239.760   199731000.756       -2261.334          41.000    38356233.828   154444658.048       -1748.233          43.000  
C08  39185141.080                       -2459.323          36.000    39185129.456   157782274.685       -1901.280          43.000  
C10  40500349.399                         931.877          35.000    40500350.441   163078108.949         720.909          38.000  
C35  25955396.158   135156559.119         399.349          38.000                                                                  
C07  39565084.013                        1119.806          38.000    39565073.888   159312151.525         866.119          41.000  
C12  26464242.777                        2305.039          35.000    26464241.227   106560549.742        1782.254          43.000  
G25  24381613.732                       -3913.340          35.000    24381606.383    99838600.766       -3049.606          35.000  
> 2025 10 30 06 19 53.2400000  0 23                     
G32  22010070.705   115663699.032       -2909.375          45.000    22010064.316    90127534.254       -2267.025          43.000  
G29  23070249.823   121234991.733        -571.496          42.000    23070241.073    94468794.369        -445.604          41.000  
G28  21248496.831   111661602.237       -1184.571          46.000    21248485.651    87008999.807        -923.111          46.000  
G26  20346758.429   106922936.732         699.241          48.000    20346751.841    83316555.322         544.905          47.000  
G31  20623772.261   108378653.220         159.710          47.000    20623761.588    84450857.598         124.433          46.000  
G04  24503501.621                        3181.325          30.000    24503499.986                        2478.514          33.000  
C33  22501879.824   117173190.752        -685.220          50.000                                                                  
C06  36572543.895   190442836.595        -162.130          45.000    36572527.153   147262410.714        -125.383          48.000  
C14  22663348.789   118013990.764       -2245.195          46.000    22663334.224    91255849.880       -1736.121          51.000  
C16  37000330.919   192670431.155        -193.371          48.000    37000319.208   148984951.527        -149.449          48.000  
C24  21839320.978   113723080.988        -857.242          50.000                                                                  
C26  24419505.848   127158773.433       -2561.910          44.000                                                                  
G03  22888136.957   120277964.443        -103.711          40.000    22888132.071    93723065.672         -80.605          40.000  
G16  22440997.741   117928252.615        2991.181          41.000                                                                  
C09  37724073.931   196439154.522        -151.598          43.000    37724060.072   151899157.392        -117.269          48.000  
C25  23654458.537   123174982.413        1577.726          45.000                                                                  
C13  38356257.117   199731091.229       -2261.774          41.000    38356251.221   154444728.009       -1748.770          43.000  
C08  39185159.977                       -2459.933          36.000    39185148.343   157782350.772       -1901.872          43.000  
C10  40500342.248                         931.653          35.000    40500343.283   163078080.138         720.367          38.000  
C35  25955393.117   135156543.192         398.437          38.000                                                                  
C07  39565075.428   206025735.512        1119.063          38.000    39565065.289   159312116.903         865.760          41.000  
C12  26464225.075                        2304.566          35.000    26464223.536   106560478.469        1781.879          43.000  
G25  24381643.524                       -3914.106          35.000    24381636.197    99838722.768       -3049.960          35.000  
> 2025 10 30 06 19 53.2800000  0 23                     
G32  22010092.868   115663815.410       -2909.612          45.000    22010086.460    90127624.938       -2267.199          43.000  
G29  23070254.184   121235014.604        -571.854          42.000    23070245.410    94468812.184        -445.679          41.000  
G28  21248505.856   111661649.625       -1184.804          46.000    21248494.674    87009036.734        -923.286          46.000  
G26  20346753.131   106922908.772         698.892          48.000    20346746.535    83316533.534         544.629          47.000  
G31  20623771.054   108378646.837         159.454          47.000    20623760.397    84450852.617         124.398          46.000  
G04  24503477.370                        3181.510          30.000    24503475.745                        2478.504          33.000  
C33  22501885.093   117173218.164        -685.431          50.000                                                                  
C06  36572545.137   190442843.089        -162.435          45.000    36572528.393   147262415.732        -125.536          48.000  
C14  22663366.037   118014080.573       -2245.365          46.000    22663351.488    91255919.331       -1736.342          51.000  
C16  37000332.432   192670438.887        -193.474          48.000    37000320.683   148984957.501        -149.490          48.000  
C24  21839327.501   113723115.282        -857.480          50.000                                                                  
C26  24419525.524   127158875.913       -2562.079          44.000                                                                  
G03  22888137.762   120277968.582        -103.682          40.000    22888132.864    93723068.900         -80.782          40.000  
G16  22440974.964   117928132.973        2990.948          41.000                                                                  
C09  37724075.083   196439160.590        -151.811          43.000    37724061.257   151899162.083        -117.401          48.000  
C25  23654446.441   123174919.297        1577.643          45.000                                                                  
C13  38356274.502   199731181.708       -2262.055          41.000    38356268.580   154444797.975       -1749.158          43.000  
C08  39185178.876                       -2459.686          36.000    39185167.232   157782426.853       -1902.110          43.000  
C10  40500335.073                         932.402          35.000    40500336.117   163078051.294         720.675          38.000  
C35  25955390.034   135156527.239         398.480          38.000                                                                  
C07  39565066.858   206025690.755        1118.759          38.000    39565056.711   159312082.290         865.408          41.000  
C12  26464207.353                        2304.482          35.000    26464205.851   106560407.194        1781.758          43.000  
G25  24381673.334                       -3914.723          35.000    24381665.993    99838844.749       -3049.745          35.000  
> 2025 10 30 06 19 53.3200000  0 23                     
G32  22010114.997   115663931.779       -2909.492          45.000    22010108.593    90127715.616       -2267.109          43.000  
G29  23070258.532   121235037.452        -571.552          42.000    23070249.748    94468829.975        -445.177          41.000  
G28  21248514.882   111661697.007       -1184.744          46.000    21248503.692    87009073.658        -923.262          46.000  
G26  20346747.808   106922880.795         699.078          48.000    20346741.200    83316511.737         544.708          47.000  
G31  20623769.857   108378640.440         159.678          47.000    20623759.168    84450847.634         124.455          46.000  
G04  24503453.116                        3181.462          30.000    24503451.542                        2478.927          33.000  
C33  22501890.370   117173245.565        -685.264          50.000                                                                  
C06  36572546.397   190442849.566        -162.212          45.000    36572529.664   147262420.738        -125.371          48.000  
C14  22663383.304   118014170.369       -2245.148          46.000    22663368.700    91255988.772       -1736.233          51.000  
C16  37000333.928   192670446.612        -193.320          48.000    37000322.151   148984963.480        -149.567          48.000  
C24  21839334.099   113723149.559        -857.234          50.000                                                                  
C26  24419545.192   127158978.385       -2561.979          44.000                                                                  
G03  22888138.551   120277972.712        -103.463          40.000    22888133.657    93723072.129         -80.852          40.000  
G16  22440952.195   117928013.313        2991.183          41.000                                                                  
C09  37724076.241   196439166.638        -151.511          43.000    37724062.435   151899166.759        -117.147          48.000  
C25  23654434.319   123174856.170        1577.923          45.000                                                                  
C13  38356291.867   199731272.162       -2261.715          41.000    38356285.932   154444867.927       -1749.067          43.000  
C08  39185197.750   204047601.658       -2459.592          36.000    39185186.129   157782502.924       -1901.985          43.000  
C10  40500327.900                         932.286          35.000    40500328.957   163078022.457         720.852          38.000  
C35  25955386.966   135156511.256         399.172          38.000                                                                  
C07  39565058.263   206025645.976        1119.189          38.000    39565048.105   159312047.680         865.175          41.000  
C12  26464189.640                        2304.230          35.000    26464188.164   106560335.902        1782.074          43.000  
G25  24381703.123                       -3914.649          35.000    24381695.800    99838966.779       -3050.436          35.000  
> 2025 10 30 06 19 53.3600000  0 23                     
G32  22010137.138   115664048.133       -2909.096          45.000    22010130.749    90127806.285       -2266.906          43.000  
G29  23070262.860   121235060.310        -571.524          42.000    23070254.096    94468847.783        -445.152          41.000  
G28  21248523.891   111661744.373       -1184.388          46.000    21248512.700    87009110.571        -923.031          46.000  
G26  20346742.474   106922852.809         699.415          48.000    20346735.874    83316489.926         545.033          47.000  
G31  20623768.630   108378634.030         160.073          47.000    20623757.950    84450842.635         124.825          46.000  
G04  24503428.889                        3181.570          30.000    24503427.334                        2479.071          33.000  
C33  22501895.618   117173272.951        -684.894          50.000                                                                  
C06  36572547.638   190442856.027        -161.786          45.000    36572530.897   147262425.739        -125.184          48.000  
C14  22663400.556   118014260.159       -2244.879          46.000    22663385.964    91256058.203       -1735.938          51.000  
C16  37000335.414   192670454.323        -192.976          48.000    37000323.651   148984969.449        -149.406          48.000  
C24  21839340.681   113723183.832        -856.983          50.000                                                                  
C26  24419564.896   127159080.841       -2561.605          44.000                                                                  
G03  22888139.334   120277976.832        -103.084          40.000    22888134.445    93723075.348         -80.666          40.000  
G16  22440929.418   117927893.641        2991.623          41.000                                                                  
C09  37724077.371   196439172.677        -151.143          43.000    37724063.621   151899171.440        -117.058          48.000  
C25  23654422.196   123174793.038        1578.188          45.000                                                                  
C13  38356309.233   199731362.610       -2261.366          41.000    38356303.317   154444937.870       -1748.772          43.000  
C08  39185216.647   204047700.022       -2459.260          36.000    39185204.999   157782578.983       -1901.687          43.000  
C10  40500320.737                         932.505          35.000    40500321.765   163077993.622         720.928          38.000  
C35  25955383.875   135156495.272         399.583          38.000                                                                  
C07  39565049.664   206025601.193        1119.543          38.000    39565039.494   159312013.062         865.264          41.000  
C12  26464171.937                        2304.663          35.000    26464170.433   106560264.618        1782.142          43.000  
G25  24381732.893                       -3914.066          35.000    24381725.594    99839088.760       -3050.001          35.000  
> 2025 10 30 06 19 53.4000000  0 23                     
G32  22010159.266   115664164.483       -2908.791          45.000    22010152.878    90127896.950       -2266.728          43.000  
G29  23070267.205   121235083.150        -571.153          42.000    23070258.419    94468865.581        -444.990          41.000  
G28  21248532.873   111661791.741       -1184.216          46.000    21248521.715    87009147.478        -922.800          46.000  
G26  20346737.147   106922824.824         699.595          48.000    20346730.557    83316468.118         545.188          47.000  
G31  20623767.378   108378627.628         160.134          47.000    20623756.741    84450837.640         124.904          46.000  
G04  24503404.679                        3182.571          30.000    24503403.124                        2478.864          33.000  
C33  22501900.866   117173300.345        -684.834          50.000                                                                  
C06  36572548.884   190442862.496        -161.697          45.000    36572532.162   147262430.741        -125.062          48.000  
C14  22663417.796   118014349.959       -2244.927          46.000    22663403.216    91256127.634       -1735.789          51.000  
C16  37000336.894   192670462.034        -192.789          48.000    37000325.145   148984975.414        -149.239          48.000  
C24  21839347.288   113723218.104        -856.836          50.000                                                                  
C26  24419584.542   127159183.310       -2561.639          44.000                                                                  
G03  22888140.120   120277980.960        -103.089          40.000    22888135.220    93723078.565         -80.522          40.000  
G16  22440906.624   117927773.978        2991.694          41.000                                                                  
C09  37724078.520   196439178.727        -151.174          43.000    37724064.789   151899176.116        -116.938          48.000  
C25  23654410.085   123174729.907        1578.286          45.000                                                                  
C13  38356326.602   199731453.069       -2261.381          41.000    38356320.695   154445007.809       -1748.530          43.000  
C08  39185235.539   204047798.371       -2458.801          36.000    39185223.885   157782655.044       -1901.561          43.000  
C10  40500313.571   210895759.557         932.157          35.000    40500314.591   163077964.768         721.254          38.000  
C35  25955380.820   135156479.323         399.086          38.000                                                                  
C07  39565041.062   206025556.418        1119.460          38.000    39565030.879   159311978.423         865.718          41.000  
C12  26464154.219                        2304.619          35.000    26464152.717   106560193.328        1782.209          43.000  
G25  24381762.699                       -3913.660          35.000    24381755.385    99839210.727       -3049.419          35.000  
> 2025 10 30 06 19 53.4400000  0 23                     
G32  22010181.415   115664280.836       -2908.717          45.000    22010175.021    90127987.611       -2266.585          43.000  
G29  23070271.577   121235105.989        -570.936          42.000    23070262.759    94468883.378        -444.963          41.000  
G28  21248541.873   111661839.111       -1184.192          46.000    21248530.723    87009184.382        -922.616          46.000  
G26  20346731.790   106922796.827         699.892          48.000    20346725.226    83316446.310         545.255          47.000  
G31  20623766.135   108378621.217         160.268          47.000    20623755.525    84450832.654         124.768          46.000  
G04  24503380.488                        3181.383          30.000    24503378.911                        2478.639          33.000  
C33  22501906.098   117173327.743        -684.881          50.000                                                                  
C06  36572550.104   190442868.971        -161.749          45.000    36572533.440   147262435.741        -124.998          48.000  
C14  22663435.035   118014439.752       -2244.839          46.000    22663420.450    91256197.069       -1735.800          51.000  
C16  37000338.361   192670469.748        -192.784          48.000    37000326.636   148984981.383        -149.223          48.000  
C24  21839353.870   113723252.376        -856.771          50.000                                                                  
C26  24419604.224   127159285.772       -2561.564          44.000                                                                  
G03  22888140.921   120277985.081        -102.972          40.000    22888135.997    93723081.783         -80.519          40.000  
G16  22440883.854   117927654.317        2991.624          41.000                                                                  
C09  37724079.684   196439184.773        -151.139          43.000    37724065.937   151899180.787        -116.783          48.000  
C25  23654397.954   123174666.762        1578.618          45.000                                                                  
C13  38356343.968   199731543.531       -2261.501          41.000    38356338.058   154445077.753       -1748.489          43.000  
C08  39185254.419   204047896.748       -2459.071          36.000    39185242.779   157782731.091       -1901.199          43.000  
C10  40500306.423   210895722.251         932.477          35.000    40500307.437   163077935.950         720.668          38.000  
C35  25955377.732   135156463.347         399.262          38.000                                                                  
C07  39565032.451   206025511.624        1119.838          38.000    39565022.283   159311943.797         865.771          41.000  
C12  26464136.550   137805717.661        2304.884          35.000    26464135.012   106560122.031        1782.393          43.000  
G25  24381792.482                       -3913.235          35.000    24381785.170    99839332.699       -3049.246          35.000  
> 2025 10 30 06 19 53.4800000  0 23                     
G32  22010203.550   115664397.190       -2908.744          45.000    22010197.182    90128078.268       -2266.450          43.000  
G29  23070275.906   121235128.834        -570.972          42.000    23070267.121    94468901.193        -445.227          41.000  
G28  21248550.901   111661886.475       -1184.100          46.000    21248539.711    87009221.289        -922.606          46.000  
G26  20346726.469   106922768.839         699.857          48.000    20346719.912    83316424.496         545.359          47.000  
G31  20623764.911   108378614.805         160.329          47.000    20623754.305    84450827.662         124.736          46.000  
G04  24503356.268                        3181.219          30.000    24503354.689                        2479.633          33.000  
C33  22501911.351   117173355.136        -684.850          50.000                                                                  
C06  36572551.371   190442875.431        -161.548          45.000    36572534.667   147262440.735        -124.885          48.000  
C14  22663452.284   118014529.542       -2244.746          46.000    22663437.697    91256266.501       -1735.770          51.000  
C16  37000339.828   192670477.461        -192.789          48.000    37000328.121   148984987.342        -149.038          48.000  
C24  21839360.458   113723286.645        -856.713          50.000                                                                  
C26  24419623.927   127159388.226       -2561.378          44.000                                                                  
G03  22888141.722   120277989.220        -103.283          40.000    22888136.782    93723085.010         -80.671          40.000  
G16  22440861.086   117927534.658        2991.492          41.000                                                                  
C09  37724080.852   196439190.817        -151.083          43.000    37724067.137   151899185.465        -116.856          48.000  
C25  23654385.830   123174603.625        1578.598          45.000                                                                  
C13  38356361.327   199731633.979       -2261.289          41.000    38356355.426   154445147.704       -1748.671          43.000  
C08  39185273.310   204047995.106       -2458.987          36.000    39185261.670   157782807.156       -1901.367          43.000  
C10  40500299.262   210895684.952         932.492          35.000    40500300.294   163077907.100         720.951          38.000  
C35  25955374.658   135156447.385         399.098          38.000                                                                  
C07  39565023.839   206025466.835        1119.930          38.000    39565013.712   159311909.172         865.739          41.000  
C12  26464118.834   137805625.441        2305.389          35.000    26464117.284   106560050.731        1782.497          43.000  
G25  24381822.288                       -3913.533          35.000    24381814.966    99839454.689       -3049.412          35.000  
> 2025 10 30 06 19 53.5200000  0 23                     
G32  22010225.679   115664513.549       -2908.879          45.000    22010219.331    90128168.931       -2266.508          43.000  
G29  23070280.254   121235151.684        -571.138          42.000    23070271.465    94468918.999        -445.251          41.000  
G28  21248559.912   111661933.842       -1184.113          46.000    21248548.720    87009258.199        -922.658          46.000  
G26  20346721.145   106922740.859         699.600          48.000    20346714.592    83316402.689         545.258          47.000  
G31  20623763.682   108378608.402         160.180          47.000    20623753.102    84450822.677         124.619          46.000  
G04  24503332.046                        3181.423          30.000    24503330.456                        2479.246          33.000  
C33  22501916.606   117173382.532        -684.877          50.000                                                                  
C06  36572552.637   190442881.895        -161.544          45.000    36572535.938   147262445.738        -124.998          48.000  
C14  22663469.496   118014619.343       -2244.933          46.000    22663454.927    91256335.936       -1735.868          51.000  
C16  37000341.309   192670485.173        -192.779          48.000    37000329.599   148984993.301        -148.946          48.000  
C24  21839367.030   113723320.920        -856.807          50.000                                                                  
C26  24419643.600   127159490.681       -2561.334          44.000                                                                  
G03  22888142.511   120277993.339        -103.092          40.000    22888137.560    93723088.218         -80.367          40.000  
G16  22440838.294   117927414.989        2991.615          41.000                                                                  
C09  37724082.019   196439196.855        -150.964          43.000    37724068.292   151899190.135        -116.782          48.000  
C25  23654373.697   123174540.489        1578.479          45.000                                                                  
C13  38356378.695   199731724.432       -2261.291          41.000    38356372.791   154445217.645       -1748.546          43.000  
C08  39185292.221   204048093.481       -2459.209          36.000    39185280.565   157782883.221       -1901.548          43.000  
C10  40500292.081   210895647.632         932.863          35.000    40500293.128   163077878.250         721.161          38.000  
C35  25955371.601   135156431.428         398.930          38.000                                                                  
C07  39565015.218   206025422.053        1119.773          38.000    39565005.085   159311874.533         865.916          41.000  
C12  26464101.124   137805533.228        2305.410          35.000    26464099.590   106559979.442        1782.342          43.000  
G25  24381852.057   128127503.040       -3913.386          35.000    24381844.774    99839576.726       -3050.495          35.000  
> 2025 10 30 06 19 53.5600000  0 23                     
G32  22010247.836   115664629.912       -2909.052          45.000    22010241.461    90128259.603       -2266.765          43.000  
G29  23070284.623   121235174.535        -571.251          42.000    23070275.818    94468936.808        -445.281          41.000  
G28  21248568.920   111661981.215       -1184.270          46.000    21248557.717    87009295.105        -922.647          46.000  
G26  20346715.831   106922712.876         699.526          48.000    20346709.265    83316380.891         545.008          47.000  
G31  20623762.466   108378602.002         160.045          47.000    20623751.888    84450817.688         124.670          46.000  
G04  24503307.826                        3182.003          31.000    24503306.249                        2479.042          33.000  
C33  22501921.890   117173409.926        -684.877          50.000                                                                  
C06  36572553.877   190442888.360        -161.599          45.000    36572537.182   147262450.742        -125.082          48.000  
C14  22663486.723   118014709.141       -2244.976          46.000    22663472.198    91256405.374       -1735.970          51.000  
C16  37000342.765   192670492.885        -192.799          48.000    37000331.048   148984999.264        -149.009          48.000  
C24  21839373.629   113723355.192        -856.809          50.000                                                                  
C26  24419663.283   127159593.150       -2561.591          44.000                                                                  
G03  22888143.288   120277997.464        -103.100          40.000    22888138.341    93723091.421         -80.125          40.000  
G16  22440815.521   117927295.331        2991.484          41.000                                                                  
C09  37724083.186   196439202.907        -151.217          43.000    37724069.434   151899194.800        -116.651          48.000  
C25  23654361.601   123174477.363        1578.232          45.000                                                                  
C13  38356396.095   199731814.884       -2261.285          41.000    38356390.173   154445287.594       -1748.671          43.000  
C08  39185311.136   204048191.839       -2459.045          36.000    39185299.444   157782959.278       -1901.487          43.000  
C10  40500284.897   210895610.340         932.587          35.000    40500285.957   163077849.382         721.615          38.000  
C35  25955368.535   135156415.453         399.209          38.000                                                                  
C07  39565006.637   206025377.283        1119.432          38.000    39564996.508   159311839.909         865.708          41.000  
C12  26464083.432   137805441.024        2305.255          35.000    26464081.898   106559908.140        1782.527          43.000  
G25  24381881.850   128127659.609       -3914.005          35.000    24381874.556    99839698.679       -3049.456          35.000  
> 2025 10 30 06 19 53.6000000  0 23                     
G32  22010269.992   115664746.282       -2909.222          45.000    22010263.609    90128350.290       -2267.155          43.000  
G29  23070288.975   121235197.392        -571.452          42.000    23070280.162    94468954.612        -445.212          41.000  
G28  21248577.937   111662028.597       -1184.506          46.000    21248566.740    87009332.017        -922.743          46.000  
G26  20346710.486   106922684.891         699.546          48.000    20346703.954    83316359.089         544.979          47.000  
G31  20623761.274   108378595.604         159.928          47.000    20623750.657    84450812.695         124.806          46.000  
G04  24503283.582                        3181.792          31.000    24503282.030                        2479.073          33.000  
C33  22501927.161   117173437.324        -684.928          50.000                                                                  
C06  36572555.123   190442894.830        -161.718          45.000    36572538.443   147262455.750        -125.199          48.000  
C14  22663503.960   118014798.940       -2245.026          46.000    22663489.428    91256474.817       -1736.101          51.000  
C16  37000344.223   192670500.604        -192.915          48.000    37000332.519   148985005.226        -149.023          48.000  
C24  21839380.190   113723389.470        -856.932          50.000                                                                  
C26  24419682.935   127159695.620       -2561.722          44.000                                                                  
G03  22888144.092   120278001.606        -103.421          40.000    22888139.134    93723094.624         -80.021          40.000  
G16  22440792.727   117927175.668        2991.523          41.000                                                                  
C09  37724084.370   196439208.956        -151.245          43.000    37724070.582   151899199.472        -116.737          48.000  
C25  23654349.471   123174414.232        1578.208          45.000                                                                  
C13  38356413.470   199731905.329       -2261.111          41.000    38356407.524   154445357.537       -1748.602          43.000  
C08  39185330.031   204048290.204       -2458.980          36.000    39185318.372   157783035.345       -1901.661          43.000  
C10  40500277.701   210895573.009         933.119          35.000    40500278.796   163077820.525         721.592          38.000  
C35  25955365.462   135156399.486         399.175          38.000                                                                  
C07  39564998.051   206025332.506        1119.381          38.000    39564987.902   159311805.282         865.680          41.000  
C12  26464065.723   137805348.822        2305.119          35.000    26464064.173   106559836.853        1782.342          43.000  
G25  24381911.649   128127816.152       -3913.811          35.000    24381904.327    99839820.642       -3049.087          35.000  
> 2025 10 30 06 19 53.6400000  0 23                     
G32  22010292.140   115664862.637       -2909.040          45.000    22010285.764    90128440.966       -2267.130          43.000  
G29  23070293.318   121235220.245        -571.423          42.000    23070284.510    94468972.417        -445.115          41.000  
G28  21248586.937   111662075.961       -1184.299          46.000    21248575.766    87009368.930        -922.820          46.000  
G26  20346705.157   106922656.908         699.546          48.000    20346698.614    83316337.282         545.054          47.000  
G31  20623760.052   108378589.203         159.960          47.000    20623749.437    84450807.702         124.823          46.000  
G04  24503259.373                        3181.200          31.000    24503257.796                        2479.623          33.000  
C33  22501932.426   117173464.717        -684.869          50.000                                                                  
C06  36572556.369   190442901.301        -161.786          45.000    36572539.684   147262460.744        -124.996          48.000  
C14  22663521.212   118014888.732       -2244.917          46.000    22663506.680    91256544.250       -1735.958          51.000  
C16  37000345.680   192670508.313        -192.789          48.000    37000333.994   148985011.190        -149.097          48.000  
C24  21839386.809   113723423.741        -856.852          50.000                                                                  
C26  24419702.628   127159798.070       -2561.399          44.000                                                                  
G03  22888144.887   120278005.735        -103.369          40.000    22888139.920    93723097.848         -80.351          40.000  
G16  22440769.954   117927055.999        2991.659          41.000                                                                  
C09  37724085.526   196439214.992        -151.014          43.000    37724071.730   151899204.145        -116.807          48.000  
C25  23654337.340   123174351.096        1578.270          45.000                                                                  
C13  38356430.820   199731995.783       -2261.256          41.000    38356424.899   154445427.479       -1748.566          43.000  
C08  39185348.923   204048388.576       -2459.153          36.000    39185337.248   157783111.415       -1901.798          43.000  
C10  40500270.551   210895535.711         932.697          35.000    40500271.630   163077791.708         720.790          38.000  
C35  25955362.396   135156383.531         399.014          38.000                                                                  
C07  39564989.450   206025287.713        1119.598          38.000    39564979.318   159311770.640         866.002          41.000  
C12  26464048.037   137805256.633        2304.775          35.000    26464046.458   106559765.550        1782.508          43.000  
G25  24381941.431   128127972.732       -3914.362          35.000    24381934.110    99839942.645       -3049.655          35.000  
> 2025 10 30 06 19 53.6800000  0 23                     
G32  22010314.268   115664978.988       -2908.861          45.000    22010307.904    90128531.635       -2266.929          43.000  
G29  23070297.653   121235243.091        -571.264          42.000    23070288.861    94468990.224        -445.161          41.000  
G28  21248595.967   111662123.328       -1184.214          46.000    21248584.790    87009405.843        -922.864          46.000  
G26  20346699.833   106922628.925         699.553          48.000    20346693.272    83316315.474         545.129          47.000  
G31  20623758.818   108378582.793         160.132          47.000    20623748.217    84450802.705         124.928          46.000  
G04  24503235.176                        3181.431          30.000    24503233.556   100336663.472        2479.963          33.000  
C33  22501937.691   117173492.108        -684.807          50.000                                                                  
C06  36572557.633   190442907.767        -161.724          45.000    36572540.927   147262465.740        -124.921          48.000  
C14  22663538.468   118014978.519       -2244.746          46.000    22663523.930    91256613.687       -1735.925          51.000  
C16  37000347.178   192670516.021        -192.714          48.000    37000335.466   148985017.149        -149.059          48.000  
C24  21839393.407   113723458.012        -856.832          50.000                                                                  
C26  24419722.331   127159900.522       -2561.252          44.000                                                                  
G03  22888145.672   120278009.870        -103.410          40.000    22888140.683    93723101.070         -80.545          40.000  
G16  22440747.177   117926936.334        2991.632          41.000                                                                  
C09  37724086.680   196439221.025        -150.853          43.000    37724072.889   151899208.819        -116.856          48.000  
C25  23654325.214   123174287.964        1578.271          45.000                                                                  
C13  38356448.166   199732086.237       -2261.318          41.000    38356442.250   154445497.428       -1748.709          43.000  
C08  39185367.825   204048486.946       -2459.181          36.000    39185356.155   157783187.480       -1901.755          43.000  
C10  40500263.376   210895498.402         932.659          35.000    40500264.477   163077762.877         720.639          38.000  
C35  25955359.340   135156367.571         399.016          38.000                                                                  
C07  39564980.830   206025242.915        1119.796          38.000    39564970.688   159311736.006         865.922          41.000  
C12  26464030.304   137805164.436        2304.689          35.000    26464028.741   106559694.261        1782.317          43.000  
G25  24381971.225   128128129.271       -3913.890          35.000    24381963.908    99840064.630       -3049.689          35.000  
> 2025 10 30 06 19 53.7200000  0 23                     
G32  22010336.409   115665095.352       -2909.014          45.000    22010330.035    90128622.297       -2266.631          43.000  
G29  23070301.996   121235265.949        -571.365          42.000    23070293.225    94469008.033        -445.231          41.000  
G28  21248604.981   111662170.693       -1184.165          46.000    21248593.812    87009442.758        -922.907          46.000  
G26  20346694.513   106922600.940         699.578          48.000    20346687.934    83316293.666         545.191          47.000  
G31  20623757.602   108378576.379         160.304          47.000    20623747.004    84450797.720         124.711          46.000  
G04  24503210.917                        3181.691          30.000    24503209.349                        2478.973          33.000  
C33  22501942.926   117173519.505        -684.904          50.000                                                                  
C06  36572558.905   190442914.229        -161.604          45.000    36572542.159   147262470.737        -124.926          48.000  
C14  22663555.715   118015068.314       -2244.806          46.000    22663541.145    91256683.120       -1735.863          51.000  
C16  37000348.670   192670523.732        -192.743          48.000    37000336.950   148985023.117        -149.154          48.000  
C24  21839399.994   113723492.284        -856.808          50.000                                                                  
C26  24419742.002   127160002.972       -2561.174          44.000                                                                  
G03  22888146.443   120278014.000        -103.327          39.000    22888141.475    93723104.308         -80.892          40.000  
G16  22440724.410   117926816.680        2991.440          41.000                                                                  
C09  37724087.820   196439227.070        -151.029          43.000    37724074.038   151899213.494        -116.912          48.000  
C25  23654313.090   123174224.829        1578.326          45.000                                                                  
C13  38356465.517   199732176.695       -2261.436          41.000    38356459.597   154445567.374       -1748.740          43.000  
C08  39185386.731   204048585.310       -2459.064          36.000    39185375.057   157783263.543       -1901.699          43.000  
C10  40500256.192   210895461.120         932.120          35.000    40500257.362   163077734.024         721.081          38.000  
C35  25955356.268   135156351.603         399.148          38.000                                                                  
C07  39564972.224   206025198.127        1119.736          38.000    39564962.100   159311701.375         865.828          41.000  
C12  26464012.599   137805072.240        2304.696          35.000    26464011.025   106559622.964        1782.354          43.000  
G25  24382000.970   128128285.798       -3913.379          35.000    24381993.705    99840186.640       -3050.106          35.000  
> 2025 10 30 06 19 53.7600000  0 23                     
G32  22010358.539   115665211.708       -2908.941          45.000    22010352.182    90128712.953       -2266.425          43.000  
G29  23070306.350   121235288.817        -571.666          42.000    23070297.587    94469025.837        -445.174          41.000  
G28  21248614.009   111662218.061       -1184.202          46.000    21248602.814    87009479.672        -922.903          46.000  
G26  20346689.187   106922572.966         699.423          48.000    20346682.613    83316271.869         545.004          47.000  
G31  20623756.389   108378569.973         160.211          47.000    20623745.786    84450792.730         124.681          46.000  
G04  24503186.693                        3183.213          31.000    24503185.119                        2478.269          32.000  
C33  22501948.175   117173546.912        -685.145          50.000                                                                  
C06  36572560.168   190442920.692        -161.581          45.000    36572543.380   147262475.740        -125.033          48.000  
C14  22663572.931   118015158.118       -2245.029          46.000    22663558.390    91256752.554       -1735.845          51.000  
C16  37000350.152   192670531.445        -192.803          48.000    37000338.419   148985029.086        -149.248          48.000  
C24  21839406.595   113723526.556        -856.840          50.000                                                                  
C26  24419761.665   127160105.443       -2561.545          44.000                                                                  
G03  22888147.232   120278018.133        -103.282          39.000    22888142.247    93723107.531         -80.800          40.000  
G16  22440701.652   117926697.020        2991.475          41.000                                                                  
C09  37724088.984   196439233.127        -151.359          43.000    37724075.179   151899218.172        -116.994          48.000  
C25  23654300.986   123174161.691        1578.419          45.000                                                                  
C13  38356482.886   199732267.138       -2261.204          41.000    38356476.954   154445637.307       -1748.472          43.000  
C08  39185405.622   204048683.674       -2459.078          36.000    39185393.936   157783339.595       -1901.403          43.000  
C10  40500249.023   210895423.805         932.537          34.000    40500250.190   163077705.169         721.259          38.000  
C35  25955353.201   135156335.630         399.284          38.000                                                                  
C07  39564963.628   206025153.337        1119.786          38.000    39564953.482   159311666.761         865.444          41.000  
C12  26463994.880   137804980.043        2304.846          35.000    26463993.306   106559551.676        1782.243          43.000  
G25  24382030.743   128128442.317       -3913.038          35.000    24382023.506    99840308.614       -3049.640          35.000  
> 2025 10 30 06 19 53.8000000  0 23                     
G32  22010380.691   115665328.079       -2909.229          45.000    22010374.343    90128803.637       -2266.882          43.000  
G29  23070310.670   121235311.665        -571.438          42.000    23070301.941    94469043.651        -445.331          41.000  
G28  21248623.045   111662265.442       -1184.449          46.000    21248611.815    87009516.589        -922.947          46.000  
G26  20346683.879   106922544.994         699.261          48.000    20346677.289    83316250.075         544.837          47.000  
G31  20623755.164   108378563.580         159.903          47.000    20623744.575    84450787.748         124.533          46.000  
G04  24503162.478                        3181.742          30.000    24503160.894                        2479.183          33.000  
C33  22501953.387   117173574.327        -685.394          50.000                                                                  
C06  36572561.421   190442927.165        -161.742          45.000    36572544.634   147262480.749        -125.216          48.000  
C14  22663590.174   118015247.930       -2245.299          46.000    22663575.673    91256822.003       -1736.125          51.000  
C16  37000351.649   192670539.173        -193.125          48.000    37000339.887   148985035.055        -149.292          48.000  
C24  21839413.178   113723560.836        -856.984          50.000                                                                  
C26  24419781.353   127160207.919       -2561.858          44.000                                                                  
G03  22888148.032   120278022.281        -103.565          39.000    22888143.058    93723110.754         -80.671          40.000  
G16  22440678.906   117926577.369        2991.289          41.000                                                                  
C09  37724090.147   196439239.179        -151.444          43.000    37724076.324   151899222.853        -117.081          48.000  
C25  23654288.859   123174098.573        1578.085          45.000                                                                  
C13  38356500.256   199732357.607       -2261.617          41.000    38356494.317   154445707.260       -1748.697          43.000  
C08  39185424.530   204048782.059       -2459.453          36.000    39185412.830   157783415.667       -1901.653          43.000  
C10  40500241.838   210895386.514         932.354          35.000    40500243.024   163077676.341         720.966          38.000  
C35  25955350.159   135156319.658         399.345          38.000                                                                  
C07  39564955.034   206025108.562        1119.515          38.000    39564944.873   159311632.139         865.374          41.000  
C12  26463977.162   137804887.838        2305.031          35.000    26463975.577   106559480.388        1782.201          43.000  
G25  24382060.555   128128598.882       -3913.710          35.000    24382053.306    99840430.593       -3049.452          35.000  
> 2025 10 30 06 19 53.8400000  0 23                     
G32  22010402.858   115665444.459       -2909.502          45.000    22010396.489    90128894.324       -2267.193          43.000  
G29  23070315.022   121235334.530        -571.575          42.000    23070306.299    94469061.473        -445.503          41.000  
G28  21248632.043   111662312.828       -1184.654          46.000    21248620.818    87009553.512        -923.042          46.000  
G26  20346678.551   106922517.027         699.126          48.000    20346671.993    83316228.288         544.646          47.000  
G31  20623753.975   108378557.196         159.602          47.000    20623743.378    84450782.768         124.454          46.000  
G04  24503138.249                        3180.574          31.000    24503136.660                        2479.175          33.000  
C33  22501958.679   117173601.739        -685.444          50.000                                                                  
C06  36572562.665   190442933.641        -161.890          45.000    36572545.865   147262485.757        -125.262          48.000  
C14  22663607.416   118015337.748       -2245.509          46.000    22663592.933    91256891.452       -1736.274          51.000  
C16  37000353.164   192670546.891        -193.085          48.000    37000341.379   148985041.025        -149.321          48.000  
C24  21839419.724   113723595.125        -857.208          50.000                                                                  
C26  24419801.044   127160310.387       -2561.844          44.000                                                                  
G03  22888148.801   120278026.423        -103.607          39.000    22888143.835    93723113.982         -80.683          40.000  
G16  22440656.135   117926457.720        2991.158          41.000                                                                  
C09  37724091.326   196439245.232        -151.411          43.000    37724077.501   151899227.532        -117.053          48.000  
C25  23654276.737   123174035.450        1578.019          45.000                                                                  
C13  38356517.623   199732448.075       -2261.770          41.000    38356511.695   154445777.207       -1748.632          43.000  
C08  39185443.428   204048880.424       -2459.244          36.000    39185431.724   157783491.745       -1901.903          43.000  
C10  40500234.667   210895349.237         931.907          35.000    40500235.878   163077647.491         721.145          38.000  
C35  25955347.099   135156303.693         399.224          38.000                                                                  
C07  39564946.442   206025063.800        1119.189          38.000    39564936.277   159311597.522         865.305          41.000  
C12  26463959.456   137804795.642        2304.987          35.000    26463957.878   106559409.093        1782.275          43.000  
G25  24382090.369   128128755.458       -3914.250          35.000    24382083.091    99840552.584       -3049.642          35.000  
> 2025 10 30 06 19 53.8800000  0 23                     
G32  22010425.003   115665560.832       -2909.484          45.000    22010418.634    90128985.002       -2267.177          43.000  
G29  23070319.376   121235357.395        -571.706          42.000    23070310.650    94469079.280        -445.325          41.000  
G28  21248641.073   111662360.212       -1184.693          46.000    21248629.814    87009590.424        -922.898          46.000  
G26  20346673.225   106922489.060         699.086          48.000    20346666.661    83316206.488         544.810          47.000  
G31  20623752.759   108378550.800         159.715          47.000    20623742.169    84450777.784         124.498          46.000  
G04  24503114.025                        3181.254          31.000    24503112.429                        2480.061          32.000  
C33  22501963.969   117173629.142        -685.237          50.000                                                                  
C06  36572563.900   190442940.118        -161.982          45.000    36572547.096   147262490.760        -125.177          48.000  
C14  22663624.681   118015427.553       -2245.344          46.000    22663610.183    91256960.897       -1736.270          51.000  
C16  37000354.644   192670554.602        -192.900          48.000    37000342.902   148985046.989        -149.174          48.000  
C24  21839426.324   113723629.411        -857.239          50.000                                                                  
C26  24419820.735   127160412.856       -2561.859          44.000                                                                  
G03  22888149.594   120278030.581        -103.933          39.000    22888144.612    93723117.206         -80.647          40.000  
G16  22440633.354   117926338.062        2991.292          41.000                                                                  
C09  37724092.488   196439251.281        -151.320          43.000    37724078.668   151899232.211        -117.046          48.000  
C25  23654264.632   123173972.320        1578.099          45.000                                                                  
C13  38356535.015   199732538.550       -2261.896          41.000    38356529.083   154445847.150       -1748.608          43.000  
C08  39185462.310   204048978.774       -2458.861          36.000    39185450.647   157783567.809       -1901.767          43.000  
C10  40500227.512   210895311.925         932.445          35.000    40500228.698   163077618.652         720.983          38.000  
C35  25955344.029   135156287.737         399.030          38.000                                                                  
C07  39564937.845   206025019.021        1119.265          38.000    39564927.675   159311562.891         865.537          41.000  
C12  26463941.737   137804703.449        2304.869          35.000    26463940.181   106559337.798        1782.324          43.000  
G25  24382120.179   128128912.023       -3914.385          35.000    24382112.879    99840674.575       -3049.778          35.000  
> 2025 10 30 06 19 53.9200000  0 23                     
G32  22010447.117   115665677.209       -2909.504          45.000    22010440.795    90129075.680       -2267.079          43.000  
G29  23070323.742   121235380.277        -572.004          42.000    23070314.983    94469097.111        -445.710          41.000  
G28  21248650.067   111662407.592       -1184.653          46.000    21248638.833    87009627.338        -922.863          46.000  
G26  20346667.875   106922461.093         699.080          48.000    20346661.340    83316184.702         544.642          47.000  
G31  20623751.522   108378544.408         159.721          47.000    20623740.951    84450772.804         124.461          46.000  
G04  24503089.849                        3180.176          30.000    24503088.242                        2478.434          33.000  
C33  22501969.195   117173656.557        -685.371          50.000                                                                  
C06  36572565.124   190442946.600        -162.146          45.000    36572548.338   147262495.769        -125.221          48.000  
C14  22663641.917   118015517.360       -2245.292          46.000    22663627.434    91257030.347       -1736.324          51.000  
C16  37000356.113   192670562.326        -193.057          48.000    37000344.421   148985052.955        -149.183          48.000  
C24  21839432.917   113723663.693        -857.181          50.000                                                                  
C26  24419840.416   127160515.328       -2561.866          44.000                                                                  
G03  22888150.407   120278034.733        -103.979          39.000    22888145.387    93723120.445         -80.911          40.000  
G16  22440610.589   117926218.418        2991.105          41.000                                                                  
C09  37724093.660   196439257.328        -151.245          43.000    37724079.812   151899236.892        -117.097          48.000  
C25  23654252.513   123173909.194        1578.112          45.000                                                                  
C13  38356552.389   199732629.009       -2261.664          41.000    38356546.466   154445917.107       -1748.884          43.000  
C08  39185481.189   204049077.153       -2459.249          36.000    39185469.526   157783643.880       -1901.863          43.000  
C10  40500220.342   210895274.642         932.123          35.000    40500221.535   163077589.830         720.670          38.000  
C35  25955340.959   135156271.802         398.459          38.000                                                                  
C07  39564929.241   206024974.236        1119.467          38.000    39564919.073   159311528.247         865.868          41.000  
C12  26463924.028   137804611.251        2304.838          35.000    26463922.464   106559266.504        1782.330          43.000  
G25  24382149.986   128129068.589       -3914.404          35.000    24382142.682    99840796.584       -3050.076          35.000  
> 2025 10 30 06 19 53.9600000  0 23                     
G32  22010469.260   115665793.591       -2909.609          45.000    22010462.936    90129166.369       -2267.206          43.000  
G29  23070328.101   121235403.154        -572.056          42.000    23070319.347    94469114.949        -446.001          41.000  
G28  21248659.089   111662454.985       -1184.822          46.000    21248647.836    87009664.275        -923.277          46.000  
G26  20346662.555   106922433.141         698.808          48.000    20346656.022    83316162.915         544.575          47.000  
G31  20623750.313   108378538.025         159.586          47.000    20623739.758    84450767.827         124.400          46.000  
G04  24503065.646                        3180.189          31.000    24503064.033                        2477.543          32.000  
C33  22501974.464   117173683.983        -685.642          50.000                                                                  
C06  36572566.339   190442953.087        -162.289          45.000    36572549.568   147262500.782        -125.311          48.000  
C14  22663659.152   118015607.187       -2245.622          46.000    22663644.665    91257099.804       -1736.448          51.000  
C16  37000357.549   192670570.062        -193.347          48.000    37000345.921   148985058.944        -149.578          48.000  
C24  21839439.481   113723697.988        -857.341          50.000                                                                  
C26  24419860.100   127160617.795       -2561.764          44.000                                                                  
G03  22888151.198   120278038.897        -104.196          39.000    22888146.178    93723123.687         -81.078          40.000  
G16  22440587.839   117926098.791        2990.666          41.000                                                                  
C09  37724094.811   196439263.396        -151.576          43.000    37724080.969   151899241.589        -117.393          48.000  
C25  23654240.374   123173846.090        1577.699          45.000                                                                  
C13  38356569.747   199732719.484       -2261.801          41.000    38356563.828   154445987.079       -1749.273          43.000  
C08  39185500.094   204049175.552       -2459.832          36.000    39185488.453   157783719.963       -1902.085          43.000  
C10  40500213.178   210895237.345         932.213          35.000    40500214.372   163077560.993         720.777          38.000  
C35  25955337.918   135156255.873         398.134          38.000                                                                  
C07  39564920.638   206024929.479        1119.054          38.000    39564910.480   159311493.647         865.266          41.000  
C12  26463906.326   137804519.059        2304.808          35.000    26463904.763   106559195.220        1782.133          43.000  
G25  24382179.779   128129225.132       -3913.860          35.000    24382172.463    99840918.585       -3050.133          35.000  
> 2025 10 30 06 19 54.0000000  0 23                     
G32  22010491.413   115665909.965       -2909.476          45.000    22010485.072    90129257.058       -2267.246          43.000  
G29  23070332.431   121235426.020        -571.826          42.000    23070323.691    94469132.760        -445.586          41.000  
G28  21248668.088   111662502.376       -1184.872          46.000    21248656.845    87009701.205        -923.335          46.000  
G26  20346657.225   106922405.179         698.885          48.000    20346650.699    83316141.127         544.614          47.000  
G31  20623749.089   108378531.634         159.667          47.000    20623738.545    84450762.855         124.290          46.000  
G04  24503041.408                        3181.539          30.000    24503039.826                        2478.396          32.000  
C33  22501979.800   117173711.400        -685.573          50.000                                                                  
C06  36572567.591   190442959.563        -162.084          45.000    36572550.847   147262505.793        -125.321          48.000  
C14  22663676.406   118015697.011       -2245.691          46.000    22663661.922    91257169.258       -1736.439          51.000  
C16  37000359.030   192670577.790        -193.338          48.000    37000347.415   148985064.921        -149.556          48.000  
C24  21839446.063   113723732.277        -857.308          50.000                                                                  
C26  24419879.788   127160720.271       -2561.862          44.000                                                                  
G03  22888151.992   120278043.053        -104.064          39.000    22888146.982    93723126.940         -81.344          40.000  
G16  22440565.073   117925979.149        2990.786          41.000                                                                  
C09  37724095.959   196439269.451        -151.494          43.000    37724082.137   151899246.276        -117.324          48.000  
C25  23654228.276   123173782.970        1577.830          45.000                                                                  
C13  38356587.098   199732809.939       -2261.501          41.000    38356581.202   154446057.035       -1749.120          43.000  
C08  39185518.992   204049273.948       -2459.959          36.000    39185507.359   157783796.043       -1902.120          43.000  
C10  40500206.022   210895200.042         932.524          35.000    40500207.242   163077532.157         720.789          38.000  
C35  25955334.843   135156239.938         398.091          38.000                                                                  
C07  39564912.035   206024884.716        1119.001          38.000    39564901.874   159311459.037         865.161          41.000  
C12  26463888.590   137804426.868        2304.747          35.000    26463887.069   106559123.939        1782.010          43.000  
G25  24382209.553   128129381.688       -3913.838          35.000    24382202.251    99841040.586       -3050.083          35.000  
> 2025 10 30 06 19 54.0400000  0 23                     
G32  22010513.559   115666026.328       -2909.233          45.000    22010507.214    90129347.745       -2267.217          43.000  
G29  23070336.777   121235448.892        -571.834          42.000    23070328.046    94469150.580        -445.512          41.000  
G28  21248677.101   111662549.756       -1184.667          46.000    21248665.874    87009738.130        -923.253          46.000  
G26  20346651.908   106922377.208         699.129          48.000    20346645.358    83316119.333         544.751          47.000  
G31  20623747.852   108378525.241         159.772          47.000    20623737.321    84450757.874         124.414          46.000  
G04  24503017.202                        3182.241          31.000    24503015.589                        2478.865          33.000  
C33  22501985.080   117173738.811        -685.393          50.000                                                                  
C06  36572568.808   190442966.027        -161.746          45.000    36572552.112   147262510.801        -125.273          48.000  
C14  22663693.659   118015786.822       -2245.445          46.000    22663679.192    91257238.703       -1736.246          51.000  
C16  37000360.493   192670585.510        -193.152          48.000    37000348.923   148985070.886        -149.294          48.000  
C24  21839452.637   113723766.559        -857.164          50.000                                                                  
C26  24419899.446   127160822.747       -2561.898          44.000                                                                  
G03  22888152.767   120278047.190        -103.610          40.000    22888147.765    93723130.178         -81.176          40.000  
G16  22440542.302   117925859.498        2991.087          41.000                                                                  
C09  37724097.107   196439275.494        -151.240          43.000    37724083.270   151899250.947        -116.953          48.000  
C25  23654216.150   123173719.840        1578.139          45.000                                                                  
C13  38356604.489   199732900.375       -2261.012          41.000    38356598.597   154446126.976       -1748.739          43.000  
C08  39185537.886   204049372.339       -2459.902          36.000    39185526.256   157783872.108       -1901.803          43.000  
C10  40500198.844   210895162.726         932.920          34.000    40500200.060   163077503.311         720.966          38.000  
C35  25955331.769   135156223.978         398.560          38.000                                                                  
C07  39564903.426   206024839.941        1119.166          38.000    39564893.269   159311424.395         865.726          41.000  
C12  26463870.891   137804334.680        2304.655          35.000    26463869.373   106559052.647        1782.165          43.000  
G25  24382239.350   128129538.264       -3914.199          35.000    24382232.025    99841162.575       -3049.906          35.000  
> 2025 10 30 06 19 54.0800000  0 23                     
G32  22010535.733   115666142.704       -2909.302          45.000    22010529.370    90129438.421       -2267.036          43.000  
G29  23070341.140   121235471.752        -571.582          42.000    23070332.391    94469168.400        -445.482          41.000  
G28  21248686.104   111662597.126       -1184.379          46.000    21248674.877    87009775.046        -923.031          46.000  
G26  20346646.563   106922349.231         699.351          48.000    20346640.023    83316097.537         544.862          47.000  
G31  20623746.649   108378518.846         159.864          47.000    20623736.098    84450752.890         124.555          46.000  
G04  24502992.986                        3180.742          31.000    24502991.345                        2479.585          33.000  
C33  22501990.365   117173766.221        -685.300          50.000                                                                  
C06  36572570.050   190442972.482        -161.421          45.000    36572553.372   147262515.800        -125.089          48.000  
C14  22663710.926   118015876.624       -2245.135          46.000    22663696.432    91257308.143       -1736.058          51.000  
C16  37000361.977   192670593.221        -192.881          48.000    37000350.397   148985076.848        -149.109          48.000  
C24  21839459.237   113723800.835        -856.971          50.000                                                                  
C26  24419919.135   127160925.206       -2561.604          44.000                                                                  
G03  22888153.556   120278051.314        -103.136          40.000    22888148.532    93723133.397         -80.684          40.000  
G16  22440519.537   117925739.840        2991.372          41.000                                                                  
C09  37724098.280   196439281.531        -151.003          43.000    37724084.439   151899255.613        -116.698          48.000  
C25  23654204.042   123173656.713        1578.206          45.000                                                                  
C13  38356621.842   199732990.839       -2261.290          41.000    38356615.984   154446196.925       -1748.678          43.000  
C08  39185556.799   204049470.683       -2459.050          36.000    39185545.125   157783948.162       -1901.485          43.000  
C10  40500191.662   210895125.424         932.712          34.000    40500192.891   163077474.475         720.881          38.000  
C35  25955328.692   135156208.009         399.107          38.000                                                                  
C07  39564894.831   206024795.154        1119.486          38.000    39564884.653   159311389.761         865.873          41.000  
C12  26463853.176   137804242.478        2304.908          35.000    26463851.640   106558981.360        1782.221          43.000  
G25  24382269.134   128129694.784       -3913.439          35.000    24382261.829    99841284.567       -3049.850          35.000  
> 2025 10 30 06 19 54.1200000  0 23                     
G32  22010557.876   115666259.078       -2909.334          45.000    22010551.510    90129529.097       -2266.896          43.000  
G29  23070345.504   121235494.631        -571.824          42.000    23070336.728    94469186.219        -445.491          41.000  
G28  21248695.141   111662644.499       -1184.319          46.000    21248683.886    87009811.961        -922.890          46.000  
G26  20346641.238   106922321.259         699.355          48.000    20346634.710    83316075.742         544.886          47.000  
G31  20623745.439   108378512.453         159.839          47.000    20623734.859    84450747.899         124.740          46.000  
G04  24502968.747                        3181.775          31.000    24502967.109                        2480.236          33.000  
C33  22501995.661   117173793.631        -685.251          50.000                                                                  
C06  36572571.264   190442978.952        -161.556          45.000    36572554.629   147262520.799        -124.976          48.000  
C14  22663728.171   118015966.425       -2244.989          46.000    22663713.691    91257377.593       -1736.157          51.000  
C16  37000363.463   192670600.928        -192.682          48.000    37000351.875   148985082.808        -148.978          48.000  
C24  21839465.867   113723835.114        -856.932          50.000                                                                  
C26  24419938.808   127161027.661       -2561.418          44.000                                                                  
G03  22888154.365   120278055.453        -103.226          40.000    22888149.312    93723136.626         -80.639          40.000  
G16  22440496.753   117925620.175        2991.607          41.000                                                                  
C09  37724099.427   196439287.579        -151.084          43.000    37724085.574   151899260.284        -116.687          48.000  
C25  23654191.900   123173593.591        1578.112          45.000                                                                  
C13  38356639.203   199733081.301       -2261.484          41.000    38356633.358   154446266.876       -1748.711          43.000  
C08  39185575.690   204049569.048       -2459.023          36.000    39185564.020   157784024.231       -1901.571          43.000  
C10  40500184.522   210895088.135         932.394          34.000    40500185.739   163077445.633         720.964          38.000  
C35  25955325.616   135156192.037         399.266          38.000                                                                  
C07  39564886.228   206024750.369        1119.636          38.000    39564876.047   159311355.134         865.803          41.000  
C12  26463835.467   137804150.268        2305.228          35.000    26463833.939   106558910.070        1782.270          43.000  
G25  24382298.916   128129851.344       -3913.696          35.000    24382291.630    99841406.560       -3049.812          35.000  
> 2025 10 30 06 19 54.1600000  0 23                     
G32  22010580.029   115666375.465       -2909.586          45.000    22010573.662    90129619.784       -2267.029          43.000  
G29  23070349.836   121235517.496        -571.716          42.000    23070341.061    94469204.047        -445.660          41.000  
G28  21248704.174   111662691.880       -1184.448          46.000    21248692.885    87009848.884        -922.971          46.000  
G26  20346635.930   106922293.308         698.918          48.000    20346629.390    83316053.956         544.686          47.000  
G31  20623744.228   108378506.064         159.734          47.000    20623733.653    84450742.921         124.560          46.000  
G04  24502944.516                        3181.296          31.000    24502942.878                        2479.642          33.000  
C33  22502000.904   117173821.052        -685.443          50.000                                                                  
C06  36572572.503   190442985.437        -161.936          45.000    36572555.894   147262525.804        -125.041          48.000  
C14  22663745.409   118016056.241       -2245.250          46.000    22663730.926    91257447.044       -1736.240          51.000  
C16  37000364.931   192670608.648        -192.867          48.000    37000353.327   148985088.780        -149.182          48.000  
C24  21839472.412   113723869.406        -857.185          50.000                                                                  
C26  24419958.487   127161130.140       -2561.790          44.000                                                                  
G03  22888155.182   120278059.626        -104.022          39.000    22888150.098    93723139.872         -81.008          40.000  
G16  22440473.991   117925500.549        2990.977          41.000                                                                  
C09  37724100.589   196439293.639        -151.364          43.000    37724086.731   151899264.968        -116.976          48.000  
C25  23654179.758   123173530.479        1577.866          45.000                                                                  
C13  38356656.592   199733171.778       -2261.838          41.000    38356650.744   154446336.826       -1748.762          43.000  
C08  39185594.570   204049667.415       -2459.035          36.000    39185582.897   157784100.312       -1901.840          43.000  
C10  40500177.403   210895050.839         932.327          34.000    40500178.556   163077416.783         721.166          38.000  
C35  25955322.545   135156176.090         398.883          38.000                                                                  
C07  39564877.621   206024705.592        1119.540          38.000    39564867.485   159311320.525         865.404          41.000  
C12  26463817.773   137804058.053        2305.417          35.000    26463816.233   106558838.764        1782.584          43.000  
G25  24382328.697   128130007.882       -3913.561          35.000    24382321.408    99841528.528       -3049.364          35.000  
> 2025 10 30 06 19 54.2000000  0 23                     
G32  22010602.173   115666491.848       -2909.638          45.000    22010595.817    90129710.470       -2267.127          43.000  
G29  23070354.176   121235540.377        -571.943          42.000    23070345.423    94469221.875        -445.779          41.000  
G28  21248713.222   111662739.279       -1184.839          46.000    21248701.905    87009885.808        -923.060          46.000  
G26  20346630.621   106922265.356         698.740          48.000    20346624.093    83316032.176         544.488          47.000  
G31  20623743.024   108378499.681         159.573          47.000    20623732.452    84450737.948         124.369          46.000  
G04  24502920.318                        3180.708          31.000    24502918.667                        2478.441          32.000  
C33  22502006.125   117173848.475        -685.568          50.000                                                                  
C06  36572573.734   190442991.925        -162.207          45.000    36572557.160   147262530.817        -125.260          48.000  
C14  22663762.655   118016146.071       -2245.649          46.000    22663748.176    91257516.498       -1736.367          51.000  
C16  37000366.395   192670616.376        -193.133          48.000    37000354.791   148985094.759        -149.427          48.000  
C24  21839478.963   113723903.703        -857.428          50.000                                                                  
C26  24419978.168   127161232.620       -2561.991          44.000                                                                  
G03  22888156.000   120278063.797        -104.297          39.000    22888150.875    93723143.115         -81.163          40.000  
G16  22440451.218   117925380.901        2991.042          41.000                                                                  
C09  37724101.752   196439299.702        -151.550          43.000    37724087.917   151899269.651        -117.113          48.000  
C25  23654167.676   123173467.365        1577.780          45.000                                                                  
C13  38356673.975   199733262.261       -2262.108          41.000    38356668.116   154446406.771       -1748.669          43.000  
C08  39185613.478   204049765.799       -2459.417          36.000    39185601.777   157784176.381       -1901.789          43.000  
C10  40500170.247   210895013.573         931.791          34.000    40500171.391   163077387.942         721.121          38.000  
C35  25955319.489   135156160.151         398.521          38.000                                                                  
C07  39564869.030   206024660.807        1119.568          38.000    39564858.890   159311285.899         865.477          41.000  
C12  26463800.059   137803965.864        2304.966          35.000    26463798.522   106558767.477        1782.360          43.000  
G25  24382358.501   128130164.480       -3914.546          35.000    24382351.194    99841650.516       -3049.459          35.000  
> 2025 10 30 06 19 54.2400000  0 23                     
G32  22010624.301   115666608.234       -2909.713          45.000    22010617.972    90129801.162       -2267.288          43.000  
G29  23070358.535   121235563.264        -572.179          42.000    23070349.794    94469239.711        -445.952          41.000  
G28  21248722.245   111662786.673       -1184.930          46.000    21248710.921    87009922.740        -923.264          46.000  
G26  20346625.293   106922237.405         698.675          48.000    20346618.764    83316010.394         544.465          47.000  
G31  20623741.794   108378493.291         159.655          47.000    20623731.253    84450732.979         124.203          46.000  
G04  24502896.111                        3181.150          31.000    24502894.444                        2478.937          32.000  
C33  22502011.421   117173875.901        -685.686          50.000                                                                  
C06  36572575.010   190442998.401        -162.108          45.000    36572558.385   147262535.831        -125.375          48.000  
C14  22663779.924   118016235.899       -2245.808          46.000    22663765.410    91257585.956       -1736.472          51.000  
C16  37000367.897   192670624.104        -193.236          48.000    37000356.261   148985100.737        -149.517          48.000  
C24  21839485.606   113723937.993        -857.402          50.000                                                                  
C26  24419997.838   127161335.091       -2561.942          44.000                                                                  
G03  22888156.803   120278067.981        -104.622          39.000    22888151.689    93723146.362         -81.273          40.000  
G16  22440428.441   117925261.259        2990.933          41.000                                                                  
C09  37724102.928   196439305.750        -151.349          43.000    37724089.096   151899274.330        -117.110          48.000  
C25  23654155.565   123173404.255        1577.701          45.000                                                                  
C13  38356691.358   199733352.728       -2261.911          41.000    38356685.461   154446476.723       -1748.750          43.000  
C08  39185632.377   204049864.220       -2460.295          36.000    39185620.665   157784252.458       -1901.951          43.000  
C10  40500163.113   210894976.279         932.067          34.000    40500164.239   163077359.096         721.156          38.000  
C35  25955316.407   135156144.207         398.449          38.000                                                                  
C07  39564860.427   206024616.047        1119.137          38.000    39564850.313   159311251.278         865.461          41.000  
C12  26463782.346   137803873.676        2304.770          35.000    26463780.834   106558696.187        1782.262          43.000  
G25  24382388.318   128130321.063       -3914.833          35.000    24382380.992    99841772.518       -3049.814          35.000  
> 2025 10 30 06 19 54.2800000  0 23                     
G32  22010646.440   115666724.612       -2909.573          45.000    22010640.129    90129891.847       -2267.225          43.000  
G29  23070362.870   121235586.137        -571.987          42.000    23070354.141    94469257.531        -445.671          41.000  
G28  21248731.255   111662834.052       -1184.701          46.000    21248719.940    87009959.659        -923.105          46.000  
G26  20346619.992   106922209.435         699.019          48.000    20346613.423    83315988.605         544.578          47.000  
G31  20623740.566   108378486.893         159.865          47.000    20623730.021    84450728.001         124.315          46.000  
G04  24502871.898                        3181.554          30.000    24502870.215                        2478.430          32.000  
C33  22502016.733   117173903.316        -685.524          50.000                                                                  
C06  36572576.274   190443004.863        -161.754          45.000    36572559.628   147262540.832        -125.190          48.000  
C14  22663797.175   118016325.701       -2245.363          46.000    22663782.642    91257655.412       -1736.488          50.000  
C16  37000369.425   192670631.823        -193.094          48.000    37000357.717   148985106.706        -149.362          48.000  
C24  21839492.206   113723972.273        -857.176          50.000                                                                  
C26  24420017.513   127161437.557       -2561.787          44.000                                                                  
G03  22888157.608   120278072.107        -103.588          39.000    22888152.480    93723149.601         -81.131          40.000  
G16  22440405.662   117925141.611        2991.127          41.000                                                                  
C09  37724104.085   196439311.803        -151.317          43.000    37724090.226   151899279.008        -117.025          48.000  
C25  23654143.442   123173341.130        1577.955          45.000                                                                  
C13  38356708.745   199733443.173       -2261.337          41.000    38356702.823   154446546.687       -1749.024          43.000  
C08  39185651.259   204049962.592       -2459.835          36.000    39185639.553   157784328.525       -1901.812          43.000  
C10  40500155.937   210894938.960         932.645          34.000    40500157.074   163077330.242         721.222          38.000  
C35  25955313.373   135156128.254         398.578          38.000                                                                  
C07  39564851.806   206024571.269        1119.198          38.000    39564841.724   159311216.647         865.656          41.000  
C12  26463764.653   137803781.475        2304.913          35.000    26463763.089   106558624.897        1782.163          43.000  
G25  24382418.095   128130477.599       -3914.089          35.000    24382410.809    99841894.561       -3050.692          35.000  
> 2025 10 30 06 19 54.3200000  0 23                     
G32  22010668.596   115666840.984       -2909.400          45.000    22010662.255    90129982.524       -2267.049          43.000  
G29  23070367.216   121235609.006        -571.817          41.000    23070358.484    94469275.357        -445.667          41.000  
G28  21248740.254   111662881.425       -1184.435          46.000    21248728.942    87009996.568        -922.868          46.000  
G26  20346614.660   106922181.472         699.074          48.000    20346608.089    83315966.814         544.684          47.000  
G31  20623739.347   108378480.500         159.827          47.000    20623728.816    84450723.016         124.556          46.000  
G04  24502847.653                        3181.440          31.000    24502845.976                        2479.136          32.000  
C33  22502022.038   117173930.734        -685.487          50.000                                                                  
C06  36572577.535   190443011.331        -161.697          45.000    36572560.837   147262545.832        -125.059          48.000  
C14  22663814.408   118016415.512       -2245.303          46.000    22663799.893    91257724.860       -1736.315          50.000  
C16  37000370.935   192670639.537        -192.953          48.000    37000359.190   148985112.663        -149.066          48.000  
C24  21839498.817   113724006.559        -857.145          50.000                                                                  
C26  24420037.201   127161540.022       -2561.670          44.000                                                                  
G03  22888158.397   120278076.242        -103.301          39.000    22888153.270    93723152.841         -81.055          40.000  
G16  22440382.888   117925021.956        2991.312          41.000                                                                  
C09  37724105.256   196439317.842        -151.065          43.000    37724091.391   151899283.684        -116.943          48.000  
C25  23654131.339   123173277.998        1578.250          45.000                                                                  
C13  38356726.129   199733533.621       -2261.162          41.000    38356720.167   154446616.639       -1748.947          43.000  
C08  39185670.110   204050060.935       -2459.028          36.000    39185658.456   157784404.590       -1901.727          43.000  
C10  40500148.764   210894901.680         932.290          34.000    40500149.907   163077301.423         720.708          38.000  
C35  25955310.282   135156112.319         398.372          38.000                                                                  
C07  39564843.192   206024526.492        1119.304          38.000    39564833.121   159311182.029         865.507          41.000  
C12  26463746.967   137803689.285        2304.715          35.000    26463745.386   106558553.605        1782.213          43.000  
G25  24382447.872   128130634.121       -3913.342          35.000    24382440.597    99842016.544       -3050.127          35.000  
> 2025 10 30 06 19 54.3600000  0 23                     
G32  22010690.745   115666957.359       -2909.344          45.000    22010684.409    90130073.208       -2267.093          43.000  
G29  23070371.553   121235631.879        -571.787          42.000    23070362.850    94469293.178        -445.599          41.000  
G28  21248749.289   111662928.804       -1184.418          46.000    21248737.960    87010033.488        -922.913          46.000  
G26  20346609.354   106922153.509         699.085          48.000    20346602.766    83315945.022         544.758          47.000  
G31  20623738.150   108378474.108         159.808          47.000    20623727.600    84450718.030         124.660          46.000  
G04  24502823.431                        3181.064          30.000    24502821.748                        2479.067          32.000  
C33  22502027.305   117173958.156        -685.557          50.000                                                                  
C06  36572578.782   190443017.800        -161.703          45.000    36572562.079   147262550.842        -125.176          48.000  
C14  22663831.625   118016505.326       -2245.318          46.000    22663817.115    91257794.303       -1736.139          50.000  
C16  37000372.448   192670647.253        -192.871          48.000    37000360.659   148985118.623        -148.968          48.000  
C24  21839505.410   113724040.842        -857.089          50.000                                                                  
C26  24420056.892   127161642.487       -2561.656          44.000                                                                  
G03  22888159.190   120278080.397        -103.580          39.000    22888154.073    93723156.076         -80.950          40.000  
G16  22440360.126   117924902.313        2991.192          41.000                                                                  
C09  37724106.407   196439323.894        -151.190          43.000    37724092.546   151899288.357        -116.861          48.000  
C25  23654119.219   123173214.868        1578.316          45.000                                                                  
C13  38356743.490   199733624.085       -2261.427          41.000    38356737.516   154446686.599       -1749.015          43.000  
C08  39185688.997   204050159.317       -2459.208          36.000    39185677.348   157784480.657       -1901.688          43.000  
C10  40500141.596   210894864.368         932.619          34.000    40500142.751   163077272.603         720.430          38.000  
C35  25955307.218   135156096.361         398.663          38.000                                                                  
C07  39564834.574   206024481.683        1119.922          38.000    39564824.529   159311147.398         865.645          41.000  
C12  26463729.251   137803597.097        2304.604          35.000    26463727.680   106558482.322        1782.109          42.000  
G25  24382477.654   128130790.684       -3913.702          35.000    24382470.380    99842138.543       -3049.985          35.000  
> 2025 10 30 06 19 54.4000000  0 23                     
G32  22010712.887   115667073.742       -2909.504          45.000    22010706.553    90130163.891       -2267.121          43.000  
G29  23070375.894   121235654.753        -571.782          42.000    23070367.193    94469311.001        -445.626          41.000  
G28  21248758.309   111662976.190       -1184.558          46.000    21248746.990    87010070.413        -923.043          46.000  
G26  20346604.056   106922125.551         698.978          48.000    20346597.437    83315923.238         544.632          47.000  
G31  20623736.967   108378467.722         159.660          47.000    20623726.387    84450713.050         124.585          46.000  
G04  24502799.222                        3181.357          30.000    24502797.539                        2478.940          32.000  
C33  22502032.569   117173985.582        -685.658          50.000                                                                  
C06  36572580.013   190443024.277        -161.858          45.000    36572563.287   147262555.851        -125.228          48.000  
C14  22663848.848   118016595.149       -2245.536          46.000    22663834.325    91257863.756       -1736.257          50.000  
C16  37000373.958   192670654.965        -192.823          48.000    37000362.156   148985124.595        -149.161          48.000  
C24  21839511.945   113724075.129        -857.137          50.000                                                                  
C26  24420076.551   127161744.958       -2561.744          44.000                                                                  
G03  22888159.999   120278084.565        -103.996          39.000    22888154.870    93723159.317         -81.079          40.000  
G16  22440337.360   117924782.680        2990.881          41.000                                                                  
C09  37724107.577   196439329.938        -151.108          43.000    37724093.697   151899293.034        -116.882          48.000  
C25  23654107.075   123173151.747        1578.149          45.000                                                                  
C13  38356760.848   199733714.556       -2261.739          41.000    38356754.866   154446756.547       -1748.872          43.000  
C08  39185707.890   204050257.683       -2459.140          36.000    39185696.237   157784556.721       -1901.609          43.000  
C10  40500134.459   210894827.067         932.629          34.000    40500135.580   163077243.766         720.634          37.000  
C35  25955304.161   135156080.419         398.633          38.000                                                                  
C07  39564825.969   206024436.921        1119.391          38.000    39564815.920   159311112.775         865.604          41.000  
C12  26463711.560   137803504.881        2305.136          35.000    26463709.943   106558411.032        1782.190          42.000  
G25  24382507.444   128130947.246       -3914.022          35.000    24382500.174    99842260.508       -3049.354          35.000  
> 2025 10 30 06 19 54.4400000  0 23                     
G32  22010735.055   115667190.135       -2909.768          45.000    22010728.701    90130254.586       -2267.339          43.000  
G29  23070380.253   121235677.642        -572.097          42.000    23070371.563    94469328.834        -445.827          41.000  
G28  21248767.332   111663023.581       -1184.759          46.000    21248756.007    87010107.353        -923.394          46.000  
G26  20346598.744   106922097.605         698.718          48.000    20346592.104    83315901.461         544.427          47.000  
G31  20623735.772   108378461.347         159.383          47.000    20623725.178    84450708.084         124.227          46.000  
G04  24502774.990                        3181.385          30.000    24502773.338   100334779.459        2478.898          32.000  
C33  22502037.859   117174013.011        -685.751          50.000                                                                  
C06  36572581.253   190443030.759        -162.047          45.000    36572564.499   147262560.862        -125.293          48.000  
C14  22663866.072   118016684.982       -2245.812          46.000    22663851.557    91257933.213       -1736.409          50.000  
C16  37000375.418   192670662.691        -193.020          48.000    37000363.683   148985130.566        -149.279          48.000  
C24  21839518.519   113724109.427        -857.385          50.000                                                                  
C26  24420096.214   127161847.429       -2561.796          44.000                                                                  
G03  22888160.813   120278088.752        -104.576          39.000    22888155.663    93723162.566         -81.208          40.000  
G16  22440314.604   117924663.040        2990.861          41.000                                                                  
C09  37724108.721   196439335.993        -151.313          43.000    37724094.834   151899297.722        -117.117          48.000  
C25  23654094.943   123173088.635        1577.897          45.000                                                                  
C13  38356778.211   199733805.031       -2261.948          41.000    38356772.247   154446826.498       -1748.823          43.000  
C08  39185726.793   204050356.072       -2459.497          36.000    39185715.144   157784632.790       -1901.647          43.000  
C10  40500127.284   210894789.760         932.689          34.000    40500128.428   163077214.912         721.079          37.000  
C35  25955301.082   135156064.492         398.274          38.000                                                                  
C07  39564817.371   206024392.169        1118.875          38.000    39564807.306   159311078.167         865.344          41.000  
C12  26463693.854   137803412.668        2305.413          35.000    26463692.232   106558339.749        1782.141          42.000  
G25  24382537.254   128131103.840       -3914.620          35.000    24382529.966    99842382.501       -3049.518          35.000  
> 2025 10 30 06 19 54.4800000  0 23                     
G32  22010757.188   115667306.523       -2909.813          45.000    22010750.843    90130345.273       -2267.275          43.000  
G29  23070384.637   121235700.534        -572.308          42.000    23070375.938    94469346.669        -445.964          41.000  
G28  21248776.355   111663070.980       -1184.977          46.000    21248765.017    87010144.279        -923.306          46.000  
G26  20346593.419   106922069.650         698.751          48.000    20346586.791    83315879.684         544.317          47.000  
G31  20623734.535   108378454.966         159.384          47.000    20623723.972    84450703.111         124.185          46.000  
G04  24502750.797                        3180.907          31.000    24502749.094   100334680.299        2478.910          32.000  
C33  22502043.115   117174040.439        -685.787          50.000                                                                  
C06  36572582.501   190443037.238        -162.052          45.000    36572565.757   147262565.865        -125.177          48.000  
C14  22663883.342   118016774.808       -2245.813          46.000    22663868.816    91258002.671       -1736.450          51.000  
C16  37000376.876   192670670.417        -193.167          48.000    37000365.186   148985136.548        -149.515          48.000  
C24  21839525.096   113724143.726        -857.523          50.000                                                                  
C26  24420115.884   127161949.915       -2562.069          44.000                                                                  
G03  22888161.596   120278092.933        -104.712          39.000    22888156.449    93723165.820         -81.382          40.000  
G16  22440291.841   117924543.407        2990.750          41.000                                                                  
C09  37724109.881   196439342.055        -151.521          43.000    37724096.005   151899302.405        -117.159          48.000  
C25  23654082.816   123173025.521        1577.805          45.000                                                                  
C13  38356795.571   199733895.510       -2262.075          41.000    38356789.622   154446896.456       -1748.954          43.000  
C08  39185745.656   204050454.455       -2459.560          36.000    39185734.058   157784708.871       -1901.901          43.000  
C10  40500120.137   210894752.466         932.490          34.000    40500121.257   163077186.085         720.906          37.000  
C35  25955298.011   135156048.569         398.032          38.000                                                                  
C07  39564808.772   206024347.426        1118.501          38.000    39564798.729   159311043.556         865.325          41.000  
C12  26463676.148   137803320.481        2304.967          35.000    26463674.515   106558268.461        1782.190          42.000  
G25  24382567.025   128131260.405       -3914.454          35.000    24382559.763    99842504.492       -3049.802          35.000  
> 2025 10 30 06 19 54.5200000  0 23                     
G32  22010779.344   115667422.920       -2909.968          45.000    22010772.982    90130435.961       -2267.238          43.000  
G29  23070388.997   121235723.419        -572.298          42.000    23070380.270    94469364.497        -445.866          41.000  
G28  21248785.362   111663118.373       -1184.929          46.000    21248774.034    87010181.210        -923.314          46.000  
G26  20346588.090   106922041.702         698.665          48.000    20346581.463    83315857.907         544.319          47.000  
G31  20623733.328   108378448.590         159.342          47.000    20623722.771    84450698.143         124.137          46.000  
G04  24502726.584                        3180.923          31.000    24502724.882   100334581.156        2478.650          32.000  
C33  22502048.376   117174067.872        -685.874          50.000                                                                  
C06  36572583.747   190443043.716        -162.050          45.000    36572566.984   147262570.868        -125.107          48.000  
C14  22663900.597   118016864.633       -2245.746          46.000    22663886.051    91258072.134       -1736.607          51.000  
C16  37000378.363   192670678.138        -193.110          48.000    37000366.694   148985142.526        -149.546          48.000  
C24  21839531.674   113724178.023        -857.529          50.000                                                                  
C26  24420135.564   127162052.383       -2561.909          44.000                                                                  
G03  22888162.386   120278097.094        -104.348          39.000    22888157.239    93723169.059         -81.165          40.000  
G16  22440269.058   117924423.759        2990.983          41.000                                                                  
C09  37724111.051   196439348.113        -151.541          43.000    37724097.176   151899307.086        -117.106          48.000  
C25  23654070.716   123172962.410        1577.719          45.000                                                                  
C13  38356812.967   199733985.977       -2261.899          41.000    38356806.986   154446966.410       -1748.890          43.000  
C08  39185764.531   204050552.828       -2459.505          36.000    39185752.940   157784784.957       -1902.148          43.000  
C10  40500112.996   210894715.194         931.893          34.000    40500114.106   163077157.244         721.006          37.000  
C35  25955294.957   135156032.627         398.288          38.000                                                                  
C07  39564800.176   206024302.637        1119.222          38.000    39564790.122   159311008.937         865.442          41.000  
C12  26463658.429   137803228.313        2304.338          35.000    26463656.800   106558197.163        1782.387          42.000  
G25  24382596.810   128131416.960       -3914.209          35.000    24382589.565    99842626.481       -3049.915          35.000  
> 2025 10 30 06 19 54.5600000  0 23                     
G32  22010801.492   115667539.305       -2909.787          45.000    22010795.139    90130526.661       -2267.446          43.000  
G29  23070393.336   121235746.311        -572.390          42.000    23070384.622    94469382.354        -446.298          41.000  
G28  21248794.384   111663165.764       -1184.864          46.000    21248783.064    87010218.137        -923.282          46.000  
G26  20346582.772   106922013.761         698.536          48.000    20346576.140    83315836.132         544.302          47.000  
G31  20623732.108   108378442.203         159.534          47.000    20623721.541    84450693.172         124.181          46.000  
G04  24502702.374                        3180.521          31.000    24502700.681   100334482.018        2478.435          33.000  
C33  22502053.664   117174095.304        -685.883          50.000                                                                  
C06  36572584.994   190443050.195        -162.062          45.000    36572568.231   147262575.877        -125.197          48.000  
C14  22663917.851   118016954.462       -2245.770          46.000    22663903.272    91258141.602       -1736.743          51.000  
C16  37000379.848   192670685.865        -193.178          48.000    37000368.197   148985148.502        -149.516          48.000  
C24  21839538.274   113724212.321        -857.531          50.000                                                                  
C26  24420155.236   127162154.860       -2561.948          44.000                                                                  
G03  22888163.180   120278101.254        -104.141          39.000    22888158.029    93723172.296         -80.977          40.000  
G16  22440246.278   117924304.116        2991.035          41.000                                                                  
C09  37724112.230   196439354.162        -151.374          43.000    37724098.320   151899311.772        -117.169          48.000  
C25  23654058.620   123172899.300        1577.640          45.000                                                                  
C13  38356830.353   199734076.445       -2261.799          41.000    38356824.343   154447036.364       -1748.890          43.000  
C08  39185783.425   204050651.236       -2460.039          36.000    39185771.840   157784861.030       -1902.007          43.000  
C10  40500105.860   210894677.898         932.114          34.000    40500106.929   163077128.418         720.763          37.000  
C35  25955291.908   135156016.680         398.540          38.000                                                                  
C07  39564791.534   206024257.833        1119.835          38.000    39564781.527   159310974.315         865.552          41.000  
C12  26463640.740   137803136.131        2304.316          35.000    26463639.103   106558125.883        1782.115          42.000  
G25  24382626.567   128131573.521       -3914.092          35.000    24382619.374    99842748.479       -3050.005          35.000  
> 2025 10 30 06 19 54.6000000  0 23                     
G32  22010823.633   115667655.685       -2909.579          46.000    22010817.279    90130617.352       -2267.349          43.000  
G29  23070397.658   121235769.198        -572.287          42.000    23070388.988    94469400.186        -446.047          41.000  
G28  21248803.396   111663213.156       -1184.836          46.000    21248792.088    87010255.064        -923.233          46.000  
G26  20346577.474   106921985.820         698.438          48.000    20346570.793    83315814.352         544.408          47.000  
G31  20623730.882   108378435.826         159.478          47.000    20623720.335    84450688.208         124.107          46.000  
G04  24502678.151                        3181.178          31.000    24502676.466   100334382.850        2478.810          33.000  
C33  22502058.948   117174122.738        -685.875          50.000                                                                  
C06  36572586.206   190443056.672        -162.034          45.000    36572569.483   147262580.892        -125.354          48.000  
C14  22663935.105   118017044.293       -2245.833          46.000    22663920.508    91258211.063       -1736.670          51.000  
C16  37000381.369   192670693.591        -193.190          48.000    37000369.664   148985154.479        -149.507          48.000  
C24  21839544.876   113724246.612        -857.390          50.000                                                                  
C26  24420174.925   127162257.337       -2561.995          44.000                                                                  
G03  22888163.951   120278105.415        -104.043          39.000    22888158.834    93723175.558         -81.382          40.000  
G16  22440223.513   117924184.494        2990.694          41.000                                                                  
C09  37724113.391   196439360.211        -151.266          43.000    37724099.498   151899316.454        -117.123          48.000  
C25  23654046.516   123172836.192        1577.635          45.000                                                                  
C13  38356847.737   199734166.907       -2261.580          41.000    38356841.694   154447106.326       -1749.028          43.000  
C08  39185802.308   204050749.589       -2459.270          36.000    39185790.736   157784937.099       -1901.802          43.000  
C10  40500098.696   210894640.636         931.767          34.000    40500099.750   163077099.587         720.720          37.000  
C35  25955288.861   135156000.755         398.351          38.000                                                                  
C07  39564782.925   206024213.063        1119.515          38.000    39564772.907   159310939.688         865.662          41.000  
C12  26463623.032   137803043.915        2305.102          35.000    26463621.438   106558054.586        1782.256          42.000  
G25  24382656.363   128131730.060       -3913.610          35.000    24382649.178    99842870.494       -3050.326          35.000  
> 2025 10 30 06 19 54.6400000  0 23                     
G32  22010845.772   115667772.072       -2909.637          46.000    22010839.433    90130708.043       -2267.319          43.000  
G29  23070402.033   121235792.095        -572.450          42.000    23070393.351    94469418.030        -446.084          41.000  
G28  21248812.411   111663260.537       -1184.637          46.000    21248801.126    87010291.995        -923.253          46.000  
G26  20346572.132   106921957.870         698.614          48.000    20346565.483    83315792.573         544.458          47.000  
G31  20623729.656   108378429.452         159.373          47.000    20623719.107    84450683.233         124.293          46.000  
G04  24502653.919                        3181.282          31.000    24502652.248   100334283.675        2479.237          33.000  
C33  22502064.215   117174150.165        -685.786          50.000                                                                  
C06  36572587.429   190443063.157        -162.117          45.000    36572570.726   147262585.906        -125.421          48.000  
C14  22663952.353   118017134.112       -2245.615          46.000    22663937.782    91258280.524       -1736.586          51.000  
C16  37000382.852   192670701.315        -193.155          48.000    37000371.121   148985160.452        -149.409          48.000  
C24  21839551.444   113724280.901        -857.284          50.000                                                                  
C26  24420194.616   127162359.805       -2561.841          44.000                                                                  
G03  22888164.744   120278109.584        -104.158          39.000    22888159.646    93723178.826         -81.725          40.000  
G16  22440200.745   117924064.860        2990.745          41.000                                                                  
C09  37724114.517   196439366.265        -151.280          43.000    37724100.664   151899321.132        -117.021          48.000  
C25  23654034.392   123172773.078        1577.715          45.000                                                                  
C13  38356865.115   199734257.375       -2261.677          41.000    38356859.061   154447176.285       -1749.058          43.000  
C08  39185821.198   204050847.959       -2459.121          36.000    39185809.624   157785013.176       -1901.826          43.000  
C10  40500091.499   210894603.332         932.297          34.000    40500092.584   163077070.746         720.913          37.000  
C35  25955285.786   135155984.802         398.677          38.000                                                                  
C07  39564774.331   206024168.291        1119.354          38.000    39564764.305   159310905.056         865.757          41.000  
C12  26463605.318   137802951.741        2304.643          35.000    26463603.722   106557983.306        1782.047          42.000  
G25  24382686.131   128131886.630       -3913.878          35.000    24382678.969    99842992.481       -3050.005          35.000  
> 2025 10 30 06 19 54.6800000  0 23                     
G32  22010867.943   115667888.472       -2909.911          46.000    22010861.574    90130798.744       -2267.499          43.000  
G29  23070406.384   121235814.980        -572.259          42.000    23070397.708    94469435.873        -446.128          41.000  
G28  21248821.452   111663307.932       -1184.756          46.000    21248810.138    87010328.928        -923.312          46.000  
G26  20346566.810   106921929.924         698.626          48.000    20346560.179    83315770.801         544.327          47.000  
G31  20623728.455   108378423.077         159.331          47.000    20623717.899    84450678.259         124.335          46.000  
G04  24502629.702                        3180.355          31.000    24502628.049   100334184.534        2478.928          33.000  
C33  22502069.453   117174177.606        -685.977          50.000                                                                  
C06  36572588.689   190443069.638        -162.120          45.000    36572571.992   147262590.917        -125.399          48.000  
C14  22663969.603   118017223.951       -2245.877          46.000    22663955.037    91258349.989       -1736.630          51.000  
C16  37000384.362   192670709.041        -193.169          48.000    37000372.588   148985166.422        -149.300          48.000  
C24  21839558.016   113724315.203        -857.475          50.000                                                                  
C26  24420214.300   127162462.285       -2561.969          44.000                                                                  
G03  22888165.560   120278113.769        -104.543          39.000    22888160.434    93723182.073         -81.488          40.000  
G16  22440177.976   117923945.239        2990.576          41.000                                                                  
C09  37724115.680   196439372.327        -151.459          43.000    37724101.826   151899325.819        -117.125          48.000  
C25  23654022.288   123172709.963        1577.808          45.000                                                                  
C13  38356882.507   199734347.854       -2261.920          41.000    38356876.410   154447246.242       -1748.994          43.000  
C08  39185840.083   204050946.341       -2459.300          36.000    39185828.521   157785089.250       -1901.851          43.000  
C10  40500084.355   210894566.049         932.263          34.000    40500085.424   163077041.907         720.995          37.000  
C35  25955282.735   135155968.880         398.246          38.000                                                                  
C07  39564765.748   206024123.536        1119.026          38.000    39564755.748   159310870.453         865.320          41.000  
C12  26463587.619   137802859.556        2304.476          35.000    26463586.005   106557912.026        1781.943          41.000  
G25  24382715.945   128132043.214       -3914.333          35.000    24382708.759    99843114.473       -3049.850          35.000  
> 2025 10 30 06 19 54.7200000  0 23                     
G32  22010890.123   115668004.870       -2909.996          46.000    22010883.715    90130889.443       -2267.554          43.000  
G29  23070410.751   121235837.875        -572.316          42.000    23070402.057    94469453.711        -446.001          41.000  
G28  21248830.465   111663355.329       -1184.898          46.000    21248819.151    87010365.860        -923.337          46.000  
G26  20346561.491   106921901.983         698.558          48.000    20346554.871    83315749.026         544.302          47.000  
G31  20623727.218   108378416.694         159.460          47.000    20623716.704    84450673.295         124.187          46.000  
G04  24502605.478                        3181.120          31.000    24502603.838   100334085.381        2478.845          33.000  
C33  22502074.743   117174205.044        -686.005          50.000                                                                  
C06  36572589.946   190443076.115        -162.019          45.000    36572573.281   147262595.930        -125.409          48.000  
C14  22663986.850   118017313.783       -2245.861          46.000    22663972.291    91258419.450       -1736.579          51.000  
C16  37000385.860   192670716.769        -193.192          48.000    37000374.024   148985172.395        -149.323          48.000  
C24  21839564.589   113724349.505        -857.550          50.000                                                                  
C26  24420233.989   127162564.758       -2561.885          44.000                                                                  
G03  22888166.359   120278117.936        -104.374          39.000    22888161.256    93723185.313         -81.172          40.000  
G16  22440155.219   117923825.610        2990.632          41.000                                                                  
C09  37724116.855   196439378.387        -151.513          43.000    37724102.984   151899330.501        -117.092          48.000  
C25  23654010.169   123172646.858        1577.697          45.000                                                                  
C13  38356899.875   199734438.340       -2262.193          41.000    38356893.774   154447316.198       -1748.951          43.000  
C08  39185858.999   204051044.729       -2459.571          36.000    39185847.431   157785165.326       -1901.892          43.000  
C10  40500077.195   210894528.753         932.472          34.000    40500078.254   163077013.068         720.966          38.000  
C35  25955279.686   135155952.947         398.191          38.000                                                                  
C07  39564757.177   206024078.785        1118.833          38.000    39564747.136   159310835.855         865.013          41.000  
C12  26463569.918   137802767.344        2304.970          34.000    26463568.287   106557840.740        1782.080          41.000  
G25  24382745.733   128132199.782       -3914.253          35.000    24382738.551    99843236.461       -3049.724          35.000  
> 2025 10 30 06 19 54.7600000  0 23                     
G32  22010912.264   115668121.267       -2910.017          46.000    22010905.858    90130980.140       -2267.519          43.000  
G29  23070415.124   121235860.772        -572.397          42.000    23070406.408    94469471.536        -445.758          41.000  
G28  21248839.487   111663402.729       -1185.012          46.000    21248828.174    87010402.790        -923.303          46.000  
G26  20346556.181   106921874.037         698.595          48.000    20346549.556    83315727.256         544.248          47.000  
G31  20623725.984   108378410.312         159.534          47.000    20623715.484    84450668.316         124.384          46.000  
G04  24502581.277                        3180.854          31.000    24502579.634   100333986.250        2478.375          33.000  
C33  22502080.025   117174232.479        -685.933          50.000                                                                  
C06  36572591.204   190443082.591        -161.913          45.000    36572574.545   147262600.941        -125.361          48.000  
C14  22664004.113   118017403.616       -2245.866          46.000    22663989.578    91258488.907       -1736.471          51.000  
C16  37000387.361   192670724.491        -193.087          48.000    37000375.530   148985178.364        -149.253          48.000  
C24  21839571.198   113724383.805        -857.579          50.000                                                                  
C26  24420253.656   127162667.236       -2561.938          44.000                                                                  
G03  22888167.185   120278122.118        -104.504          39.000    22888162.039    93723188.565         -81.231          40.000  
G16  22440132.454   117923705.964        2990.992          41.000                                                                  
C09  37724118.024   196439384.443        -151.467          43.000    37724104.130   151899335.180        -117.042          48.000  
C25  23653998.061   123172583.748        1577.691          45.000                                                                  
C13  38356917.229   199734528.811       -2262.015          41.000    38356911.156   154447386.155       -1748.926          43.000  
C08  39185877.880   204051143.131       -2459.976          36.000    39185866.330   157785241.397       -1901.795          43.000  
C10  40500070.012   210894491.464         932.344          34.000    40500071.105   163076984.252         720.592          38.000  
C35  25955276.637   135155937.009         398.287          38.000                                                                  
C07  39564748.549   206024034.010        1119.166          38.000    39564738.541   159310801.235         865.275          41.000  
C12  26463552.209   137802675.161        2304.791          34.000    26463550.562   106557769.441        1782.369          41.000  
G25  24382775.533   128132356.327       -3913.851          35.000    24382768.354    99843358.467       -3049.951          35.000  
> 2025 10 30 06 19 54.8000000  0 23                     
G32  22010934.436   115668237.651       -2909.766          46.000    22010927.997    90131070.829       -2267.301          43.000  
G29  23070419.498   121235883.659        -572.258          42.000    23070410.748    94469489.363        -445.662          41.000  
G28  21248848.511   111663450.119       -1184.886          46.000    21248837.167    87010439.718        -923.263          46.000  
G26  20346550.837   106921846.082         698.794          48.000    20346544.225    83315705.473         544.460          47.000  
G31  20623724.750   108378403.925         159.676          47.000    20623714.261    84450663.340         124.402          46.000  
G04  24502557.038                        3181.578          31.000    24502555.423   100333887.095        2478.609          33.000  
C33  22502085.306   117174259.903        -685.685          50.000                                                                  
C06  36572592.453   190443089.059        -161.760          45.000    36572575.783   147262605.939        -125.062          48.000  
C14  22664021.358   118017493.439       -2245.675          46.000    22664006.822    91258558.365       -1736.436          51.000  
C16  37000388.863   192670732.204        -192.904          48.000    37000377.012   148985184.328        -149.119          48.000  
C24  21839577.807   113724418.091        -857.304          50.000                                                                  
C26  24420273.329   127162769.708       -2561.824          44.000                                                                  
G03  22888167.954   120278126.286        -104.281          39.000    22888162.827    93723191.795         -80.848          40.000  
G16  22440109.702   117923586.318        2991.206          41.000                                                                  
C09  37724119.186   196439390.491        -151.237          43.000    37724105.292   151899339.853        -116.871          48.000  
C25  23653985.946   123172520.633        1577.833          45.000                                                                  
C13  38356934.594   199734619.271       -2261.640          41.000    38356928.550   154447456.111       -1748.863          43.000  
C08  39185896.780   204051241.516       -2459.846          36.000    39185885.229   157785317.473       -1901.837          43.000  
C10  40500062.869   210894454.168         932.387          34.000    40500063.919   163076955.412         720.812          38.000  
C35  25955273.562   135155921.063         398.585          38.000                                                                  
C07  39564739.947   206023989.219        1119.644          38.000    39564729.920   159310766.609         865.524          41.000  
C12  26463534.494   137802582.973        2304.748          34.000    26463532.840   106557698.146        1782.442          41.000  
G25  24382805.328   128132512.898       -3914.084          35.000    24382798.138    99843480.450       -3049.686          35.000  
> 2025 10 30 06 19 54.8400000  0 23                     
G32  22010956.566   115668354.021       -2909.364          46.000    22010950.156    90131161.513       -2267.105          43.000  
G29  23070423.839   121235906.546        -572.204          42.000    23070415.121    94469507.189        -445.627          41.000  
G28  21248857.498   111663497.491       -1184.479          46.000    21248846.176    87010476.635        -923.060          46.000  
G26  20346545.526   106921818.117         699.053          48.000    20346538.902    83315683.686         544.626          47.000  
G31  20623723.514   108378397.530         159.835          47.000    20623713.031    84450658.356         124.550          46.000  
G04  24502532.818                        3181.782          32.000    24502531.205   100333787.883        2479.795          33.000  
C33  22502090.602   117174287.323        -685.512          50.000                                                                  
C06  36572593.699   190443095.520        -161.556          45.000    36572577.011   147262610.932        -124.840          48.000  
C14  22664038.599   118017583.252       -2245.366          46.000    22664024.064    91258627.818       -1736.350          51.000  
C16  37000390.367   192670739.908        -192.631          48.000    37000378.519   148985190.287        -148.982          48.000  
C24  21839584.410   113724452.370        -857.061          50.000                                                                  
C26  24420293.002   127162872.158       -2561.378          44.000                                                                  
G03  22888168.747   120278130.457        -104.239          39.000    22888163.617    93723195.038         -80.876          40.000  
G16  22440086.938   117923466.672        2991.268          41.000                                                                  
C09  37724120.344   196439396.526        -150.970          43.000    37724106.476   151899344.529        -116.881          48.000  
C25  23653973.821   123172457.512        1577.980          45.000                                                                  
C13  38356951.944   199734709.727       -2261.381          41.000    38356945.942   154447526.054       -1748.622          43.000  
C08  39185915.671   204051339.866       -2459.117          36.000    39185904.109   157785393.525       -1901.438          43.000  
C10  40500055.717   210894416.860         932.679          34.000    40500056.749   163076926.565         721.059          38.000  
C35  25955270.520   135155905.141         398.314          38.000                                                                  
C07  39564731.330   206023944.418        1119.985          38.000    39564721.322   159310731.970         865.897          41.000  
C12  26463516.784   137802490.733        2305.647          34.000    26463515.108   106557626.844        1782.564          41.000  
G25  24382835.102   128132669.422       -3913.567          35.000    24382827.931    99843602.445       -3049.852          35.000  
> 2025 10 30 06 19 54.8800000  0 23                     
G32  22010978.698   115668470.396       -2909.277          46.000    22010972.282    90131252.185       -2266.862          43.000  
G29  23070428.195   121235929.420        -571.941          42.000    23070419.472    94469525.022        -445.760          41.000  
G28  21248866.507   111663544.864       -1184.289          46.000    21248855.187    87010513.556        -923.007          46.000  
G26  20346540.219   106921790.173         698.821          48.000    20346533.573    83315661.896         544.717          47.000  
G31  20623722.305   108378391.139         159.815          47.000    20623711.839    84450653.382         124.426          46.000  
G04  24502508.621                        3181.725          32.000    24502506.972   100333688.683        2480.079          33.000  
C33  22502095.858   117174314.746        -685.518          50.000                                                                  
C06  36572594.945   190443101.986        -161.573          45.000    36572578.239   147262615.919        -124.648          48.000  
C14  22664055.843   118017673.066       -2245.297          46.000    22664041.325    91258697.276       -1736.422          51.000  
C16  37000391.847   192670747.619        -192.661          48.000    37000380.016   148985196.249        -148.994          48.000  
C24  21839590.968   113724486.651        -856.974          50.000                                                                  
C26  24420312.679   127162974.608       -2561.184          44.000                                                                  
G03  22888169.552   120278134.623        -104.166          39.000    22888164.413    93723198.289         -81.132          40.000  
G16  22440064.170   117923347.027        2991.222          41.000                                                                  
C09  37724121.520   196439402.560        -150.825          43.000    37724107.624   151899349.201        -116.812          48.000  
C25  23653961.704   123172394.388        1578.084          45.000                                                                  
C13  38356969.316   199734800.177       -2261.218          41.000    38356963.323   154447596.000       -1748.618          43.000  
C08  39185934.582   204051438.221       -2458.816          36.000    39185922.991   157785469.583       -1901.389          43.000  
C10  40500048.572   210894379.535         933.091          34.000    40500049.577   163076897.705         721.488          38.000  
C35  25955267.430   135155889.182         398.759          38.000                                                                  
C07  39564722.720   206023899.643        1119.652          38.000    39564712.754   159310697.341         865.833          41.000  
C12  26463499.078   137802398.542        2305.257          34.000    26463497.406   106557555.553        1782.397          40.000  
G25  24382864.891   128132825.991       -3914.020          35.000    24382857.704    99843724.424       -3049.671          35.000  
> 2025 10 30 06 19 54.9200000  0 23                     
G32  22011000.863   115668586.781       -2909.466          46.000    22010994.432    90131342.886       -2267.300          43.000  
G29  23070432.567   121235952.303        -571.995          42.000    23070423.849    94469542.869        -446.094          41.000  
G28  21248875.533   111663592.257       -1184.611          46.000    21248864.206    87010550.479        -923.061          46.000  
G26  20346534.921   106921762.231         698.597          48.000    20346528.278    83315640.118         544.566          47.000  
G31  20623721.107   108378384.763         159.506          47.000    20623710.632    84450648.402         124.469          46.000  
G04  24502484.381                        3181.405          32.000    24502482.758   100333589.511        2479.760          33.000  
C33  22502101.078   117174342.185        -685.819          50.000                                                                  
C06  36572596.186   190443108.461        -161.736          45.000    36572579.443   147262620.921        -124.858          48.000  
C14  22664073.084   118017762.901       -2245.670          46.000    22664058.592    91258766.740       -1736.574          51.000  
C16  37000393.302   192670755.342        -192.944          48.000    37000381.520   148985202.221        -149.211          48.000  
C24  21839597.564   113724520.946        -857.222          50.000                                                                  
C26  24420332.331   127163077.080       -2561.527          44.000                                                                  
G03  22888170.363   120278138.801        -104.324          39.000    22888165.214    93723201.534         -81.156          40.000  
G16  22440041.408   117923227.396        2990.959          41.000                                                                  
C09  37724122.679   196439408.619        -151.223          43.000    37724108.785   151899353.879        -116.864          48.000  
C25  23653949.606   123172331.282        1577.812          45.000                                                                  
C13  38356986.697   199734890.646       -2261.558          41.000    38356980.735   154447665.958       -1748.863          43.000  
C08  39185953.460   204051536.594       -2459.052          36.000    39185941.900   157785545.653       -1901.615          43.000  
C10  40500041.438   210894342.247         932.608          34.000    40500042.400   163076868.852         721.504          38.000  
C35  25955264.337   135155873.256         398.428          38.000                                                                  
C07  39564714.119   206023854.869        1119.448          38.000    39564704.137   159310662.709         865.782          41.000  
C12  26463481.376   137802306.353        2304.936          34.000    26463479.695   106557484.253        1782.458          40.000  
G25  24382894.705   128132982.543       -3913.995          35.000    24382887.491    99843846.410       -3049.695          35.000  
> 2025 10 30 06 19 54.9600000  0 23                     
G32  22011023.010   115668703.174       -2909.719          46.000    22011016.596    90131433.587       -2267.528          43.000  
G29  23070436.912   121235975.203        -572.374          42.000    23070428.216    94469560.710        -446.088          41.000  
G28  21248884.564   111663639.652       -1184.842          46.000    21248873.233    87010587.419        -923.366          46.000  
G26  20346529.612   106921734.292         698.437          48.000    20346522.970    83315618.354         544.168          47.000  
G31  20623719.919   108378378.386         159.372          47.000    20623709.434    84450643.429         124.364          46.000  
G04  24502460.156                        3180.775          32.000    24502458.565   100333490.392        2478.613          33.000  
C33  22502106.321   117174369.631        -686.133          50.000                                                                  
C06  36572597.447   190443114.934        -161.815          45.000    36572580.673   147262625.933        -125.192          48.000  
C14  22664090.318   118017852.736       -2245.889          46.000    22664075.835    91258836.205       -1736.674          51.000  
C16  37000394.757   192670763.070        -193.193          48.000    37000382.988   148985208.192        -149.285          48.000  
C24  21839604.135   113724555.256        -857.625          50.000                                                                  
C26  24420351.988   127163179.578       -2562.184          44.000                                                                  
G03  22888171.155   120278142.983        -104.570          39.000    22888166.019    93723204.803         -81.607          40.000  
G16  22440018.652   117923107.762        2990.852          41.000                                                                  
C09  37724123.841   196439414.676        -151.463          43.000    37724109.944   151899358.562        -117.030          48.000  
C25  23653937.461   123172268.178        1577.609          45.000                                                                  
C13  38357004.078   199734981.119       -2261.831          41.000    38356998.117   154447735.920       -1749.061          43.000  
C08  39185972.356   204051634.990       -2459.652          36.000    39185960.798   157785621.734       -1901.939          43.000  
C10  40500034.278   210894304.961         932.175          34.000    40500035.238   163076840.018         721.138          38.000  
C35  25955261.275   135155857.336         398.064          38.000                                                                  
C07  39564705.529   206023810.103        1119.233          38.000    39564695.562   159310628.081         865.673          41.000  
C12  26463463.655   137802214.169        2304.684          34.000    26463462.003   106557412.971        1782.169          40.000  
G25  24382924.521   128133139.113       -3914.203          35.000    24382917.290    99843968.429       -3050.265          35.000  
> 2025 10 30 06 19 55.0000000  0 23                     
G32  22011045.161   115668819.584       -2910.194          46.000    22011038.731    90131524.295       -2267.773          43.000  
G29  23070441.264   121235998.111        -572.710          42.000    23070432.557    94469578.569        -446.419          41.000  
G28  21248893.584   111663687.063       -1185.217          46.000    21248882.241    87010624.357        -923.512          46.000  
G26  20346524.312   106921706.357         698.302          48.000    20346517.653    83315596.594         543.935          47.000  
G31  20623718.720   108378372.026         159.015          47.000    20623708.231    84450638.475         123.939          46.000  
G04  24502435.951                        3180.663          32.000    24502434.356   100333391.245        2478.447          33.000  
C33  22502111.603   117174397.085        -686.418          50.000                                                                  
C06  36572598.694   190443121.423        -162.163          45.000    36572581.917   147262630.952        -125.480          48.000  
C14  22664107.567   118017942.580       -2246.137          46.000    22664093.095    91258905.681       -1736.925          51.000  
C16  37000396.184   192670770.811        -193.542          48.000    37000384.487   148985214.165        -149.365          48.000  
C24  21839610.711   113724589.568        -857.873          50.000                                                                  
C26  24420371.662   127163282.077       -2562.582          44.000                                                                  
G03  22888171.937   120278147.173        -104.799          39.000    22888166.813    93723208.073         -81.834          40.000  
G16  22439995.876   117922988.135        2990.638          41.000                                                                  
C09  37724125.010   196439420.739        -151.621          43.000    37724111.096   151899363.251        -117.238          48.000  
C25  23653925.338   123172205.070        1577.604          45.000                                                                  
C13  38357021.444   199735071.601       -2262.057          41.000    38357015.512   154447805.892       -1749.288          43.000  
C08  39185991.275   204051733.392       -2460.112          36.000    39185979.679   157785697.836       -1902.478          43.000  
C10  40500027.105   210894267.683         931.904          34.000    40500028.085   163076811.178         720.940          38.000  
C35  25955258.233   135155841.436         397.567          38.000                                                                  
C07  39564696.915   206023765.334        1119.150          38.000    39564686.979   159310593.483         865.110          41.000  
C12  26463445.948   137802121.975        2304.735          34.000    26463444.324   106557341.728        1781.214          38.000  
G25  24382954.294   128133295.650       -3913.750          35.000    24382947.089    99844090.442       -3050.460          35.000  
> 2025 10 30 06 19 55.0400000  0 23                     
G32  22011067.326   115668936.002       -2910.528          46.000    22011060.884    90131615.004       -2267.858          43.000  
G29  23070445.631   121236021.026        -572.987          42.000    23070436.926    94469596.437        -446.715          41.000  
G28  21248902.621   111663734.482       -1185.525          46.000    21248891.250    87010661.297        -923.602          46.000  
G26  20346519.009   106921678.435         698.018          48.000    20346512.344    83315574.836         543.827          47.000  
G31  20623717.489   108378365.657         159.036          47.000    20623707.026    84450633.521         123.725          46.000  
G04  24502411.769                        3180.666          32.000    24502410.137   100333292.116        2478.085          33.000  
C33  22502116.866   117174424.545        -686.613          50.000                                                                  
C06  36572599.925   190443127.920        -162.502          45.000    36572583.100   147262635.972        -125.623          48.000  
C14  22664124.841   118018032.430       -2246.334          46.000    22664110.345    91258975.159       -1737.040          51.000  
C16  37000397.645   192670778.550        -193.653          48.000    37000385.956   148985220.151        -149.619          48.000  
C24  21839617.316   113724623.884        -858.024          50.000                                                                  
C26  24420391.393   127163384.564       -2562.493          44.000                                                                  
G03  22888172.766   120278151.365        -104.920          39.000    22888167.626    93723211.343         -81.903          40.000  
G16  22439973.129   117922868.526        2990.240          41.000                                                                  
C09  37724126.166   196439426.808        -151.820          43.000    37724112.269   151899367.947        -117.417          48.000  
C25  23653913.228   123172141.966        1577.549          45.000                                                                  
C13  38357038.848   199735162.094       -2262.333          41.000    38357032.907   154447875.860       -1749.310          43.000  
C08  39186010.177   204051831.786       -2460.037          36.000    39185998.584   157785773.933       -1902.647          43.000  
C10  40500019.954   210894230.423         931.477          34.000    40500020.933   163076782.365         720.439          38.000  
C35  25955255.182   135155825.517         397.707          38.000                                                                  
C07  39564688.331   206023720.586        1118.712          38.000    39564678.396   159310558.886         864.806          41.000  
C12  26463428.243   137802029.802        2304.359          31.000    26463426.612   106557270.467        1781.138          38.000  
G25  24382984.085   128133452.229       -3914.172          35.000    24382976.879    99844212.466       -3050.651          35.000  
> 2025 10 30 06 19 55.0800000  0 23                     
G32  22011089.468   115669052.412       -2910.486          46.000    22011083.035    90131705.730       -2268.159          43.000  
G29  23070449.980   121236043.955        -573.312          42.000    23070441.281    94469614.292        -446.595          41.000  
G28  21248911.627   111663781.884       -1185.358          46.000    21248900.249    87010698.232        -923.553          46.000  
G26  20346513.708   106921650.511         697.966          48.000    20346507.029    83315553.079         543.787          47.000  
G31  20623716.262   108378359.292         159.037          47.000    20623705.806    84450628.554         123.911          46.000  
G04  24502387.559                        3180.144          32.000    24502385.928   100333192.985        2478.044          33.000  
C33  22502122.144   117174452.002        -686.617          50.000                                                                  
C06  36572601.197   190443134.410        -162.483          45.000    36572584.310   147262640.995        -125.715          48.000  
C14  22664142.105   118018122.272       -2246.218          46.000    22664127.599    91259044.638       -1737.098          51.000  
C16  37000399.150   192670786.283        -193.557          48.000    37000387.444   148985226.134        -149.670          48.000  
C24  21839623.900   113724658.191        -857.880          50.000                                                                  
C26  24420411.082   127163487.047       -2562.288          44.000                                                                  
G03  22888173.580   120278155.560        -104.965          39.000    22888168.420    93723214.616         -81.936          40.000  
G16  22439950.364   117922748.906        2990.311          41.000                                                                  
C09  37724127.334   196439432.867        -151.733          43.000    37724113.450   151899372.631        -117.291          48.000  
C25  23653901.118   123172078.865        1577.476          45.000                                                                  
C13  38357056.241   199735252.582       -2262.336          41.000    38357050.287   154447945.833       -1749.383          43.000  
C08  39186029.048   204051930.194       -2460.223          36.000    39186017.485   157785850.004       -1902.188          43.000  
C10  40500012.783   210894193.156         931.509          34.000    40500013.764   163076753.565         719.967          38.000  
C35  25955252.129   135155809.573         398.334          38.000                                                                  
C07  39564679.755   206023675.836        1118.571          38.000    39564669.782   159310524.258         865.267          41.000  
G25  24383013.903   128133608.831       -3914.814          35.000    24383006.671    99844334.458       -3050.118          35.000  
C12                                                                  26463408.929   106557199.212        1781.148          38.000  
> 2025 10 30 06 19 55.1200000  0 23                     
G32  22011111.616   115669168.815       -2910.282          46.000    22011105.185    90131796.438       -2267.961          43.000  
G29  23070454.317   121236066.876        -573.293          42.000    23070445.629    94469632.122        -446.073          41.000  
G28  21248920.635   111663829.291       -1185.325          46.000    21248909.280    87010735.173        -923.603          46.000  
G26  20346508.393   106921622.581         698.074          48.000    20346501.711    83315531.317         543.906          47.000  
G31  20623715.033   108378352.922         159.124          47.000    20623704.585    84450623.589         124.035          46.000  
G04  24502363.330                        3181.442          32.000    24502361.691   100333093.810        2478.905          33.000  
C33  22502127.449   117174479.452        -686.435          50.000                                                                  
C06  36572602.432   190443140.894        -162.300          45.000    36572585.552   147262646.016        -125.685          48.000  
C14  22664159.358   118018212.118       -2246.196          46.000    22664144.845    91259114.109       -1736.948          51.000  
C16  37000400.636   192670794.011        -193.346          48.000    37000388.885   148985232.116        -149.658          48.000  
C24  21839630.538   113724692.494        -857.707          50.000                                                                  
C26  24420430.796   127163589.525       -2562.076          44.000                                                                  
G03  22888174.361   120278159.751        -104.867          39.000    22888169.228    93723217.901         -82.128          40.000  
G16  22439927.603   117922629.290        2990.336          41.000                                                                  
C09  37724128.498   196439438.935        -151.767          43.000    37724114.631   151899377.319        -117.271          48.000  
C25  23653888.993   123172015.768        1577.403          45.000                                                                  
C13  38357073.626   199735343.055       -2262.054          41.000    38357067.655   154448015.787       -1749.064          43.000  
C08  39186047.932   204052028.580       -2459.836          36.000    39186036.361   157785926.085       -1902.090          43.000  
C10  40500005.631   210894155.864         932.076          34.000    40500006.630   163076724.768         719.753          38.000  
C35  25955249.061   135155793.652         398.202          38.000                                                                  
C07  39564671.179   206023631.070        1118.872          38.000    39564661.174   159310489.630         865.542          41.000  
G25  24383043.717   128133765.411       -3914.797          35.000    24383036.477    99844456.474       -3050.277          35.000  
C12                                                                  26463391.222   106557127.947        1781.470          38.000  
> 2025 10 30 06 19 55.1600000  0 23                     
G32  22011133.743   115669285.214       -2910.063          46.000    22011127.331    90131887.141       -2267.746          43.000  
G29  23070458.680   121236089.782        -572.924          42.000    23070449.974    94469649.965        -446.060          41.000  
G28  21248929.631   111663876.701       -1185.323          46.000    21248918.294    87010772.106        -923.436          46.000  
G26  20346503.061   106921594.644         698.286          48.000    20346496.392    83315509.543         544.193          47.000  
G31  20623713.845   108378346.555         159.124          47.000    20623703.375    84450618.632         123.961          46.000  
G04  24502339.088                        3181.439          31.000    24502337.470   100332994.649        2479.121          33.000  
C33  22502132.750   117174506.902        -686.301          50.000                                                                  
C06  36572603.668   190443147.372        -162.080          45.000    36572586.796   147262651.021        -125.328          48.000  
C14  22664176.613   118018301.968       -2246.257          46.000    22664162.076    91259183.582       -1736.884          51.000  
C16  37000402.138   192670801.736        -193.207          48.000    37000390.361   148985238.099        -149.654          48.000  
C24  21839637.149   113724726.799        -857.657          50.000                                                                  
C26  24420450.481   127163692.007       -2562.021          44.000                                                                  
G03  22888175.150   120278163.933        -104.653          39.000    22888170.007    93723221.155         -81.686          40.000  
G16  22439904.835   117922509.666        2990.499          41.000                                                                  
C09  37724129.647   196439445.000        -151.733          43.000    37724115.820   151899382.008        -117.251          48.000  
C25  23653876.859   123171952.669        1577.366          45.000                                                                  
C13  38357091.031   199735433.521       -2261.756          41.000    38357085.036   154448085.748       -1749.022          43.000  
C08  39186066.811   204052126.975       -2459.861          36.000    39186055.266   157786002.167       -1902.053          43.000  
C10  40499998.452   210894118.562         932.481          34.000    40499999.483   163076695.952         720.068          38.000  
C35  25955246.008   135155777.725         398.207          38.000                                                                  
C07  39564662.593   206023586.304        1119.037          38.000    39564652.555   159310455.012         865.486          41.000  
G25  24383073.526   128133922.020       -3915.187          35.000    24383066.262    99844578.467       -3049.984          35.000  
C12                                                                  26463373.506   106557056.649        1782.234          38.000  
> 2025 10 30 06 19 55.2000000  0 23                     
G32  22011155.906   115669401.633       -2910.325          45.000    22011149.494    90131977.845       -2267.654          43.000  
G29  23070463.023   121236112.682        -572.643          42.000    23070454.350    94469667.818        -446.258          41.000  
G28  21248938.646   111663924.110       -1185.308          46.000    21248927.320    87010809.049        -923.575          46.000  
G26  20346497.744   106921566.724         698.093          48.000    20346491.093    83315487.782         544.097          47.000  
G31  20623712.649   108378340.194         159.000          47.000    20623702.172    84450613.675         123.918          46.000  
G04  24502314.868                        3180.863          31.000    24502313.246   100332895.517        2478.560          33.000  
C33  22502138.007   117174534.357        -686.354          50.000                                                                  
C06  36572604.930   190443153.859        -162.122          45.000    36572588.037   147262656.031        -125.250          48.000  
C14  22664193.880   118018391.815       -2246.238          46.000    22664179.355    91259253.053       -1736.783          51.000  
C16  37000403.631   192670809.467        -193.229          48.000    37000391.840   148985244.079        -149.582          48.000  
C24  21839643.740   113724761.108        -857.700          50.000                                                                  
C26  24420470.142   127163794.493       -2562.079          44.000                                                                  
G03  22888175.962   120278168.133        -104.900          39.000    22888170.801    93723224.408         -81.426          40.000  
G16  22439882.063   117922390.057        2990.332          41.000                                                                  
C09  37724130.787   196439451.058        -151.607          43.000    37724116.992   151899386.702        -117.340          48.000  
C25  23653864.723   123171889.577        1577.256          45.000                                                                  
C13  38357108.426   199735524.005       -2261.946          41.000    38357102.426   154448155.717       -1749.154          43.000  
C08  39186085.702   204052225.346       -2459.524          36.000    39186074.162   157786078.248       -1902.036          43.000  
C10  40499991.300   210894081.276         932.389          34.000    40499992.303   163076667.105         720.870          38.000  
C35  25955242.926   135155761.813         397.924          38.000                                                                  
C07  39564653.990   206023541.531        1119.271          38.000    39564643.965   159310420.394         865.414          41.000  
G25  24383103.302   128134078.586       -3914.636          35.000    24383096.044    99844700.439       -3049.532          35.000  
C12                                                                  26463355.769   106556985.348        1782.613          38.000  
> 2025 10 30 06 19 55.2400000  0 23                     
G32  22011178.034   115669518.047       -2910.353          45.000    22011171.634    90132068.543       -2267.536          43.000  
G29  23070467.386   121236135.587        -572.584          42.000    23070458.728    94469685.684        -446.608          41.000  
G28  21248947.661   111663971.505       -1185.024          46.000    21248936.330    87010845.999        -923.751          46.000  
G26  20346492.427   106921538.803         697.987          48.000    20346485.785    83315466.026         543.948          47.000  
G31  20623711.430   108378333.826         159.100          47.000    20623700.965    84450608.716         123.956          46.000  
G04  24502290.702                        3180.031          31.000    24502289.028   100332796.358        2478.639          33.000  
C33  22502143.259   117174561.818        -686.494          50.000                                                                  
C06  36572606.176   190443160.341        -162.048          45.000    36572589.303   147262661.054        -125.461          48.000  
C14  22664211.122   118018481.670       -2246.377          46.000    22664196.629    91259322.532       -1736.912          51.000  
C16  37000405.129   192670817.196        -193.239          48.000    37000393.316   148985250.055        -149.473          48.000  
C24  21839650.315   113724795.424        -857.857          50.000                                                                  
C26  24420489.807   127163896.977       -2562.086          44.000                                                                  
G03  22888176.766   120278172.344        -105.245          39.000    22888171.602    93723227.676         -81.580          40.000  
G16  22439859.283   117922270.437        2990.430          41.000                                                                  
C09  37724131.957   196439457.127        -151.748          43.000    37724118.153   151899391.389        -117.255          48.000  
C25  23653852.636   123171826.484        1577.250          45.000                                                                  
C13  38357125.789   199735614.498       -2262.238          41.000    38357119.818   154448225.694       -1749.396          43.000  
C08  39186104.593   204052323.744       -2459.777          36.000    39186093.065   157786154.320       -1901.881          43.000  
C10  40499984.113   210894044.005         931.998          34.000    40499985.153   163076638.236         721.591          38.000  
C35  25955239.875   135155745.897         397.799          38.000                                                                  
C07  39564645.403   206023496.757        1119.380          38.000    39564635.371   159310385.793         865.116          41.000  
G25  24383133.077   128134235.114       -3913.579          35.000    24383125.845    99844822.442       -3049.867          35.000  
C12                                                                  26463338.079   106556914.083        1781.974          38.000  
> 2025 10 30 06 19 55.2800000  0 23                     
G32  22011200.174   115669634.461       -2910.363          45.000    22011193.768    90132159.250       -2267.645          43.000  
G29  23070471.737   121236158.496        -572.656          42.000    23070463.093    94469703.547        -446.710          41.000  
G28  21248956.692   111664018.914       -1185.132          46.000    21248945.364    87010882.935        -923.582          46.000  
G26  20346487.111   106921510.881         697.963          48.000    20346480.476    83315444.273         543.825          47.000  
G31  20623710.209   108378327.461         159.137          47.000    20623699.734    84450603.761         123.888          46.000  
G04  24502266.494                        3180.987          31.000    24502264.826   100332697.183        2478.994          33.000  
C33  22502148.552   117174589.274        -686.453          50.000                                                                  
C06  36572607.423   190443166.825        -162.065          45.000    36572590.557   147262666.069        -125.432          48.000  
C14  22664228.375   118018571.521       -2246.362          46.000    22664213.882    91259392.013       -1737.006          51.000  
C16  37000406.638   192670824.927        -193.286          48.000    37000394.808   148985256.026        -149.340          48.000  
C24  21839656.936   113724829.732        -857.814          50.000                                                                  
C26  24420509.481   127163999.462       -2562.128          44.000                                                                  
G03  22888177.568   120278176.541        -105.094          39.000    22888172.386    93723230.943         -81.630          40.000  
G16  22439836.514   117922150.820        2990.408          41.000                                                                  
C09  37724133.119   196439463.195        -151.732          43.000    37724119.314   151899396.072        -117.123          48.000  
C25  23653840.538   123171763.379        1577.485          45.000                                                                  
C13  38357143.186   199735704.985       -2262.242          41.000    38357137.208   154448295.659       -1749.301          43.000  
C08  39186123.486   204052422.135       -2459.887          36.000    39186111.955   157786230.394       -1901.798          43.000  
C10  40499976.946   210894006.712         932.178          34.000    40499978.031   163076609.415         720.995          38.000  
C35  25955236.813   135155730.006         397.313          38.000                                                                  
C07  39564636.789   206023452.014        1118.928          38.000    39564626.765   159310351.185         865.115          41.000  
G25  24383162.832   128134391.671       -3913.552          35.000    24383155.659    99844944.474       -3050.498          35.000  
C12                                                                  26463320.395   106556842.813        1781.734          38.000  
> 2025 10 30 06 19 55.3200000  0 23                     
G32  22011222.333   115669750.848       -2909.889          45.000    22011215.929    90132249.958       -2267.694          43.000  
G29  23070476.104   121236181.408        -572.744          42.000    23070467.438    94469721.396        -446.461          41.000  
G28  21248965.711   111664066.309       -1184.940          46.000    21248954.357    87010919.867        -923.389          46.000  
G26  20346481.772   106921482.942         698.313          48.000    20346475.155    83315422.503         544.094          47.000  
G31  20623708.984   108378321.078         159.451          47.000    20623698.499    84450598.787         124.221          46.000  
G04  24502242.278                        3180.371          31.000    24502240.621   100332598.058        2478.401          33.000  
C33  22502153.863   117174616.722        -686.288          50.000                                                                  
C06  36572608.665   190443173.296        -161.836          45.000    36572591.833   147262671.077        -125.267          48.000  
C14  22664245.675   118018661.360       -2246.134          46.000    22664231.113    91259461.484       -1736.891          51.000  
C16  37000408.163   192670832.648        -193.130          48.000    37000396.282   148985261.998        -149.287          48.000  
C24  21839663.514   113724864.035        -857.649          50.000                                                                  
C26  24420529.155   127164101.940       -2562.051          44.000                                                                  
G03  22888178.372   120278180.733        -104.872          39.000    22888173.187    93723234.224         -81.938          40.000  
G16  22439813.744   117922031.184        2990.733          41.000                                                                  
C09  37724134.260   196439469.246        -151.460          43.000    37724120.507   151899400.752        -117.037          48.000  
C25  23653828.449   123171700.271        1577.651          45.000                                                                  
C13  38357160.573   199735795.460       -2261.991          41.000    38357154.551   154448365.618       -1749.089          43.000  
C08  39186142.377   204052520.496       -2459.255          36.000    39186130.857   157786306.466       -1901.731          43.000  
C10  40499969.781   210893969.418         932.442          34.000    40499970.867   163076580.589         720.762          38.000  
C35  25955233.742   135155714.082         397.753          38.000                                                                  
C07  39564628.184   206023407.219        1119.473          38.000    39564618.157   159310316.567         865.331          41.000  
G25  24383192.614   128134548.235       -3913.857          35.000    24383185.457    99845066.494       -3050.580          35.000  
C12                                                                  26463302.712   106556771.510        1782.284          38.000  
> 2025 10 30 06 19 55.3600000  0 23                     
G32  22011244.471   115669867.253       -2910.012          45.000    22011238.091    90132340.662       -2267.695          43.000  
G29  23070480.464   121236204.331        -573.052          42.000    23070471.788    94469739.252        -446.476          41.000  
G28  21248974.742   111664113.710       -1184.966          46.000    21248963.408    87010956.802        -923.362          46.000  
G26  20346476.465   106921455.013         698.286          48.000    20346469.832    83315400.738         544.104          47.000  
G31  20623707.796   108378314.717         159.172          47.000    20623697.295    84450593.823         124.171          46.000  
G04  24502218.027                        3181.712          31.000    24502216.396   100332498.880        2478.843          33.000  
C33  22502159.118   117174644.176        -686.336          50.000                                                                  
C06  36572609.904   190443179.782        -162.058          45.000    36572593.102   147262676.087        -125.267          48.000  
C14  22664262.909   118018751.207       -2246.149          46.000    22664248.346    91259530.960       -1736.923          51.000  
C16  37000409.659   192670840.374        -193.167          48.000    37000397.775   148985267.978        -149.446          48.000  
C24  21839670.120   113724898.337        -857.568          50.000                                                                  
C26  24420548.866   127164204.415       -2561.938          44.000                                                                  
G03  22888179.171   120278184.917        -104.643          39.000    22888174.000    93723237.502         -82.054          40.000  
G16  22439790.997   117921911.576        2990.368          41.000                                                                  
C09  37724135.424   196439475.305        -151.503          43.000    37724121.636   151899405.441        -117.180          48.000  
C25  23653816.338   123171637.164        1577.711          45.000                                                                  
C13  38357177.936   199735885.928       -2261.769          41.000    38357171.903   154448435.582       -1749.103          43.000  
C08  39186161.271   204052618.885       -2459.435          36.000    39186149.751   157786382.558       -1902.097          43.000  
C10  40499962.645   210893932.134         932.205          34.000    40499963.697   163076551.765         720.574          38.000  
C35  25955230.705   135155698.156         398.022          38.000                                                                  
C07  39564619.586   206023362.472        1118.956          38.000    39564609.583   159310281.949         865.439          41.000  
G25  24383222.404   128134704.854       -3914.975          35.000    24383215.232    99845188.490       -3050.225          35.000  
C12                                                                  26463284.979   106556700.219        1782.282          38.000  
> 2025 10 30 06 19 55.4000000  0 23                     
G32  22011266.641   115669983.665       -2910.189          45.000    22011260.238    90132431.381       -2267.946          43.000  
G29  23070484.811   121236227.245        -572.947          42.000    23070476.162    94469757.107        -446.424          41.000  
G28  21248983.786   111664161.122       -1185.182          46.000    21248972.446    87010993.748        -923.540          46.000  
G26  20346471.154   106921427.085         698.248          48.000    20346464.534    83315378.983         543.936          47.000  
G31  20623706.608   108378308.354         159.074          47.000    20623696.077    84450588.867         123.979          46.000  
G04  24502193.828                        3181.638          31.000    24502192.190   100332399.759        2478.298          33.000  
C33  22502164.403   117174671.638        -686.493          50.000                                                                  
C06  36572611.146   190443186.269        -162.181          45.000    36572594.353   147262681.099        -125.288          48.000  
C14  22664280.153   118018841.059       -2246.244          46.000    22664265.591    91259600.441       -1736.998          51.000  
C16  37000411.152   192670848.113        -193.358          48.000    37000399.264   148985273.959        -149.507          48.000  
C24  21839676.701   113724932.647        -857.676          50.000                                                                  
C26  24420568.544   127164306.900       -2562.034          44.000                                                                  
G03  22888179.996   120278189.122        -104.955          40.000    22888174.808    93723240.776         -81.995          40.000  
G16  22439768.201   117921791.969        2990.181          41.000                                                                  
C09  37724136.614   196439481.367        -151.528          43.000    37724122.807   151899410.132        -117.280          48.000  
C25  23653804.218   123171574.066        1577.556          45.000                                                                  
C13  38357195.310   199735976.393       -2261.591          41.000    38357189.255   154448505.547       -1749.141          43.000  
C08  39186180.181   204052717.302       -2460.128          36.000    39186168.636   157786458.646       -1902.282          43.000  
C10  40499955.461   210893894.861         931.967          35.000    40499956.521   163076522.926         720.807          38.000  
C35  25955227.661   135155682.235         398.109          38.000                                                                  
C07  39564611.011   206023317.714        1118.873          38.000    39564600.987   159310247.351         865.076          41.000  
G25  24383252.222   128134861.428       -3914.662          35.000    24383245.003    99845310.472       -3049.618          35.000  
C12                                                                  26463267.282   106556628.941        1782.060          38.000  
