     3.04           OBSERVATION DATA    M: Mixed            RINEX VERSION / TYPE
RTKCONV 2.4.3 b34                       20251030 063913 UTC PGM / RUN BY / DATE 
format: u-blox UBX                                          COMMENT             
log: D:\GPdata\10_30\fingure_290_10_30_3.ubx                COMMENT             
                                                            MARKER NAME         
                                                            MARKER NUMBER       
                                                            MARKER TYPE         
                                                            OBSERVER / AGENCY   
                                                            REC # / TYPE / VERS 
                                                            ANT # / TYPE        
        0.0000        0.0000        0.0000                  APPROX POSITION XYZ 
        0.0000        0.0000        0.0000                  ANTENNA: DELTA H/E/N
G    8 C1C L1C D1C S1C C2L L2L D2L S2L                      SYS / # / OBS TYPES 
C    8 C2I L2I D2I S2I C7I L7I D7I S7I                      SYS / # / OBS TYPES 
  2025    10    30    06    14   18.6400000     GPS         TIME OF FIRST OBS   
  2025    10    30    06    14   38.3200000     GPS         TIME OF LAST OBS    
G L1C                                                       SYS / PHASE SHIFT   
G L2L  0.00000                                              SYS / PHASE SHIFT   
C L2I                                                       SYS / PHASE SHIFT   
C L7I                                                       SYS / PHASE SHIFT   
  0                                                         GLONASS SLOT / FRQ #
 C1C    0.000 C1P    0.000 C2C    0.000 C2P    0.000        GLONASS COD/PHS/BIS 
                                                            END OF HEADER       
> 2025 10 30 06 14 18.6400000  0 20                     
G32  21829405.397   114714300.1181      -2764.534          46.000    21829398.832    89387738.5621      -2154.418          43.000  
G29  23040601.965   121079191.4341       -360.049          43.000    23040592.739    94347385.9301       -280.716          41.000  
G28  21175497.681   111277990.7361      -1108.519          45.000    21175487.205    86710081.7181       -863.823          47.000  
G26  20397101.006   107187485.7171        881.974          48.000    20397094.056    83522696.7521        687.260          46.000  
G31  20636902.855   108447652.5281        252.692          47.000    20636891.638    84504623.0241        196.715          45.000  
G04  24706693.212   129834568.9001       3199.346          35.000    24706690.066   101169774.1651       2493.213          41.000  
C33  22464124.968   116976591.2301       -489.916          50.000                                                                  
C06  36561746.781   190386610.6121       -173.938          45.000    36561729.905   147218933.0201       -134.586          48.000  
C14  22524194.211   117289376.1701      -2085.111          46.000    22524179.061    90695532.3511      -1612.324          50.000  
C16  36987425.684   192603227.8791       -208.537          48.000    36987413.795   148932985.5051       -161.266          48.000  
C24  21786844.105   113449815.3901       -775.673          50.000                                                                  
C26  24255415.350   126304308.5621      -2544.820          45.000                                                                  
G03  22888707.887   120280974.5651        121.413          38.000    22888702.860    93725408.4101         94.484          38.000  
G16  22635081.432   118948150.5771       3103.810          41.000                                                                  
C09  37713918.381   196386271.8131       -164.560          43.000    37713904.551   151858264.7341       -127.170          48.000  
C25  23758025.702   123714269.9121       1645.685          46.000                                                                  
C13  38212056.782   198980215.5461      -2226.229          42.000    38212050.418   153864094.0471      -1721.296          43.000  
C08  39027818.538   203228093.6561      -2437.289          37.000    39027806.344   157148784.9501      -1884.275          43.000  
C10  40560059.008                1        925.834          33.000    40560061.637   163318601.8481        715.798          38.000  
G25  24132862.257   126819043.2371      -3898.761          38.000    24132852.091    98819996.1371      -3038.633          34.000  
> 2025 10 30 06 14 18.6800000  0 20                     
G32  21829426.443   114714410.708       -2764.677          46.000    21829419.887    89387824.731       -2154.333          43.000  
G29  23040604.694   121079205.836        -360.099          43.000    23040595.491    94347397.156        -280.784          41.000  
G28  21175506.098   111278035.067       -1108.384          45.000    21175495.658    86710116.265        -863.736          47.000  
G26  20397094.293   107187450.446         881.809          48.000    20397087.349    83522669.264         687.156          46.000  
G31  20636900.951   108447642.431         252.482          47.000    20636889.699    84504615.151         196.777          45.000  
G04  24706668.866   129834440.920        3199.416          35.000    24706665.710   101169674.439        2493.207          41.000  
C33  22464128.709   116976610.830        -489.998          50.000                                                                  
C06  36561748.129   190386617.572        -174.025          45.000    36561731.230   147218938.392        -134.441          48.000  
C14  22524210.240   117289459.575       -2085.170          46.000    22524195.089    90695596.837       -1612.252          50.000  
C16  36987427.292   192603236.211        -208.398          48.000    36987415.409   148932991.961        -161.418          48.000  
C24  21786850.091   113449846.413        -775.664          50.000                                                                  
C26  24255434.888   126304410.369       -2545.078          45.000                                                                  
G03  22888706.973   120280969.710         121.291          38.000    22888701.938    93725404.629          94.399          38.000  
G16  22635057.804   118948026.444        3103.446          41.000                                                                  
C09  37713919.652   196386278.391        -164.525          43.000    37713905.814   151858269.822        -127.202          48.000  
C25  23758013.057   123714204.086        1645.636          46.000                                                                  
C13  38212073.865   198980304.588       -2226.110          42.000    38212067.546   153864162.910       -1721.526          43.000  
C08  39027837.251   203228191.148       -2437.364          37.000    39027825.054   157148860.328       -1884.323          43.000  
C10  40560051.912                         925.632          33.000    40560054.522   163318573.198         716.028          38.000  
G25  24132891.948   126819199.191       -3898.772          38.000    24132881.774    98820117.643       -3038.171          34.000  
> 2025 10 30 06 14 18.7200000  0 20                     
G32  21829447.481   114714521.299       -2764.800          46.000    21829440.943    89387910.896       -2154.201          43.000  
G29  23040607.448   121079220.240        -360.104          43.000    23040598.226    94347408.369        -280.549          41.000  
G28  21175514.539   111278079.410       -1108.498          45.000    21175504.105    86710150.817        -863.802          47.000  
G26  20397087.572   107187415.159         882.019          48.000    20397080.637    83522641.771         687.268          46.000  
G31  20636899.030   108447632.323         252.612          47.000    20636887.762    84504607.269         196.974          45.000  
G04  24706644.497   129834312.914        3199.932          35.000    24706641.353   101169574.714        2493.127          41.000  
C33  22464132.509   116976630.424        -489.904          50.000                                                                  
C06  36561749.493   190386624.518        -173.790          45.000    36561732.512   147218943.776        -134.554          48.000  
C14  22524226.260   117289542.969       -2084.985          46.000    22524211.082    90695661.327       -1612.258          50.000  
C16  36987428.872   192603244.539        -208.251          48.000    36987417.048   148932998.402        -161.201          48.000  
C24  21786856.056   113449877.439        -775.701          50.000                                                                  
C26  24255454.413   126304512.169       -2545.054          45.000                                                                  
G03  22888706.084   120280964.860         121.195          38.000    22888701.013    93725400.834          94.692          38.000  
G16  22635034.189   118947902.288        3103.686          41.000                                                                  
C09  37713920.929   196386284.955        -164.259          43.000    37713907.083   151858274.901        -127.068          48.000  
C25  23758000.388   123714138.265        1645.520          46.000                                                                  
C13  38212090.966   198980393.628       -2226.024          42.000    38212084.657   153864231.762       -1721.438          43.000  
C08  39027855.987   203228288.621       -2437.065          37.000    39027843.788   157148935.720       -1884.607          43.000  
C10  40560044.817                         925.873          33.000    40560047.367   163318544.545         716.288          38.000  
G25  24132921.637   126819355.154       -3898.992          38.000    24132911.467    98820239.196       -3038.683          34.000  
> 2025 10 30 06 14 18.7600000  0 20                     
G32  21829468.527   114714631.875       -2764.552          46.000    21829461.993    89387997.064       -2154.157          43.000  
G29  23040610.171   121079234.637        -360.004          43.000    23040600.969    94347419.578        -280.330          41.000  
G28  21175522.970   111278123.736       -1108.285          45.000    21175512.532    86710185.356        -863.567          47.000  
G26  20397080.889   107187379.875         882.080          48.000    20397073.899    83522614.283         687.206          46.000  
G31  20636897.108   108447622.216         252.649          47.000    20636885.843    84504599.384         197.127          45.000  
G04  24706620.106   129834184.884        3200.638          35.000    24706616.989   101169474.959        2493.622          41.000  
C33  22464136.251   116976650.017        -489.861          50.000                                                                  
C06  36561750.825   190386631.468        -173.750          45.000    36561733.866   147218949.143        -134.330          48.000  
C14  22524242.280   117289626.359       -2084.827          46.000    22524227.105    90695725.814       -1612.227          50.000  
C16  36987430.469   192603252.870        -208.269          48.000    36987418.644   148933004.833        -160.905          48.000  
C24  21786861.985   113449908.452        -775.470          50.000                                                                  
C26  24255473.982   126304613.960       -2544.857          45.000                                                                  
G03  22888705.156   120280959.982         121.648          38.000    22888700.090    93725397.032          94.967          38.000  
G16  22635010.558   118947778.134        3103.812          41.000                                                                  
C09  37713922.158   196386291.521        -164.102          43.000    37713908.344   151858279.984        -127.050          48.000  
C25  23757987.746   123714072.438        1645.587          46.000                                                                  
C13  38212108.048   198980482.662       -2225.869          42.000    38212101.784   153864300.615       -1721.375          43.000  
C08  39027874.704   203228386.116       -2437.343          37.000    39027862.519   157149011.088       -1884.380          43.000  
C10  40560037.676                         926.805          33.000    40560040.239   163318515.881         716.555          38.000  
G25  24132951.298   126819511.098       -3898.806          38.000    24132941.147    98820360.693       -3037.879          34.000  
> 2025 10 30 06 14 18.8000000  0 20                     
G32  21829489.575   114714742.459       -2764.567          46.000    21829483.025    89388083.225       -2154.023          43.000  
G29  23040612.923   121079249.032        -359.904          43.000    23040603.709    94347430.791        -280.276          41.000  
G28  21175531.402   111278168.066       -1108.259          45.000    21175520.949    86710219.899        -863.575          47.000  
G26  20397074.166   107187344.595         882.031          48.000    20397067.177    83522586.789         687.292          46.000  
G31  20636895.151   108447612.105         252.747          47.000    20636883.926    84504591.511         196.941          45.000  
G04  24706595.739   129834056.893        3200.301          35.000    24706592.637   101169375.233        2493.375          41.000  
C33  22464139.994   116976669.611        -489.850          50.000                                                                  
C06  36561752.156   190386638.427        -173.892          45.000    36561735.146   147218954.516        -134.309          48.000  
C14  22524258.294   117289709.754       -2084.851          46.000    22524243.133    90695790.305       -1612.285          50.000  
C16  36987432.079   192603261.200        -208.266          48.000    36987420.220   148933011.270        -160.881          48.000  
C24  21786867.960   113449939.466        -775.356          50.000                                                                  
C26  24255493.554   126304715.752       -2544.796          45.000                                                                  
G03  22888704.255   120280955.110         121.829          38.000    22888699.162    93725393.235          94.936          38.000  
G16  22634986.938   118947653.990        3103.683          41.000                                                                  
C09  37713923.418   196386298.095        -164.266          43.000    37713909.605   151858285.063        -127.020          48.000  
C25  23757975.083   123714006.611        1645.648          46.000                                                                  
C13  38212125.160   198980571.702       -2225.902          42.000    38212118.874   153864369.469       -1721.413          43.000  
C08  39027893.403   203228483.585       -2436.969          37.000    39027881.249   157149086.474       -1884.536          43.000  
C10  40560030.554                         926.907          33.000    40560033.122   163318487.225         716.536          38.000  
G25  24132980.967   126819667.046       -3898.754          38.000    24132970.826    98820482.210       -3037.844          34.000  
> 2025 10 30 06 14 18.8400000  0 20                     
G32  21829510.632   114714853.038       -2764.510          46.000    21829504.078    89388169.393       -2154.101          43.000  
G29  23040615.631   121079263.425        -359.837          43.000    23040606.454    94347442.007        -280.308          41.000  
G28  21175539.841   111278212.406       -1108.423          45.000    21175529.403    86710254.437        -863.494          47.000  
G26  20397067.444   107187309.314         881.993          48.000    20397060.459    83522559.295         687.342          46.000  
G31  20636893.238   108447601.999         252.704          47.000    20636881.999    84504583.640         196.818          45.000  
G04  24706571.384   129833928.935        3199.433          35.000    24706568.305   101169275.519        2492.984          41.000  
C33  22464143.738   116976689.207        -489.896          50.000                                                                  
C06  36561753.498   190386645.375        -173.765          45.000    36561736.472   147218959.894        -134.377          48.000  
C14  22524274.291   117289793.156       -2085.017          46.000    22524259.179    90695854.790       -1612.189          50.000  
C16  36987433.666   192603269.531        -208.292          48.000    36987421.829   148933017.713        -160.995          48.000  
C24  21786873.897   113449970.487        -775.432          50.000                                                                  
C26  24255513.063   126304817.536       -2544.643          45.000                                                                  
G03  22888703.322   120280950.247         121.750          38.000    22888698.227    93725389.448          94.746          38.000  
G16  22634963.321   118947529.834        3103.777          40.000                                                                  
C09  37713924.684   196386304.665        -164.265          43.000    37713910.845   151858290.144        -127.041          48.000  
C25  23757962.451   123713940.779        1645.758          46.000                                                                  
C13  38212142.232   198980660.748       -2226.058          42.000    38212136.005   153864438.314       -1721.227          43.000  
C08  39027912.118   203228581.094       -2437.511          37.000    39027899.963   157149161.861       -1884.639          43.000  
C10  40560023.443                         926.788          33.000    40560026.003   163318458.584         716.176          38.000  
G25  24133010.658   126819822.985       -3898.513          38.000    24133000.506    98820603.710       -3037.544          34.000  
> 2025 10 30 06 14 18.8800000  0 20                     
G32  21829531.657   114714963.619       -2764.478          46.000    21829525.123    89388255.555       -2154.057          43.000  
G29  23040618.335   121079277.825        -359.958          43.000    23040609.191    94347453.239        -280.699          41.000  
G28  21175548.278   111278256.734       -1108.301          45.000    21175537.864    86710288.986        -863.645          47.000  
G26  20397060.749   107187274.034         881.975          48.000    20397053.731    83522531.799         687.384          46.000  
G31  20636891.325   108447591.891         252.710          47.000    20636880.075    84504575.767         196.782          45.000  
G04  24706547.035   129833800.961        3199.228          35.000    24706543.950   101169175.778        2493.302          41.000  
C33  22464147.528   116976708.803        -489.909          50.000                                                                  
C06  36561754.823   190386652.322        -173.716          45.000    36561737.778   147218965.271        -134.417          48.000  
C14  22524290.302   117289876.553       -2085.023          46.000    22524275.200    90695919.279       -1612.229          50.000  
C16  36987435.281   192603277.863        -208.304          48.000    36987423.414   148933024.157        -161.059          48.000  
C24  21786879.830   113450001.505        -775.468          50.000                                                                  
C26  24255532.577   126304919.332       -2544.775          45.000                                                                  
G03  22888702.372   120280945.394         121.388          38.000    22888697.295    93725385.677          94.313          38.000  
G16  22634939.673   118947405.675        3103.916          40.000                                                                  
C09  37713925.940   196386311.244        -164.423          43.000    37713912.113   151858295.228        -127.105          48.000  
C25  23757949.844   123713874.941        1645.923          46.000                                                                  
C13  38212159.364   198980749.789       -2226.051          42.000    38212153.090   153864507.168       -1721.321          43.000  
C08  39027930.825   203228678.572       -2437.179          37.000    39027918.720   157149237.243       -1884.600          43.000  
C10  40560016.319                         925.850          33.000    40560018.894   163318429.945         715.923          38.000  
G25  24133040.335   126819978.932       -3898.547          38.000    24133030.185    98820725.218       -3037.523          34.000  
> 2025 10 30 06 14 18.9200000  0 20                     
G32  21829552.733   114715074.213       -2764.736          46.000    21829546.173    89388341.727       -2154.220          43.000  
G29  23040621.094   121079292.223        -360.002          43.000    23040611.954    94347464.472        -280.898          41.000  
G28  21175556.703   111278301.070       -1108.385          45.000    21175546.321    86710323.535        -863.737          47.000  
G26  20397054.045   107187238.750         882.031          48.000    20397047.027    83522504.311         687.267          46.000  
G31  20636889.392   108447581.781         252.722          47.000    20636878.156    84504567.893         196.770          45.000  
G04  24706522.685   129833672.951        3199.879          35.000    24706519.592   101169076.037        2493.419          41.000  
C33  22464151.265   116976728.407        -490.067          50.000                                                                  
C06  36561756.141   190386659.272        -173.724          45.000    36561739.127   147218970.643        -134.370          48.000  
C14  22524306.305   117289959.955       -2085.090          46.000    22524291.212    90695983.769       -1612.272          50.000  
C16  36987436.881   192603286.188        -208.174          48.000    36987425.013   148933030.599        -161.111          48.000  
C24  21786885.762   113450032.526        -775.526          50.000                                                                  
C26  24255552.125   126305021.123       -2544.763          45.000                                                                  
G03  22888701.441   120280940.529         121.376          38.000    22888696.363    93725381.885          94.551          38.000  
G16  22634916.054   118947281.526        3103.820          40.000                                                                  
C09  37713927.205   196386317.818        -164.422          43.000    37713913.367   151858300.307        -127.067          48.000  
C25  23757937.202   123713809.120        1645.642          46.000                                                                  
C13  38212176.466   198980838.826       -2225.995          42.000    38212170.171   153864576.021       -1721.378          43.000  
C08  39027949.536   203228776.059       -2437.169          37.000    39027937.436   157149312.619       -1884.472          43.000  
C10  40560009.213                         924.426          33.000    40560011.781   163318401.294         716.056          38.000  
G25  24133070.048   126820134.898       -3898.907          38.000    24133059.874    98820846.774       -3038.460          34.000  
> 2025 10 30 06 14 18.9600000  0 20                     
G32  21829573.787   114715184.800       -2764.759          46.000    21829567.227    89388427.899       -2154.253          43.000  
G29  23040623.830   121079306.624        -360.032          43.000    23040614.693    94347475.694        -280.741          41.000  
G28  21175565.160   111278345.417       -1108.621          45.000    21175554.747    86710358.088        -863.845          47.000  
G26  20397047.316   107187203.471         881.975          48.000    20397040.315    83522476.824         687.156          46.000  
G31  20636887.457   108447571.675         252.679          47.000    20636876.234    84504560.016         196.832          45.000  
G04  24706498.319   129833544.955        3199.974          35.000    24706495.250   101168976.307        2493.269          41.000  
C33  22464155.042   116976748.004        -490.032          50.000                                                                  
C06  36561757.458   190386666.227        -173.845          45.000    36561740.465   147218976.021        -134.432          48.000  
C14  22524322.325   117290043.366       -2085.252          46.000    22524307.230    90696048.264       -1612.379          50.000  
C16  36987438.522   192603294.522        -208.260          48.000    36987426.568   148933037.046        -161.173          48.000  
C24  21786891.732   113450063.545        -775.546          50.000                                                                  
C26  24255571.655   126305122.923       -2544.931          45.000                                                                  
G03  22888700.505   120280935.667         121.398          38.000    22888695.425    93725378.094          94.626          38.000  
G16  22634892.432   118947157.370        3103.863          40.000                                                                  
C09  37713928.465   196386324.388        -164.345          43.000    37713914.620   151858305.389        -127.079          48.000  
C25  23757924.533   123713743.296        1645.581          46.000                                                                  
C13  38212193.577   198980927.872       -2226.171          42.000    38212187.270   153864644.865       -1721.202          43.000  
C08  39027968.239   203228873.536       -2436.935          37.000    39027956.157   157149387.995       -1884.425          43.000  
C10  40560002.085                         925.594          33.000    40560004.672   163318372.650         716.020          38.000  
G25  24133099.744   126820290.866       -3899.160          38.000    24133089.560    98820968.280       -3038.014          34.000  
> 2025 10 30 06 14 19.0000000  0 20                     
G32  21829594.808   114715295.377       -2764.547          46.000    21829588.264    89388514.076       -2154.382          43.000  
G29  23040626.571   121079321.029        -360.144          43.000    23040617.417    94347486.911        -280.539          41.000  
G28  21175573.597   111278389.741       -1108.305          45.000    21175563.181    86710392.635        -863.799          47.000  
G26  20397040.598   107187168.191         881.975          48.000    20397033.592    83522449.332         687.243          46.000  
G31  20636885.526   108447561.572         252.574          47.000    20636874.299    84504552.141         196.863          45.000  
G04  24706473.965   129833416.941        3200.265          35.000    24706470.890   101168876.576        2493.198          41.000  
C33  22464158.823   116976767.603        -489.999          50.000                                                                  
C06  36561758.806   190386673.181        -173.875          45.000    36561741.829   147218981.396        -134.459          48.000  
C14  22524338.343   117290126.757       -2084.963          46.000    22524323.229    90696112.757       -1612.370          50.000  
C16  36987440.126   192603302.852        -208.266          48.000    36987428.136   148933043.486        -161.092          48.000  
C24  21786897.678   113450094.567        -775.563          50.000                                                                  
C26  24255591.194   126305224.721       -2544.979          45.000                                                                  
G03  22888699.590   120280930.810         121.350          38.000    22888694.503    93725374.307          94.639          38.000  
G16  22634868.804   118947033.219        3103.819          40.000                                                                  
C09  37713929.729   196386330.953        -164.180          43.000    37713915.918   151858310.472        -127.090          48.000  
C25  23757911.913   123713677.467        1645.660          46.000                                                                  
C13  38212210.667   198981016.921       -2226.269          42.000    38212204.394   153864713.720       -1721.284          43.000  
C08  39027986.964   203228971.010       -2436.840          37.000    39027974.879   157149463.379       -1884.550          43.000  
C10  40559995.008                         927.209          33.000    40559997.563   163318343.982         716.453          39.000  
G25  24133129.419   126820446.819       -3899.015          38.000    24133119.239    98821089.794       -3037.939          34.000  
> 2025 10 30 06 14 19.0400000  0 20                     
G32  21829615.869   114715405.962       -2764.573          46.000    21829609.296    89388600.248       -2154.394          43.000  
G29  23040629.317   121079335.431        -360.123          43.000    23040620.176    94347498.125        -280.339          41.000  
G28  21175582.033   111278434.067       -1108.156          45.000    21175571.607    86710427.184        -863.769          47.000  
G26  20397033.864   107187132.907         882.031          48.000    20397026.855    83522421.831         687.465          46.000  
G31  20636883.589   108447551.458         252.753          47.000    20636872.357    84504544.256         197.047          45.000  
G04  24706449.611   129833288.960        3199.820          35.000    24706446.527   101168776.841        2493.283          41.000  
C33  22464162.600   116976787.196        -489.884          50.000                                                                  
C06  36561760.132   190386680.120        -173.628          45.000    36561743.162   147218986.762        -134.286          48.000  
C14  22524354.354   117290210.153       -2084.923          46.000    22524339.238    90696177.248       -1612.305          50.000  
C16  36987441.783   192603311.174        -208.117          48.000    36987429.704   148933049.921        -160.944          48.000  
C24  21786903.671   113450125.578        -775.385          50.000                                                                  
C26  24255610.737   126305326.506       -2544.762          45.000                                                                  
G03  22888698.647   120280925.939         121.635          38.000    22888693.590    93725370.515          94.766          38.000  
G16  22634845.168   118946909.062        3103.934          40.000                                                                  
C09  37713931.026   196386337.514        -164.017          43.000    37713917.197   151858315.549        -126.969          48.000  
C25  23757899.299   123713611.634        1645.776          46.000                                                                  
C13  38212227.787   198981105.953       -2226.000          42.000    38212221.479   153864782.565       -1721.184          43.000  
C08  39028005.697   203229068.488       -2436.886          37.000    39027993.601   157149538.761       -1884.566          43.000  
C10  40559987.852                         927.097          33.000    40559990.429   163318315.316         716.703          39.000  
G25  24133159.100   126820602.757       -3898.634          38.000    24133148.928    98821211.323       -3038.192          34.000  
> 2025 10 30 06 14 19.0800000  0 20                     
G32  21829636.909   114715516.531       -2764.336          46.000    21829630.331    89388686.415       -2154.300          43.000  
G29  23040632.035   121079349.828        -360.016          43.000    23040622.909    94347509.340        -280.292          41.000  
G28  21175590.458   111278478.393       -1108.112          45.000    21175580.032    86710461.722        -863.563          47.000  
G26  20397027.132   107187097.620         882.135          48.000    20397020.137    83522394.336         687.433          46.000  
G31  20636881.653   108447541.344         252.858          47.000    20636870.429    84504536.380         196.966          45.000  
G04  24706425.261   129833160.959        3199.980          35.000    24706422.179   101168677.107        2493.309          41.000  
C33  22464166.393   116976806.790        -489.841          50.000                                                                  
C06  36561761.476   190386687.056        -173.423          45.000    36561744.527   147218992.130        -134.218          48.000  
C14  22524370.345   117290293.555       -2085.000          46.000    22524355.234    90696241.732       -1612.186          50.000  
C16  36987443.406   192603319.492        -207.953          48.000    36987431.290   148933056.354        -160.825          48.000  
C24  21786909.619   113450156.593        -775.356          50.000                                                                  
C26  24255630.294   126305428.294       -2544.706          45.000                                                                  
G03  22888697.703   120280921.064         121.840          38.000    22888692.663    93725366.738          94.589          38.000  
G16  22634821.559   118946784.922        3103.667          40.000                                                                  
C09  37713932.294   196386344.071        -163.914          43.000    37713918.460   151858320.619        -126.787          48.000  
C25  23757886.637   123713545.804        1645.795          46.000                                                                  
C13  38212244.882   198981194.984       -2225.814          42.000    38212238.606   153864851.409       -1721.098          43.000  
C08  39028024.409   203229165.979       -2437.220          37.000    39028012.299   157149614.133       -1884.435          43.000  
C10  40559980.739                         927.070          32.000    40559983.292   163318286.661         716.537          39.000  
G25  24133188.764   126820758.681       -3898.194          38.000    24133178.592    98821332.825       -3037.847          34.000  
> 2025 10 30 06 14 19.1200000  0 20                     
G32  21829657.963   114715627.113       -2764.440          46.000    21829651.385    89388772.574       -2154.065          43.000  
G29  23040634.773   121079364.232        -360.112          43.000    23040625.641    94347520.555        -280.295          41.000  
G28  21175598.917   111278522.722       -1108.165          45.000    21175588.445    86710496.258        -863.416          47.000  
G26  20397020.416   107187062.337         882.098          48.000    20397013.421    83522366.844         687.347          46.000  
G31  20636879.734   108447531.236         252.752          47.000    20636868.522    84504528.505         196.880          45.000  
G04  24706400.893   129833032.989        3199.509          35.000    24706397.817   101168577.356        2493.670          41.000  
C33  22464170.151   116976826.384        -489.849          50.000                                                                  
C06  36561762.823   190386694.000        -173.521          45.000    36561745.827   147218997.498        -134.209          48.000  
C14  22524386.357   117290376.950       -2084.917          46.000    22524371.229    90696306.217       -1612.119          50.000  
C16  36987444.999   192603327.812        -207.954          48.000    36987432.901   148933062.793        -160.901          48.000  
C24  21786915.576   113450187.605        -775.328          50.000                                                                  
C26  24255649.837   126305530.076       -2544.558          45.000                                                                  
G03  22888696.786   120280916.190         121.893          38.000    22888691.731    93725362.949          94.633          38.000  
G16  22634797.923   118946660.761        3103.878          40.000                                                                  
C09  37713933.536   196386350.638        -164.058          43.000    37713919.708   151858325.692        -126.772          48.000  
C25  23757873.968   123713479.969        1645.844          46.000                                                                  
C13  38212261.978   198981284.012       -2225.711          42.000    38212255.683   153864920.256       -1721.111          43.000  
C08  39028043.134   203229263.447       -2436.930          37.000    39028031.028   157149689.513       -1884.448          43.000  
C10  40559973.628                         926.686          32.000    40559976.181   163318258.016         716.244          39.000  
G25  24133218.423   126820914.626       -3898.396          38.000    24133208.267    98821454.363       -3038.331          34.000  
> 2025 10 30 06 14 19.1600000  0 20                     
G32  21829679.028   114715737.709       -2764.747          46.000    21829672.440    89388858.742       -2154.131          43.000  
G29  23040637.510   121079378.628        -360.004          43.000    23040628.393    94347531.789        -280.699          41.000  
G28  21175607.373   111278567.059       -1108.375          45.000    21175596.895    86710530.799        -863.488          47.000  
G26  20397013.727   107187027.062         881.919          48.000    20397006.730    83522339.358         687.174          46.000  
G31  20636877.792   108447521.130         252.647          47.000    20636866.602    84504520.636         196.714          45.000  
G04  24706376.571   129832905.005        3199.431          35.000    24706373.461   101168477.621        2493.527          41.000  
C33  22464173.917   116976845.983        -489.940          50.000                                                                  
C06  36561764.163   190386700.955        -173.761          45.000    36561747.137   147219002.876        -134.382          48.000  
C14  22524402.390   117290460.342       -2084.830          46.000    22524387.231    90696370.707       -1612.209          50.000  
C16  36987446.583   192603336.140        -208.132          48.000    36987434.531   148933069.226        -160.844          48.000  
C24  21786921.486   113450218.624        -775.414          50.000                                                                  
C26  24255669.385   126305631.860       -2544.539          45.000                                                                  
G03  22888695.858   120280911.338         121.487          38.000    22888690.796    93725359.149          94.904          38.000  
G16  22634774.312   118946536.616        3103.692          40.000                                                                  
C09  37713934.796   196386357.220        -164.471          43.000    37713920.977   151858330.772        -126.940          48.000  
C25  23757861.320   123713414.137        1645.813          46.000                                                                  
C13  38212279.071   198981373.038       -2225.600          42.000    38212272.757   153864989.100       -1721.151          43.000  
C08  39028061.857   203229360.954       -2437.370          37.000    39028049.762   157149764.886       -1884.365          43.000  
C10  40559966.524                         925.754          32.000    40559969.058   163318229.374         716.004          39.000  
G25  24133248.086   126821070.583       -3898.835          38.000    24133237.917    98821575.866       -3037.961          34.000  
> 2025 10 30 06 14 19.2000000  0 20                     
G32  21829700.084   114715848.304       -2764.930          46.000    21829693.506    89388944.928       -2154.512          43.000  
G29  23040640.276   121079393.049        -360.400          43.000    23040631.147    94347543.020        -280.820          41.000  
G28  21175615.823   111278611.403       -1108.573          45.000    21175605.354    86710565.349        -863.678          47.000  
G26  20397007.003   107186991.787         881.852          48.000    20397000.044    83522311.873         687.076          46.000  
G31  20636875.888   108447511.026         252.549          47.000    20636864.670    84504512.760         196.788          45.000  
G04  24706352.219   129832777.027        3199.390          35.000    24706349.099   101168377.884        2493.446          41.000  
C33  22464177.639   116976865.596        -490.273          50.000                                                                  
C06  36561765.520   190386707.911        -173.905          45.000    36561748.471   147219008.255        -134.503          48.000  
C14  22524418.384   117290543.759       -2085.263          46.000    22524403.270    90696435.202       -1612.349          50.000  
C16  36987448.135   192603344.476        -208.369          48.000    36987436.166   148933075.673        -161.086          48.000  
C24  21786927.420   113450249.652        -775.663          50.000                                                                  
C26  24255688.934   126305733.655       -2544.763          45.000                                                                  
G03  22888694.941   120280906.500         121.071          38.000    22888689.884    93725355.358          94.908          38.000  
G16  22634750.701   118946412.464        3103.705          40.000                                                                  
C09  37713936.077   196386363.786        -164.377          43.000    37713922.253   151858335.857        -127.156          48.000  
C25  23757848.646   123713348.306        1645.758          46.000                                                                  
C13  38212296.166   198981462.090       -2226.107          42.000    38212289.856   153865057.970       -1721.700          43.000  
C08  39028080.583   203229458.441       -2437.357          37.000    39028068.466   157149840.261       -1884.362          43.000  
C10  40559959.411                         925.204          32.000    40559961.955   163318200.730         715.927          39.000  
G25  24133277.756   126821226.538       -3898.998          38.000    24133267.589    98821697.361       -3037.519          34.000  
> 2025 10 30 06 14 19.2400000  0 20                     
G32  21829721.130   114715958.897       -2764.948          46.000    21829714.573    89389031.097       -2154.384          43.000  
G29  23040643.053   121079407.467        -360.560          43.000    23040633.889    94347554.254        -280.924          41.000  
G28  21175624.266   111278655.737       -1108.468          45.000    21175613.793    86710599.903        -863.866          47.000  
G26  20397000.297   107186956.515         881.735          48.000    20396993.318    83522284.393         686.954          46.000  
G31  20636873.978   108447500.930         252.390          47.000    20636862.746    84504504.885         196.826          45.000  
G04  24706327.841   129832649.024        3199.847          35.000    24706324.765   101168278.149        2493.318          41.000  
C33  22464181.405   116976885.202        -490.286          50.000                                                                  
C06  36561766.892   190386714.864        -173.910          45.000    36561749.783   147219013.636        -134.563          48.000  
C14  22524434.408   117290627.172       -2085.391          46.000    22524419.300    90696499.698       -1612.423          50.000  
C16  36987449.735   192603352.806        -208.391          48.000    36987437.761   148933082.121        -161.230          48.000  
C24  21786933.360   113450280.680        -775.774          50.000                                                                  
C26  24255708.465   126305835.452       -2544.906          45.000                                                                  
G03  22888693.996   120280901.644         121.222          38.000    22888688.957    93725351.579          94.655          38.000  
G16  22634727.075   118946288.312        3103.759          40.000                                                                  
C09  37713937.324   196386370.359        -164.426          43.000    37713923.511   151858340.934        -127.076          48.000  
C25  23757835.977   123713282.485        1645.569          46.000                                                                  
C13  38212313.282   198981551.134       -2226.191          42.000    38212306.976   153865126.826       -1721.651          43.000  
C08  39028099.308   203229555.911       -2436.920          37.000    39028087.192   157149915.645       -1884.529          43.000  
C10  40559952.346                         925.298          32.000    40559954.826   163318172.075         716.180          39.000  
G25  24133307.440   126821382.518       -3899.524          38.000    24133297.275    98821818.898       -3038.169          34.000  
> 2025 10 30 06 14 19.2800000  0 20                     
G32  21829742.168   114716069.485       -2764.817          46.000    21829735.612    89389117.269       -2154.371          43.000  
G29  23040645.804   121079421.865        -360.158          43.000    23040636.615    94347565.486        -280.902          41.000  
G28  21175632.720   111278700.080       -1108.565          45.000    21175622.218    86710634.452        -863.865          47.000  
G26  20396993.540   107186921.237         881.829          48.000    20396986.588    83522256.901         687.139          46.000  
G31  20636872.061   108447490.824         252.508          47.000    20636860.815    84504497.011         196.838          45.000  
G04  24706303.461   129832521.021        3200.087          35.000    24706300.414   101168178.413        2493.339          41.000  
C33  22464185.190   116976904.810        -490.315          50.000                                                                  
C06  36561768.242   190386721.809        -173.705          45.000    36561751.123   147219019.007        -134.427          48.000  
C14  22524450.407   117290710.576       -2085.252          46.000    22524435.320    90696564.191       -1612.401          50.000  
C16  36987451.316   192603361.129        -208.250          48.000    36987439.362   148933088.558        -161.082          48.000  
C24  21786939.337   113450311.696        -775.590          50.000                                                                  
C26  24255728.023   126305937.248       -2544.967          45.000                                                                  
G03  22888693.063   120280896.807         120.980          38.000    22888688.047    93725347.807          94.349          38.000  
G16  22634703.448   118946164.168        3103.651          40.000                                                                  
C09  37713938.601   196386376.928        -164.309          43.000    37713924.788   151858346.009        -126.959          48.000  
C25  23757823.361   123713216.660        1645.557          46.000                                                                  
C13  38212330.352   198981640.176       -2226.138          42.000    38212324.097   153865195.675       -1721.393          43.000  
C08  39028118.026   203229653.388       -2436.896          37.000    39028105.941   157149991.021       -1884.464          43.000  
C10  40559945.241                         925.989          32.000    40559947.686   163318143.425         716.257          39.000  
G25  24133337.100   126821538.454       -3898.933          38.000    24133326.949    98821940.419       -3038.240          34.000  
> 2025 10 30 06 14 19.3200000  0 20                     
G32  21829763.212   114716180.076       -2764.838          46.000    21829756.647    89389203.432       -2154.201          43.000  
G29  23040648.548   121079436.266        -360.022          43.000    23040639.383    94347576.717        -280.921          41.000  
G28  21175641.164   111278744.408       -1108.312          45.000    21175630.647    86710668.999        -863.784          47.000  
G26  20396986.827   107186885.961         881.841          48.000    20396979.874    83522229.408         687.250          46.000  
G31  20636870.142   108447480.722         252.545          47.000    20636858.869    84504489.138         196.832          45.000  
G04  24706279.108   129832392.990        3200.697          35.000    24706276.068   101168078.686        2493.205          41.000  
C33  22464188.982   116976924.411        -490.183          50.000                                                                  
C06  36561769.538   190386728.753        -173.625          45.000    36561752.449   147219024.377        -134.316          48.000  
C14  22524466.435   117290793.976       -2085.092          46.000    22524451.321    90696628.685       -1612.400          50.000  
C16  36987452.901   192603369.459        -208.242          48.000    36987440.996   148933094.988        -160.848          48.000  
C24  21786945.307   113450342.715        -775.545          50.000                                                                  
C26  24255747.566   126306039.042       -2544.912          45.000                                                                  
G03  22888692.149   120280891.954         121.218          38.000    22888687.132    93725344.029          94.334          38.000  
G16  22634679.821   118946040.022        3103.634          40.000                                                                  
C09  37713939.874   196386383.484        -164.011          43.000    37713926.047   151858351.091        -127.031          48.000  
C25  23757810.714   123713150.832        1645.612          46.000                                                                  
C13  38212347.451   198981729.212       -2225.982          42.000    38212341.206   153865264.519       -1721.201          43.000  
C08  39028136.743   203229750.880       -2437.200          37.000    39028124.651   157150066.405       -1884.590          43.000  
C10  40559938.140                         926.213          32.000    40559940.574   163318114.767         716.427          39.000  
G25  24133366.781   126821694.408       -3898.844          38.000    24133356.639    98822061.933       -3038.068          34.000  
> 2025 10 30 06 14 19.3600000  0 20                     
G32  21829784.250   114716290.658       -2764.654          46.000    21829777.702    89389289.613       -2154.447          43.000  
G29  23040651.280   121079450.686        -360.340          43.000    23040642.132    94347587.953        -280.938          41.000  
G28  21175649.592   111278788.745       -1108.382          45.000    21175639.060    86710703.539        -863.631          47.000  
G26  20396980.132   107186850.695         881.668          48.000    20396973.170    83522201.931         686.984          46.000  
G31  20636868.230   108447470.626         252.421          47.000    20636856.967    84504481.269         196.733          45.000  
G04  24706254.768   129832264.995        3200.371          35.000    24706251.719   101167978.952        2493.211          41.000  
C33  22464192.729   116976944.020        -490.234          50.000                                                                  
C06  36561770.890   190386735.690        -173.459          45.000    36561753.773   147219029.753        -134.386          48.000  
C14  22524482.445   117290877.379       -2085.076          46.000    22524467.336    90696693.184       -1612.489          50.000  
C16  36987454.514   192603377.787        -208.243          48.000    36987442.564   148933101.420        -160.790          48.000  
C24  21786951.233   113450373.739        -775.606          50.000                                                                  
C26  24255767.104   126306140.830       -2544.805          45.000                                                                  
G03  22888691.249   120280887.091         121.396          38.000    22888686.211    93725340.253          94.272          38.000  
G16  22634656.196   118945915.883        3103.509          40.000                                                                  
C09  37713941.122   196386390.061        -164.243          43.000    37713927.300   151858356.171        -127.036          48.000  
C25  23757798.066   123713085.017        1645.422          46.000                                                                  
C13  38212364.532   198981818.265       -2226.193          42.000    38212358.315   153865333.368       -1721.228          43.000  
C08  39028155.468   203229848.350       -2436.944          37.000    39028143.373   157150141.778       -1884.469          43.000  
C10  40559931.000                         927.429          32.000    40559933.470   163318086.118         716.261          38.000  
G25  24133396.456   126821850.338       -3898.383          38.000    24133386.323    98822183.437       -3037.655          34.000  
> 2025 10 30 06 14 19.4000000  0 20                     
G32  21829805.286   114716401.250       -2764.736          46.000    21829798.744    89389375.791       -2154.459          43.000  
G29  23040654.048   121079465.116        -360.683          43.000    23040644.857    94347599.175        -280.698          41.000  
G28  21175658.050   111278833.094       -1108.612          45.000    21175647.489    86710738.092        -863.755          47.000  
G26  20396973.407   107186815.428         881.589          48.000    20396966.457    83522174.450         686.924          46.000  
G31  20636866.325   108447460.530         252.354          47.000    20636855.042    84504473.395         196.795          45.000  
G04  24706230.412   129832137.023        3199.658          35.000    24706227.346   101167879.212        2493.351          41.000  
C33  22464196.502   116976963.630        -490.271          50.000                                                                  
C06  36561772.231   190386742.657        -173.912          45.000    36561755.086   147219035.131        -134.445          48.000  
C14  22524498.467   117290960.789       -2085.211          46.000    22524483.376    90696757.686       -1612.582          50.000  
C16  36987456.113   192603386.122        -208.366          48.000    36987444.122   148933107.859        -160.898          48.000  
C24  21786957.153   113450404.772        -775.800          50.000                                                                  
C26  24255786.663   126306242.614       -2544.655          45.000                                                                  
G03  22888690.327   120280882.233         121.411          38.000    22888685.287    93725336.491          93.978          38.000  
G16  22634632.551   118945791.746        3103.423          40.000                                                                  
C09  37713942.377   196386396.648        -164.604          43.000    37713928.571   151858361.252        -127.048          48.000  
C25  23757785.432   123713019.199        1645.368          46.000                                                                  
C13  38212381.659   198981907.315       -2226.286          42.000    38212375.420   153865402.218       -1721.272          43.000  
C08  39028174.198   203229945.826       -2436.871          37.000    39028162.135   157150217.165       -1884.624          43.000  
C10  40559923.869                         927.627          33.000    40559926.334   163318057.465         716.334          38.000  
G25  24133426.132   126822006.271       -3898.230          38.000    24133415.991    98822304.984       -3038.217          34.000  
> 2025 10 30 06 14 19.4400000  0 20                     
G32  21829826.319   114716511.843       -2764.836          46.000    21829819.766    89389461.979       -2154.678          43.000  
G29  23040656.801   121079479.522        -360.395          43.000    23040647.614    94347610.404        -280.699          41.000  
G28  21175666.470   111278877.425       -1108.420          46.000    21175655.918    86710772.643        -863.806          47.000  
G26  20396966.698   107186780.167         881.504          48.000    20396959.755    83522146.975         686.826          46.000  
G31  20636864.405   108447450.433         252.367          47.000    20636853.104    84504465.529         196.659          45.000  
G04  24706206.052   129832009.053        3199.194          35.000    24706202.981   101167779.479        2493.317          41.000  
C33  22464200.280   116976983.241        -490.295          50.000                                                                  
C06  36561773.558   190386749.616        -174.015          45.000    36561756.437   147219040.502        -134.343          48.000  
C14  22524514.470   117291044.207       -2085.439          46.000    22524499.394    90696822.186       -1612.592          50.000  
C16  36987457.724   192603394.457        -208.387          48.000    36987445.732   148933114.305        -161.105          48.000  
C24  21786963.132   113450435.799        -775.781          50.000                                                                  
C26  24255806.191   126306344.415       -2544.902          45.000                                                                  
G03  22888689.399   120280877.384         121.369          38.000    22888684.368    93725332.713          94.178          38.000  
G16  22634608.912   118945667.585        3103.765          40.000                                                                  
C09  37713943.670   196386403.216        -164.442          43.000    37713929.808   151858366.333        -127.047          48.000  
C25  23757772.821   123712953.368        1645.648          46.000                                                                  
C13  38212398.754   198981996.356       -2226.154          42.000    38212392.544   153865471.074       -1721.390          43.000  
C08  39028192.942   203230043.320       -2437.124          37.000    39028180.852   157150292.559       -1884.831          43.000  
C10  40559916.755                         926.602          33.000    40559919.228   163318028.832         715.971          38.000  
G25  24133455.818   126822162.229       -3898.657          38.000    24133445.656    98822426.546       -3039.014          34.000  
> 2025 10 30 06 14 19.4800000  0 20                     
G32  21829847.371   114716622.455       -2765.210          46.000    21829840.811    89389548.164       -2154.717          43.000  
G29  23040659.556   121079493.944        -360.527          43.000    23040650.367    94347621.643        -280.876          41.000  
G28  21175674.930   111278921.771       -1108.576          46.000    21175664.331    86710807.194        -863.844          47.000  
G26  20396959.978   107186744.903         881.511          48.000    20396953.046    83522119.499         686.796          46.000  
G31  20636862.453   108447440.333         252.429          47.000    20636851.176    84504457.659         196.678          45.000  
G04  24706181.699   129831881.086        3199.000          35.000    24706178.601   101167679.760        2493.051          41.000  
C33  22464204.084   116977002.855        -490.371          50.000                                                                  
C06  36561774.886   190386756.578        -174.106          45.000    36561757.755   147219045.879        -134.391          48.000  
C14  22524530.491   117291127.632       -2085.676          46.000    22524515.399    90696886.687       -1612.597          50.000  
C16  36987459.357   192603402.791        -208.399          48.000    36987447.310   148933120.750        -161.184          48.000  
C24  21786969.105   113450466.831        -775.823          50.000                                                                  
C26  24255825.734   126306446.215       -2545.044          45.000                                                                  
G03  22888688.475   120280872.577         120.476          38.000    22888683.457    93725328.949          94.060          38.000  
G16  22634585.286   118945543.441        3103.646          40.000                                                                  
C09  37713944.918   196386409.788        -164.349          43.000    37713931.060   151858371.418        -127.136          48.000  
C25  23757760.201   123712887.543        1645.648          46.000                                                                  
C13  38212415.880   198982085.395       -2226.017          42.000    38212409.653   153865539.941       -1721.644          43.000  
C08  39028211.661   203230140.802       -2437.089          37.000    39028199.576   157150367.951       -1884.911          43.000  
C10  40559909.636                         926.556          33.000    40559912.103   163318000.175         716.191          39.000  
G25  24133485.491   126822318.208       -3899.264          38.000    24133475.334    98822548.096       -3039.078          34.000  
> 2025 10 30 06 14 19.5200000  0 20                     
G32  21829868.427   114716733.063       -2765.254          46.000    21829861.847    89389634.343       -2154.592          43.000  
G29  23040662.290   121079508.356        -360.381          43.000    23040653.115    94347632.871        -280.755          41.000  
G28  21175683.364   111278966.113       -1108.597          46.000    21175672.760    86710841.743        -863.816          47.000  
G26  20396953.262   107186709.637         881.585          48.000    20396946.351    83522092.019         686.945          46.000  
G31  20636860.514   108447430.233         252.484          47.000    20636849.275    84504449.802         196.457          45.000  
G04  24706157.347   129831753.123        3198.867          35.000    24706154.257   101167580.033        2493.072          41.000  
C33  22464207.834   116977022.474        -490.476          50.000                                                                  
C06  36561776.215   190386763.529        -173.914          45.000    36561759.112   147219051.255        -134.432          48.000  
C14  22524546.517   117291211.046       -2085.568          46.000    22524531.452    90696951.184       -1612.495          50.000  
C16  36987460.998   192603411.115        -208.211          48.000    36987448.907   148933127.196        -161.211          48.000  
C24  21786975.060   113450497.863        -775.845          50.000                                                                  
C26  24255845.287   126306548.012       -2545.022          45.000                                                                  
G03  22888687.556   120280867.728         120.728          38.000    22888682.535    93725325.165          94.388          38.000  
G16  22634561.668   118945419.303        3103.495          40.000                                                                  
C09  37713946.179   196386416.351        -164.147          43.000    37713932.323   151858376.508        -127.241          48.000  
C25  23757747.560   123712821.713        1645.703          46.000                                                                  
C13  38212432.986   198982174.446       -2226.180          42.000    38212426.721   153865608.804       -1721.698          43.000  
C08  39028230.381   203230238.355       -2438.279          37.000    39028218.295   157150443.326       -1884.600          43.000  
C10  40559902.525                         925.895          33.000    40559904.989   163317971.523         716.253          39.000  
G25  24133515.192   126822474.163       -3899.093          38.000    24133505.023    98822669.603       -3038.213          34.000  
> 2025 10 30 06 14 19.5600000  0 20                     
G32  21829889.465   114716843.654       -2765.000          46.000    21829882.897    89389720.516       -2154.418          43.000  
G29  23040665.030   121079522.766        -360.288          43.000    23040655.872    94347644.108        -280.856          41.000  
G28  21175691.813   111279010.452       -1108.544          46.000    21175681.192    86710876.297        -863.882          47.000  
G26  20396946.540   107186674.371         881.628          48.000    20396939.635    83522064.538         687.019          46.000  
G31  20636858.578   108447420.128         252.607          47.000    20636847.373    84504441.929         196.630          45.000  
G04  24706132.963   129831625.108        3199.731          35.000    24706129.890   101167480.307        2493.130          41.000  
C33  22464211.599   116977042.085        -490.370          50.000                                                                  
C06  36561777.554   190386770.473        -173.689          45.000    36561760.469   147219056.626        -134.366          48.000  
C14  22524562.554   117291294.459       -2085.432          46.000    22524547.458    90697015.681       -1612.444          50.000  
C16  36987462.621   192603419.438        -208.084          48.000    36987450.507   148933133.634        -161.058          48.000  
C24  21786981.056   113450528.884        -775.655          50.000                                                                  
C26  24255864.853   126306649.807       -2544.944          45.000                                                                  
G03  22888686.641   120280862.861         121.328          38.000    22888681.617    93725321.395          94.421          38.000  
G16  22634538.039   118945295.168        3103.333          40.000                                                                  
C09  37713947.432   196386422.918        -164.132          43.000    37713933.585   151858381.594        -127.200          48.000  
C25  23757734.906   123712755.899        1645.441          45.000                                                                  
C13  38212450.075   198982263.486       -2226.049          42.000    38212443.799   153865677.654       -1721.428          43.000  
C08  39028249.101   203230335.826       -2437.487          37.000    39028237.037   157150518.708       -1884.530          43.000  
C10  40559895.426                         925.412          33.000    40559897.868   163317942.878         716.152          39.000  
G25  24133544.861   126822630.126       -3899.111          38.000    24133534.676    98822791.115       -3037.887          34.000  
> 2025 10 30 06 14 19.6000000  0 20                     
G32  21829910.502   114716954.245       -2764.827          46.000    21829903.954    89389806.683       -2154.227          43.000  
G29  23040667.773   121079537.181        -360.366          43.000    23040658.611    94347655.348        -281.013          41.000  
G28  21175700.252   111279054.794       -1108.564          46.000    21175689.661    86710910.859        -864.037          47.000  
G26  20396939.811   107186639.098         881.745          48.000    20396932.923    83522037.053         687.098          46.000  
G31  20636856.661   108447410.025         252.619          47.000    20636845.446    84504434.044         196.988          45.000  
G04  24706108.596   129831497.093        3200.275          35.000    24706105.524   101167380.589        2492.966          41.000  
C33  22464215.397   116977061.695        -490.300          50.000                                                                  
C06  36561778.882   190386777.420        -173.604          45.000    36561761.850   147219061.990        -134.204          48.000  
C14  22524578.579   117291377.870       -2085.299          46.000    22524563.482    90697080.173       -1612.338          50.000  
C16  36987464.205   192603427.766        -208.114          48.000    36987452.105   148933140.059        -160.730          48.000  
C24  21786987.060   113450559.904        -775.535          50.000                                                                  
C26  24255884.410   126306751.609       -2545.067          45.000                                                                  
G03  22888685.733   120280858.029         121.056          38.000    22888680.690    93725317.631          94.184          38.000  
G16  22634514.410   118945171.028        3103.367          40.000                                                                  
C09  37713948.703   196386429.493        -164.306          43.000    37713934.841   151858386.673        -127.054          48.000  
C25  23757722.257   123712690.089        1645.239          45.000                                                                  
C13  38212467.170   198982352.526       -2225.974          42.000    38212460.870   153865746.502       -1721.249          43.000  
C08  39028267.794   203230433.301       -2437.123          37.000    39028255.792   157150594.092       -1884.555          43.000  
C10  40559888.290                         925.475          33.000    40559890.733   163317914.208         716.570          39.000  
G25  24133574.556   126822786.083       -3898.991          38.000    24133564.369    98822912.646       -3038.109          34.000  
> 2025 10 30 06 14 19.6400000  0 20                     
G32  21829931.556   114717064.835       -2764.755          46.000    21829925.017    89389892.860       -2154.333          43.000  
G29  23040670.518   121079551.608        -360.610          43.000    23040661.354    94347666.585        -281.024          41.000  
G28  21175708.655   111279099.132       -1108.525          46.000    21175698.093    86710945.419        -864.097          47.000  
G26  20396933.133   107186603.837         881.597          48.000    20396926.218    83522009.578         686.925          46.000  
G31  20636854.758   108447399.930         252.434          47.000    20636843.535    84504426.164         197.066          45.000  
G04  24706084.245   129831369.125        3199.666          35.000    24706081.147   101167280.862        2493.060          42.000  
C33  22464219.113   116977081.311        -490.366          50.000                                                                  
C06  36561780.227   190386784.366        -173.600          45.000    36561763.218   147219067.359        -134.203          48.000  
C14  22524594.594   117291461.290       -2085.434          46.000    22524579.492    90697144.672       -1612.436          50.000  
C16  36987465.784   192603436.085        -208.013          48.000    36987453.721   148933146.500        -160.882          48.000  
C24  21786992.985   113450590.928        -775.574          50.000                                                                  
C26  24255903.950   126306853.418       -2545.250          45.000                                                                  
G03  22888684.797   120280853.185         121.055          38.000    22888679.773    93725313.842          94.569          38.000  
G16  22634490.793   118945046.886        3103.452          40.000                                                                  
C09  37713949.970   196386436.070        -164.458          43.000    37713936.099   151858391.751        -126.974          48.000  
C25  23757709.628   123712624.272        1645.313          45.000                                                                  
C13  38212484.300   198982441.570       -2226.095          42.000    38212477.969   153865815.357       -1721.345          43.000  
C08  39028286.490   203230530.783       -2437.095          37.000    39028274.520   157150669.465       -1884.401          43.000  
C10  40559881.151   211205942.6001        925.827          33.000    40559883.602   163317885.562         716.318          39.000  
G25  24133604.222   126822942.037       -3898.968          38.000    24133594.041    98823034.131       -3037.480          34.000  
> 2025 10 30 06 14 19.6800000  0 20                     
G32  21829952.608   114717175.439       -2764.990          46.000    21829946.081    89389979.059       -2154.778          43.000  
G29  23040673.242   121079566.035        -360.728          43.000    23040664.093    94347677.829        -281.110          41.000  
G28  21175717.115   111279143.486       -1108.749          45.000    21175706.547    86710979.971        -863.921          47.000  
G26  20396926.432   107186568.575         881.510          48.000    20396919.507    83521982.102         686.870          46.000  
G31  20636852.852   108447389.835         252.354          47.000    20636841.626    84504418.296         196.837          45.000  
G04  24706059.883   129831241.128        3199.875          35.000    24706056.789   101167181.118        2493.420          42.000  
C33  22464222.844   116977100.930        -490.468          50.000                                                                  
C06  36561781.559   190386791.315        -173.672          45.000    36561764.538   147219072.739        -134.387          48.000  
C14  22524610.597   117291544.707       -2085.433          46.000    22524595.493    90697209.173       -1612.531          50.000  
C16  36987467.344   192603444.413        -208.099          48.000    36987455.368   148933152.940        -160.981          48.000  
C24  21786998.954   113450621.957        -775.693          50.000                                                                  
C26  24255923.474   126306955.227       -2545.308          44.000                                                                  
G03  22888683.874   120280848.353         120.815          38.000    22888678.835    93725310.063          94.488          38.000  
G16  22634467.171   118944922.740        3103.632          41.000                                                                  
C09  37713951.248   196386442.648        -164.584          43.000    37713937.391   151858396.834        -127.034          48.000  
C25  23757697.006   123712558.456        1645.349          46.000                                                                  
C13  38212501.372   198982530.617       -2226.195          42.000    38212495.079   153865884.223       -1721.626          43.000  
C08  39028305.203   203230628.253       -2436.837          37.000    39028293.230   157150744.850       -1884.577          43.000  
C10  40559874.034   211205905.522         926.640          33.000    40559876.482   163317856.907         716.297          39.000  
G25  24133633.885   126823097.978       -3898.735          38.000    24133623.712    98823155.640       -3037.483          34.000  
> 2025 10 30 06 14 19.7200000  0 20                     
G32  21829973.646   114717286.038       -2765.053          46.000    21829967.118    89390065.253       -2154.929          43.000  
G29  23040676.016   121079580.459        -360.737          42.000    23040666.842    94347689.075        -281.209          41.000  
G28  21175725.577   111279187.840       -1108.881          45.000    21175714.986    86711014.532        -864.005          47.000  
G26  20396919.746   107186533.320         881.332          48.000    20396912.799    83521954.634         686.673          46.000  
G31  20636850.929   108447379.736         252.410          47.000    20636839.725    84504410.432         196.628          44.000  
G04  24706035.508   129831113.137        3199.872          35.000    24706032.424   101167081.387        2493.386          42.000  
C33  22464226.606   116977120.554        -490.608          50.000                                                                  
C06  36561782.889   190386798.268        -173.798          46.000    36561765.852   147219078.111        -134.358          48.000  
C14  22524626.610   117291628.124       -2085.446          46.000    22524611.518    90697273.684       -1612.757          50.000  
C16  36987468.941   192603452.741        -208.158          48.000    36987456.984   148933159.386        -161.142          48.000  
C24  21787004.926   113450652.985        -775.723          50.000                                                                  
C26  24255943.030   126307057.016       -2544.960          44.000                                                                  
G03  22888682.966   120280843.506         121.013          38.000    22888677.914    93725306.295          94.281          38.000  
G16  22634443.551   118944798.600        3103.598          41.000                                                                  
C09  37713952.498   196386449.228        -164.617          43.000    37713938.665   151858401.918        -127.117          48.000  
C25  23757684.365   123712492.643        1645.300          46.000                                                                  
C13  38212518.488   198982619.654       -2226.063          42.000    38212512.194   153865953.076       -1721.531          43.000  
C08  39028323.928   203230725.742       -2437.069          37.000    39028311.950   157150820.240       -1884.725          43.000  
C10  40559866.932   211205868.477         926.484          33.000    40559869.360   163317828.274         715.925          38.000  
G25  24133663.570   126823253.935       -3898.889          38.000    24133653.407    98823277.201       -3038.587          34.000  
> 2025 10 30 06 14 19.7600000  0 20                     
G32  21829994.680   114717396.651       -2765.282          46.000    21829988.159    89390151.441       -2154.847          43.000  
G29  23040678.791   121079594.891        -360.803          41.000    23040669.597    94347700.316        -281.138          41.000  
G28  21175733.998   111279232.190       -1108.874          45.000    21175723.444    86711049.092        -864.072          47.000  
G26  20396913.036   107186498.065         881.296          48.000    20396906.065    83521927.153         686.853          46.000  
G31  20636849.018   108447369.638         252.435          47.000    20636837.812    84504402.581         196.252          44.000  
G04  24706011.150   129830985.113        3200.372          35.000    24706008.073   101166981.676        2492.962          42.000  
C33  22464230.326   116977140.180        -490.733          50.000                                                                  
C06  36561784.238   190386805.219        -173.822          46.000    36561767.177   147219083.489        -134.448          48.000  
C14  22524642.600   117291711.544       -2085.510          46.000    22524627.504    90697338.202       -1612.961          50.000  
C16  36987470.551   192603461.067        -208.164          48.000    36987458.578   148933165.830        -161.181          48.000  
C24  21787010.882   113450684.020        -775.871          50.000                                                                  
C26  24255962.559   126307158.808       -2544.841          44.000                                                                  
G03  22888682.045   120280838.674         120.824          38.000    22888676.982    93725302.542          93.893          38.000  
G16  22634419.942   118944674.473        3103.324          41.000                                                                  
C09  37713953.753   196386455.804        -164.551          43.000    37713939.924   151858406.998        -127.085          48.000  
C25  23757671.725   123712426.836        1645.154          46.000                                                                  
C13  38212535.589   198982708.702       -2226.207          42.000    38212529.300   153866021.936       -1721.548          43.000  
C08  39028342.647   203230823.239       -2437.344          37.000    39028330.693   157150895.639       -1884.923          43.000  
C10  40559859.801   211205831.406         926.670          33.000    40559862.244   163317799.650         715.569          38.000  
G25  24133693.244   126823409.891       -3898.947          38.000    24133683.063    98823398.676       -3037.536          34.000  
> 2025 10 30 06 14 19.8000000  0 20                     
G32  21830015.730   114717507.266       -2765.402          46.000    21830009.199    89390237.623       -2154.674          43.000  
G29  23040681.527   121079609.315        -360.675          41.000    23040672.342    94347711.552        -281.031          41.000  
G28  21175742.439   111279276.554       -1109.059          45.000    21175731.909    86711083.665        -864.288          47.000  
G26  20396906.344   107186462.812         881.229          48.000    20396899.354    83521899.669         687.031          46.000  
G31  20636847.090   108447359.536         252.533          47.000    20636835.898    84504394.722         196.279          44.000  
G04  24705986.803   129830857.114        3200.162          35.000    24705983.739   101166881.954        2492.965          42.000  
C33  22464234.082   116977159.814        -490.900          50.000                                                                  
C06  36561785.590   190386812.175        -173.932          46.000    36561768.481   147219088.861        -134.373          48.000  
C14  22524658.596   117291794.963       -2085.533          46.000    22524643.515    90697402.718       -1613.019          50.000  
C16  36987472.119   192603469.399        -208.266          48.000    36987460.188   148933172.268        -161.075          48.000  
C24  21787016.850   113450715.050        -775.853          50.000                                                                  
C26  24255982.088   126307260.597       -2544.701          43.000                                                                  
G03  22888681.127   120280833.844         120.700          38.000    22888676.055    93725298.768          94.125          38.000  
G16  22634396.323   118944550.351        3103.093          41.000                                                                  
C09  37713955.038   196386462.375        -164.398          43.000    37713941.189   151858412.075        -126.989          48.000  
C25  23757659.094   123712361.033        1645.050          46.000                                                                  
C13  38212552.686   198982797.756       -2226.367          42.000    38212546.424   153866090.783       -1721.273          43.000  
C08  39028361.394   203230920.749       -2437.699          37.000    39028349.407   157150971.030       -1884.862          43.000  
C10  40559852.700   211205794.367         926.069          33.000    40559855.119   163317771.001         715.869          38.000  
G25  24133722.902   126823565.815       -3898.377          38.000    24133712.708    98823520.196       -3037.721          30.000  
> 2025 10 30 06 14 19.8400000  0 20                     
G32  21830036.768   114717617.868       -2765.239          46.000    21830030.249    89390323.794       -2154.397          43.000  
G29  23040684.266   121079623.740        -360.606          41.000    23040675.089    94347722.791        -280.962          41.000  
G28  21175750.861   111279320.896       -1108.780          45.000    21175740.332    86711118.225        -864.185          47.000  
G26  20396899.626   107186427.557         881.285          48.000    20396892.643    83521872.191         686.969          46.000  
G31  20636845.153   108447349.431         252.607          47.000    20636833.970    84504386.853         196.527          44.000  
G04  24705962.454   129830729.172        3199.006          35.000    24705959.389   101166782.218        2493.189          42.000  
C33  22464237.861   116977179.442        -490.836          50.000                                                                  
C06  36561786.935   190386819.127        -173.906          46.000    36561769.809   147219094.239        -134.459          48.000  
C14  22524674.615   117291878.392       -2085.703          46.000    22524659.555    90697467.231       -1612.932          50.000  
C16  36987473.728   192603477.730        -208.336          48.000    36987461.773   148933178.711        -161.074          48.000  
C24  21787022.864   113450746.081        -775.838          49.000                                                                  
C26  24256001.614   126307362.384       -2544.625          43.000                                                                  
G03  22888680.217   120280829.018         120.629          38.000    22888675.125    93725295.001          94.165          38.000  
G16  22634372.680   118944426.216        3103.212          41.000                                                                  
C09  37713956.290   196386468.959        -164.557          43.000    37713942.422   151858417.154        -126.971          48.000  
C25  23757646.468   123712295.216        1645.270          46.000                                                                  
C13  38212569.789   198982886.817       -2226.552          42.000    38212563.513   153866159.631       -1721.176          43.000  
C08  39028380.129   203231018.245       -2437.610          37.000    39028368.138   157151046.409       -1884.605          43.000  
C10  40559845.617                         926.177          33.000    40559848.017   163317742.354         716.009          38.000  
G25  24133752.568   126823721.749       -3898.276          38.000    24133742.380    98823641.679       -3037.264          30.000  
> 2025 10 30 06 14 19.8800000  0 20                     
G32  21830057.807   114717728.470       -2765.095          46.000    21830051.278    89390409.971       -2154.357          44.000  
G29  23040687.000   121079638.156        -360.399          41.000    23040677.830    94347734.043        -281.227          41.000  
G28  21175759.305   111279365.245       -1108.765          45.000    21175748.764    86711152.785        -864.084          47.000  
G26  20396892.912   107186392.296         881.421          48.000    20396885.948    83521844.715         686.913          46.000  
G31  20636843.230   108447339.339         252.385          47.000    20636832.050    84504378.986         196.644          44.000  
G04  24705938.092   129830601.185        3199.319          35.000    24705935.031   101166682.492        2493.162          41.000  
C33  22464241.673   116977199.063        -490.666          50.000                                                                  
C06  36561788.268   190386826.072        -173.726          46.000    36561771.138   147219099.618        -134.530          48.000  
C14  22524690.624   117291961.817       -2085.726          46.000    22524675.585    90697531.732       -1612.645          51.000  
C16  36987475.340   192603486.065        -208.397          48.000    36987463.370   148933185.151        -161.069          48.000  
C24  21787028.824   113450777.112        -775.797          49.000                                                                  
C26  24256021.136   126307464.182       -2544.833          43.000                                                                  
G03  22888679.307   120280824.178         120.864          38.000    22888674.198    93725291.238          94.082          37.000  
G16  22634349.068   118944302.064        3103.599          41.000                                                                  
C09  37713957.576   196386475.527        -164.294          43.000    37713943.678   151858422.228        -126.870          48.000  
C25  23757633.845   123712229.387        1645.630          46.000                                                                  
C13  38212586.891   198982975.848       -2226.076          42.000    38212580.630   153866228.475       -1721.091          43.000  
C08  39028398.845   203231115.728       -2437.325          37.000    39028386.854   157151121.768       -1884.149          43.000  
C10  40559838.527   211205720.260         926.377          33.000    40559840.908   163317713.687         716.502          38.000  
G25  24133782.262   126823877.698       -3898.483          38.000    24133772.055    98823763.145       -3036.811          30.000  
> 2025 10 30 06 14 19.9200000  0 20                     
G32  21830078.856   114717839.060       -2764.859          46.000    21830072.330    89390496.151       -2154.416          44.000  
G29  23040689.757   121079652.586        -360.572          41.000    23040680.593    94347745.283        -281.150          39.000  
G28  21175767.732   111279409.577       -1108.448          45.000    21175757.193    86711187.323        -863.669          47.000  
G26  20396886.191   107186357.031         881.569          48.000    20396879.245    83521817.248         686.685          46.000  
G31  20636841.326   108447329.244         252.336          47.000    20636830.134    84504371.115         196.773          44.000  
G04  24705913.722   129830473.160        3200.173          35.000    24705910.683   101166582.755        2493.394          40.000  
C33  22464245.448   116977218.673        -490.354          50.000                                                                  
C06  36561789.596   190386833.010        -173.517          46.000    36561772.439   147219104.984        -134.294          48.000  
C14  22524706.652   117292045.233       -2085.527          46.000    22524691.591    90697596.224       -1612.338          51.000  
C16  36987476.976   192603494.385        -208.142          47.000    36987464.957   148933191.587        -160.966          47.000  
C24  21787034.773   113450808.141        -775.783          49.000                                                                  
C26  24256040.677   126307565.983       -2545.027          41.000                                                                  
G03  22888678.392   120280819.339         121.002          38.000    22888673.279    93725287.448          94.528          37.000  
G16  22634325.424   118944177.920        3103.664          41.000                                                                  
C09  37713958.841   196386482.080        -163.911          43.000    37713944.931   151858427.312        -127.018          48.000  
C25  23757621.217   123712163.554        1645.850          46.000                                                                  
C13  38212603.980   198983064.874       -2225.705          42.000    38212597.745   153866297.341       -1721.491          43.000  
C08  39028417.565   203231213.198       -2436.918          37.000    39028405.579   157151197.148       -1884.258          43.000  
C10  40559831.391   211205683.220         926.048          33.000    40559833.774   163317685.028         716.584          39.000  
G25  24133811.946   126824033.653       -3898.787          38.000    24133801.740    98823884.669       -3037.394          30.000  
> 2025 10 30 06 14 19.9600000  0 20                     
G32  21830099.919   114717949.660       -2764.927          46.000    21830093.382    89390582.323       -2154.321          44.000  
G29  23040692.519   121079667.013        -360.647          41.000    23040683.359    94347756.528        -281.136          39.000  
G28  21175776.189   111279453.921       -1108.523          45.000    21175765.617    86711221.863        -863.482          47.000  
G26  20396879.445   107186321.767         881.648          48.000    20396872.538    83521789.783         686.550          46.000  
G31  20636839.402   108447319.145         252.398          46.000    20636828.189    84504363.248         196.754          44.000  
G04  24705889.361   129830345.152        3200.410          35.000    24705886.304   101166483.028        2493.225          40.000  
C33  22464249.192   116977238.289        -490.323          50.000                                                                  
C06  36561790.917   190386839.957        -173.580          46.000    36561773.768   147219110.353        -134.185          48.000  
C14  22524722.678   117292128.646       -2085.344          46.000    22524707.597    90697660.721       -1612.307          51.000  
C16  36987478.578   192603502.703        -208.011          47.000    36987466.551   148933198.034        -161.104          47.000  
C24  21787040.709   113450839.176        -775.857          49.000                                                                  
C26  24256060.202   126307667.797       -2545.338          41.000                                                                  
G03  22888677.474   120280814.496         121.112          38.000    22888672.381    93725283.704          93.948          37.000  
G16  22634301.800   118944053.781        3103.584          41.000                                                                  
C09  37713960.095   196386488.651        -164.089          43.000    37713946.240   151858432.384        -126.884          48.000  
C25  23757608.558   123712097.722        1645.911          46.000                                                                  
C13  38212621.055   198983153.912       -2225.778          42.000    38212614.868   153866366.201       -1721.557          43.000  
C08  39028436.306   203231310.695       -2437.133          37.000    39028424.300   157151272.529       -1884.422          43.000  
C10  40559824.298   211205646.157         926.392          33.000    40559826.682   163317656.364         716.653          39.000  
G25  24133841.625   126824189.610       -3898.935          38.000    24133831.420    98824006.277       -3039.432          30.000  
> 2025 10 30 06 14 20.0000000  0 20                     
G32  21830120.954   114718060.257       -2764.952          46.000    21830114.422    89390668.502       -2154.411          44.000  
G29  23040695.253   121079681.448        -360.880          41.000    23040686.087    94347767.768        -281.093          39.000  
G28  21175784.630   111279498.265       -1108.529          45.000    21175774.074    86711256.418        -863.660          47.000  
G26  20396872.745   107186286.507         881.555          48.000    20396865.818    83521762.305         686.742          46.000  
G31  20636837.482   108447309.056         252.244          46.000    20636826.262    84504355.377         196.771          44.000  
G04  24705864.993   129830217.148        3200.437          35.000    24705861.953   101166383.299        2493.172          40.000  
C33  22464252.950   116977257.900        -490.257          50.000                                                                  
C06  36561792.211   190386846.897        -173.512          46.000    36561775.088   147219115.724        -134.219          48.000  
C14  22524738.690   117292212.069       -2085.468          46.000    22524723.584    90697725.217       -1612.338          51.000  
C16  36987480.164   192603511.029        -208.089          47.000    36987468.156   148933204.466        -160.928          47.000  
C24  21787046.670   113450870.207        -775.843          49.000                                                                  
C26  24256079.771   126307769.605       -2545.376          40.000                                                                  
G03  22888676.548   120280809.664         120.947          38.000    22888671.469    93725279.955          93.680          37.000  
G16  22634278.209   118943929.650        3103.354          41.000                                                                  
C09  37713961.356   196386495.222        -164.213          44.000    37713947.489   151858437.460        -126.892          48.000  
C25  23757595.926   123712031.896        1645.764          46.000                                                                  
C13  38212638.178   198983242.963       -2226.115          42.000    38212631.965   153866435.051       -1721.394          43.000  
C08  39028455.028   203231408.187       -2437.274          37.000    39028443.016   157151347.916       -1884.636          43.000  
C10  40559817.185   211205609.090         926.523          33.000    40559819.540   163317627.704         716.625          39.000  
G25  24133871.318   126824345.583       -3899.276          38.000    24133861.075                       -3038.278          30.000  
> 2025 10 30 06 14 20.0400000  0 20                     
G32  21830142.012   114718170.866       -2765.167          46.000    21830135.487    89390754.694       -2154.731          44.000  
G29  23040698.006   121079695.884        -361.003          41.000    23040688.813    94347779.017        -281.271          39.000  
G28  21175793.043   111279542.603       -1108.459          45.000    21175782.522    86711290.979        -863.917          47.000  
G26  20396866.074   107186251.256         881.339          48.000    20396859.093    83521734.828         686.878          46.000  
G31  20636835.572   108447298.971         252.115          46.000    20636824.361    84504347.518         196.518          44.000  
G04  24705840.640   129830089.158        3199.986          35.000    24705837.606   101166283.568        2493.208          40.000  
C33  22464256.683   116977277.516        -490.340          50.000                                                                  
C06  36561793.520   190386853.846        -173.661          46.000    36561776.432   147219121.103        -134.407          48.000  
C14  22524754.669   117292295.488       -2085.488          46.000    22524739.593    90697789.726       -1612.601          51.000  
C16  36987481.784   192603519.367        -208.374          47.000    36987469.771   148933210.913        -161.072          47.000  
C24  21787052.659   113450901.237        -775.809          49.000                                                                  
C26  24256099.330   126307871.393       -2544.999          40.000                                                                  
G03  22888675.639   120280804.829         120.903          38.000    22888670.541    93725276.179          94.041          37.000  
G16  22634254.601   118943805.509        3103.414          41.000                                                                  
C09  37713962.624   196386501.792        -164.302          44.000    37713948.770   151858442.540        -127.001          48.000  
C25  23757583.287   123711966.075        1645.581          46.000                                                                  
C13  38212655.272   198983332.006       -2226.133          42.000    38212649.031   153866503.894       -1721.164          43.000  
C08  39028473.761   203231505.652       -2436.854          37.000    39028461.766   157151423.323       -1885.118          43.000  
C10  40559810.083   211205572.038         926.448          33.000    40559812.432   163317599.060         716.234          39.000  
G25  24133900.986   126824501.525       -3898.924          38.000    24133890.739    98824249.306       -3038.350          30.000  
> 2025 10 30 06 14 20.0800000  0 20                     
G32  21830163.078   114718281.474       -2765.280          46.000    21830156.541    89390840.881       -2154.780          44.000  
G29  23040700.767   121079710.306        -360.767          41.000    23040691.569    94347790.256        -281.124          39.000  
G28  21175801.494   111279586.967       -1108.909          45.000    21175790.974    86711325.534        -863.937          47.000  
G26  20396859.349   107186216.003         881.259          48.000    20396852.392    83521707.358         686.810          46.000  
G31  20636833.624   108447288.878         252.221          46.000    20636822.435    84504339.656         196.470          44.000  
G04  24705816.314   129829961.149        3200.067          35.000    24705813.250   101166183.843        2493.131          40.000  
C33  22464260.460   116977297.145        -490.635          50.000                                                                  
C06  36561794.856   190386860.801        -173.857          46.000    36561777.761   147219126.480        -134.470          48.000  
C14  22524770.690   117292378.910       -2085.552          46.000    22524755.590    90697854.239       -1612.852          51.000  
C16  36987483.396   192603527.694        -208.311          47.000    36987471.377   148933217.360        -161.154          47.000  
C24  21787058.597   113450932.276        -775.939          48.000                                                                  
C26  24256118.878   126307973.189       -2544.891          40.000                                                                  
G03  22888674.717   120280799.989         120.946          38.000    22888669.622    93725272.420          93.959          37.000  
G16  22634230.962   118943681.366        3103.510          41.000                                                                  
C09  37713963.871   196386508.360        -164.268          44.000    37713949.987   151858447.618        -126.993          48.000  
C25  23757570.621   123711900.262        1645.325          46.000                                                                  
C13  38212672.344   198983421.066       -2226.449          42.000    38212666.154   153866572.753       -1721.333          43.000  
C08  39028492.465   203231603.111       -2436.570          37.000    39028480.483   157151498.724       -1885.214          43.000  
C10  40559802.957   211205535.025         925.575          33.000    40559805.326   163317570.426         715.878          38.000  
G25  24133930.680   126824657.492       -3899.123          38.000    24133920.374    98824370.762       -3037.003          30.000  
> 2025 10 30 06 14 20.1200000  0 20                     
G32  21830184.114   114718392.078       -2765.247          46.000    21830177.576    89390927.064       -2154.710          44.000  
G29  23040703.516   121079724.743        -360.913          41.000    23040694.314    94347801.493        -281.011          39.000  
G28  21175809.927   111279631.311       -1108.783          45.000    21175799.416    86711360.096        -864.086          47.000  
G26  20396852.678   107186180.759         881.069          48.000    20396845.703    83521679.897         686.569          46.000  
G31  20636831.709   108447278.791         252.178          46.000    20636820.513    84504331.792         196.501          44.000  
G04  24705791.969   129829833.186        3199.358          35.000    24705788.885   101166084.117        2493.120          40.000  
C33  22464264.204   116977316.779        -490.885          51.000                                                                  
C06  36561796.194   190386867.755        -173.934          46.000    36561779.098   147219131.861        -134.579          47.000  
C14  22524786.713   117292462.338       -2085.710          46.000    22524771.607    90697918.749       -1612.878          51.000  
C16  36987484.964   192603536.031        -208.444          47.000    36987473.010   148933223.802        -161.132          47.000  
C24  21787064.559   113450963.315        -776.001          48.000                                                                  
C26  24256138.430   126308074.979       -2544.735          40.000                                                                  
G03  22888673.771   120280795.166         120.709          38.000    22888668.691    93725268.654          94.042          37.000  
G16  22634207.332   118943557.242        3103.179          41.000                                                                  
C09  37713965.161   196386514.929        -164.241          44.000    37713951.240   151858452.697        -127.012          48.000  
C25  23757557.981   123711834.451        1645.184          46.000                                                                  
C13  38212689.456   198983510.131       -2226.664          42.000    38212683.251   153866641.619       -1721.601          43.000  
C08  39028511.176   203231700.605       -2437.022          37.000    39028499.184   157151574.105       -1884.866          43.000  
C10  40559795.837   211205497.963         925.977          33.000    40559798.213   163317541.776         716.025          38.000  
G25  24133960.367   126824813.447       -3899.056          38.000    24133950.043    98824492.294       -3037.744          30.000  
> 2025 10 30 06 14 20.1600000  0 20                     
G32  21830205.171   114718502.691       -2765.334          46.000    21830198.616    89391013.256       -2154.811          44.000  
G29  23040706.270   121079739.175        -360.867          41.000    23040697.070    94347812.747        -281.231          39.000  
G28  21175818.376   111279675.662       -1108.829          45.000    21175807.857    86711394.657        -864.105          47.000  
G26  20396845.975   107186145.508         881.157          48.000    20396838.995    83521652.425         686.656          46.000  
G31  20636829.787   108447268.701         252.209          46.000    20636818.617    84504323.934         196.421          44.000  
G04  24705767.617   129829705.208        3199.233          35.000    24705764.528   101165984.389        2493.192          40.000  
C33  22464267.991   116977336.415        -491.005          51.000                                                                  
C06  36561797.537   190386874.708        -173.927          46.000    36561780.441   147219137.233        -134.454          47.000  
C14  22524802.749   117292545.764       -2085.732          46.000    22524787.623    90697983.262       -1612.919          51.000  
C16  36987486.536   192603544.363        -208.380          46.000    36987474.633   148933230.231        -160.887          47.000  
C24  21787070.498   113450994.353        -775.995          48.000                                                                  
C26  24256157.969   126308176.765       -2544.598          40.000                                                                  
G03  22888672.876   120280790.349         120.453          38.000    22888667.756    93725264.896          93.960          37.000  
G16  22634183.726   118943433.119        3102.992          41.000                                                                  
C09  37713966.412   196386521.498        -164.261          44.000    37713952.495   151858457.778        -127.050          48.000  
C25  23757545.369   123711768.643        1645.081          46.000                                                                  
C13  38212706.555   198983599.171       -2226.281          42.000    38212700.364   153866710.482       -1721.680          43.000  
C08  39028529.914   203231798.123       -2437.755          37.000    39028517.900   157151649.472       -1884.411          43.000  
C10  40559788.714   211205460.899         926.301          33.000    40559791.104   163317513.132         716.008          38.000  
G25  24133990.063   126824969.407       -3899.060          38.000    24133979.765                       -3037.976          30.000  
> 2025 10 30 06 14 20.2000000  0 20                     
G32  21830226.220   114718613.297       -2765.279          46.000    21830219.675    89391099.447       -2154.826          44.000  
G29  23040709.003   121079753.600        -360.684          41.000    23040699.815    94347823.984        -281.080          39.000  
G28  21175826.805   111279720.017       -1108.911          45.000    21175816.291    86711429.218        -864.099          47.000  
G26  20396839.236   107186110.256         881.206          48.000    20396832.290    83521624.954         686.693          46.000  
G31  20636827.856   108447258.604         252.363          46.000    20636816.703    84504316.069         196.545          44.000  
G04  24705743.274   129829577.251        3199.017          35.000    24705740.160   101165884.664        2493.163          40.000  
C33  22464271.772   116977356.047        -490.940          51.000                                                                  
C06  36561798.882   190386881.657        -173.811          46.000    36561781.809   147219142.606        -134.388          47.000  
C14  22524818.758   117292629.190       -2085.710          46.000    22524803.641    90698047.774       -1612.877          51.000  
C16  36987488.126   192603552.682        -208.100          46.000    36987476.202   148933236.669        -160.871          47.000  
C24  21787076.469   113451025.383        -775.845          48.000                                                                  
C26  24256177.518   126308278.558       -2544.652          40.000                                                                  
G03  22888671.969   120280785.534         120.320          38.000    22888666.845    93725261.148          93.767          37.000  
G16  22634160.098   118943308.982        3103.266          41.000                                                                  
C09  37713967.693   196386528.071        -164.324          44.000    37713953.738   151858462.864        -127.150          48.000  
C25  23757532.728   123711702.829        1645.184          46.000                                                                  
C13  38212723.624   198983688.200       -2225.903          42.000    38212717.455   153866779.338       -1721.560          43.000  
C08  39028548.623   203231895.601       -2437.333          37.000    39028536.622   157151724.847       -1884.269          43.000  
C10  40559781.580   211205423.863         925.936          33.000    40559783.988   163317484.487         716.061          38.000  
G25  24134019.744   126825125.368       -3899.040          38.000    24134009.443                       -3038.498          30.000  
> 2025 10 30 06 14 20.2400000  0 20                     
G32  21830247.275   114718723.903       -2765.204          46.000    21830240.740    89391185.639       -2154.864          44.000  
G29  23040711.756   121079768.034        -360.800          41.000    23040702.563    94347835.228        -281.131          39.000  
G28  21175835.240   111279764.360       -1108.719          45.000    21175824.730    86711463.772        -863.979          47.000  
G26  20396832.517   107186075.005         881.231          48.000    20396825.579    83521597.493         686.552          46.000  
G31  20636825.929   108447248.512         252.350          46.000    20636814.776    84504308.201         196.650          44.000  
G04  24705718.920   129829449.277        3199.011          35.000    24705715.803   101165784.911        2493.652          40.000  
C33  22464275.586   116977375.678        -490.873          51.000                                                                  
C06  36561800.241   190386888.612        -173.865          46.000    36561783.148   147219147.979        -134.358          47.000  
C14  22524834.761   117292712.617       -2085.702          46.000    22524819.639    90698112.289       -1612.921          51.000  
C16  36987489.708   192603561.003        -208.009          46.000    36987477.814   148933243.112        -160.982          47.000  
C24  21787082.420   113451056.412        -775.765          48.000                                                                  
C26  24256197.070   126308380.375       -2545.105          40.000                                                                  
G03  22888671.045   120280780.719         120.253          38.000    22888665.943    93725257.384          93.977          37.000  
G16  22634136.469   118943184.847        3103.367          41.000                                                                  
C09  37713968.937   196386534.650        -164.495          44.000    37713955.000   151858467.942        -127.046          48.000  
C25  23757520.109   123711637.007        1645.416          46.000                                                                  
C13  38212740.732   198983777.254       -2226.155          41.000    38212734.568   153866848.196       -1721.535          43.000  
C08  39028567.356   203231993.089       -2437.251          37.000    39028555.349   157151800.226       -1884.316          43.000  
C10  40559774.455   211205386.829         925.789          33.000    40559776.842   163317455.833         716.278          38.000  
G25  24134049.421   126825281.312       -3898.740          38.000    24134039.114                       -3039.131          30.000  
> 2025 10 30 06 14 20.2800000  0 20                     
G32  21830268.330   114718834.509       -2765.129          46.000    21830261.779    89391271.821       -2154.692          44.000  
G29  23040714.508   121079782.477        -361.032          41.000    23040705.305    94347846.486        -281.395          39.000  
G28  21175843.673   111279808.705       -1108.613          45.000    21175833.165    86711498.325        -863.897          47.000  
G26  20396825.795   107186039.757         881.169          48.000    20396818.876    83521570.032         686.466          46.000  
G31  20636824.008   108447238.417         252.368          46.000    20636812.859    84504300.333         196.711          44.000  
G04  24705694.558   129829321.264        3199.827          35.000    24705691.459   101165685.176        2493.568          40.000  
C33  22464279.389   116977395.311        -490.860          51.000                                                                  
C06  36561801.600   190386895.565        -173.843          46.000    36561784.495   147219153.355        -134.392          47.000  
C14  22524850.800   117292796.048       -2085.778          46.000    22524835.664    90698176.800       -1612.863          51.000  
C16  36987491.281   192603569.330        -208.085          46.000    36987479.393   148933249.558        -161.104          47.000  
C24  21787088.335   113451087.447        -775.847          48.000                                                                  
C26  24256216.600   126308482.181       -2545.245          40.000                                                                  
G03  22888670.113   120280775.891         120.489          38.000    22888665.030    93725253.617          94.192          37.000  
G16  22634112.859   118943060.708        3103.446          41.000                                                                  
C09  37713970.208   196386541.229        -164.542          44.000    37713956.264   151858473.027        -127.123          48.000  
C25  23757507.476   123711571.190        1645.465          46.000                                                                  
C13  38212757.817   198983866.295       -2226.068          41.000    38212751.646   153866917.046       -1721.329          43.000  
C08  39028586.079   203232090.571       -2437.126          37.000    39028574.058   157151875.625       -1884.764          43.000  
C10  40559767.357   211205349.779         925.996          33.000    40559769.715   163317427.179         716.337          38.000  
G25  24134079.093   126825437.260       -3898.658          38.000    24134068.794                       -3038.372          30.000  
> 2025 10 30 06 14 20.3200000  0 20                     
G32  21830289.371   114718945.120       -2765.185          46.000    21830282.829    89391358.013       -2154.780          44.000  
G29  23040717.270   121079796.914        -361.048          41.000    23040708.054    94347857.733        -281.309          39.000  
G28  21175852.104   111279853.053       -1108.624          45.000    21175841.613    86711532.879        -863.881          47.000  
G26  20396819.106   107186004.509         881.170          48.000    20396812.155    83521542.559         686.670          46.000  
G31  20636822.078   108447228.331         252.164          46.000    20636810.941    84504292.469         196.655          44.000  
G04  24705670.212   129829193.287        3199.562          35.000    24705667.108   101165585.456        2493.223          40.000  
C33  22464283.197   116977414.941        -490.776          51.000                                                                  
C06  36561802.962   190386902.506        -173.627          46.000    36561785.845   147219158.726        -134.340          47.000  
C14  22524866.813   117292879.475       -2085.732          46.000    22524851.710    90698241.307       -1612.749          51.000  
C16  36987492.849   192603577.667        -208.299          46.000    36987480.989   148933255.993        -160.959          47.000  
C24  21787094.306   113451118.476        -775.760          48.000                                                                  
C26  24256236.131   126308583.982       -2545.183          40.000                                                                  
G03  22888669.182   120280771.052         120.840          38.000    22888664.104    93725249.855          94.150          37.000  
G16  22634089.251   118942936.572        3103.438          41.000                                                                  
C09  37713971.478   196386547.794        -164.252          44.000    37713957.541   151858478.105        -127.007          49.000  
C25  23757494.847   123711505.370        1645.483          46.000                                                                  
C13  38212774.910   198983955.355       -2226.379          41.000    38212768.742   153866985.899       -1721.268          43.000  
C08  39028604.804   203232188.037       -2436.765          37.000    39028592.796   157151951.007       -1884.680          43.000  
C10  40559760.237   211205312.679         927.102          33.000    40559762.588   163317398.531         716.232          38.000  
G25  24134108.771   126825593.207       -3898.626          38.000    24134098.408                       -3036.449          30.000  
> 2025 10 30 06 14 20.3600000  0 20                     
G32  21830310.420   114719055.735       -2765.379          46.000    21830303.852    89391444.212       -2154.977          43.000  
G29  23040720.046   121079811.356        -361.122          41.000    23040710.798    94347868.997        -281.527          39.000  
G28  21175860.550   111279897.399       -1108.644          44.000    21175850.047    86711567.440        -864.003          47.000  
G26  20396812.394   107185969.261         881.170          48.000    20396805.437    83521515.096         686.608          46.000  
G31  20636820.122   108447218.238         252.239          46.000    20636809.029    84504284.615         196.408          44.000  
G04  24705645.897   129829065.334        3199.064          35.000    24705642.759   101165485.746        2492.803          40.000  
C33  22464286.945   116977434.571        -490.785          51.000                                                                  
C06  36561804.322   190386909.454        -173.655          46.000    36561787.128   147219164.106        -134.480          47.000  
C14  22524882.825   117292962.907       -2085.809          46.000    22524867.728    90698305.817       -1612.750          51.000  
C16  36987494.486   192603585.998        -208.342          46.000    36987482.587   148933262.425        -160.818          47.000  
C24  21787100.256   113451149.517        -775.952          48.000                                                                  
C26  24256255.672   126308685.774       -2545.001          40.000                                                                  
G03  22888668.254   120280766.236         120.578          38.000    22888663.183    93725246.094          94.066          37.000  
G16  22634065.633   118942812.454        3103.028          41.000                                                                  
C09  37713972.729   196386554.364        -164.199          44.000    37713958.783   151858483.188        -127.052          49.000  
C25  23757482.190   123711439.560        1645.313          46.000                                                                  
C13  38212792.026   198984044.418       -2226.589          41.000    38212785.857   153867054.755       -1721.364          43.000  
C08  39028623.518   203232285.543       -2437.305          37.000    39028611.499   157152026.390       -1884.659          43.000  
C10  40559753.121   211205275.627         926.763          33.000    40559755.478   163317369.881         716.193          38.000  
G25  24134138.455   126825749.185       -3899.207          38.000    24134128.094                       -3038.281          30.000  
> 2025 10 30 06 14 20.4000000  0 20                     
G32  21830331.483   114719166.358       -2765.576          46.000    21830324.903    89391530.401       -2154.913          43.000  
G29  23040722.805   121079825.801        -361.208          39.000    23040713.550    94347880.254        -281.472          39.000  
G28  21175869.037   111279941.756       -1108.844          44.000    21175858.472    86711602.001        -864.065          47.000  
G26  20396805.680   107185934.019         881.059          48.000    20396798.733    83521487.633         686.577          46.000  
G31  20636818.220   108447208.162         251.962          46.000    20636807.093    84504276.760         196.335          44.000  
G04  24705621.556   129828937.312        3200.008          35.000    24705618.408   101165386.034        2492.617          40.000  
C33  22464290.675   116977454.210        -490.933          51.000                                                                  
C06  36561805.652   190386916.415        -173.914          46.000    36561788.470   147219169.485        -134.543          47.000  
C14  22524898.835   117293046.347       -2085.985          46.000    22524883.744    90698370.336       -1612.916          51.000  
C16  36987496.130   192603594.330        -208.358          46.000    36987484.154   148933268.872        -161.063          47.000  
C24  21787106.217   113451180.559        -776.059          48.000                                                                  
C26  24256275.215   126308787.573       -2545.013          40.000                                                                  
G03  22888667.335   120280761.429         120.298          38.000    22888662.250    93725242.347          93.745          37.000  
G16  22634042.023   118942688.329        3102.989          41.000                                                                  
C09  37713973.987   196386560.937        -164.277          44.000    37713960.047   151858488.272        -127.116          49.000  
C25  23757469.545   123711373.752        1645.197          47.000                                                                  
C13  38212809.145   198984133.476       -2226.561          41.000    38212802.954   153867123.625       -1721.655          43.000  
C08  39028642.245   203232383.038       -2437.476          37.000    39028630.215   157152101.790       -1884.921          43.000  
C10  40559746.014   211205238.570         926.436          33.000    40559748.353   163317341.248         715.858          38.000  
G25  24134168.125   126825905.143       -3899.188          38.000    24134157.799                       -3039.200          30.000  
> 2025 10 30 06 14 20.4400000  0 20                     
G32  21830352.517   114719276.970       -2765.430          46.000    21830345.964    89391616.584       -2154.709          43.000  
G29  23040725.569   121079840.264        -361.538          39.000    23040716.270    94347891.506        -281.372          39.000  
G28  21175877.460   111279986.105       -1108.812          44.000    21175866.910    86711636.558        -863.993          47.000  
G26  20396798.973   107185898.770         881.121          48.000    20396792.027    83521460.171         686.541          46.000  
G31  20636816.302   108447198.078         251.988          46.000    20636805.176    84504268.903         196.361          44.000  
G04  24705597.190   129828809.314        3200.060          35.000    24705594.030   101165286.288        2493.156          40.000  
C33  22464294.483   116977473.843        -490.905          51.000                                                                  
C06  36561806.973   190386923.371        -173.961          46.000    36561789.825   147219174.857        -134.441          47.000  
C14  22524914.864   117293129.778       -2085.926          46.000    22524899.761    90698434.851       -1612.926          51.000  
C16  36987497.745   192603602.652        -208.169          46.000    36987485.732   148933275.310        -161.015          47.000  
C24  21787112.210   113451211.593        -775.965          48.000                                                                  
C26  24256294.759   126308889.377       -2545.128          39.000                                                                  
G03  22888666.425   120280756.620         120.169          38.000    22888661.349    93725238.603          93.529          37.000  
G16  22634018.395   118942564.203        3103.072          41.000                                                                  
C09  37713975.233   196386567.504        -164.227          44.000    37713961.282   151858493.359        -127.198          49.000  
C25  23757456.942   123711307.941        1645.215          47.000                                                                  
C13  38212826.270   198984222.525       -2226.335          41.000    38212820.054   153867192.492       -1721.746          43.000  
C08  39028660.969   203232480.536       -2437.577          37.000    39028648.932   157152177.179       -1884.853          43.000  
C10  40559738.885   211205201.584         925.031          33.000    40559741.261   163317312.595         716.125          38.000  
G25  24134197.805   126826061.101       -3899.091          38.000    24134187.473                       -3038.314          30.000  
> 2025 10 30 06 14 20.4800000  0 20                     
G32  21830373.564   114719387.577       -2765.293          46.000    21830367.021    89391702.777       -2154.789          43.000  
G29  23040728.319   121079854.709        -361.332          39.000    23040719.010    94347902.754        -281.208          39.000  
G28  21175885.894   111280030.461       -1108.930          44.000    21175875.344    86711671.115        -863.983          47.000  
G26  20396792.270   107185863.527         881.066          48.000    20396785.318    83521432.709         686.547          46.000  
G31  20636814.378   108447187.989         252.118          46.000    20636803.242    84504261.041         196.509          44.000  
G04  24705572.848   129828681.310        3200.223          35.000    24705569.680   101165186.551        2493.354          40.000  
C33  22464298.267   116977493.478        -490.897          51.000                                                                  
C06  36561808.312   190386930.314        -173.752          46.000    36561791.130   147219180.224        -134.249          47.000  
C14  22524930.885   117293213.203       -2085.734          46.000    22524915.790    90698499.370       -1613.001          51.000  
C16  36987499.359   192603610.977        -208.100          47.000    36987487.331   148933281.751        -161.034          47.000  
C24  21787118.185   113451242.628        -775.945          48.000                                                                  
C26  24256314.317   126308991.194       -2545.398          38.000                                                                  
G03  22888665.506   120280751.779         120.744          38.000    22888660.434    93725234.838          93.860          37.000  
G16  22633994.776   118942440.069        3103.250          41.000                                                                  
C09  37713976.486   196386574.068        -164.126          44.000    37713962.544   151858498.444        -127.184          49.000  
C25  23757444.327   123711242.123        1645.355          47.000                                                                  
C13  38212843.375   198984311.566       -2226.037          41.000    38212837.180   153867261.351       -1721.570          43.000  
C08  39028679.701   203232578.045       -2437.756          37.000    39028667.663   157152252.549       -1884.494          43.000  
C10  40559731.752   211205164.521         925.821          33.000    40559734.125   163317283.936         716.418          38.000  
G25  24134227.481   126826217.055       -3898.976          38.000    24134217.154                       -3038.276          30.000  
> 2025 10 30 06 14 20.5200000  0 20                     
G32  21830394.615   114719498.176       -2765.082          46.000    21830388.085    89391788.966       -2154.757          43.000  
G29  23040731.067   121079869.166        -361.476          39.000    23040721.765    94347914.010        -281.351          39.000  
G28  21175894.325   111280074.813       -1108.884          44.000    21175883.784    86711705.668        -863.919          47.000  
G26  20396785.565   107185828.287         880.973          48.000    20396778.587    83521405.247         686.498          46.000  
G31  20636812.462   108447177.903         252.148          46.000    20636801.319    84504253.178         196.546          44.000  
G04  24705548.503   129828553.358        3199.306          35.000    24705545.336   101165086.809        2493.467          40.000  
C33  22464302.027   116977513.116        -490.955          51.000                                                                  
C06  36561809.624   190386937.271        -173.901          46.000    36561792.487   147219185.599        -134.307          47.000  
C14  22524946.914   117293296.639       -2085.882          46.000    22524931.829    90698563.880       -1612.854          51.000  
C16  36987500.983   192603619.303        -208.144          47.000    36987488.941   148933288.199        -161.188          47.000  
C24  21787124.151   113451273.665        -775.964          48.000                                                                  
C26  24256333.877   126309092.992       -2545.231          38.000                                                                  
G03  22888664.594   120280746.964         120.551          38.000    22888659.510    93725231.107          93.355          37.000  
G16  22633971.153   118942315.938        3103.293          41.000                                                                  
C09  37713977.752   196386580.641        -164.229          44.000    37713963.809   151858503.515        -126.949          49.000  
C25  23757431.687   123711176.305        1645.416          46.000                                                                  
C13  38212860.474   198984400.601       -2225.834          41.000    38212854.267   153867330.212       -1721.539          43.000  
C08  39028698.405   203232675.511       -2437.081          37.000    39028686.398   157152327.947       -1884.796          43.000  
C10  40559724.629                         926.180          33.000    40559727.003   163317255.285         716.414          38.000  
G25  24134257.154   126826373.021       -3899.104          38.000    24134246.811                       -3037.421          30.000  
> 2025 10 30 06 14 20.5600000  0 20                     
G32  21830415.687   114719608.800       -2765.407          46.000    21830409.142    89391875.164       -2154.908          43.000  
G29  23040733.809   121079883.611        -361.292          39.000    23040724.510    94347925.270        -281.501          39.000  
G28  21175902.785   111280119.169       -1108.928          44.000    21175892.226    86711740.226        -863.948          47.000  
G26  20396778.867   107185793.047         880.943          49.000    20396771.888    83521377.785         686.523          46.000  
G31  20636810.555   108447167.822         252.019          46.000    20636799.407    84504245.316         196.545          44.000  
G04  24705524.137   129828425.374        3199.331          35.000    24705521.000   101164987.067        2493.546          40.000  
C33  22464305.805   116977532.752        -490.946          51.000                                                                  
C06  36561810.963   190386944.214        -173.694          46.000    36561793.833   147219190.974        -134.347          47.000  
C14  22524962.930   117293380.075       -2085.925          46.000    22524947.836    90698628.393       -1612.823          51.000  
C16  36987502.550   192603627.636        -208.293          47.000    36987490.589   148933294.633        -160.978          47.000  
C24  21787130.103   113451304.703        -775.984          48.000                                                                  
C26  24256353.430   126309194.779       -2544.838          38.000                                                                  
G03  22888663.665   120280742.143         120.492          38.000    22888658.597    93725227.346          93.700          37.000  
G16  22633947.527   118942191.796        3103.494          41.000                                                                  
C09  37713978.992   196386587.213        -164.305          44.000    37713965.078   151858508.592        -126.927          49.000  
C25  23757419.038   123711110.486        1645.441          46.000                                                                  
C13  38212877.580   198984489.662       -2226.281          41.000    38212871.347   153867399.067       -1721.390          43.000  
C08  39028717.097   203232773.000       -2437.201          37.000    39028705.113   157152403.334       -1884.736          43.000  
C10  40559717.533   211205090.400         926.627          33.000    40559719.889   163317226.645         716.123          38.000  
G25  24134286.810   126826528.966       -3898.831          38.000    24134276.519                       -3038.007          30.000  
> 2025 10 30 06 14 20.6000000  0 20                     
G32  21830436.728   114719719.429       -2765.704          46.000    21830430.202    89391961.362       -2155.030          43.000  
G29  23040736.553   121079898.044        -360.947          39.000    23040727.269    94347936.537        -281.642          39.000  
G28  21175911.205   111280163.517       -1108.785          44.000    21175900.677    86711774.790        -864.072          47.000  
G26  20396772.168   107185757.812         880.869          49.000    20396765.201    83521350.327         686.468          46.000  
G31  20636808.626   108447157.738         252.037          46.000    20636797.500    84504237.465         196.311          44.000  
G04  24705499.798   129828297.376        3199.694          35.000    24705496.639   101164887.345        2493.242          40.000  
C33  22464309.556   116977552.398        -491.119          51.000                                                                  
C06  36561812.291   190386951.168        -173.798          46.000    36561795.202   147219196.357        -134.519          47.000  
C14  22524978.937   117293463.512       -2085.947          46.000    22524963.834    90698692.911       -1612.939          51.000  
C16  36987504.103   192603635.972        -208.433          47.000    36987492.179   148933301.075        -161.019          47.000  
C24  21787136.064   113451335.748        -776.133          48.000                                                                  
C26  24256372.979   126309296.596       -2545.237          38.000                                                                  
G03  22888662.766   120280737.328         120.399          38.000    22888657.676    93725223.588          93.863          37.000  
G16  22633923.934   118942067.680        3103.143          41.000                                                                  
C09  37713980.279   196386593.784        -164.304          44.000    37713966.356   151858513.669        -126.929          49.000  
C25  23757406.387   123711044.679        1645.233          46.000                                                                  
C13  38212894.693   198984578.722       -2226.465          41.000    38212888.432   153867467.928       -1721.523          43.000  
C08  39028735.816   203232870.469       -2436.835          37.000    39028723.859   157152478.720       -1884.725          43.000  
C10  40559710.417   211205053.362         926.256          33.000    40559712.804   163317198.014         715.776          38.000  
G25  24134316.472   126826684.924       -3898.918          38.000    24134306.221                       -3038.414          29.000  
> 2025 10 30 06 14 20.6400000  0 20                     
G32  21830457.773   114719830.050       -2765.701          46.000    21830451.272    89392047.570       -2155.206          43.000  
G29  23040739.313   121079912.492        -361.057          39.000    23040730.027    94347947.803        -281.696          39.000  
G28  21175919.655   111280207.875       -1108.922          44.000    21175909.135    86711809.353        -864.129          47.000  
G26  20396765.453   107185722.576         880.839          49.000    20396758.497    83521322.871         686.418          46.000  
G31  20636806.704   108447147.666         251.816          46.000    20636795.587    84504229.617         196.226          44.000  
G04  24705475.432   129828169.371        3200.015          35.000    24705472.278   101164787.629        2492.956          40.000  
C33  22464313.351   116977572.041        -491.161          51.000                                                                  
C06  36561813.598   190386958.127        -173.964          46.000    36561796.551   147219201.743        -134.666          47.000  
C14  22524994.942   117293546.955       -2086.081          46.000    22524979.864    90698757.436       -1613.116          51.000  
C16  36987505.701   192603644.306        -208.441          47.000    36987493.798   148933307.520        -161.118          47.000  
C24  21787141.991   113451366.794        -776.234          48.000                                                                  
C26  24256392.542   126309398.387       -2544.976          38.000                                                                  
G03  22888661.835   120280732.533         120.013          38.000    22888656.770    93725219.838          93.759          37.000  
G16  22633900.326   118941943.568        3102.847          41.000                                                                  
C09  37713981.542   196386600.369        -164.543          44.000    37713967.630   151858518.758        -127.139          49.000  
C25  23757393.737   123710978.882        1644.910          46.000                                                                  
C13  38212911.806   198984667.784       -2226.618          41.000    38212905.508   153867536.788       -1721.503          43.000  
C08  39028754.549   203232967.959       -2436.968          37.000    39028742.591   157152554.111       -1884.804          43.000  
C10  40559703.289   211205016.310         926.215          33.000    40559705.683   163317169.377         715.711          38.000  
G25  24134346.157   126826840.885       -3898.998          38.000    24134335.918                       -3039.202          29.000  
> 2025 10 30 06 14 20.6800000  0 20                     
G32  21830478.841   114719940.681       -2765.811          46.000    21830472.323    89392133.765       -2155.047          43.000  
G29  23040742.071   121079926.953        -361.399          39.000    23040732.784    94347959.076        -281.845          39.000  
G28  21175928.082   111280252.239       -1109.086          44.000    21175917.582    86711843.923        -864.277          47.000  
G26  20396758.754   107185687.346         880.729          49.000    20396751.794    83521295.415         686.376          46.000  
G31  20636804.787   108447137.595         251.706          46.000    20636793.675    84504221.762         196.257          44.000  
G04  24705451.095   129828041.420        3199.127          35.000    24705447.947   101164687.913        2492.855          40.000  
C33  22464317.110   116977591.693        -491.331          51.000                                                                  
C06  36561814.922   190386965.090        -174.103          46.000    36561797.894   147219207.122        -134.620          47.000  
C14  22525010.950   117293630.402       -2086.224          46.000    22524995.860    90698821.959       -1613.182          51.000  
C16  36987507.292   192603652.646        -208.548          47.000    36987495.404   148933313.969        -161.245          47.000  
C24  21787147.963   113451397.847        -776.358          48.000                                                                  
C26  24256412.098   126309500.202       -2545.261          38.000                                                                  
G03  22888660.948   120280727.727         120.037          38.000    22888655.869    93725216.094          93.608          37.000  
G16  22633876.722   118941819.458        3102.648          41.000                                                                  
C09  37713982.821   196386606.953        -164.641          44.000    37713968.898   151858523.844        -127.193          49.000  
C25  23757381.094   123710913.085        1644.794          46.000                                                                  
C13  38212928.905   198984756.840       -2226.535          41.000    38212922.610   153867605.669       -1721.921          43.000  
C08  39028773.278   203233065.472       -2437.450          37.000    39028761.319   157152629.504       -1884.868          43.000  
C10  40559696.157   211204979.282         925.772          33.000    40559698.554   163317140.731         715.920          38.000  
G25  24134375.856   126826996.835       -3898.796          38.000    24134365.569                       -3036.455          29.000  
> 2025 10 30 06 14 20.7200000  0 20                     
G32  21830499.887   114720051.314       -2765.880          46.000    21830493.357    89392219.971       -2155.144          43.000  
G29  23040744.829   121079941.411        -361.496          39.000    23040735.526    94347970.323        -281.420          39.000  
G28  21175936.512   111280296.600       -1109.093          44.000    21175926.006    86711878.492        -864.308          47.000  
G26  20396752.051   107185652.113         880.742          49.000    20396745.095    83521267.968         686.178          46.000  
G31  20636802.852   108447127.517         251.818          46.000    20636791.750    84504213.906         196.306          44.000  
G04  24705426.747   129827913.460        3198.894          34.000    24705423.601   101164588.198        2492.791          40.000  
C33  22464320.908   116977611.345        -491.370          51.000                                                                  
C06  36561816.232   190386972.049        -174.081          46.000    36561799.209   147219212.503        -134.583          47.000  
C14  22525026.996   117293713.846       -2086.221          46.000    22525011.916    90698886.485       -1613.236          51.000  
C16  36987508.879   192603660.983        -208.531          47.000    36987497.014   148933320.420        -161.324          47.000  
C24  21787153.953   113451428.896        -776.336          48.000                                                                  
C26  24256431.657   126309602.014       -2545.318          38.000                                                                  
G03  22888660.058   120280722.929         119.907          38.000    22888654.955    93725212.352          93.465          37.000  
G16  22633853.115   118941695.348        3102.637          41.000                                                                  
C09  37713984.116   196386613.531        -164.541          44.000    37713970.165   151858528.932        -127.261          49.000  
C25  23757368.440   123710847.279        1644.952          46.000                                                                  
C13  38212946.027   198984845.901       -2226.553          41.000    38212939.665   153867674.531       -1721.743          43.000  
C08  39028792.014   203233162.989       -2437.870          37.000    39028780.056   157152704.901       -1884.963          43.000  
C10  40559689.066   211204942.254         925.544          33.000    40559691.443   163317112.081         716.077          38.000  
G25  24134405.509   126827152.804       -3899.020          38.000    24134395.149                3      -3031.641          29.000  
> 2025 10 30 06 14 20.7600000  0 20                     
G32  21830520.902   114720161.929       -2765.595          46.000    21830514.432    89392306.180       -2155.246          43.000  
G29  23040747.582   121079955.863        -361.443          39.000    23040738.278    94347981.578        -281.278          39.000  
G28  21175944.973   111280340.963       -1109.111          44.000    21175934.429    86711913.055        -864.195          47.000  
G26  20396745.330   107185616.872         880.908          49.000    20396738.394    83521240.514         686.222          46.000  
G31  20636800.916   108447117.430         252.058          46.000    20636789.836    84504206.051         196.344          44.000  
G04  24705402.402   129827785.511        3198.616          34.000    24705399.257   101164488.476        2492.937          40.000  
C33  22464324.673   116977630.992        -491.275          51.000                                                                  
C06  36561817.574   190386978.994        -173.799          46.000    36561800.524   147219217.879        -134.476          47.000  
C14  22525043.063   117293797.291       -2086.206          46.000    22525027.938    90698951.006       -1613.144          51.000  
C16  36987510.475   192603669.315        -208.378          47.000    36987498.592   148933326.867        -161.268          47.000  
C24  21787159.942   113451459.937        -776.137          48.000                                                                  
C26  24256451.195   126309703.817       -2545.169          38.000                                                                  
G03  22888659.113   120280718.111         120.236          38.000    22888654.047    93725208.624          93.193          37.000  
G16  22633829.485   118941571.225        3102.881          41.000                                                                  
C09  37713985.386   196386620.095        -164.257          44.000    37713971.415   151858534.018        -127.253          49.000  
C25  23757355.839   123710781.467        1645.178          46.000                                                                  
C13  38212963.122   198984934.952       -2226.391          41.000    38212956.733   153867743.396       -1721.667          43.000  
C08  39028810.721   203233260.511       -2438.163          37.000    39028798.750   157152780.280       -1884.699          43.000  
C10  40559681.942   211204905.195         926.072          33.000    40559684.317   163317083.441         715.986          38.000  
G25  24134435.187   126827308.793       -3899.551          38.000    24134424.740                3      -3034.229          29.000  
> 2025 10 30 06 14 20.8000000  0 20                     
G32  21830541.953   114720272.545       -2765.450          46.000    21830535.476    89392392.377       -2155.107          43.000  
G29  23040750.329   121079970.319        -361.415          39.000    23040741.045    94347992.840        -281.368          39.000  
G28  21175953.419   111280385.318       -1108.969          44.000    21175942.866    86711947.618        -864.109          47.000  
G26  20396738.658   107185581.638         880.852          49.000    20396731.713    83521213.055         686.352          46.000  
G31  20636798.980   108447107.341         252.211          46.000    20636787.931    84504198.209         196.103          44.000  
G04  24705378.041   129827657.479        3200.009          34.000    24705374.881   101164388.743        2493.260          41.000  
C33  22464328.464   116977650.638        -491.198          51.000                                                                  
C06  36561818.917   190386985.942        -173.700          46.000    36561801.880   147219223.257        -134.474          47.000  
C14  22525059.107   117293880.725       -2085.990          46.000    22525043.958    90699015.527       -1613.081          51.000  
C16  36987512.108   192603677.644        -208.251          47.000    36987500.182   148933333.308        -161.117          47.000  
C24  21787165.926   113451490.976        -776.018          48.000                                                                  
C26  24256470.749   126309805.597       -2544.703          38.000                                                                  
G03  22888658.190   120280713.278         120.693          38.000    22888653.127    93725204.891          93.101          37.000  
G16  22633805.848   118941447.102        3103.013          41.000                                                                  
C09  37713986.635   196386626.659        -164.116          44.000    37713972.667   151858539.099        -127.145          49.000  
C25  23757343.187   123710715.657        1645.221          46.000                                                                  
C13  38212980.227   198985024.014       -2226.490          41.000    38212973.848   153867812.261       -1721.643          42.000  
C08  39028829.460   203233357.993       -2437.632          37.000    39028817.477   157152855.672       -1884.786          43.000  
C10  40559674.810   211204868.103         926.917          33.000    40559677.211   163317054.789         716.105          38.000  
G25  24134464.876   126827464.759       -3899.463          38.000    24134454.374                3      -3036.084          29.000  
> 2025 10 30 06 14 20.8400000  0 20                     
G32  21830563.004   114720383.174       -2765.612          46.000    21830556.537    89392478.578       -2155.060          43.000  
G29  23040753.101   121079984.789        -361.685          39.000    23040743.812    94348004.130        -281.998          39.000  
G28  21175961.871   111280429.691       -1109.217          44.000    21175951.300    86711982.182        -864.119          47.000  
G26  20396731.960   107185546.410         880.711          49.000    20396725.036    83521185.605         686.260          46.000  
G31  20636797.067   108447097.264         251.976          46.000    20636786.019    84504190.363         196.054          44.000  
G04  24705353.692   129827529.494        3199.939          34.000    24705350.527   101164289.015        2493.287          41.000  
C33  22464332.222   116977670.287        -491.225          51.000                                                                  
C06  36561820.249   190386992.906        -173.928          46.000    36561803.234   147219228.634        -134.464          47.000  
C14  22525075.106   117293964.169       -2086.041          46.000    22525059.984    90699080.052       -1613.126          51.000  
C16  36987513.713   192603685.985        -208.409          47.000    36987501.781   148933339.752        -161.073          47.000  
C24  21787171.871   113451522.024        -776.140          48.000                                                                  
C26  24256490.296   126309907.410       -2545.043          38.000                                                                  
G03  22888657.271   120280708.478         120.329          38.000    22888652.226    93725201.141          93.516          37.000  
G16  22633782.229   118941322.977        3103.099          41.000                                                                  
C09  37713987.918   196386633.241        -164.438          44.000    37713973.925   151858544.181        -127.114          49.000  
C25  23757330.537   123710649.857        1645.032          46.000                                                                  
C13  38212997.334   198985113.080       -2226.589          41.000    38212990.930   153867881.134       -1721.800          42.000  
C08  39028848.168   203233455.511       -2437.858          36.000    39028836.196   157152931.060       -1884.738          43.000  
C10  40559667.681   211204831.060         926.420          33.000    40559670.087   163317026.149         715.983          38.000  
G25  24134494.550   126827620.709       -3899.043          38.000    24134483.980                3      -3030.274          29.000  
> 2025 10 30 06 14 20.8800000  0 20                     
G32  21830584.048   114720493.807       -2765.815          46.000    21830577.589    89392564.779       -2155.063          43.000  
G29  23040755.864   121079999.240        -361.476          39.000    23040746.577    94348015.401        -281.839          39.000  
G28  21175970.301   111280474.048       -1109.073          44.000    21175959.744    86712016.751        -864.215          47.000  
G26  20396725.295   107185511.186         880.563          49.000    20396718.338    83521158.158         686.161          46.000  
G31  20636795.176   108447087.197         251.699          46.000    20636784.112    84504182.507         196.240          44.000  
G04  24705329.328   129827401.539        3199.175          34.000    24705326.177   101164189.282        2493.386          41.000  
C33  22464335.957   116977689.939        -491.309          50.000                                                                  
C06  36561821.585   190386999.869        -174.071          46.000    36561804.578   147219234.016        -134.550          47.000  
C14  22525091.103   117294047.620       -2086.207          46.000    22525076.028    90699144.578       -1613.182          51.000  
C16  36987515.321   192603694.324        -208.486          47.000    36987503.371   148933346.194        -161.030          47.000  
C24  21787177.813   113451553.078        -776.316          48.000                                                                  
C26  24256509.853   126310009.225       -2545.289          38.000                                                                  
G03  22888656.348   120280703.685         119.921          38.000    22888651.324    93725197.404          93.482          37.000  
G16  22633758.609   118941198.863        3102.938          41.000                                                                  
C09  37713989.182   196386639.817        -164.467          44.000    37713975.192   151858549.266        -127.139          49.000  
C25  23757317.899   123710584.058        1644.934          46.000                                                                  
C13  38213014.441   198985202.140       -2226.551          41.000    38213008.055   153867949.993       -1721.619          42.000  
C08  39028866.885   203233552.982       -2437.146          36.000    39028854.946   157153006.467       -1885.071          43.000  
C10  40559660.569   211204794.057         925.385          33.000    40559662.979   163316997.505         716.017          38.000  
G25  24134524.259   126827776.684       -3899.306          38.000    24134513.601                3      -3034.863          29.000  
> 2025 10 30 06 14 20.9200000  0 20                     
G32  21830605.105   114720604.439       -2765.855          46.000    21830598.630    89392650.986       -2155.204          43.000  
G29  23040758.631   121080013.694        -361.395          39.000    23040749.306    94348026.663        -281.649          39.000  
G28  21175978.770   111280518.411       -1109.101          44.000    21175968.173    86712051.313        -864.155          47.000  
G26  20396718.598   107185475.959         880.576          49.000    20396711.620    83521130.707         686.199          46.000  
G31  20636793.283   108447077.137         251.479          46.000    20636782.205    84504174.654         196.308          44.000  
G04  24705304.962   129827273.556        3199.199          34.000    24705301.817   101164089.566        2493.072          41.000  
C33  22464339.746   116977709.596        -491.429          50.000                                                                  
C06  36561822.924   190387006.819        -173.882          46.000    36561805.894   147219239.400        -134.613          47.000  
C14  22525107.133   117294131.068       -2086.256          47.000    22525092.071    90699209.104       -1613.188          51.000  
C16  36987516.957   192603702.651        -208.297          47.000    36987504.991   148933352.638        -161.079          47.000  
C24  21787183.780   113451584.130        -776.384          48.000                                                                  
C26  24256529.396   126310111.029       -2545.259          38.000                                                                  
G03  22888655.433   120280698.902         119.510          38.000    22888650.409    93725193.665          93.455          37.000  
G16  22633734.993   118941074.749        3102.862          41.000                                                                  
C09  37713990.445   196386646.402        -164.617          44.000    37713976.441   151858554.357        -127.240          49.000  
C25  23757305.246   123710518.257        1644.958          45.000                                                                  
C13  38213031.531   198985291.188       -2226.328          41.000    38213025.165   153868018.854       -1721.563          42.000  
C08  39028885.610   203233650.470       -2437.096          36.000    39028873.663   157153081.842       -1884.662          43.000  
C10  40559653.487   211204757.037         925.238          33.000    40559655.868   163316968.859         716.108          38.000  
G25  24134553.934   126827932.658       -3899.401          38.000    24134543.287                3      -3039.551          29.000  
> 2025 10 30 06 14 20.9600000  0 20                     
G32  21830626.163   114720715.064       -2765.738          46.000    21830619.682    89392737.189       -2155.188          43.000  
G29  23040761.390   121080028.151        -361.383          39.000    23040752.053    94348037.926        -281.563          38.000  
G28  21175987.196   111280562.772       -1109.059          44.000    21175976.628    86712085.884        -864.261          47.000  
G26  20396711.880   107185440.729         880.626          49.000    20396704.931    83521103.260         686.162          46.000  
G31  20636791.368   108447067.063         251.603          46.000    20636780.302    84504166.807         196.196          44.000  
G04  24705280.599   129827145.573        3199.325          34.000    24705277.454   101163989.849        2492.932          41.000  
C33  22464343.509   116977729.254        -491.504          50.000                                                                  
C06  36561824.303   190387013.769        -173.793          46.000    36561807.182   147219244.778        -134.546          47.000  
C14  22525123.181   117294214.518       -2086.312          47.000    22525108.092    90699273.632       -1613.232          51.000  
C16  36987518.561   192603710.984        -208.326          47.000    36987506.576   148933359.089        -161.222          47.000  
C24  21787189.757   113451615.179        -776.326          48.000                                                                  
C26  24256548.973   126310212.824       -2545.039          38.000                                                                  
G03  22888654.529   120280694.123         119.279          38.000    22888649.499    93725189.929          93.334          37.000  
G16  22633711.374   118940950.643        3102.635          41.000                                                                  
C09  37713991.735   196386652.976        -164.499          44.000    37713977.687   151858559.440        -127.169          49.000  
C25  23757292.591   123710452.458        1644.934          45.000                                                                  
C13  38213048.623   198985380.244       -2226.354          41.000    38213042.260   153868087.716       -1721.545          42.000  
C08  39028904.313   203233747.963       -2437.266          36.000    39028892.406   157153157.231       -1884.676          43.000  
C10  40559646.369   211204719.999         925.572          33.000    40559648.739   163316940.219         716.050          38.000  
G25  24134583.593   126828088.608       -3899.038          38.000    24134572.942                3      -3036.231          29.000  
> 2025 10 30 06 14 21.0000000  0 20                     
G32  21830647.229   114720825.699       -2765.835          46.000    21830640.720    89392823.393       -2155.157          43.000  
G29  23040764.127   121080042.618        -361.629          39.000    23040754.807    94348049.204        -281.797          38.000  
G28  21175995.639   111280607.135       -1109.082          44.000    21175985.071    86712120.457        -864.340          47.000  
G26  20396705.182   107185405.509         880.528          49.000    20396698.214    83521075.810         686.205          46.000  
G31  20636789.450   108447056.993         251.677          46.000    20636778.379    84504158.967         196.024          44.000  
G04  24705256.250   129827017.618        3198.937          34.000    24705253.108   101163890.146        2492.605          41.000  
C33  22464347.291   116977748.912        -491.526          50.000                                                                  
C06  36561825.643   190387020.729        -173.934          46.000    36561808.517   147219250.164        -134.644          47.000  
C14  22525139.203   117294297.971       -2086.361          47.000    22525124.113    90699338.164       -1613.325          51.000  
C16  36987520.162   192603719.328        -208.507          47.000    36987508.179   148933365.536        -161.226          47.000  
C24  21787195.726   113451646.230        -776.312          48.000                                                                  
C26  24256568.514   126310314.633       -2545.084          38.000                                                                  
G03  22888653.639   120280689.327         119.601          38.000    22888648.590    93725186.201          93.224          37.000  
G16  22633687.756   118940826.532        3102.646          40.000                                                                  
C09  37713992.994   196386659.563        -164.651          44.000    37713978.958   151858564.527        -127.194          49.000  
C25  23757279.971   123710386.659        1644.965          45.000                                                                  
C13  38213065.723   198985469.306       -2226.479          41.000    38213059.354   153868156.589       -1721.745          42.000  
C08  39028923.042   203233845.501       -2438.138          36.000    39028911.151   157153232.630       -1884.885          43.000  
C10  40559639.248   211204682.923         926.506          33.000    40559641.622   163316911.580         715.967          38.000  
G25  24134613.282   126828244.601       -3899.551          38.000    24134602.590                3      -3039.063          29.000  
> 2025 10 30 06 14 21.0400000  0 20                     
G32  21830668.273   114720936.329       -2765.842          46.000    21830661.777    89392909.610       -2155.364          43.000  
G29  23040766.876   121080057.081        -361.658          39.000    23040757.572    94348060.486        -282.022          38.000  
G28  21176004.090   111280651.502       -1109.138          44.000    21175993.507    86712155.032        -864.410          47.000  
G26  20396698.472   107185370.286         880.535          49.000    20396691.531    83521048.361         686.193          46.000  
G31  20636787.545   108447046.917         251.813          46.000    20636776.452    84504151.122         196.012          44.000  
G04  24705231.914   129826889.647        3198.970          34.000    24705228.754   101163790.423        2492.798          41.000  
C33  22464351.119   116977768.566        -491.447          50.000                                                                  
C06  36561826.978   190387027.696        -174.149          46.000    36561809.820   147219255.537        -134.476          47.000  
C14  22525155.222   117294381.427       -2086.440          47.000    22525140.168    90699402.699       -1613.419          51.000  
C16  36987521.771   192603727.667        -208.530          47.000    36987509.782   148933371.986        -161.261          47.000  
C24  21787201.706   113451677.285        -776.382          48.000                                                                  
C26  24256588.072   126310416.445       -2545.253          38.000                                                                  
G03  22888652.707   120280684.521         119.979          38.000    22888647.679    93725182.465          93.282          37.000  
G16  22633664.126   118940702.409        3102.914          40.000                                                                  
C09  37713994.251   196386666.137        -164.497          44.000    37713980.219   151858569.612        -127.169          49.000  
C25  23757267.350   123710320.852        1645.111          45.000                                                                  
C13  38213082.820   198985558.379       -2226.759          41.000    38213076.483   153868225.465       -1721.905          42.000  
C08  39028941.780   203233942.994       -2437.777          36.000    39028929.864   157153308.027       -1884.976          43.000  
C10  40559632.089   211204645.849         926.957          33.000    40559634.491   163316882.940         715.883          38.000  
G25  24134642.959   126828400.566       -3899.333          38.000    24134632.260                3      -3038.086          29.000  
> 2025 10 30 06 14 21.0800000  0 20                     
G32  21830689.310   114721046.967       -2765.951          46.000    21830682.840    89392995.820       -2155.318          43.000  
G29  23040769.636   121080071.545        -361.637          39.000    23040760.321    94348071.748        -281.762          38.000  
G28  21176012.525   111280695.870       -1109.197          44.000    21176001.959    86712189.604        -864.377          47.000  
G26  20396691.769   107185335.064         880.523          49.000    20396684.851    83521020.924         685.959          46.000  
G31  20636785.645   108447036.848         251.751          46.000    20636774.536    84504143.274         196.124          44.000  
G04  24705207.576   129826761.670        3199.203          34.000    24705204.404   101163690.695        2493.029          41.000  
C33  22464354.938   116977788.226        -491.510          50.000                                                                  
C06  36561828.312   190387034.661        -174.208          46.000    36561811.163   147219260.920        -134.552          47.000  
C14  22525171.248   117294464.881       -2086.431          47.000    22525156.202    90699467.234       -1613.441          51.000  
C16  36987523.361   192603736.011        -208.645          47.000    36987511.392   148933378.430        -161.182          47.000  
C24  21787207.660   113451708.338        -776.387          48.000                                                                  
C26  24256607.632   126310518.253       -2545.286          38.000                                                                  
G03  22888651.793   120280679.726         119.943          38.000    22888646.764    93725178.724          93.434          37.000  
G16  22633640.512   118940578.303        3102.742          40.000                                                                  
C09  37713995.513   196386672.712        -164.415          44.000    37713981.494   151858574.697        -127.144          49.000  
C25  23757254.694   123710255.056        1644.983          45.000                                                                  
C13  38213099.920   198985647.442       -2226.713          41.000    38213093.578   153868294.336       -1721.942          42.000  
C08  39028960.515   203234040.506       -2437.892          36.000    39028948.598   157153383.425       -1885.036          43.000  
C10  40559624.997   211204608.849         925.740          33.000    40559627.366   163316854.307         715.765          38.000  
G25  24134672.627   126828556.533       -3899.263          38.000    24134661.940                       -3037.398          29.000  
> 2025 10 30 06 14 21.1200000  0 20                     
G32  21830710.349   114721157.611       -2766.116          46.000    21830703.895    89393082.026       -2155.190          43.000  
G29  23040772.403   121080086.018        -361.812          39.000    23040763.071    94348083.006        -281.570          38.000  
G28  21176020.987   111280740.235       -1109.196          44.000    21176010.374    86712224.174        -864.316          47.000  
G26  20396685.064   107185299.845         880.486          49.000    20396678.158    83520993.481         685.972          46.000  
G31  20636783.719   108447026.778         251.720          46.000    20636772.626    84504135.421         196.284          44.000  
G04  24705183.231   129826633.681        3199.576          34.000    24705180.077   101163590.981        2492.929          41.000  
C33  22464358.698   116977807.885        -491.494          51.000                                                                  
C06  36561829.638   190387041.617        -174.052          46.000    36561812.541   147219266.305        -134.611          47.000  
C14  22525187.296   117294548.333       -2086.359          47.000    22525172.229    90699531.762       -1613.300          51.000  
C16  36987524.994   192603744.351        -208.608          47.000    36987512.996   148933384.883        -161.281          47.000  
C24  21787213.619   113451739.393        -776.392          48.000                                                                  
C26  24256627.175   126310620.078       -2545.610          38.000                                                                  
G03  22888650.835   120280674.918         120.167          38.000    22888645.854    93725175.000          93.214          37.000  
G16  22633616.891   118940454.198        3102.622          40.000                                                                  
C09  37713996.785   196386679.291        -164.454          44.000    37713982.775   151858579.778        -127.054          49.000  
C25  23757242.045   123710189.265        1644.794          45.000                                                                  
C13  38213117.018   198985736.500       -2226.537          41.000    38213110.686   153868363.192       -1721.635          42.000  
C08  39028979.236   203234138.018       -2437.883          36.000    39028967.315   157153458.812       -1884.832          43.000  
C10  40559617.883   211204571.797         925.994          33.000    40559620.253   163316825.670         715.734          38.000  
G25  24134702.286   126828712.489       -3899.049          39.000    24134691.599                       -3037.465          29.000  
> 2025 10 30 06 14 21.1600000  0 20                     
G32  21830731.388   114721268.244       -2766.013          46.000    21830724.938    89393168.224       -2155.039          43.000  
G29  23040775.140   121080100.495        -361.993          39.000    23040765.825    94348094.283        -281.785          38.000  
G28  21176029.456   111280784.610       -1109.368          44.000    21176018.829    86712258.742        -864.264          47.000  
G26  20396678.354   107185264.625         880.468          49.000    20396671.438    83520966.036         686.053          46.000  
G31  20636781.805   108447016.714         251.597          46.000    20636770.697    84504127.564         196.438          44.000  
G04  24705158.886   129826505.684        3199.912          34.000    24705155.731   101163491.255        2493.100          41.000  
C33  22464362.484   116977827.549        -491.577          51.000                                                                  
C06  36561830.971   190387048.567        -173.855          46.000    36561813.866   147219271.684        -134.536          47.000  
C14  22525203.331   117294631.788       -2086.367          47.000    22525188.274    90699596.293       -1613.308          51.000  
C16  36987526.566   192603752.686        -208.491          47.000    36987514.582   148933391.327        -161.203          47.000  
C24  21787219.582   113451770.447        -776.371          48.000                                                                  
C26  24256646.737   126310721.880       -2545.359          38.000                                                                  
G03  22888649.919   120280670.147         119.509          38.000    22888644.942    93725171.275          93.121          37.000  
G16  22633593.275   118940330.095        3102.510          40.000                                                                  
C09  37713998.068   196386685.870        -164.461          45.000    37713984.034   151858584.864        -127.140          49.000  
C25  23757229.413   123710123.474        1644.714          45.000                                                                  
C13  38213134.112   198985825.561       -2226.507          41.000    38213127.790   153868432.056       -1721.606          42.000  
C08  39028997.966   203234235.521       -2437.704          36.000    39028986.052   157153534.198       -1884.658          43.000  
C10  40559610.777   211204534.741         926.236          33.000    40559613.127   163316797.024         715.934          38.000  
G25  24134731.962   126828868.453       -3899.037          39.000    24134721.284                       -3038.089          29.000  
> 2025 10 30 06 14 21.2000000  0 20                     
G32  21830752.431   114721378.874       -2765.853          46.000    21830746.016    89393254.435       -2155.180          43.000  
G29  23040777.877   121080114.965        -361.868          39.000    23040768.589    94348105.560        -281.903          38.000  
G28  21176037.913   111280828.972       -1109.229          44.000    21176027.244    86712293.306        -864.155          47.000  
G26  20396671.652   107185229.402         880.542          49.000    20396664.722    83520938.590         686.108          46.000  
G31  20636779.882   108447006.644         251.678          46.000    20636768.782    84504119.725         196.159          44.000  
G04  24705134.558   129826377.737        3199.210          34.000    24705131.380   101163391.527        2493.199          41.000  
C33  22464366.264   116977847.212        -491.614          51.000                                                                  
C06  36561832.289   190387055.525        -173.901          46.000    36561815.207   147219277.063        -134.510          47.000  
C14  22525219.364   117294715.244       -2086.418          47.000    22525204.270    90699660.826       -1613.339          51.000  
C16  36987528.186   192603761.021        -208.415          47.000    36987516.162   148933397.764        -161.037          47.000  
C24  21787225.554   113451801.500        -776.345          48.000                                                                  
C26  24256666.272   126310823.673       -2545.004          38.000                                                                  
G03  22888648.990   120280665.349         119.670          38.000    22888644.029    93725167.515          93.707          37.000  
G16  22633569.676   118940205.994        3102.495          40.000                                                                  
C09  37713999.346   196386692.445        -164.429          45.000    37713985.323   151858589.947        -127.146          49.000  
C25  23757216.801   123710057.682        1644.733          45.000                                                                  
C13  38213151.218   198985914.619       -2226.439          41.000    38213144.891   153868500.926       -1721.706          42.000  
C08  39029016.695   203234333.003       -2437.243          36.000    39029004.759   157153609.596       -1884.805          43.000  
C10  40559603.659   211204497.716         925.822          33.000    40559606.011   163316768.380         716.042          38.000  
G25  24134761.615   126829024.424       -3899.184          39.000    24134750.952                       -3039.280          29.000  
> 2025 10 30 06 14 21.2400000  0 20                     
G32  21830773.485   114721489.509       -2765.857          46.000    21830767.072    89393340.649       -2155.323          43.000  
G29  23040780.612   121080129.429        -361.692          39.000    23040771.356    94348116.876        -282.667          38.000  
G28  21176046.359   111280873.339       -1109.222          44.000    21176035.713    86712327.883        -864.330          47.000  
G26  20396664.962   107185194.183         880.505          49.000    20396658.009    83520911.141         686.219          46.000  
G31  20636777.955   108446996.575         251.715          46.000    20636766.856    84504111.887         195.975          44.000  
G04  24705110.181   129826249.769        3199.077          34.000    24705107.026   101163291.810        2493.051          41.000  
C33  22464370.059   116977866.875        -491.619          51.000                                                                  
C06  36561833.619   190387062.489        -174.034          46.000    36561816.523   147219282.450        -134.615          47.000  
C14  22525235.356   117294798.699       -2086.423          47.000    22525220.262    90699725.358       -1613.313          50.000  
C16  36987529.793   192603769.354        -208.325          47.000    36987517.772   148933404.213        -161.162          47.000  
C24  21787231.499   113451832.560        -776.469          48.000                                                                  
C26  24256685.824   126310925.483       -2545.085          38.000                                                                  
G03  22888648.085   120280660.568         119.516          38.000    22888643.130    93725163.808          93.100          37.000  
G16  22633546.048   118940081.883        3102.635          40.000                                                                  
C09  37714000.623   196386699.018        -164.361          45.000    37713986.608   151858595.038        -127.260          49.000  
C25  23757204.176   123709991.888        1644.739          45.000                                                                  
C13  38213168.307   198986003.690       -2226.657          41.000    38213162.012   153868569.796       -1721.787          42.000  
C08  39029035.443   203234430.492       -2437.142          36.000    39029023.504   157153684.990       -1884.844          43.000  
C10  40559596.551   211204460.704         925.240          33.000    40559598.888   163316739.731         716.172          38.000  
G25  24134791.277   126829180.402       -3899.350          39.000    24134780.631                       -3037.705          29.000  
> 2025 10 30 06 14 21.2800000  0 20                     
G32  21830794.574   114721600.149       -2765.955          46.000    21830788.107    89393426.859       -2155.313          43.000  
G29  23040783.356   121080143.898        -361.609          39.000    23040774.099    94348128.143        -282.104          38.000  
G28  21176054.814   111280917.707       -1109.227          44.000    21176044.143    86712362.459        -864.413          47.000  
G26  20396658.257   107185158.967         880.400          49.000    20396651.314    83520883.703         686.015          46.000  
G31  20636776.041   108446986.506         251.702          46.000    20636764.928    84504104.048         195.958          44.000  
G04  24705085.845   129826121.803        3199.098          34.000    24705082.657   101163192.080        2493.189          41.000  
C33  22464373.817   116977886.545        -491.714          50.000                                                                  
C06  36561834.970   190387069.446        -173.999          46.000    36561817.871   147219287.836        -134.679          47.000  
C14  22525251.372   117294882.155       -2086.416          47.000    22525236.299    90699789.894       -1613.376          50.000  
C16  36987531.377   192603777.697        -208.484          47.000    36987519.376   148933410.674        -161.425          47.000  
C24  21787237.446   113451863.619        -776.532          48.000                                                                  
C26  24256705.357   126311027.291       -2545.179          38.000                                                                  
G03  22888647.192   120280655.816         118.981          38.000    22888642.201    93725160.086          93.023          37.000  
G16  22633522.424   118939957.771        3102.750          40.000                                                                  
C09  37714001.884   196386705.597        -164.438          45.000    37713987.834   151858600.130        -127.354          49.000  
C25  23757191.526   123709926.095        1644.769          45.000                                                                  
C13  38213185.428   198986092.752       -2226.600          41.000    38213179.134   153868638.670       -1721.879          42.000  
C08  39029054.155   203234528.000       -2437.431          36.000    39029042.209   157153760.392       -1885.003          43.000  
C10  40559589.405   211204423.648         925.940          33.000    40559591.756   163316711.092         716.042          38.000  
G25  24134820.951   126829336.364       -3899.144          39.000    24134810.289                       -3038.310          29.000  
> 2025 10 30 06 14 21.3200000  0 20                     
G32  21830815.617   114721710.785       -2765.968          46.000    21830809.170    89393513.072       -2155.356          43.000  
G29  23040786.128   121080158.363        -361.523          39.000    23040776.846    94348139.407        -281.741          38.000  
G28  21176063.243   111280962.071       -1109.169          44.000    21176052.577    86712397.024        -864.249          47.000  
G26  20396651.557   107185123.750         880.363          49.000    20396644.622    83520856.263         685.948          46.000  
G31  20636774.116   108446976.430         251.819          46.000    20636763.013    84504096.198         196.112          44.000  
G04  24705061.487   129825993.850        3198.804          34.000    24705058.314   101163092.366        2492.970          41.000  
C33  22464377.592   116977906.208        -491.654          50.000                                                                  
C06  36561836.322   190387076.404        -173.986          46.000    36561819.244   147219293.210        -134.465          47.000  
C14  22525267.384   117294965.614       -2086.459          47.000    22525252.305    90699854.428       -1613.369          50.000  
C16  36987533.001   192603786.032        -208.425          46.000    36987520.955   148933417.121        -161.310          47.000  
C24  21787243.378   113451894.677        -776.544          48.000                                                                  
C26  24256724.886   126311129.096       -2545.182          38.000                                                                  
G03  22888646.275   120280651.016         119.565          38.000    22888641.300    93725156.367          92.957          37.000  
G16  22633498.802   118939833.662        3102.761          40.000                                                                  
C09  37714003.154   196386712.177        -164.502          45.000    37713989.075   151858605.217        -127.287          49.000  
C25  23757178.875   123709860.294        1644.946          45.000                                                                  
C13  38213202.517   198986181.810       -2226.539          41.000    38213196.230   153868707.540       -1721.828          42.000  
C08  39029072.896   203234625.493       -2437.350          36.000    39029060.913   157153835.781       -1884.878          44.000  
C10  40559582.286   211204386.610         925.929          33.000    40559584.627   163316682.451         716.025          38.000  
G25  24134850.620   126829492.336       -3899.256          39.000    24134839.968                       -3038.505          29.000  
> 2025 10 30 06 14 21.3600000  0 20                     
G32  21830836.652   114721821.421       -2765.934          46.000    21830830.212    89393599.284       -2155.363          43.000  
G29  23040788.865   121080172.837        -361.715          39.000    23040779.611    94348150.677        -281.695          38.000  
G28  21176071.708   111281006.437       -1109.113          44.000    21176061.006    86712431.596        -864.279          47.000  
G26  20396644.866   107185088.534         880.333          49.000    20396637.947    83520828.830         685.819          46.000  
G31  20636772.198   108446966.359         251.782          46.000    20636761.105    84504088.353         196.106          44.000  
G04  24705037.134   129825865.865        3199.290          34.000    24705033.961   101162992.652        2492.836          41.000  
C33  22464381.378   116977925.870        -491.589          50.000                                                                  
C06  36561837.693   190387083.361        -173.965          46.000    36561820.582   147219298.590        -134.490          47.000  
C14  22525283.433   117295049.074       -2086.496          47.000    22525268.333    90699918.960       -1613.338          50.000  
C16  36987534.603   192603794.374        -208.534          46.000    36987522.524   148933423.557        -161.052          46.000  
C24  21787249.375   113451925.728        -776.405          48.000                                                                  
C26  24256744.477   126311230.901       -2545.151          38.000                                                                  
G03  22888645.356   120280646.229         119.657          38.000    22888640.379    93725152.629          93.325          37.000  
G16  22633475.156   118939709.556        3102.676          40.000                                                                  
C09  37714004.404   196386718.752        -164.443          45.000    37713990.332   151858610.298        -127.128          49.000  
C25  23757166.234   123709794.497        1644.916          45.000                                                                  
C13  38213219.647   198986270.865       -2226.414          41.000    38213213.331   153868776.397       -1721.586          42.000  
C08  39029091.620   203234722.992       -2437.411          36.000    39029079.643   157153911.164       -1884.658          44.000  
C10  40559575.113   211204349.558         926.100          33.000    40559577.504   163316653.817         715.840          38.000  
G25  24134880.287   126829648.293       -3899.051          39.000    24134869.652                       -3038.254          29.000  
> 2025 10 30 06 14 21.4000000  0 20                     
G32  21830857.736   114721932.067       -2766.110          46.000    21830851.268    89393685.493       -2155.336          43.000  
G29  23040791.622   121080187.315        -361.941          39.000    23040782.365    94348161.939        -281.510          38.000  
G28  21176080.144   111281050.807       -1109.196          44.000    21176069.467    86712466.168        -864.326          47.000  
G26  20396638.181   107185053.320         880.302          49.000    20396631.273    83520801.392         685.863          46.000  
G31  20636770.290   108446956.298         251.553          46.000    20636759.197    84504080.505         196.155          43.000  
G04  24705012.766   129825737.876        3199.700          33.000    24705009.612   101162892.933        2492.880          41.000  
C33  22464385.157   116977945.537        -491.654          50.000                                                                  
C06  36561839.060   190387090.311        -173.842          46.000    36561821.892   147219303.967        -134.462          47.000  
C14  22525299.456   117295132.534       -2086.541          47.000    22525284.368    90699983.498       -1613.439          50.000  
C16  36987536.230   192603802.707        -208.397          46.000    36987524.137   148933429.996        -160.972          46.000  
C24  21787255.368   113451956.781        -776.347          48.000                                                                  
C26  24256764.036   126311332.706       -2545.138          38.000                                                                  
G03  22888644.463   120280641.447         119.546          38.000    22888639.471    93725148.899          93.321          37.000  
G16  22633451.531   118939585.435        3102.865          40.000                                                                  
C09  37714005.664   196386725.326        -164.386          45.000    37713991.610   151858615.383        -127.104          49.000  
C25  23757153.587   123709728.701        1644.897          45.000                                                                  
C13  38213236.756   198986359.930       -2226.540          41.000    38213230.431   153868845.269       -1721.737          42.000  
C08  39029110.366   203234820.500       -2437.572          36.000    39029098.349   157153986.559       -1884.745          44.000  
C10  40559567.991   211204312.556         925.212          33.000    40559570.381   163316625.184         715.760          38.000  
G25  24134909.987   126829804.289       -3899.686          39.000    24134899.297                       -3038.342          29.000  
> 2025 10 30 06 14 21.4400000  0 20                     
G32  21830878.782   114722042.705       -2766.067          46.000    21830872.332    89393771.710       -2155.446          43.000  
G29  23040794.380   121080201.798        -362.127          39.000    23040785.134    94348173.223        -281.897          38.000  
G28  21176088.601   111281095.173       -1109.198          44.000    21176077.924    86712500.745        -864.426          47.000  
G26  20396631.457   107185018.109         880.247          49.000    20396624.556    83520773.949         685.987          46.000  
G31  20636768.358   108446946.235         251.505          46.000    20636757.298    84504072.664         196.037          43.000  
G04  24704988.425   129825609.912        3199.425          33.000    24704985.248   101162793.210        2492.985          41.000  
C33  22464388.920   116977965.206        -491.725          50.000                                                                  
C06  36561840.419   190387097.273        -173.949          46.000    36561823.215   147219309.346        -134.482          47.000  
C14  22525315.487   117295215.993       -2086.521          47.000    22525300.405    90700048.037       -1613.502          50.000  
C16  36987537.858   192603811.039        -208.355          46.000    36987525.755   148933436.450        -161.235          46.000  
C24  21787261.342   113451987.833        -776.310          48.000                                                                  
C26  24256783.578   126311434.508       -2545.049          38.000                                                                  
G03  22888643.544   120280636.660         119.571          37.000    22888638.578    93725145.168          93.311          37.000  
G16  22633427.916   118939461.333        3102.693          40.000                                                                  
C09  37714006.934   196386731.909        -164.526          45.000    37713992.876   151858620.467        -127.119          49.000  
C25  23757140.929   123709662.918        1644.623          45.000                                                                  
C13  38213253.870   198986448.990       -2226.521          41.000    38213247.531   153868914.133       -1721.694          42.000  
C08  39029129.085   203234918.027       -2438.108          36.000    39029117.087   157154061.952       -1884.800          44.000  
C10  40559560.898   211204275.489         926.077          33.000    40559563.261   163316596.534         716.036          38.000  
G25  24134939.676   126829960.253       -3899.386          39.000    24134928.960                       -3038.592          29.000  
> 2025 10 30 06 14 21.4800000  0 20                     
G32  21830899.844   114722153.350       -2766.151          46.000    21830893.389    89393857.933       -2155.619          43.000  
G29  23040797.141   121080216.292        -362.367          39.000    23040787.877    94348184.523        -282.327          38.000  
G28  21176097.054   111281139.548       -1109.329          44.000    21176086.374    86712535.328        -864.588          47.000  
G26  20396624.772   107184982.903         880.118          49.000    20396617.853    83520746.510         685.961          46.000  
G31  20636766.449   108446936.181         251.314          46.000    20636755.395    84504064.826         195.920          43.000  
G04  24704964.104   129825481.921        3199.681          33.000    24704960.895   101162693.492        2492.890          41.000  
C33  22464392.673   116977984.880        -491.878          50.000                                                                  
C06  36561841.742   190387104.236        -174.038          46.000    36561824.527   147219314.735        -134.666          47.000  
C14  22525331.519   117295299.460       -2086.660          47.000    22525316.438    90700112.575       -1613.513          50.000  
C16  36987539.442   192603819.380        -208.486          46.000    36987527.407   148933442.911        -161.512          46.000  
C24  21787267.310   113452018.894        -776.436          48.000                                                                  
C26  24256803.146   126311536.336       -2545.512          38.000                                                                  
G03  22888642.644   120280631.873         119.647          37.000    22888637.660    93725141.453          92.977          37.000  
G16  22633404.321   118939337.241        3102.385          40.000                                                                  
C09  37714008.219   196386738.486        -164.493          45.000    37713994.150   151858625.560        -127.277          49.000  
C25  23757128.297   123709597.126        1644.690          45.000                                                                  
C13  38213270.969   198986538.070       -2226.907          41.000    38213264.656   153868983.006       -1721.849          42.000  
C08  39029147.817   203235015.506       -2437.469          36.000    39029135.824   157154137.353       -1884.982          44.000  
C10  40559553.795   211204238.414         926.706          33.000    40559556.152   163316567.885         716.121          38.000  
G25  24134969.358   126830116.225       -3899.388          39.000    24134958.619                       -3038.314          29.000  
> 2025 10 30 06 14 21.5200000  0 20                     
G32  21830920.915   114722264.000       -2766.279          46.000    21830914.452    89393944.157       -2155.718          43.000  
G29  23040799.889   121080230.776        -362.274          39.000    23040790.623    94348195.819        -282.581          38.000  
G28  21176105.505   111281183.926       -1109.485          44.000    21176094.800    86712569.895        -864.362          47.000  
G26  20396618.055   107184947.694         880.131          49.000    20396611.142    83520719.076         685.894          46.000  
G31  20636764.534   108446926.123         251.341          45.000    20636753.481    84504056.991         195.829          43.000  
G04  24704939.752   129825353.948        3199.435          33.000    24704936.549   101162593.783        2492.714          41.000  
C33  22464396.443   116978004.560        -492.033          50.000                                                                  
C06  36561843.090   190387111.206        -174.229          45.000    36561825.837   147219320.116        -134.620          47.000  
C14  22525347.514   117295382.932       -2086.836          47.000    22525332.488    90700177.116       -1613.549          50.000  
C16  36987541.027   192603827.729        -208.691          46.000    36987529.052   148933449.364        -161.464          46.000  
C24  21787273.253   113452049.965        -776.722          48.000                                                                  
C26  24256822.680   126311638.154       -2545.581          38.000                                                                  
G03  22888641.749   120280627.118         119.030          37.000    22888636.735    93725137.737          92.836          37.000  
G16  22633380.686   118939213.136        3102.471          40.000                                                                  
C09  37714009.488   196386745.072        -164.665          45.000    37713995.389   151858630.651        -127.326          49.000  
C25  23757115.668   123709531.333        1644.751          45.000                                                                  
C13  38213288.090   198986627.136       -2226.810          41.000    38213281.790   153869051.893       -1722.134          42.000  
C08  39029166.548   203235113.018       -2437.727          36.000    39029154.538   157154212.752       -1885.055          44.000  
C10  40559546.720   211204201.372         926.476          32.000    40559549.038   163316539.247         715.979          38.000  
G25  24134999.032   126830272.189       -3899.207          39.000    24134988.306                       -3038.656          29.000  
> 2025 10 30 06 14 21.5600000  0 20                     
G32  21830941.974   114722374.652       -2766.391          46.000    21830935.498    89394030.372       -2155.575          43.000  
G29  23040802.646   121080245.252        -362.072          39.000    23040793.379    94348207.102        -282.387          38.000  
G28  21176113.938   111281228.304       -1109.531          44.000    21176103.230    86712604.476        -864.476          47.000  
G26  20396611.363   107184912.492         880.045          49.000    20396604.463    83520691.647         685.721          46.000  
G31  20636762.610   108446916.058         251.514          45.000    20636751.556    84504049.155         195.805          43.000  
G04  24704915.393   129825225.987        3199.098          33.000    24704912.192   101162494.069        2492.708          41.000  
C33  22464400.242   116978024.235        -492.002          50.000                                                                  
C06  36561844.416   190387118.174        -174.266          45.000    36561827.133   147219325.506        -134.723          47.000  
C14  22525363.537   117295466.398       -2086.781          47.000    22525348.531    90700241.662       -1613.663          50.000  
C16  36987542.635   192603836.070        -208.606          46.000    36987530.664   148933455.817        -161.440          46.000  
C24  21787279.246   113452081.030        -776.748          48.000                                                                  
C26  24256842.233   126311739.975       -2545.633          38.000                                                                  
G03  22888640.858   120280622.346         119.081          37.000    22888635.840    93725134.034          92.538          37.000  
G16  22633357.095   118939089.044        3102.301          40.000                                                                  
C09  37714010.777   196386751.651        -164.592          45.000    37713996.640   151858635.741        -127.299          49.000  
C25  23757103.020   123709465.543        1644.733          45.000                                                                  
C13  38213305.198   198986716.202       -2226.728          41.000    38213298.877   153869120.759       -1721.882          42.000  
C08  39029185.258   203235210.519       -2437.683          36.000    39029173.243   157154288.158       -1885.138          44.000  
C10  40559539.615   211204164.369         925.474          33.000    40559541.932   163316510.623         715.657          38.000  
G25  24135028.717   126830428.170       -3899.425          39.000    24135017.977                       -3038.476          29.000  
> 2025 10 30 06 14 21.6000000  0 20                     
G32  21830963.032   114722485.297       -2766.301          46.000    21830956.545    89394116.594       -2155.614          43.000  
G29  23040805.399   121080259.721        -361.822          39.000    23040796.140    94348218.374        -282.027          38.000  
G28  21176122.389   111281272.682       -1109.558          44.000    21176111.675    86712639.057        -864.533          47.000  
G26  20396604.643   107184877.281         880.176          49.000    20396597.757    83520664.213         685.753          46.000  
G31  20636760.714   108446905.999         251.445          45.000    20636749.627    84504041.309         196.002          43.000  
G04  24704891.038   129825098.042        3198.750          33.000    24704887.846   101162394.351        2492.825          41.000  
C33  22464404.021   116978043.907        -491.916          50.000                                                                  
C06  36561845.781   190387125.136        -174.169          45.000    36561828.472   147219330.894        -134.767          47.000  
C14  22525379.594   117295549.863       -2086.748          47.000    22525364.537    90700306.205       -1613.654          50.000  
C16  36987544.244   192603844.411        -208.585          46.000    36987532.263   148933462.255        -161.108          46.000  
C24  21787285.215   113452112.095        -776.708          48.000                                                                  
C26  24256861.792   126311841.779       -2545.308          38.000                                                                  
G03  22888639.953   120280617.575         119.187          37.000    22888634.919    93725130.304          92.874          37.000  
G16  22633333.473   118938964.932        3102.656          40.000                                                                  
C09  37714012.064   196386758.235        -164.609          45.000    37713997.909   151858640.828        -127.241          49.000  
C25  23757090.387   123709399.753        1644.745          45.000                                                                  
C13  38213322.323   198986805.267       -2226.641          41.000    38213315.979   153869189.628       -1721.795          42.000  
C08  39029204.006   203235308.028       -2437.644          35.000    39029191.930   157154363.558       -1885.079          44.000  
C10  40559532.519   211204127.342         925.476          32.000    40559534.808   163316481.982         715.842          38.000  
G25  24135058.421   126830584.151       -3899.574          39.000    24135047.644                       -3038.532          29.000  
> 2025 10 30 06 14 21.6400000  0 20                     
G32  21830984.074   114722595.947       -2766.341          46.000    21830977.601    89394202.805       -2155.424          43.000  
G29  23040808.153   121080274.196        -361.825          39.000    23040798.910    94348229.656        -282.016          38.000  
G28  21176130.800   111281317.050       -1109.375          44.000    21176120.129    86712673.635        -864.518          47.000  
G26  20396597.948   107184842.073         880.175          49.000    20396591.050    83520636.781         685.734          46.000  
G31  20636758.803   108446895.938         251.439          45.000    20636747.729    84504033.478         195.830          43.000  
G04  24704866.686   129824970.050        3199.473          33.000    24704863.475   101162294.631        2492.908          41.000  
C33  22464407.780   116978063.584        -491.949          50.000                                                                  
C06  36561847.068   190387132.100        -174.164          45.000    36561829.806   147219336.277        -134.678          47.000  
C14  22525395.598   117295633.330       -2086.716          47.000    22525380.552    90700370.745       -1613.583          50.000  
C16  36987545.825   192603852.755        -208.618          46.000    36987533.872   148933468.699        -161.036          46.000  
C24  21787291.183   113452143.160        -776.699          48.000                                                                  
C26  24256881.355   126311943.585       -2545.163          38.000                                                                  
G03  22888639.023   120280612.816         118.979          37.000    22888634.002    93725126.575          93.081          37.000  
G16  22633309.869   118938840.836        3102.500          40.000                                                                  
C09  37714013.337   196386764.812        -164.456          45.000    37713999.180   151858645.911        -127.120          49.000  
C25  23757077.753   123709333.965        1644.702          45.000                                                                  
C13  38213339.436   198986894.333       -2226.629          41.000    38213333.059   153869258.490       -1721.628          42.000  
C08  39029222.726   203235405.522       -2437.472          35.000    39029210.663   157154438.955       -1885.041          44.000  
C10  40559525.382   211204090.335         925.193          33.000    40559527.681   163316453.345         715.840          38.000  
G25  24135088.097   126830740.116       -3899.350          39.000    24135077.333                       -3038.562          29.000  
> 2025 10 30 06 14 21.6800000  0 20                     
G32  21831005.136   114722706.594       -2766.319          46.000    21830998.656    89394289.021       -2155.407          43.000  
G29  23040810.926   121080288.703        -362.443          39.000    23040801.665    94348240.946        -282.163          38.000  
G28  21176139.222   111281361.422       -1109.310          44.000    21176128.566    86712708.210        -864.456          47.000  
G26  20396591.274   107184806.870         880.076          49.000    20396584.359    83520609.358         685.581          46.000  
G31  20636756.884   108446885.874         251.532          45.000    20636745.808    84504025.640         195.879          43.000  
G04  24704842.305   129824842.072        3199.545          33.000    24704839.122   101162194.919        2492.815          41.000  
C33  22464411.558   116978083.263        -491.966          50.000                                                                  
C06  36561848.414   190387139.060        -174.080          45.000    36561831.157   147219341.661        -134.639          47.000  
C14  22525411.672   117295716.797       -2086.702          47.000    22525396.565    90700435.288       -1613.615          50.000  
C16  36987547.444   192603861.099        -208.617          46.000    36987535.451   148933475.155        -161.261          46.000  
C24  21787297.179   113452174.221        -776.620          48.000                                                                  
C26  24256900.905   126312045.389       -2545.063          38.000                                                                  
G03  22888638.075   120280608.031         119.365          37.000    22888633.100    93725122.876          92.620          37.000  
G16  22633286.270   118938716.726        3102.626          40.000                                                                  
C09  37714014.588   196386771.391        -164.438          45.000    37714000.455   151858651.002        -127.198          49.000  
C25  23757065.095   123709268.181        1644.617          45.000                                                                  
C13  38213356.536   198986983.395       -2226.555          41.000    38213350.156   153869327.361       -1721.692          42.000  
C08  39029241.441   203235503.042       -2437.811          35.000    39029229.394   157154514.353       -1885.009          44.000  
C10  40559518.239   211204053.264         926.154          33.000    40559520.541   163316424.706         715.871          38.000  
G25  24135117.795   126830896.096       -3899.478          39.000    24135106.999                       -3038.889          29.000  
> 2025 10 30 06 14 21.7200000  0 20                     
G32  21831026.202   114722817.240       -2766.232          46.000    21831019.713    89394375.245       -2155.540          43.000  
G29  23040813.689   121080303.187        -362.337          39.000    23040804.433    94348252.240        -282.300          38.000  
G28  21176147.681   111281405.801       -1109.427          44.000    21176137.006    86712742.787        -864.423          47.000  
G26  20396584.576   107184771.668         880.015          49.000    20396577.639    83520581.922         685.748          46.000  
G31  20636754.968   108446875.807         251.643          45.000    20636743.900    84504017.807         195.830          43.000  
G04  24704817.941   129824714.097        3199.546          33.000    24704814.784   101162095.198        2492.920          41.000  
C33  22464415.350   116978102.942        -492.010          50.000                                                                  
C06  36561849.737   190387146.019        -174.009          45.000    36561832.476   147219347.035        -134.423          47.000  
C14  22525427.696   117295800.271       -2086.823          47.000    22525412.593    90700499.837       -1613.716          50.000  
C16  36987549.052   192603869.435        -208.486          46.000    36987537.015   148933481.611        -161.376          46.000  
C24  21787303.178   113452205.285        -776.607          48.000                                                                  
C26  24256920.467   126312147.223       -2545.606          38.000                                                                  
G03  22888637.161   120280603.256         119.432          37.000    22888632.206    93725119.167          92.535          37.000  
G16  22633262.642   118938592.635        3102.371          40.000                                                                  
C09  37714015.862   196386777.967        -164.389          45.000    37714001.698   151858656.099        -127.377          49.000  
C25  23757052.497   123709202.391        1644.678          44.000                                                                  
C13  38213373.640   198987072.459       -2226.594          41.000    38213367.274   153869396.237       -1721.828          42.000  
C08  39029260.172   203235600.581       -2438.336          35.000    39029248.131   157154589.746       -1884.911          44.000  
C10  40559511.119   211204016.187         926.816          33.000    40559513.420   163316396.045         716.288          38.000  
G25  24135147.484   126831052.080       -3899.629          39.000    24135136.690                       -3038.396          29.000  
> 2025 10 30 06 14 21.7600000  0 20                     
G32  21831047.234   114722927.891       -2766.299          46.000    21831040.776    89394461.466       -2155.599          43.000  
G29  23040816.434   121080317.678        -362.354          39.000    23040807.185    94348263.544        -282.568          38.000  
G28  21176156.114   111281450.175       -1109.421          44.000    21176145.477    86712777.373        -864.604          47.000  
G26  20396577.845   107184736.468         879.966          49.000    20396570.925    83520554.488         685.841          46.000  
G31  20636753.030   108446865.753         251.432          45.000    20636741.977    84504009.966         195.941          43.000  
G04  24704793.593   129824586.133        3199.271          33.000    24704790.421   101161995.477        2493.025          41.000  
C33  22464419.101   116978122.619        -491.970          50.000                                                                  
C06  36561851.067   190387152.974        -173.899          45.000    36561833.818   147219352.425        -134.620          47.000  
C14  22525443.729   117295883.737       -2086.732          47.000    22525428.634    90700564.381       -1613.682          50.000  
C16  36987550.654   192603877.773        -208.458          46.000    36987538.587   148933488.058        -161.289          46.000  
C24  21787309.135   113452236.351        -776.661          48.000                                                                  
C26  24256940.017   126312249.038       -2545.538          38.000                                                                  
G03  22888636.228   120280598.496         119.147          37.000    22888631.313    93725115.444          92.854          37.000  
G16  22633239.029   118938468.545        3102.209          40.000                                                                  
C09  37714017.117   196386784.552        -164.537          45.000    37714002.961   151858661.182        -127.229          49.000  
C25  23757039.867   123709136.605        1644.623          44.000                                                                  
C13  38213390.736   198987161.534       -2226.824          41.000    38213384.371   153869465.107       -1721.772          42.000  
C08  39029278.898   203235698.062       -2437.626          35.000    39029266.855   157154665.138       -1884.856          44.000  
C10  40559503.978   211203979.146         926.427          33.000    40559506.301   163316367.423         715.762          38.000  
G25  24135177.151   126831208.047       -3899.375          39.000    24135166.363                       -3038.574          29.000  
> 2025 10 30 06 14 21.8000000  0 20                     
G32  21831068.279   114723038.549       -2766.476          46.000    21831061.833    89394547.692       -2155.713          43.000  
G29  23040819.191   121080332.165        -362.244          39.000    23040809.937    94348274.834        -282.484          38.000  
G28  21176164.559   111281494.558       -1109.580          44.000    21176153.916    86712811.952        -864.580          47.000  
G26  20396571.167   107184701.273         879.856          49.000    20396564.241    83520527.060         685.723          46.000  
G31  20636751.109   108446855.716         251.039          45.000    20636740.064    84504002.132         195.879          43.000  
G04  24704769.253   129824458.170        3199.280          33.000    24704766.062   101161895.775        2492.667          41.000  
C33  22464422.861   116978142.307        -492.156          50.000                                                                  
C06  36561852.400   190387159.949        -174.263          45.000    36561835.155   147219357.813        -134.727          47.000  
C14  22525459.761   117295967.213       -2086.873          47.000    22525444.699    90700628.934       -1613.822          50.000  
C16  36987552.250   192603886.120        -208.622          46.000    36987540.195   148933494.510        -161.323          46.000  
C24  21787315.124   113452267.419        -776.725          48.000                                                                  
C26  24256959.569   126312350.846       -2545.339          38.000                                                                  
G03  22888635.351   120280593.752         118.651          37.000    22888630.402    93725111.717          93.111          37.000  
G16  22633215.409   118938344.457        3102.137          40.000                                                                  
C09  37714018.357   196386791.150        -164.879          45.000    37714004.199   151858666.273        -127.274          49.000  
C25  23757027.210   123709070.823        1644.519          44.000                                                                  
C13  38213407.812   198987250.615       -2227.028          41.000    38213401.438   153869533.984       -1721.877          43.000  
C08  39029297.631   203235795.569       -2437.640          35.000    39029285.582   157154740.553       -1885.238          44.000  
C10  40559496.881   211203942.142         925.534          33.000    40559499.193   163316338.799         715.519          38.000  
G25  24135206.805   126831364.011       -3899.172          39.000    24135196.020                       -3038.287          29.000  
> 2025 10 30 06 14 21.8400000  0 20                     
G32  21831089.350   114723149.202       -2766.416          46.000    21831082.898    89394633.916       -2155.730          43.000  
G29  23040821.966   121080346.661        -362.409          39.000    23040812.702    94348286.127        -282.413          38.000  
G28  21176172.995   111281538.946       -1109.699          44.000    21176162.354    86712846.532        -864.546          47.000  
G26  20396564.458   107184666.075         879.875          49.000    20396557.559    83520499.629         685.754          46.000  
G31  20636749.187   108446845.669         251.003          45.000    20636738.157    84503994.297         195.874          43.000  
G04  24704744.918   129824330.252        3198.308          33.000    24704741.712   101161796.063        2492.666          41.000  
C33  22464426.638   116978161.993        -492.230          50.000                                                                  
C06  36561853.722   190387166.923        -174.413          45.000    36561836.486   147219363.204        -134.807          47.000  
C14  22525475.781   117296050.692       -2086.990          47.000    22525460.743    90700693.484       -1613.824          50.000  
C16  36987553.854   192603894.466        -208.690          46.000    36987541.801   148933500.959        -161.283          46.000  
C24  21787321.131   113452298.486        -776.716          48.000                                                                  
C26  24256979.119   126312452.668       -2545.482          38.000                                                                  
G03  22888634.414   120280588.965         119.216          37.000    22888629.488    93725108.012          92.754          37.000  
G16  22633191.780   118938220.363        3102.244          40.000                                                                  
C09  37714019.636   196386797.732        -164.740          45.000    37714005.465   151858671.368        -127.362          49.000  
C25  23757014.593   123709005.035        1644.617          44.000                                                                  
C13  38213424.943   198987339.689       -2226.931          41.000    38213418.533   153869602.869       -1722.101          43.000  
C08  39029316.343   203235893.077       -2437.643          35.000    39029304.311   157154815.954       -1885.188          44.000  
C10  40559489.743   211203905.125         925.191          33.000    40559492.082   163316310.156         715.825          38.000  
G25  24135236.490   126831519.985       -3899.266          39.000    24135225.707                       -3038.513          30.000  
> 2025 10 30 06 14 21.8800000  0 20                     
G32  21831110.407   114723259.867       -2766.603          46.000    21831103.938    89394720.146       -2155.807          43.000  
G29  23040824.736   121080361.168        -362.652          39.000    23040815.455    94348297.436        -282.689          38.000  
G28  21176181.437   111281583.315       -1109.446          44.000    21176170.809    86712881.128        -864.846          47.000  
G26  20396557.771   107184630.886         879.696          49.000    20396550.862    83520472.216         685.402          46.000  
G31  20636747.245   108446835.618         251.097          45.000    20636736.272    84503986.469         195.744          43.000  
G04  24704720.570   129824202.265        3198.985          33.000    24704717.353   101161696.347        2492.788          41.000  
C33  22464430.396   116978181.687        -492.407          50.000                                                                  
C06  36561855.071   190387173.895        -174.415          45.000    36561837.823   147219368.594        -134.828          47.000  
C14  22525491.806   117296134.178       -2087.152          47.000    22525476.804    90700758.036       -1613.855          50.000  
C16  36987555.474   192603902.814        -208.771          46.000    36987543.390   148933507.419        -161.484          46.000  
C24  21787327.075   113452329.564        -776.910          48.000                                                                  
C26  24256998.677   126312554.501       -2545.743          38.000                                                                  
G03  22888633.504   120280584.187         119.415          37.000    22888628.571    93725104.294          92.793          37.000  
G16  22633168.168   118938096.273        3102.218          40.000                                                                  
C09  37714020.912   196386804.319        -164.740          45.000    37714006.717   151858676.462        -127.379          49.000  
C25  23757001.949   123708939.256        1644.489          44.000                                                                  
C13  38213442.017   198987428.768       -2226.993          41.000    38213435.661   153869671.746       -1722.018          43.000  
C08  39029335.084   203235990.613       -2438.229          35.000    39029323.028   157154891.357       -1885.161          44.000  
C10  40559482.650   211203868.114         924.980          33.000    40559484.971   163316281.521         715.870          38.000  
G25  24135266.181   126831675.969       -3899.508          39.000    24135255.391                       -3039.071          30.000  
> 2025 10 30 06 14 21.9200000  0 20                     
G32  21831131.476   114723370.535       -2766.746          46.000    21831125.001    89394806.383       -2155.940          43.000  
G29  23040827.506   121080375.668        -362.668          39.000    23040818.225    94348308.727        -282.517          38.000  
G28  21176189.893   111281627.705       -1109.668          44.000    21176179.260    86712915.712        -864.761          47.000  
G26  20396551.086   107184595.698         879.617          49.000    20396544.161    83520444.803         685.219          46.000  
G31  20636745.330   108446825.556         251.406          45.000    20636734.370    84503978.643         195.652          43.000  
G04  24704696.210   129824074.310        3198.885          33.000    24704692.998   101161596.633        2492.785          41.000  
C33  22464434.178   116978201.384        -492.503          50.000                                                                  
C06  36561856.419   190387180.866        -174.375          45.000    36561839.180   147219373.990        -134.916          47.000  
C14  22525507.837   117296217.661       -2087.187          47.000    22525492.859    90700822.594       -1613.955          50.000  
C16  36987557.100   192603911.163        -208.787          46.000    36987545.010   148933513.884        -161.646          46.000  
C24  21787333.025   113452360.642        -777.016          48.000                                                                  
C26  24257018.237   126312656.337       -2545.918          38.000                                                                  
G03  22888632.598   120280579.447         118.804          37.000    22888627.682    93725100.594          92.511          37.000  
G16  22633144.558   118937972.192        3102.021          40.000                                                                  
C09  37714022.202   196386810.908        -164.790          45.000    37714007.981   151858681.561        -127.479          48.000  
C25  23756989.283   123708873.486        1644.250          44.000                                                                  
C13  38213459.141   198987517.844       -2226.948          41.000    38213452.775   153869740.629       -1722.079          43.000  
C08  39029353.817   203236088.123       -2438.069          35.000    39029341.746   157154966.764       -1885.177          44.000  
C10  40559475.541   211203831.099         925.021          32.000    40559477.854   163316252.867         716.230          38.000  
G25  24135295.877   126831831.949       -3899.560          40.000    24135285.068                       -3039.131          30.000  
> 2025 10 30 06 14 21.9600000  0 20                     
G32  21831152.533   114723481.197       -2766.685          46.000    21831146.067    89394892.619       -2156.000          43.000  
G29  23040830.279   121080390.183        -362.859          39.000    23040820.995    94348320.045        -282.874          38.000  
G28  21176198.361   111281672.099       -1109.833          44.000    21176187.703    86712950.304        -864.830          47.000  
G26  20396544.362   107184560.513         879.569          49.000    20396537.479    83520417.387         685.233          46.000  
G31  20636743.422   108446815.511         251.226          45.000    20636732.448    84503970.820         195.542          43.000  
G04  24704671.860   129823946.353        3198.860          33.000    24704668.637   101161496.925        2492.730          41.000  
C33  22464437.961   116978221.084        -492.562          50.000                                                                  
C06  36561857.768   190387187.836        -174.327          45.000    36561840.510   147219379.379        -134.845          47.000  
C14  22525523.908   117296301.143       -2087.159          47.000    22525508.908    90700887.151       -1613.970          50.000  
C16  36987558.714   192603919.516        -208.843          46.000    36987546.638   148933520.337        -161.478          46.000  
C24  21787339.007   113452391.719        -777.003          48.000                                                                  
C26  24257037.793   126312758.152       -2545.642          38.000                                                                  
G03  22888631.709   120280574.712         118.381          37.000    22888626.788    93725096.899          92.340          38.000  
G16  22633120.932   118937848.102        3102.145          40.000                                                                  
C09  37714023.447   196386817.497        -164.813          45.000    37714009.256   151858686.658        -127.496          48.000  
C25  23756976.658   123708807.712        1644.232          44.000                                                                  
C13  38213476.240   198987606.928       -2227.155          41.000    38213469.866   153869809.509       -1722.066          43.000  
C08  39029372.536   203236185.639       -2437.955          35.000    39029360.479   157155042.177       -1885.301          44.000  
C10  40559468.433   211203794.042         925.856          32.000    40559470.755   163316224.262         715.489          38.000  
G25  24135325.571   126831987.952       -3899.936          40.000    24135314.741                       -3039.207          30.000  
> 2025 10 30 06 14 22.0000000  0 20                     
G32  21831173.598   114723591.869       -2766.813          46.000    21831167.124    89394978.851       -2155.901          43.000  
G29  23040833.026   121080404.681        -362.660          39.000    23040823.755    94348331.353        -282.812          38.000  
G28  21176206.807   111281716.490       -1109.872          44.000    21176196.135    86712984.887        -864.706          47.000  
G26  20396537.666   107184525.325         879.594          49.000    20396530.768    83520389.970         685.301          46.000  
G31  20636741.519   108446805.473         250.948          45.000    20636730.549    84503962.999         195.444          43.000  
G04  24704647.530   129823818.383        3199.167          33.000    24704644.286   101161397.225        2492.508          41.000  
C33  22464441.732   116978240.781        -492.525          50.000                                                                  
C06  36561859.120   190387194.813        -174.462          45.000    36561841.844   147219384.776        -134.939          47.000  
C14  22525539.939   117296384.631       -2087.240          47.000    22525524.942    90700951.710       -1614.008          50.000  
C16  36987560.278   192603927.877        -209.026          46.000    36987548.270   148933526.794        -161.453          46.000  
C24  21787344.963   113452422.804        -777.156          48.000                                                                  
C26  24257057.365   126312859.987       -2545.774          38.000                                                                  
G03  22888630.820   120280569.967         118.292          37.000    22888625.874    93725093.194          92.458          38.000  
G16  22633097.324   118937724.027        3101.930          40.000                                                                  
C09  37714024.718   196386824.098        -165.015          45.000    37714010.507   151858691.761        -127.603          48.000  
C25  23756964.020   123708741.945        1644.104          44.000                                                                  
C13  38213493.356   198987696.016       -2227.291          41.000    38213486.963   153869878.395       -1722.147          43.000  
C08  39029391.255   203236283.149       -2437.788          35.000    39029379.201   157155117.584       -1885.277          44.000  
C10  40559461.336   211203757.004         926.002          33.000    40559463.645   163316195.642         715.342          38.000  
G25  24135355.264   126832143.947       -3900.007          40.000    24135344.450                       -3038.383          30.000  
> 2025 10 30 06 14 22.0400000  0 20                     
G32  21831194.677   114723702.544       -2766.892          46.000    21831188.185    89395065.089       -2155.938          43.000  
G29  23040835.775   121080419.195        -362.817          39.000    23040826.510    94348342.647        -282.613          38.000  
G28  21176215.256   111281760.894       -1110.077          44.000    21176204.602    86713019.484        -864.886          47.000  
G26  20396530.998   107184490.147         879.447          49.000    20396524.065    83520362.555         685.302          46.000  
G31  20636739.613   108446795.441         250.728          45.000    20636728.634    84503955.167         195.629          43.000  
G04  24704623.212   129823690.444        3198.800          33.000    24704619.953   101161297.526        2492.432          41.000  
C33  22464445.478   116978260.486        -492.638          50.000                                                                  
C06  36561860.454   190387201.798        -174.629          45.000    36561843.174   147219390.170        -134.929          47.000  
C14  22525555.929   117296468.129       -2087.440          47.000    22525541.006    90701016.267       -1613.993          50.000  
C16  36987561.861   192603936.241        -209.170          46.000    36987549.877   148933533.261        -161.633          46.000  
C24  21787350.928   113452453.892        -777.247          48.000                                                                  
C26  24257076.934   126312961.819       -2545.818          38.000                                                                  
G03  22888629.886   120280565.225         118.407          37.000    22888624.965    93725089.491          92.522          38.000  
G16  22633073.704   118937599.951        3101.865          40.000                                                                  
C09  37714025.996   196386830.699        -165.094          45.000    37714011.789   151858696.862        -127.606          48.000  
C25  23756951.410   123708676.172        1644.208          44.000                                                                  
C13  38213510.472   198987785.108       -2227.387          41.000    38213504.052   153869947.292       -1722.382          43.000  
C08  39029409.983   203236380.681       -2438.105          35.000    39029397.931   157155192.997       -1885.370          44.000  
C10  40559454.239   211203719.992         925.657          32.000    40559456.526   163316167.005         715.661          38.000  
G25  24135384.954   126832299.943       -3899.974          40.000    24135374.122                       -3038.435          30.000  
> 2025 10 30 06 14 22.0800000  0 20                     
G32  21831215.703   114723813.216       -2766.894          46.000    21831209.234    89395151.327       -2155.956          43.000  
G29  23040838.539   121080433.712        -362.928          39.000    23040829.255    94348353.948        -282.549          38.000  
G28  21176223.697   111281805.290       -1110.025          44.000    21176213.046    86713054.084        -865.000          47.000  
G26  20396524.303   107184454.972         879.324          49.000    20396517.373    83520335.142         685.302          46.000  
G31  20636737.729   108446785.417         250.570          45.000    20636726.744    84503947.349         195.494          43.000  
G04  24704598.871   129823562.495        3198.669          33.000    24704595.610   101161197.828        2492.373          41.000  
C33  22464449.297   116978280.190        -492.673          50.000                                                                  
C06  36561861.809   190387208.774        -174.562          45.000    36561844.503   147219395.572        -135.037          47.000  
C14  22525571.948   117296551.625       -2087.492          47.000    22525557.045    90701080.835       -1614.170          50.000  
C16  36987563.469   192603944.603        -209.149          46.000    36987551.455   148933539.723        -161.617          46.000  
C24  21787356.922   113452484.981        -777.272          48.000                                                                  
C26  24257096.471   126313063.644       -2545.744          38.000                                                                  
G03  22888628.998   120280560.493         118.304          37.000    22888624.048    93725085.801          92.282          38.000  
G16  22633050.097   118937475.879        3101.727          40.000                                                                  
C09  37714027.275   196386837.292        -164.963          45.000    37714013.051   151858701.962        -127.534          48.000  
C25  23756938.794   123708610.402        1644.189          44.000                                                                  
C13  38213527.579   198987874.193       -2227.254          41.000    38213521.167   153870016.171       -1722.181          43.000  
C08  39029428.721   203236478.229       -2438.633          35.000    39029416.673   157155268.421       -1885.555          44.000  
C10  40559447.128   211203682.979         925.469          33.000    40559449.446   163316138.371         715.800          38.000  
G25  24135414.636   126832455.941       -3900.017          40.000    24135403.814                       -3039.833          30.000  
> 2025 10 30 06 14 22.1200000  0 20                     
G32  21831236.767   114723923.889       -2766.876          46.000    21831230.322    89395237.564       -2155.940          43.000  
G29  23040841.275   121080448.226        -362.926          39.000    23040832.014    94348365.266        -282.846          38.000  
G28  21176232.144   111281849.681       -1109.879          44.000    21176221.496    86713088.681        -865.012          47.000  
G26  20396517.596   107184419.790         879.424          49.000    20396510.666    83520307.728         685.302          46.000  
G31  20636735.803   108446775.372         250.879          45.000    20636724.840    84503939.532         195.414          43.000  
G04  24704574.505   129823434.525        3199.029          33.000    24704571.266   101161098.118        2492.565          41.000  
C33  22464453.103   116978299.889        -492.568          50.000                                                                  
C06  36561863.153   190387215.747        -174.418          45.000    36561845.857   147219400.964        -134.950          46.000  
C14  22525587.995   117296635.120       -2087.463          47.000    22525573.073    90701145.399       -1614.199          50.000  
C16  36987565.083   192603952.945        -208.763          46.000    36987553.064   148933546.184        -161.576          46.000  
C24  21787362.909   113452516.051        -776.948          48.000                                                                  
C26  24257116.046   126313165.463       -2545.528          38.000                                                                  
G03  22888628.077   120280555.737         118.708          37.000    22888623.149    93725082.111          92.152          38.000  
G16  22633026.503   118937351.800        3101.833          40.000                                                                  
C09  37714028.563   196386843.881        -164.816          45.000    37714014.320   151858707.057        -127.453          48.000  
C25  23756926.155   123708544.623        1644.366          44.000                                                                  
C13  38213544.686   198987963.270       -2227.024          41.000    38213538.258   153870085.054       -1722.164          43.000  
C08  39029447.441   203236575.730       -2438.032          35.000    39029435.395   157155343.827       -1885.339          44.000  
C10  40559440.017   211203645.972         925.238          32.000    40559442.344   163316109.747         715.683          38.000  
G25  24135444.317   126832611.913       -3899.518          40.000    24135433.464                       -3038.980          30.000  
> 2025 10 30 06 14 22.1600000  0 20                     
G32  21831257.812   114724034.565       -2766.919          46.000    21831251.416    89395323.810       -2156.084          43.000  
G29  23040844.036   121080462.749        -363.069          39.000    23040834.772    94348376.575        -282.739          38.000  
G28  21176240.575   111281894.061       -1109.632          44.000    21176229.955    86713123.268        -864.843          47.000  
G26  20396510.887   107184384.613         879.412          49.000    20396503.959    83520280.311         685.351          46.000  
G31  20636733.879   108446765.320         251.193          45.000    20636722.922    84503931.699         195.655          43.000  
G04  24704550.174   129823306.588        3198.597          33.000    24704546.909   101160998.409        2492.667          41.000  
C33  22464456.872   116978319.590        -492.568          50.000                                                                  
C06  36561864.494   190387222.716        -174.248          45.000    36561847.193   147219406.357        -134.896          46.000  
C14  22525604.043   117296718.612       -2087.353          47.000    22525589.135    90701209.956       -1614.070          50.000  
C16  36987566.699   192603961.293        -208.653          46.000    36987554.662   148933552.642        -161.510          46.000  
C24  21787368.890   113452547.130        -776.907          48.000                                                                  
C26  24257135.593   126313267.304       -2545.857          39.000                                                                  
G03  22888627.179   120280550.996         118.603          37.000    22888622.250    93725078.414          92.327          38.000  
G16  22633002.893   118937227.724        3101.813          40.000                                                                  
C09  37714029.799   196386850.477        -164.837          45.000    37714015.574   151858712.159        -127.524          48.000  
C25  23756913.516   123708478.852        1644.318          44.000                                                                  
C13  38213561.770   198988052.345       -2226.901          41.000    38213555.366   153870153.938       -1722.158          43.000  
C08  39029466.173   203236673.254       -2438.054          35.000    39029454.110   157155419.226       -1885.075          44.000  
C10  40559432.880   211203608.922         926.047          32.000    40559435.221   163316081.135         715.379          38.000  
G25  24135473.986   126832767.910       -3899.722          40.000    24135463.114                       -3038.247          30.000  
> 2025 10 30 06 14 22.2000000  0 20                     
G32  21831278.870   114724145.242       -2766.923          46.000    21831272.501    89395410.057       -2156.185          43.000  
G29  23040846.805   121080477.255        -362.834          39.000    23040837.533    94348387.888        -282.764          38.000  
G28  21176249.040   111281938.462       -1109.874          44.000    21176238.427    86713157.866        -864.933          47.000  
G26  20396504.186   107184349.437         879.394          49.000    20396497.279    83520252.905         685.172          46.000  
G31  20636731.963   108446755.275         251.223          45.000    20636721.008    84503923.880         195.531          43.000  
G04  24704525.804   129823178.614        3199.070          33.000    24704522.568   101160898.711        2492.479          41.000  
C33  22464460.626   116978339.297        -492.652          50.000                                                                  
C06  36561865.841   190387229.701        -174.471          45.000    36561848.511   147219411.743        -134.753          46.000  
C14  22525620.076   117296802.107       -2087.380          47.000    22525605.175    90701274.519       -1614.096          50.000  
C16  36987568.312   192603969.655        -208.886          46.000    36987556.276   148933559.107        -161.583          46.000  
C24  21787374.800   113452578.218        -777.082          48.000                                                                  
C26  24257155.165   126313369.143       -2545.983          39.000                                                                  
G03  22888626.288   120280546.259         118.445          36.000    22888621.345    93725074.703          92.693          38.000  
G16  22632979.293   118937103.644        3101.890          40.000                                                                  
C09  37714031.053   196386857.083        -165.053          45.000    37714016.861   151858717.266        -127.650          48.000  
C25  23756900.882   123708413.086        1644.171          44.000                                                                  
C13  38213578.893   198988141.431       -2227.014          41.000    38213572.471   153870222.819       -1722.070          43.000  
C08  39029484.906   203236770.769       -2437.944          35.000    39029472.838   157155494.642       -1885.242          44.000  
C10  40559425.747   211203571.869         926.535          32.000    40559428.114   163316052.503         715.559          38.000  
G25  24135503.671   126832923.913       -3899.993          40.000    24135492.821                       -3038.599          30.000  
> 2025 10 30 06 14 22.2400000  0 20                     
G32  21831299.916   114724255.911       -2766.812          46.000    21831293.558    89395496.295       -2156.062          43.000  
G29  23040849.578   121080491.763        -362.684          39.000    23040840.298    94348399.209        -282.959          38.000  
G28  21176257.494   111281982.866       -1110.071          44.000    21176246.867    86713192.454        -864.818          47.000  
G26  20396497.495   107184314.261         879.363          49.000    20396490.603    83520225.502         685.037          46.000  
G31  20636730.063   108446745.243         250.938          45.000    20636719.092    84503916.059         195.488          43.000  
G04  24704501.439   129823050.670        3198.718          33.000    24704498.204   101160799.001        2492.613          41.000  
C33  22464464.397   116978359.003        -492.689          50.000                                                                  
C06  36561867.188   190387236.678        -174.463          45.000    36561849.840   147219417.146        -134.940          46.000  
C14  22525636.107   117296885.596       -2087.272          47.000    22525621.222    90701339.084       -1614.141          50.000  
C16  36987569.927   192603978.010        -208.918          46.000    36987557.881   148933565.564        -161.512          46.000  
C24  21787380.741   113452609.309        -777.271          48.000                                                                  
C26  24257174.718   126313470.983       -2546.046          39.000                                                                  
G03  22888625.408   120280541.525         118.308          37.000    22888620.433    93725071.016          92.438          38.000  
G16  22632955.684   118936979.554        3102.183          40.000                                                                  
C09  37714032.347   196386863.682        -165.038          45.000    37714018.130   151858722.366        -127.591          48.000  
C25  23756888.246   123708347.319        1644.128          44.000                                                                  
C13  38213595.981   198988230.512       -2227.021          41.000    38213589.571   153870291.712       -1722.282          43.000  
C08  39029503.622   203236868.307       -2438.303          35.000    39029491.560   157155570.049       -1885.162          44.000  
C10  40559418.592   211203534.846         925.936          32.000    40559421.006   163316023.857         715.992          38.000  
G25  24135533.377   126833079.911       -3900.040          40.000    24135522.496                       -3038.740          30.000  
> 2025 10 30 06 14 22.2800000  0 20                     
G32  21831320.973   114724366.578       -2766.719          46.000    21831314.621    89395582.524       -2155.815          43.000  
G29  23040852.357   121080506.293        -363.057          39.000    23040843.063    94348410.524        -282.951          38.000  
G28  21176265.918   111282027.262       -1110.031          44.000    21176255.314    86713227.053        -864.934          47.000  
G26  20396490.796   107184279.087         879.351          49.000    20396483.895    83520198.090         685.161          46.000  
G31  20636728.164   108446735.210         250.803          45.000    20636717.179    84503908.245         195.340          43.000  
G04  24704477.133   129822922.757        3197.973          33.000    24704473.862   101160699.306        2492.462          41.000  
C33  22464468.177   116978378.718        -492.854          50.000                                                                  
C06  36561868.557   190387243.654        -174.430          45.000    36561851.167   147219422.547        -135.038          46.000  
C14  22525652.129   117296969.094       -2087.374          47.000    22525637.280    90701403.650       -1614.185          50.000  
C16  36987571.561   192603986.364        -208.903          46.000    36987559.460   148933572.025        -161.506          46.000  
C24  21787386.701   113452640.391        -777.180          48.000                                                                  
C26  24257194.266   126313572.818       -2545.988          39.000                                                                  
G03  22888624.508   120280536.797         118.134          37.000    22888619.544    93725067.334          92.141          38.000  
G16  22632932.083   118936855.484        3101.938          40.000                                                                  
C09  37714033.615   196386870.276        -164.922          45.000    37714019.426   151858727.470        -127.603          48.000  
C25  23756875.617   123708281.556        1644.067          44.000                                                                  
C13  38213613.063   198988319.607       -2227.327          41.000    38213606.693   153870360.601       -1722.287          43.000  
C08  39029522.334   203236965.801       -2437.739          35.000    39029510.308   157155645.462       -1885.222          44.000  
C10  40559411.507   211203497.842         925.395          32.000    40559413.884   163315995.226         715.890          38.000  
G25  24135563.063   126833235.881       -3899.484          40.000    24135552.173                       -3039.289          30.000  
> 2025 10 30 06 14 22.3200000  0 20                     
G32  21831342.036   114724477.260       -2766.923          46.000    21831335.682    89395668.767       -2155.960          43.000  
G29  23040855.114   121080520.820        -363.206          39.000    23040845.815    94348421.831        -282.800          38.000  
G28  21176274.374   111282071.657       -1109.983          44.000    21176263.780    86713261.652        -865.027          47.000  
G26  20396484.076   107184243.912         879.351          49.000    20396477.211    83520170.681         685.174          46.000  
G31  20636726.242   108446725.183         250.606          45.000    20636715.283    84503900.424         195.446          43.000  
G04  24704452.772   129822794.791        3198.594          33.000    24704449.491   101160599.595        2492.621          41.000  
C33  22464471.979   116978398.429        -492.863          50.000                                                                  
C06  36561869.869   190387250.641        -174.641          45.000    36561852.517   147219427.940        -134.950          46.000  
C14  22525668.163   117297052.594       -2087.502          47.000    22525653.292    90701468.220       -1614.272          50.000  
C16  36987573.164   192603994.717        -208.823          45.000    36987561.070   148933578.481        -161.449          46.000  
C24  21787392.670   113452671.481        -777.258          48.000                                                                  
C26  24257213.823   126313674.653       -2545.992          39.000                                                                  
G03  22888623.619   120280532.060         118.303          37.000    22888618.637    93725063.645          92.087          38.000  
G16  22632908.478   118936731.404        3101.996          40.000                                                                  
C09  37714034.888   196386876.869        -164.834          45.000    37714020.692   151858732.569        -127.526          48.000  
C25  23756863.011   123708215.782        1644.238          44.000                                                                  
C13  38213630.145   198988408.698       -2227.399          41.000    38213623.799   153870429.493       -1722.343          43.000  
C08  39029541.047   203237063.334       -2438.105          35.000    39029529.039   157155720.883       -1885.416          44.000  
C10  40559404.416   211203460.838         925.146          32.000    40559406.793   163315966.632         715.153          38.000  
G25  24135592.737   126833391.869       -3899.532          40.000    24135581.860                       -3039.653          30.000  
> 2025 10 30 06 14 22.3600000  0 20                     
G32  21831363.115   114724587.940       -2767.018          46.000    21831356.748    89395755.004       -2155.947          43.000  
G29  23040857.863   121080535.346        -363.246          39.000    23040848.548    94348433.142        -282.795          38.000  
G28  21176282.820   111282116.052       -1109.920          44.000    21176272.224    86713296.247        -864.968          47.000  
G26  20396477.384   107184208.734         879.425          49.000    20396470.502    83520143.274         685.167          46.000  
G31  20636724.330   108446715.155         250.577          45.000    20636713.367    84503892.600         195.520          43.000  
G04  24704428.435   129822666.817        3199.268          33.000    24704425.138   101160499.893        2492.574          41.000  
C33  22464475.778   116978418.140        -492.861          50.000                                                                  
C06  36561871.202   190387257.617        -174.530          45.000    36561853.885   147219433.334        -134.923          46.000  
C14  22525684.190   117297136.092       -2087.493          47.000    22525669.337    90701532.784       -1614.193          50.000  
C16  36987574.773   192604003.076        -208.935          46.000    36987562.657   148933584.939        -161.464          46.000  
C24  21787398.639   113452702.562        -777.153          48.000                                                                  
C26  24257233.380   126313776.486       -2545.924          39.000                                                                  
G03  22888622.703   120280527.324         118.275          37.000    22888617.727    93725059.961          92.007          38.000  
G16  22632884.863   118936607.337        3101.760          40.000                                                                  
C09  37714036.153   196386883.462        -164.810          45.000    37714021.965   151858737.669        -127.502          48.000  
C25  23756850.396   123708150.009        1644.324          44.000                                                                  
C13  38213647.244   198988497.783       -2227.260          41.000    38213640.925   153870498.369       -1722.036          43.000  
C08  39029559.761   203237160.854       -2438.113          35.000    39029547.769   157155796.300       -1885.479          44.000  
C10  40559397.294   211203423.816         925.516          32.000    40559399.680   163315937.989         715.697          38.000  
G25  24135622.431   126833547.867       -3899.802          40.000    24135611.535                       -3038.902          30.000  
> 2025 10 30 06 14 22.4000000  0 20                     
G32  21831384.148   114724698.616       -2766.975          46.000    21831377.816    89395841.252       -2156.142          43.000  
G29  23040860.624   121080549.864        -363.094          39.000    23040851.313    94348444.458        -282.896          38.000  
G28  21176291.273   111282160.458       -1110.087          44.000    21176280.667    86713330.838        -864.897          47.000  
G26  20396470.676   107184173.559         879.388          49.000    20396463.807    83520115.871         685.038          46.000  
G31  20636722.419   108446705.111         250.923          45.000    20636711.447    84503884.780         195.495          43.000  
G04  24704404.085   129822538.833        3199.634          33.000    24704400.802   101160400.189        2492.568          41.000  
C33  22464479.602   116978437.847        -492.749          50.000                                                                  
C06  36561872.544   190387264.592        -174.417          45.000    36561855.244   147219438.728        -134.889          46.000  
C14  22525700.236   117297219.598       -2087.637          47.000    22525685.380    90701597.355       -1614.263          50.000  
C16  36987576.377   192604011.433        -208.932          46.000    36987564.282   148933591.404        -161.581          46.000  
C24  21787404.558   113452733.653        -777.256          48.000                                                                  
C26  24257252.942   126313878.316       -2545.794          39.000                                                                  
G03  22888621.843   120280522.560         118.848          37.000    22888616.823    93725056.259          92.272          38.000  
G16  22632861.248   118936483.271        3101.611          40.000                                                                  
C09  37714037.432   196386890.061        -164.907          45.000    37714023.232   151858742.774        -127.611          48.000  
C25  23756837.752   123708084.243        1644.202          44.000                                                                  
C13  38213664.368   198988586.866       -2227.142          41.000    38213658.011   153870567.247       -1721.945          43.000  
C08  39029578.494   203237258.385       -2438.333          35.000    39029566.476   157155871.715       -1885.462          44.000  
C10  40559390.171   211203386.829         925.052          33.000    40559392.566   163315909.363         715.693          38.000  
G25  24135652.110   126833703.867       -3900.007          40.000    24135641.193                       -3038.258          30.000  
> 2025 10 30 06 14 22.4400000  0 20                     
G32  21831405.190   114724809.291       -2766.927          46.000    21831398.876    89395927.491       -2156.066          43.000  
G29  23040863.383   121080564.374        -362.868          39.000    23040854.075    94348455.774        -283.004          38.000  
G28  21176299.699   111282204.841       -1109.782          44.000    21176289.125    86713365.432        -864.870          47.000  
G26  20396464.002   107184138.391         879.259          49.000    20396457.103    83520088.461         685.137          46.000  
G31  20636720.521   108446695.081         250.811          45.000    20636709.513    84503876.963         195.396          43.000  
G04  24704379.739   129822410.884        3199.122          33.000    24704376.459   101160300.498        2492.347          41.000  
C33  22464483.425   116978457.555        -492.724          50.000                                                                  
C06  36561873.885   190387271.572        -174.452          45.000    36561856.590   147219444.117        -134.779          46.000  
C14  22525716.289   117297303.094       -2087.527          47.000    22525701.422    90701661.919       -1614.166          50.000  
C16  36987577.980   192604019.790        -208.939          45.000    36987565.930   148933597.870        -161.635          46.000  
C24  21787410.536   113452764.743        -777.287          48.000                                                                  
C26  24257272.509   126313980.142       -2545.656          39.000                                                                  
G03  22888620.957   120280517.816         118.754          37.000    22888615.914    93725052.569          92.317          38.000  
G16  22632837.649   118936359.194        3101.741          40.000                                                                  
C09  37714038.703   196386896.662        -165.002          45.000    37714024.507   151858747.876        -127.604          48.000  
C25  23756825.112   123708018.471        1644.245          44.000                                                                  
C13  38213681.491   198988675.941       -2226.899          41.000    38213675.096   153870636.135       -1722.121          43.000  
C08  39029597.226   203237355.936       -2438.681          35.000    39029585.210   157155947.121       -1885.279          44.000  
C10  40559383.074                         925.723          33.000    40559385.461   163315880.730         715.846          38.000  
G25  24135681.800   126833859.856       -3899.874          40.000    24135670.879                       -3038.892          30.000  
> 2025 10 30 06 14 22.4800000  0 20                     
G32  21831426.256   114724919.971       -2766.987          46.000    21831419.927    89396013.721       -2155.876          43.000  
G29  23040866.150   121080578.901        -363.084          39.000    23040856.846    94348467.085        -282.836          38.000  
G28  21176308.125   111282249.230       -1109.705          44.000    21176297.582    86713400.025        -864.851          47.000  
G26  20396457.313   107184103.215         879.327          49.000    20396450.393    83520061.044         685.347          46.000  
G31  20636718.621   108446685.038         250.983          45.000    20636707.613    84503869.140         195.495          43.000  
G04  24704355.367   129822282.953        3198.658          33.000    24704352.110   101160200.782        2492.665          42.000  
C33  22464487.217   116978477.264        -492.712          50.000                                                                  
C06  36561875.230   190387278.545        -174.346          45.000    36561857.969   147219449.511        -134.817          46.000  
C14  22525732.348   117297386.587       -2087.400          47.000    22525717.449    90701726.481       -1614.072          50.000  
C16  36987579.596   192604028.142        -208.883          45.000    36987567.517   148933604.325        -161.505          46.000  
C24  21787416.495   113452795.824        -777.162          48.000                                                                  
C26  24257292.049   126314081.956       -2545.385          39.000                                                                  
G03  22888620.046   120280513.083         118.482          36.000    22888615.023    93725048.888          92.096          38.000  
G16  22632814.024   118936235.107        3102.041          40.000                                                                  
C09  37714039.973   196386903.258        -164.949          45.000    37714025.789   151858752.974        -127.508          48.000  
C25  23756812.486   123707952.709        1644.086          44.000                                                                  
C13  38213698.583   198988765.016       -2226.821          41.000    38213692.216   153870705.027       -1722.302          43.000  
C08  39029615.937   203237453.443       -2438.021          35.000    39029603.926   157156022.520       -1885.059          44.000  
C10  40559375.957                         925.756          33.000    40559378.357   163315852.111         715.595          38.000  
G25  24135711.478   126834015.828       -3899.487          40.000    24135700.568                       -3038.636          30.000  
> 2025 10 30 06 14 22.5200000  0 20                     
G32  21831447.317   114725030.635       -2766.752          46.000    21831440.990    89396099.972       -2156.129          43.000  
G29  23040868.930   121080593.417        -362.995          40.000    23040859.598    94348478.400        -282.849          38.000  
G28  21176316.567   111282293.631       -1109.896          44.000    21176306.030    86713434.613        -864.741          47.000  
G26  20396450.582   107184068.032         879.481          49.000    20396443.721    83520033.633         685.309          46.000  
G31  20636716.700   108446674.980         251.365          45.000    20636705.684    84503861.308         195.704          43.000  
G04  24704330.999   129822154.961        3199.277          33.000    24704327.749   101160101.075        2492.713          41.000  
C33  22464491.023   116978496.967        -492.631          50.000                                                                  
C06  36561876.582   190387285.506        -174.087          45.000    36561859.337   147219454.902        -134.775          46.000  
C14  22525748.388   117297470.074       -2087.185          47.000    22525733.476    90701791.034       -1613.897          50.000  
C16  36987581.194   192604036.481        -208.619          45.000    36987569.130   148933610.776        -161.324          46.000  
C24  21787422.464   113452826.900        -776.947          48.000                                                                  
C26  24257311.605   126314183.789       -2545.612          39.000                                                                  
G03  22888619.140   120280508.374         117.829          36.000    22888614.123    93725045.198          92.206          38.000  
G16  22632790.415   118936111.027        3102.108          40.000                                                                  
C09  37714041.226   196386909.840        -164.651          45.000    37714027.027   151858758.064        -127.346          48.000  
C25  23756799.890   123707886.937        1644.189          44.000                                                                  
C13  38213715.681   198988854.101       -2227.016          41.000    38213709.337   153870773.897       -1721.977          43.000  
C08  39029634.674   203237550.950       -2437.613          35.000    39029622.671   157156097.930       -1885.190          44.000  
C10  40559368.816   211203275.724         925.643          33.000    40559371.216   163315823.464         716.003          38.000  
G25  24135741.159   126834171.813       -3899.483          40.000    24135730.233                       -3039.037          30.000  
> 2025 10 30 06 14 22.5600000  0 20                     
G32  21831468.381   114725141.312       -2766.876          46.000    21831462.036    89396186.212       -2156.106          43.000  
G29  23040871.700   121080607.924        -362.770          40.000    23040862.377    94348489.717        -282.906          38.000  
G28  21176324.998   111282338.027       -1109.944          44.000    21176314.482    86713469.199        -864.687          47.000  
G26  20396443.898   107184032.857         879.424          49.000    20396437.054    83520006.223         685.240          46.000  
G31  20636714.776   108446664.936         251.227          45.000    20636703.772    84503853.485         195.642          43.000  
G04  24704306.686   129822027.034        3198.561          33.000    24704303.392   101160001.359        2492.879          42.000  
C33  22464494.772   116978516.675        -492.679          50.000                                                                  
C06  36561877.934   190387292.473        -174.091          45.000    36561860.649   147219460.292        -134.786          46.000  
C14  22525764.394   117297553.571       -2087.310          47.000    22525749.483    90701855.596       -1613.983          50.000  
C16  36987582.789   192604044.824        -208.528          45.000    36987570.735   148933617.228        -161.265          46.000  
C24  21787428.424   113452857.973        -776.830          48.000                                                                  
C26  24257331.164   126314285.625       -2545.826          39.000                                                                  
G03  22888618.253   120280503.627         118.278          36.000    22888613.239    93725041.505          92.209          38.000  
G16  22632766.810   118935986.945        3102.071          40.000                                                                  
C09  37714042.520   196386916.423        -164.554          45.000    37714028.269   151858763.159        -127.341          48.000  
C25  23756787.289   123707821.162        1644.293          44.000                                                                  
C13  38213732.772   198988943.188       -2227.159          41.000    38213726.432   153870842.786       -1722.152          43.000  
C08  39029653.374   203237648.465       -2437.628          35.000    39029641.418   157156173.329       -1885.037          44.000  
C10  40559361.707   211203238.660         926.209          33.000    40559364.075   163315794.830         715.874          38.000  
G25  24135770.829   126834327.786       -3899.340          40.000    24135759.897                       -3038.802          30.000  
> 2025 10 30 06 14 22.6000000  0 20                     
G32  21831489.456   114725251.994       -2767.024          46.000    21831483.095    89396272.451       -2156.039          43.000  
G29  23040874.456   121080622.444        -362.917          40.000    23040865.141    94348501.025        -282.755          38.000  
G28  21176333.478   111282382.428       -1110.018          44.000    21176322.944    86713503.792        -864.806          47.000  
G26  20396437.238   107183997.683         879.332          49.000    20396430.366    83519978.816         685.148          46.000  
G31  20636712.868   108446654.912         250.752          45.000    20636701.871    84503845.662         195.568          43.000  
G04  24704282.343   129821899.086        3198.373          32.000    24704279.036   101159901.648        2492.825          41.000  
C33  22464498.528   116978536.388        -492.806          50.000                                                                  
C06  36561879.260   190387299.440        -174.111          45.000    36561861.986   147219465.684        -134.807          46.000  
C14  22525780.436   117297637.071       -2087.458          47.000    22525765.519    90701920.167       -1614.207          50.000  
C16  36987584.337   192604053.178        -208.735          45.000    36987572.308   148933623.685        -161.354          46.000  
C24  21787434.392   113452889.055        -776.954          48.000                                                                  
C26  24257350.694   126314387.447       -2545.730          39.000                                                                  
G03  22888617.357   120280498.889         118.391          36.000    22888612.341    93725037.805          92.398          38.000  
G16  22632743.210   118935862.873        3101.846          40.000                                                                  
C09  37714043.790   196386923.013        -164.660          45.000    37714029.520   151858768.256        -127.381          48.000  
C25  23756774.657   123707755.387        1644.360          44.000                                                                  
C13  38213749.871   198989032.275       -2227.239          41.000    38213743.551   153870911.666       -1722.096          43.000  
C08  39029672.096   203237745.997       -2438.010          35.000    39029660.146   157156248.736       -1885.116          44.000  
C10  40559354.595   211203201.628         926.054          33.000    40559356.949   163315766.207         715.626          38.000  
G25  24135800.526   126834483.777       -3899.636          40.000    24135789.580                       -3038.880          31.000  
> 2025 10 30 06 14 22.6400000  0 20                     
G32  21831510.528   114725362.671       -2767.042          46.000    21831504.155    89396358.684       -2155.910          43.000  
G29  23040877.209   121080636.974        -363.200          40.000    23040867.911    94348512.344        -282.875          38.000  
G28  21176341.883   111282426.814       -1109.806          44.000    21176331.402    86713538.397        -865.063          47.000  
G26  20396430.548   107183962.525         878.987          49.000    20396423.680    83519951.416         684.988          46.000  
G31  20636710.987   108446644.888         250.513          45.000    20636699.960    84503837.852         195.347          43.000  
G04  24704258.001   129821771.156        3198.153          33.000    24704254.679   101159801.952        2492.466          42.000  
C33  22464502.293   116978556.107        -492.970          50.000                                                                  
C06  36561880.600   190387306.423        -174.437          45.000    36561863.312   147219471.081        -134.935          46.000  
C14  22525796.452   117297720.575       -2087.615          47.000    22525781.557    90701984.743       -1614.413          50.000  
C16  36987585.934   192604061.543        -209.009          45.000    36987573.864   148933630.145        -161.465          46.000  
C24  21787440.329   113452920.153        -777.321          48.000                                                                  
C26  24257370.239   126314489.280       -2545.836          39.000                                                                  
G03  22888616.450   120280494.164         118.150          36.000    22888611.442    93725034.123          92.150          38.000  
G16  22632719.582   118935738.808        3101.653          40.000                                                                  
C09  37714045.062   196386929.620        -165.029          45.000    37714030.805   151858773.360        -127.540          48.000  
C25  23756762.016   123707689.620        1644.250          44.000                                                                  
C13  38213766.966   198989121.347       -2226.951          41.000    38213760.657   153870980.552       -1722.158          43.000  
C08  39029690.855   203237843.513       -2437.953          35.000    39029678.903   157156324.165       -1885.540          44.000  
C10  40559347.444   211203164.599         925.829          32.000    40559349.825   163315737.582         715.572          38.000  
G25  24135830.227   126834639.776       -3899.881          40.000    24135819.247                       -3037.901          31.000  
> 2025 10 30 06 14 22.6800000  0 20                     
G32  21831531.577   114725473.349       -2767.013          46.000    21831525.237    89396444.946       -2156.398          43.000  
G29  23040879.968   121080651.503        -363.271          40.000    23040870.698    94348523.680        -283.258          38.000  
G28  21176350.333   111282471.217       -1109.972          44.000    21176339.874    86713572.994        -865.039          47.000  
G26  20396423.837   107183927.354         879.093          49.000    20396416.987    83519924.014         684.940          46.000  
G31  20636709.085   108446634.851         250.694          45.000    20636698.061    84503830.035         195.366          43.000  
G04  24704233.664   129821643.173        3198.978          32.000    24704230.333   101159702.249        2492.456          42.000  
C33  22464506.095   116978575.819        -492.941          50.000                                                                  
C06  36561881.928   190387313.400        -174.503          45.000    36561864.636   147219476.474        -134.888          46.000  
C14  22525812.487   117297804.081       -2087.687          47.000    22525797.610    90702049.316       -1614.433          50.000  
C16  36987587.563   192604069.891        -208.847          45.000    36987575.456   148933636.611        -161.617          46.000  
C24  21787446.281   113452951.244        -777.405          48.000                                                                  
C26  24257389.793   126314591.117       -2545.936          39.000                                                                  
G03  22888615.555   120280489.425         118.251          36.000    22888610.543    93725030.435          92.075          38.000  
G16  22632695.968   118935614.739        3101.593          40.000                                                                  
C09  37714046.317   196386936.211        -164.982          45.000    37714032.064   151858778.461        -127.576          48.000  
C25  23756749.360   123707623.859        1644.073          44.000                                                                  
C13  38213784.092   198989210.451       -2227.431          41.000    38213777.751   153871049.445       -1722.320          43.000  
C08  39029709.585   203237941.048       -2438.188          35.000    39029697.645   157156399.580       -1885.542          44.000  
C10  40559340.340   211203127.610         924.996          33.000    40559342.731   163315708.953         715.588          38.000  
G25  24135859.915   126834795.784       -3900.168          40.000    24135848.949                       -3039.445          31.000  
> 2025 10 30 06 14 22.7200000  0 20                     
G32  21831552.660   114725584.034       -2767.128          46.000    21831546.317    89396531.186       -2156.231          43.000  
G29  23040882.724   121080666.036        -363.350          40.000    23040873.445    94348534.975        -282.688          38.000  
G28  21176358.772   111282515.609       -1109.889          44.000    21176348.347    86713607.590        -865.000          47.000  
G26  20396417.137   107183892.182         879.205          49.000    20396410.296    83519896.610         684.984          46.000  
G31  20636707.163   108446624.811         250.885          45.000    20636696.162    84503822.215         195.428          43.000  
G04  24704209.342   129821515.207        3199.169          33.000    24704206.007   101159602.553        2492.358          42.000  
C33  22464509.891   116978595.536        -492.958          50.000                                                                  
C06  36561883.266   190387320.374        -174.435          45.000    36561865.934   147219481.869        -134.900          46.000  
C14  22525828.544   117297887.585       -2087.684          47.000    22525813.631    90702113.883       -1614.303          50.000  
C16  36987589.220   192604078.240        -208.774          45.000    36987577.066   148933643.069        -161.553          46.000  
C24  21787452.286   113452982.326        -777.241          48.000                                                                  
C26  24257409.337   126314692.934       -2545.603          39.000                                                                  
G03  22888614.669   120280484.702         118.083          36.000    22888609.641    93725026.749          92.086          38.000  
G16  22632672.371   118935490.669        3101.635          40.000                                                                  
C09  37714047.575   196386942.800        -164.832          45.000    37714033.338   151858783.562        -127.574          48.000  
C25  23756736.752   123707558.090        1644.110          44.000                                                                  
C13  38213801.195   198989299.515       -2226.887          41.000    38213794.861   153871118.332       -1722.268          43.000  
C08  39029728.323   203238038.556       -2437.950          35.000    39029716.380   157156474.985       -1885.359          44.000  
C10  40559333.254   211203090.611         924.821          33.000    40559335.619   163315680.319         715.742          38.000  
G25  24135889.600   126834951.760       -3899.736          40.000    24135878.615                       -3038.225          31.000  
> 2025 10 30 06 14 22.7600000  0 20                     
G32  21831573.705   114725694.713       -2767.080          46.000    21831567.382    89396617.427       -2156.130          43.000  
G29  23040885.496   121080680.560        -363.235          40.000    23040876.218    94348546.303        -282.981          38.000  
G28  21176367.222   111282560.015       -1110.120          44.000    21176356.792    86713642.186        -864.964          47.000  
G26  20396410.428   107183857.017         879.131          49.000    20396403.592    83519869.210         684.941          46.000  
G31  20636705.264   108446614.778         250.823          45.000    20636694.248    84503814.401         195.379          43.000  
G04  24704184.986   129821387.254        3199.073          33.000    24704181.657   101159502.844        2492.546          42.000  
C33  22464513.678   116978615.254        -492.988          50.000                                                                  
C06  36561884.613   190387327.357        -174.557          45.000    36561867.262   147219487.260        -134.833          46.000  
C14  22525844.595   117297971.092       -2087.746          47.000    22525829.665    90702178.448       -1614.202          50.000  
C16  36987590.832   192604086.592        -208.797          45.000    36987578.632   148933649.519        -161.366          46.000  
C24  21787458.263   113453013.411        -777.195          48.000                                                                  
C26  24257428.903   126314794.761       -2545.647          39.000                                                                  
G03  22888613.750   120280479.969         118.230          36.000    22888608.735    93725023.065          92.042          38.000  
G16  22632648.742   118935366.597        3101.719          40.000                                                                  
C09  37714048.832   196386949.402        -164.991          45.000    37714034.599   151858788.660        -127.517          48.000  
C25  23756724.128   123707492.328        1644.025          44.000                                                                  
C13  38213818.293   198989388.601       -2227.065          41.000    38213812.010   153871187.228       -1722.417          43.000  
C08  39029747.075   203238136.085       -2438.147          35.000    39029735.126   157156550.386       -1885.196          44.000  
C10  40559326.128   211203053.566         925.577          33.000    40559328.497   163315651.684         715.829          38.000  
G25  24135919.292   126835107.746       -3899.647          40.000    24135908.271                       -3039.225          31.000  
> 2025 10 30 06 14 22.8000000  0 20                     
G32  21831594.816   114725805.412       -2767.397          46.000    21831588.464    89396703.682       -2156.314          43.000  
G29  23040888.271   121080695.102        -363.524          40.000    23040878.980    94348557.651        -283.584          38.000  
G28  21176375.676   111282604.435       -1110.427          44.000    21176365.245    86713676.789        -865.043          47.000  
G26  20396403.758   107183821.867         878.792          49.000    20396396.901    83519841.816         684.805          46.000  
G31  20636703.394   108446604.758         250.521          45.000    20636692.323    84503806.583         195.391          43.000  
G04  24704160.635   129821259.311        3198.738          33.000    24704157.301   101159403.144        2492.562          42.000  
C33  22464517.436   116978634.981        -493.152          50.000                                                                  
C06  36561885.940   190387334.341        -174.666          45.000    36561868.645   147219492.664        -135.045          46.000  
C14  22525860.622   117298054.608       -2087.896          47.000    22525845.732    90702243.029       -1614.431          50.000  
C16  36987592.448   192604094.955        -209.011          45.000    36987580.225   148933655.984        -161.558          46.000  
C24  21787464.219   113453044.518        -777.546          48.000                                                                  
C26  24257448.451   126314896.610       -2546.067          39.000                                                                  
G03  22888612.856   120280475.253         118.037          36.000    22888607.820    93725019.397          91.729          38.000  
G16  22632625.138   118935242.536        3101.601          40.000                                                                  
C09  37714050.097   196386956.003        -165.052          45.000    37714035.865   151858793.767        -127.657          48.000  
C25  23756711.522   123707426.572        1643.890          44.000                                                                  
C13  38213835.424   198989477.697       -2227.319          41.000    38213829.116   153871256.117       -1722.341          43.000  
C08  39029765.814   203238233.658       -2439.089          35.000    39029753.825   157156625.814       -1885.553          44.000  
C10  40559319.018   211203016.546         925.460          33.000    40559321.407   163315623.055         715.757          38.000  
G25  24135948.978   126835263.753       -3900.019          40.000    24135937.970                       -3039.771          31.000  
> 2025 10 30 06 14 22.8400000  0 20                     
G32  21831615.887   114725916.114       -2767.610          46.000    21831609.539    89396789.942       -2156.533          43.000  
G29  23040891.023   121080709.640        -363.558          40.000    23040881.745    94348568.976        -283.433          38.000  
G28  21176384.124   111282648.852       -1110.524          44.000    21176373.706    86713711.396        -865.159          47.000  
G26  20396397.072   107183786.721         878.590          49.000    20396390.220    83519814.425         684.701          46.000  
G31  20636701.494   108446594.740         250.412          45.000    20636690.408    84503798.778         195.163          43.000  
G04  24704136.287   129821131.373        3198.492          33.000    24704132.980   101159303.449        2492.401          42.000  
C33  22464521.209   116978654.717        -493.372          50.000                                                                  
C06  36561887.266   190387341.329        -174.745          45.000    36561869.980   147219498.066        -135.114          46.000  
C14  22525876.691   117298138.128       -2088.051          47.000    22525861.771    90702307.617       -1614.702          50.000  
C16  36987594.053   192604103.331        -209.369          45.000    36987581.859   148933662.460        -161.839          46.000  
C24  21787470.184   113453075.621        -777.670          48.000                                                                  
C26  24257468.030   126314998.455       -2546.200          39.000                                                                  
G03  22888611.941   120280470.553         117.548          36.000    22888606.937    93725015.731          91.512          38.000  
G16  22632601.534   118935118.488        3101.318          40.000                                                                  
C09  37714051.368   196386962.613        -165.227          45.000    37714037.156   151858798.877        -127.768          48.000  
C25  23756698.887   123707360.825        1643.652          44.000                                                                  
C13  38213852.512   198989566.796       -2227.472          41.000    38213846.223   153871325.007       -1722.291          43.000  
C08  39029784.562   203238331.192       -2438.769          35.000    39029772.563   157156701.242       -1885.755          44.000  
C10  40559311.905   211202979.556         925.035          33.000    40559314.261   163315594.460         715.078          38.000  
G25  24135978.673   126835419.759       -3900.178          40.000    24135967.671                       -3039.123          31.000  
> 2025 10 30 06 14 22.8800000  0 20                     
G32  21831636.943   114726026.813       -2767.638          46.000    21831630.625    89396876.204       -2156.662          43.000  
G29  23040893.806   121080724.184        -363.630          40.000    23040884.512    94348580.310        -283.429          38.000  
G28  21176392.576   111282693.261       -1110.401          44.000    21176382.157    86713746.001        -865.195          47.000  
G26  20396390.370   107183751.565         878.709          49.000    20396383.522    83519787.036         684.641          46.000  
G31  20636699.586   108446584.712         250.573          45.000    20636688.527    84503790.968         195.158          43.000  
G04  24704111.938   129821003.461        3197.887          33.000    24704108.636   101159203.755        2492.278          42.000  
C33  22464525.016   116978674.451        -493.428          50.000                                                                  
C06  36561888.607   190387348.316        -174.794          45.000    36561871.304   147219503.468        -135.127          46.000  
C14  22525892.763   117298221.646       -2088.052          47.000    22525877.813    90702372.200       -1614.709          50.000  
C16  36987595.666   192604111.691        -209.243          45.000    36987583.465   148933668.938        -162.007          46.000  
C24  21787476.185   113453106.721        -777.648          48.000                                                                  
C26  24257487.604   126315100.310       -2546.392          39.000                                                                  
G03  22888611.052   120280465.849         117.461          36.000    22888606.049    93725012.063          91.517          38.000  
G16  22632577.923   118934994.421        3101.493          40.000                                                                  
C09  37714052.641   196386969.222        -165.299          45.000    37714038.430   151858803.986        -127.803          48.000  
C25  23756686.289   123707295.064        1643.805          44.000                                                                  
C13  38213869.599   198989655.908       -2227.787          41.000    38213863.337   153871393.903       -1722.365          43.000  
C08  39029803.307   203238428.713       -2438.396          35.000    39029791.312   157156776.664       -1885.702          44.000  
C10  40559304.747   211202942.527         925.352          33.000    40559307.189   163315565.848         715.056          38.000  
G25  24136008.352   126835575.759       -3900.147          40.000    24135997.361                       -3039.141          31.000  
> 2025 10 30 06 14 22.9200000  0 20                     
G32  21831658.006   114726137.494       -2767.292          46.000    21831651.684    89396962.451       -2156.446          43.000  
G29  23040896.587   121080738.731        -363.735          40.000    23040887.272    94348591.636        -283.231          38.000  
G28  21176401.011   111282737.655       -1110.046          44.000    21176390.593    86713780.608        -865.215          47.000  
G26  20396383.671   107183716.402         878.944          49.000    20396376.825    83519759.640         684.777          46.000  
G31  20636697.687   108446574.699         250.339          45.000    20636686.606    84503783.167         194.998          43.000  
G04  24704087.589   129820875.489        3198.752          33.000    24704084.292   101159104.058        2492.345          42.000  
C33  22464528.811   116978694.175        -493.263          50.000                                                                  
C06  36561889.948   190387355.287        -174.493          45.000    36561872.671   147219508.871        -135.129          46.000  
C14  22525908.833   117298305.158       -2087.910          47.000    22525893.835    90702436.779       -1614.630          50.000  
C16  36987597.250   192604120.053        -209.161          45.000    36987585.072   148933675.398        -161.746          46.000  
C24  21787482.174   113453137.815        -777.485          48.000                                                                  
C26  24257507.147   126315202.157       -2546.340          39.000                                                                  
G03  22888610.150   120280461.110         118.203          36.000    22888605.127    93725008.369          92.055          38.000  
G16  22632554.291   118934870.358        3101.537          40.000                                                                  
C09  37714053.907   196386975.823        -165.131          45.000    37714039.721   151858809.087        -127.636          48.000  
C25  23756673.679   123707229.303        1643.933          44.000                                                                  
C13  38213886.700   198989744.995       -2227.480          41.000    38213880.432   153871462.788       -1722.197          43.000  
C08  39029822.017   203238526.218       -2437.919          35.000    39029810.046   157156852.073       -1885.415          44.000  
C10  40559297.659   211202905.517         925.197          33.000    40559300.094   163315537.220         715.438          38.000  
G25  24136038.022   126835731.750       -3899.914          40.000    24136027.041                       -3038.969          31.000  
> 2025 10 30 06 14 22.9600000  0 20                     
G32  21831679.049   114726248.172       -2767.029          46.000    21831672.742    89397048.707       -2156.446          43.000  
G29  23040899.352   121080753.269        -363.594          40.000    23040890.052    94348602.961        -283.138          38.000  
G28  21176409.479   111282782.061       -1110.076          44.000    21176399.033    86713815.209        -865.108          47.000  
G26  20396376.953   107183681.238         879.079          49.000    20396370.140    83519732.247         684.783          46.000  
G31  20636695.753   108446564.665         250.616          45.000    20636684.712    84503775.354         195.140          43.000  
G04  24704063.219   129820747.583        3198.032          32.000    24704059.942   101159004.364        2492.307          42.000  
C33  22464532.610   116978713.897        -493.124          50.000                                                                  
C06  36561891.305   190387362.265        -174.437          45.000    36561874.041   147219514.269        -135.022          46.000  
C14  22525924.878   117298388.665       -2087.732          47.000    22525909.869    90702501.355       -1614.496          50.000  
C16  36987598.848   192604128.410        -209.004          45.000    36987586.732   148933681.860        -161.625          46.000  
C24  21787488.179   113453168.909        -777.402          48.000                                                                  
C26  24257526.706   126315303.989       -2545.965          39.000                                                                  
G03  22888609.258   120280456.384         118.304          36.000    22888604.229    93725004.684          92.241          38.000  
G16  22632530.672   118934746.291        3101.672          40.000                                                                  
C09  37714055.169   196386982.414        -164.897          45.000    37714040.997   151858814.186        -127.523          48.000  
C25  23756661.067   123707163.538        1644.098          44.000                                                                  
C13  38213903.802   198989834.083       -2227.318          41.000    38213897.541   153871531.679       -1722.235          43.000  
C08  39029840.736   203238623.759       -2438.259          35.000    39029828.762   157156927.477       -1885.146          44.000  
C10  40559290.546   211202868.462         925.933          33.000    40559292.951   163315508.589         715.702          38.000  
G25  24136067.693   126835887.738       -3899.703          40.000    24136056.736                       -3038.911          31.000  
> 2025 10 30 06 14 23.0000000  0 20                     
G32  21831700.118   114726358.869       -2767.272          46.000    21831693.811    89397134.957       -2156.343          43.000  
G29  23040902.095   121080767.805        -363.469          40.000    23040892.818    94348614.280        -283.022          38.000  
G28  21176417.923   111282826.462       -1110.042          44.000    21176407.484    86713849.807        -865.053          47.000  
G26  20396370.265   107183646.087         878.875          49.000    20396363.430    83519704.847         684.912          46.000  
G31  20636693.835   108446554.625         250.949          45.000    20636682.818    84503767.537         195.319          43.000  
G04  24704038.869   129820619.593        3199.166          32.000    24704035.597   101158904.648        2492.741          42.000  
C33  22464536.375   116978733.625        -493.165          50.000                                                                  
C06  36561892.667   190387369.242        -174.408          45.000    36561875.394   147219519.661        -134.893          46.000  
C14  22525940.931   117298472.172       -2087.640          47.000    22525925.897    90702565.929       -1614.395          50.000  
C16  36987600.422   192604136.755        -208.750          45.000    36987588.325   148933688.311        -161.396          46.000  
C24  21787494.170   113453200.003        -777.353          48.000                                                                  
C26  24257546.264   126315405.809       -2545.574          39.000                                                                  
G03  22888608.385   120280451.668         117.961          36.000    22888603.332    93725001.014          91.973          38.000  
G16  22632507.075   118934622.224        3101.735          40.000                                                                  
C09  37714056.437   196386989.004        -164.730          45.000    37714042.242   151858819.287        -127.520          48.000  
C25  23756648.439   123707097.789        1643.829          44.000                                                                  
C13  38213920.908   198989923.166       -2227.146          41.000    38213914.667   153871600.573       -1722.323          43.000  
C08  39029859.462   203238721.316       -2438.740          35.000    39029847.467   157157002.891       -1885.211          44.000  
C10  40559283.446   211202831.474         925.053          33.000    40559285.835   163315479.949         715.970          38.000  
G25  24136097.412   126836043.732       -3899.761          40.000    24136086.405                       -3038.269          31.000  
