     3.04           OBSERVATION DATA    M: Mixed            RINEX VERSION / TYPE
RTKCONV 2.4.3 b34                       20251030 063705 UTC PGM / RUN BY / DATE 
format: u-blox UBX                                          COMMENT             
log: D:\GPdata\10_30\fingure_200_10_30_1.ubx                COMMENT             
                                                            MARKER NAME         
                                                            MARKER NUMBER       
                                                            MARKER TYPE         
                                                            OBSERVER / AGENCY   
                                                            REC # / TYPE / VERS 
                                                            ANT # / TYPE        
        0.0000        0.0000        0.0000                  APPROX POSITION XYZ 
        0.0000        0.0000        0.0000                  ANTENNA: DELTA H/E/N
G    8 C1C L1C D1C S1C C2L L2L D2L S2L                      SYS / # / OBS TYPES 
C    8 C2I L2I D2I S2I C7I L7I D7I S7I                      SYS / # / OBS TYPES 
  2025    10    30    06    16   05.4000000     GPS         TIME OF FIRST OBS   
  2025    10    30    06    16   28.1600000     GPS         TIME OF LAST OBS    
G L1C                                                       SYS / PHASE SHIFT   
G L2L  0.00000                                              SYS / PHASE SHIFT   
C L2I                                                       SYS / PHASE SHIFT   
C L7I                                                       SYS / PHASE SHIFT   
  0                                                         GLONASS SLOT / FRQ #
 C1C    0.000 C1P    0.000 C2C    0.000 C2P    0.000        GLONASS COD/PHS/BIS 
                                                            END OF HEADER       
> 2025 10 30 06 16 05.4000000  0 21                     
G32  21886059.606   115012019.7301      -2812.437          46.000    21886053.202    89619727.5901      -2191.603          42.000  
G29  23048612.231   121121286.2521       -428.347          42.000    23048602.743    94380187.3871       -333.825          41.000  
G28  21198275.138   111397688.5061      -1133.863          46.000    21198264.952    86803352.6901       -883.550          47.000  
G26  20379787.164   107096502.3861        822.625          48.000    20379780.251    83451800.8371        640.896          46.000  
G31  20632084.491   108422332.0221        221.825          47.000    20632073.777    84484892.8491        172.641          46.000  
G04  24641749.707   129493264.3201       3193.284          35.000    24641748.379   100903849.6361       2488.603          41.000  
C33  22474821.316   117032289.6711       -553.430          50.000                                                                  
C06  36565287.271   190405045.9391       -171.309          45.000    36565269.940   147233188.4201       -132.499          48.000  
C14  22567485.677   117514807.2881      -2138.058          46.000    22567471.145    90869849.8411      -1653.252          51.000  
C16  36991661.836   192625286.2441       -204.828          48.000    36991650.021   148950042.5181       -158.451          48.000  
C24  21803029.019   113534097.5791       -803.213          50.000                                                                  
C26  24307664.511   126576380.7321      -2551.885          44.000                                                                  
G03  22886982.076   120271904.9451         48.525          39.000    22886976.230    93718347.0351         37.697          39.000  
G16  22572393.777   118618733.3651       3067.319          42.000                                                                  
C09  37717261.302   196403677.5091       -161.533          43.000    37717247.144   151871724.0061       -125.045          48.000  
C25  23724521.113   123539809.4611       1622.693          46.000                                                                  
C13  38257829.037   199218552.6581      -2239.103          42.000    38257823.510   154048401.1991      -1731.223          44.000  
C08  39077875.988   203488746.8731      -2446.536          37.000    39077864.570   157350345.8381      -1891.371          43.000  
C10  40541060.810   211107943.4651        926.609          33.000    40541062.662   163242110.5321        716.940          38.000  
C35  25975088.361   135259114.3111        499.166          37.000                                                                  
G25  24212144.841   127235668.1091      -3905.998          35.000    24212136.476    99144651.4451      -3044.126          36.000  
> 2025 10 30 06 16 05.4400000  0 21                     
G32  21886080.991   115012132.226       -2812.430          46.000    21886074.626    89619815.252       -2191.557          42.000  
G29  23048615.489   121121303.382        -428.262          42.000    23048606.003    94380200.737        -333.744          41.000  
G28  21198283.772   111397733.861       -1133.896          46.000    21198273.600    86803388.038        -883.701          47.000  
G26  20379780.928   107096469.491         822.438          48.000    20379773.997    83451775.202         640.829          46.000  
G31  20632082.803   108422323.144         221.881          47.000    20632072.094    84484885.929         172.827          46.000  
G04  24641725.402   129493136.564        3193.671          35.000    24641724.079   100903750.098        2488.509          41.000  
C33  22474825.557   117032311.810        -553.512          50.000                                                                  
C06  36565288.602   190405052.786        -171.239          45.000    36565271.261   147233193.724        -132.584          48.000  
C14  22567502.110   117514892.809       -2138.054          46.000    22567487.598    90869915.968       -1653.245          51.000  
C16  36991663.416   192625294.430        -204.736          48.000    36991651.606   148950048.852        -158.423          48.000  
C24  21803035.166   113534129.709        -803.270          50.000                                                                  
C26  24307684.111   126576482.809       -2551.903          44.000                                                                  
G03  22886981.721   120271903.016          48.255          39.000    22886975.856    93718345.528          37.613          39.000  
G16  22572370.425   118618610.666        3067.379          42.000                                                                  
C09  37717262.549   196403683.976        -161.633          43.000    37717248.377   151871729.002        -125.011          48.000  
C25  23724508.652   123539744.545        1622.778          46.000                                                                  
C13  38257846.237   199218642.211       -2238.985          42.000    38257840.711   154048470.445       -1731.119          44.000  
C08  39077894.783   203488844.699       -2446.127          37.000    39077883.357   157350421.490       -1891.319          43.000  
C10  40541053.666   211107906.395         926.590          33.000    40541055.527   163242081.854         716.943          39.000  
C35  25975084.517   135259094.326         499.418          37.000                                                                  
G25  24212174.580   127235824.327       -3905.671          35.000    24212166.213    99144773.172       -3043.571          36.000  
> 2025 10 30 06 16 05.4800000  0 21                     
G32  21886102.425   115012244.731       -2812.599          46.000    21886096.023    89619902.907       -2191.417          42.000  
G29  23048618.725   121121320.523        -428.441          42.000    23048609.252    94380214.095        -333.870          41.000  
G28  21198292.393   111397779.215       -1133.916          46.000    21198282.229    86803423.378        -883.593          47.000  
G26  20379774.686   107096436.595         822.340          48.000    20379767.752    83451749.567         640.843          46.000  
G31  20632081.108   108422314.266         221.911          47.000    20632070.416    84484879.014         172.851          46.000  
G04  24641701.081   129493008.794        3194.051          35.000    24641699.804   100903650.571        2488.226          41.000  
C33  22474829.838   117032333.943        -553.420          50.000                                                                  
C06  36565289.911   190405059.644        -171.400          45.000    36565272.561   147233199.023        -132.543          48.000  
C14  22567518.534   117514978.323       -2137.946          46.000    22567504.023    90869982.096       -1653.251          51.000  
C16  36991664.974   192625302.621        -204.750          48.000    36991653.203   148950055.184        -158.357          48.000  
C24  21803041.355   113534161.836        -803.241          50.000                                                                  
C26  24307703.733   126576584.873       -2551.699          44.000                                                                  
G03  22886981.366   120271901.070          48.486          39.000    22886975.501    93718344.018          37.628          39.000  
G16  22572347.062   118618487.952        3067.748          42.000                                                                  
C09  37717263.787   196403690.440        -161.656          43.000    37717249.586   151871733.994        -124.870          48.000  
C25  23724496.189   123539679.628        1622.894          46.000                                                                  
C13  38257863.434   199218731.768       -2238.947          42.000    38257857.902   154048539.698       -1731.239          44.000  
C08  39077913.554   203488942.487       -2445.185          37.000    39077902.156   157350497.139       -1891.259          43.000  
C10  40541046.534   211107869.312         926.823          33.000    40541048.434   163242053.187         716.773          39.000  
C35  25975080.682   135259074.380         498.843          37.000                                                                  
G25  24212204.290   127235980.545       -3905.469          35.000    24212195.938    99144894.911       -3043.483          36.000  
> 2025 10 30 06 16 05.5200000  0 21                     
G32  21886123.840   115012357.237       -2812.726          46.000    21886117.415    89619990.577       -2191.634          42.000  
G29  23048621.979   121121337.665        -428.571          42.000    23048612.514    94380227.459        -334.079          41.000  
G28  21198301.000   111397824.566       -1133.882          46.000    21198290.880    86803458.719        -883.551          47.000  
G26  20379768.428   107096403.698         822.348          48.000    20379761.507    83451723.932         640.824          46.000  
G31  20632079.401   108422305.396         221.738          47.000    20632068.721    84484872.094         172.938          46.000  
G04  24641676.767   129492881.060        3193.612          35.000    24641675.510   100903551.039        2488.183          41.000  
C33  22474834.100   117032356.080        -553.440          50.000                                                                  
C06  36565291.238   190405066.504        -171.536          45.000    36565273.826   147233204.320        -132.471          48.000  
C14  22567534.938   117515063.843       -2137.985          46.000    22567520.435    90870048.225       -1653.263          51.000  
C16  36991666.526   192625310.805        -204.681          48.000    36991654.785   148950061.512        -158.248          48.000  
C24  21803047.523   113534193.962        -803.215          50.000                                                                  
C26  24307723.296   126576686.949       -2551.824          44.000                                                                  
G03  22886980.977   120271899.132          48.441          39.000    22886975.139    93718342.515          37.549          39.000  
G16  22572323.706   118618365.246        3067.743          42.000                                                                  
C09  37717265.039   196403696.899        -161.555          43.000    37717250.764   151871738.989        -124.879          48.000  
C25  23724483.722   123539614.715        1622.827          46.000                                                                  
C13  38257880.631   199218821.319       -2238.816          42.000    38257875.123   154048608.954       -1731.363          44.000  
C08  39077932.331   203489040.326       -2445.576          37.000    39077920.940   157350572.776       -1891.043          43.000  
C10  40541039.403   211107832.210         927.355          33.000    40541041.292   163242024.507         716.888          38.000  
C35  25975076.844   135259054.414         498.924          37.000                                                                  
G25  24212234.020   127236136.773       -3905.524          35.000    24212225.672    99145016.669       -3043.818          36.000  
> 2025 10 30 06 16 05.5600000  0 21                     
G32  21886145.244   115012469.749       -2812.829          46.000    21886138.822    89620078.251       -2191.827          42.000  
G29  23048625.242   121121354.806        -428.550          42.000    23048615.767    94380240.815        -334.032          41.000  
G28  21198309.638   111397869.914       -1133.776          46.000    21198299.502    86803494.046        -883.288          47.000  
G26  20379762.170   107096370.794         822.517          48.000    20379755.242    83451698.292         640.911          46.000  
G31  20632077.722   108422296.527         221.646          47.000    20632067.052    84484865.183         172.832          46.000  
G04  24641652.460   129492753.318        3193.472          35.000    24641651.197   100903451.491        2488.483          41.000  
C33  22474838.375   117032378.214        -553.408          50.000                                                                  
C06  36565292.564   190405073.348        -171.271          45.000    36565275.150   147233209.616        -132.448          48.000  
C14  22567551.380   117515149.355       -2137.870          46.000    22567536.842    90870114.352       -1653.231          51.000  
C16  36991668.108   192625318.990        -204.631          48.000    36991656.352   148950067.839        -158.186          48.000  
C24  21803053.698   113534226.088        -803.181          50.000                                                                  
C26  24307742.900   126576789.020       -2551.853          44.000                                                                  
G03  22886980.606   120271897.194          48.403          39.000    22886974.776    93718340.997          37.776          39.000  
G16  22572300.346   118618242.558        3067.418          42.000                                                                  
C09  37717266.284   196403703.361        -161.536          43.000    37717252.000   151871743.988        -124.961          48.000  
C25  23724471.251   123539549.798        1622.888          46.000                                                                  
C13  38257897.842   199218910.868       -2238.756          42.000    38257892.339   154048678.205       -1731.331          44.000  
C08  39077951.136   203489138.157       -2445.729          37.000    39077939.728   157350648.425       -1891.151          43.000  
C10  40541032.278   211107795.122         927.335          33.000    40541034.179   163241995.825         717.001          38.000  
C35  25975073.001   135259034.454         498.953          37.000                                                                  
G25  24212263.740   127236293.011       -3905.729          35.000    24212255.402    99145138.406       -3043.617          36.000  
> 2025 10 30 06 16 05.6000000  0 21                     
G32  21886166.654   115012582.259       -2812.834          46.000    21886160.233    89620165.908       -2191.662          42.000  
G29  23048628.511   121121371.958        -428.762          42.000    23048619.038    94380254.179        -334.118          41.000  
G28  21198318.283   111397915.276       -1133.963          46.000    21198308.133    86803529.393        -883.518          47.000  
G26  20379755.898   107096337.892         822.547          48.000    20379748.977    83451672.658         640.830          46.000  
G31  20632076.068   108422287.655         221.703          47.000    20632065.372    84484858.272         172.771          46.000  
G04  24641628.152   129492625.602        3193.006          35.000    24641626.881   100903351.949        2488.550          41.000  
C33  22474842.599   117032400.357        -553.555          50.000                                                                  
C06  36565293.889   190405080.205        -171.354          45.000    36565276.445   147233214.916        -132.496          48.000  
C14  22567567.790   117515234.873       -2137.916          46.000    22567553.254    90870180.480       -1653.225          51.000  
C16  36991669.676   192625327.179        -204.684          48.000    36991657.915   148950074.174        -158.306          48.000  
C24  21803059.887   113534258.214        -803.169          50.000                                                                  
C26  24307762.528   126576891.097       -2551.936          44.000                                                                  
G03  22886980.216   120271895.250          48.491          39.000    22886974.413    93718339.483          37.825          39.000  
G16  22572276.999   118618119.866        3067.234          42.000                                                                  
C09  37717267.497   196403709.818        -161.473          43.000    37717253.206   151871748.985        -124.954          48.000  
C25  23724458.766   123539484.888        1622.785          46.000                                                                  
C13  38257915.036   199219000.433       -2239.012          42.000    38257909.536   154048747.456       -1731.300          44.000  
C08  39077969.911   203489236.004       -2446.091          37.000    39077958.525   157350724.080       -1891.313          43.000  
C10  40541025.157   211107758.037         927.176          33.000    40541027.057   163241967.145         717.038          38.000  
C35  25975069.187   135259014.467         499.410          37.000                                                                  
G25  24212293.457   127236449.252       -3905.890          35.000    24212285.128    99145260.148       -3043.578          36.000  
> 2025 10 30 06 16 05.6400000  0 21                     
G32  21886188.061   115012694.758       -2812.584          46.000    21886181.679    89620253.578       -2191.752          42.000  
G29  23048631.757   121121389.110        -428.886          42.000    23048622.289    94380267.529        -333.859          41.000  
G28  21198326.916   111397960.637       -1134.059          46.000    21198316.767    86803564.742        -883.689          47.000  
G26  20379749.653   107096304.992         822.528          48.000    20379742.724    83451647.025         640.799          46.000  
G31  20632074.383   108422278.784         221.690          47.000    20632063.677    84484851.357         172.808          46.000  
G04  24641603.844   129492497.863        3193.211          35.000    24641602.554   100903252.401        2488.682          41.000  
C33  22474846.869   117032422.498        -553.564          50.000                                                                  
C06  36565295.194   190405087.054        -171.282          45.000    36565277.758   147233220.219        -132.566          48.000  
C14  22567584.210   117515320.395       -2138.044          46.000    22567569.659    90870246.611       -1653.289          51.000  
C16  36991671.233   192625335.370        -204.761          48.000    36991659.474   148950080.506        -158.338          48.000  
C24  21803066.043   113534290.345        -803.235          50.000                                                                  
C26  24307782.138   126576993.175       -2551.985          44.000                                                                  
G03  22886979.818   120271893.314          48.390          39.000    22886974.050    93718337.984          37.578          39.000  
G16  22572253.675   118617997.169        3067.291          42.000                                                                  
C09  37717268.741   196403716.270        -161.381          43.000    37717254.464   151871753.980        -124.908          48.000  
C25  23724446.283   123539419.976        1622.772          46.000                                                                  
C13  38257932.226   199219089.993       -2239.035          42.000    38257926.720   154048816.708       -1731.325          44.000  
C08  39077988.720   203489333.848       -2446.225          37.000    39077977.333   157350799.733       -1891.359          43.000  
C10  40541018.019   211107720.958         926.840          33.000    40541019.948   163241938.477         716.794          38.000  
C35  25975065.352   135258994.512         499.060          37.000                                                                  
G25  24212323.207   127236605.492       -3905.963          35.000    24212314.856    99145381.851       -3042.871          36.000  
> 2025 10 30 06 16 05.6800000  0 21                     
G32  21886209.455   115012807.255       -2812.432          46.000    21886203.084    89620341.234       -2191.576          42.000  
G29  23048635.004   121121406.257        -428.852          42.000    23048625.556    94380280.891        -333.960          41.000  
G28  21198335.552   111398005.990       -1133.953          46.000    21198325.393    86803600.085        -883.681          47.000  
G26  20379743.396   107096272.091         822.528          48.000    20379736.471    83451621.389         640.806          46.000  
G31  20632072.699   108422269.905         221.857          47.000    20632061.997    84484844.445         172.790          46.000  
G04  24641579.520   129492370.092        3193.885          35.000    24641578.233   100903152.869        2488.458          41.000  
C33  22474851.167   117032444.637        -553.518          50.000                                                                  
C06  36565296.492   190405093.899        -171.172          45.000    36565279.097   147233225.521        -132.596          48.000  
C14  22567600.604   117515405.927       -2138.297          46.000    22567586.053    90870312.743       -1653.345          51.000  
C16  36991672.824   192625343.558        -204.740          48.000    36991661.034   148950086.832        -158.234          48.000  
C24  21803072.213   113534322.475        -803.307          50.000                                                                  
C26  24307801.753   126577095.255       -2552.040          44.000                                                                  
G03  22886979.456   120271891.377          48.385          39.000    22886973.687    93718336.459          37.894          39.000  
G16  22572230.307   118617874.470        3067.407          42.000                                                                  
C09  37717269.972   196403722.740        -161.643          43.000    37717255.715   151871758.975        -124.897          48.000  
C25  23724433.811   123539355.068        1622.699          46.000                                                                  
C13  38257949.414   199219179.556       -2239.058          42.000    38257943.914   154048885.954       -1731.257          44.000  
C08  39078007.486   203489431.674       -2445.963          37.000    39077996.128   157350875.387       -1891.405          43.000  
C10  40541010.917   211107683.853         927.259          33.000    40541012.830   163241909.797         716.899          38.000  
C35  25975061.524   135258974.554         498.943          37.000                                                                  
G25  24212352.913   127236761.725       -3905.756          35.000    24212344.590    99145503.610       -3043.615          36.000  
> 2025 10 30 06 16 05.7200000  0 21                     
G32  21886230.867   115012919.759       -2812.523          46.000    21886224.500    89620428.914       -2191.888          42.000  
G29  23048638.259   121121423.396        -428.631          42.000    23048628.810    94380294.258        -334.112          41.000  
G28  21198344.151   111398051.340       -1133.828          46.000    21198334.010    86803635.431        -883.705          47.000  
G26  20379737.143   107096239.199         822.341          48.000    20379730.218    83451595.757         640.762          46.000  
G31  20632071.015   108422261.030         221.900          47.000    20632060.298    84484837.533         172.734          46.000  
G04  24641555.230   129492242.351        3193.742          35.000    24641553.915   100903053.325        2488.530          41.000  
C33  22474855.388   117032466.782        -553.620          50.000                                                                  
C06  36565297.779   190405100.758        -171.388          45.000    36565280.402   147233230.814        -132.429          48.000  
C14  22567617.003   117515491.449       -2138.215          46.000    22567602.476    90870378.875       -1653.350          51.000  
C16  36991674.416   192625351.752        -204.850          48.000    36991662.614   148950093.168        -158.338          48.000  
C24  21803078.402   113534354.603        -803.266          50.000                                                                  
C26  24307821.342   126577197.324       -2551.858          44.000                                                                  
G03  22886979.100   120271889.446          48.273          39.000    22886973.313    93718334.954          37.697          39.000  
G16  22572206.942   118617751.758        3067.724          42.000                                                                  
C09  37717271.183   196403729.204        -161.724          43.000    37717256.958   151871763.964        -124.758          48.000  
C25  23724421.361   123539290.159        1622.675          46.000                                                                  
C13  38257966.624   199219269.115       -2239.033          42.000    38257961.119   154048955.210       -1731.382          44.000  
C08  39078026.253   203489529.502       -2445.836          37.000    39078014.899   157350951.043       -1891.459          43.000  
C10  40541003.825   211107646.774         927.155          33.000    40541005.695   163241881.141         716.499          38.000  
C35  25975057.714   135258954.592         498.964          37.000                                                                  
G25  24212382.645   127236917.964       -3905.840          35.000    24212374.321    99145625.351       -3043.649          36.000  
> 2025 10 30 06 16 05.7600000  0 21                     
G32  21886252.276   115013032.262       -2812.578          46.000    21886245.916    89620516.590       -2191.979          42.000  
G29  23048641.516   121121440.546        -428.713          42.000    23048632.088    94380307.626        -334.288          41.000  
G28  21198352.790   111398096.699       -1133.908          46.000    21198342.625    86803670.767        -883.536          47.000  
G26  20379730.875   107096206.310         822.224          48.000    20379723.959    83451570.124         640.769          46.000  
G31  20632069.315   108422252.151         221.961          47.000    20632058.592    84484830.615         172.845          46.000  
G04  24641530.918   129492114.623        3193.495          35.000    24641529.616   100902953.779        2488.573          41.000  
C33  22474859.663   117032488.924        -553.606          50.000                                                                  
C06  36565299.067   190405107.619        -171.528          45.000    36565281.749   147233236.111        -132.412          48.000  
C14  22567633.427   117515576.968       -2138.107          46.000    22567618.928    90870445.008       -1653.381          51.000  
C16  36991676.010   192625359.936        -204.718          48.000    36991664.184   148950099.502        -158.396          48.000  
C24  21803084.583   113534386.734        -803.311          50.000                                                                  
C26  24307840.951   126577299.387       -2551.652          44.000                                                                  
G03  22886978.752   120271887.523          48.067          39.000    22886972.931    93718333.448          37.667          39.000  
G16  22572183.609   118617629.059        3067.644          42.000                                                                  
C09  37717272.424   196403735.658        -161.517          43.000    37717258.192   151871768.958        -124.818          48.000  
C25  23724408.912   123539225.244        1622.785          46.000                                                                  
C13  38257983.834   199219358.662       -2238.778          42.000    38257978.299   154049024.464       -1731.444          44.000  
C08  39078045.037   203489627.327       -2445.739          37.000    39078033.686   157351026.686       -1891.259          43.000  
C10  40540996.707   211107609.692         927.098          33.000    40540998.583   163241852.449         716.974          38.000  
C35  25975053.898   135258934.637         498.897          37.000                                                                  
G25  24212412.375   127237074.194       -3905.775          35.000    24212404.039    99145747.086       -3043.511          36.000  
> 2025 10 30 06 16 05.8000000  0 21                     
G32  21886273.692   115013144.778       -2812.843          46.000    21886267.327    89620604.245       -2191.660          42.000  
G29  23048644.767   121121457.698        -428.768          42.000    23048635.342    94380320.986        -334.191          41.000  
G28  21198361.442   111398142.064       -1134.065          46.000    21198351.242    86803706.113        -883.604          47.000  
G26  20379724.604   107096173.421         822.151          48.000    20379717.701    83451544.495         640.708          46.000  
G31  20632067.627   108422243.289         221.646          47.000    20632056.902    84484823.708         172.716          46.000  
G04  24641506.635   129491986.906        3193.066          35.000    24641505.321   100902854.260        2488.147          41.000  
C33  22474863.907   117032511.070        -553.662          50.000                                                                  
C06  36565300.381   190405114.466        -171.361          45.000    36565283.087   147233241.415        -132.548          48.000  
C14  22567649.856   117515662.495       -2138.183          46.000    22567635.388    90870511.146       -1653.481          51.000  
C16  36991677.594   192625368.128        -204.764          48.000    36991665.730   148950105.840        -158.477          48.000  
C24  21803090.741   113534418.870        -803.392          50.000                                                                  
C26  24307860.533   126577401.471       -2551.935          44.000                                                                  
G03  22886978.368   120271885.595          48.090          39.000    22886972.582    93718331.956          37.354          39.000  
G16  22572160.267   118617506.364        3067.463          42.000                                                                  
C09  37717273.668   196403742.122        -161.588          43.000    37717259.429   151871773.961        -125.021          48.000  
C25  23724396.433   123539160.344        1622.547          46.000                                                                  
C13  38258001.018   199219448.224       -2238.910          41.000    38257995.532   154049093.723       -1731.523          44.000  
C08  39078063.832   203489725.166       -2445.957          37.000    39078052.439   157351102.322       -1891.022          43.000  
C10  40540989.601   211107572.637         926.559          33.000    40540991.449   163241823.785         716.749          38.000  
C35  25975050.059   135258914.678         498.975          37.000                                                                  
G25  24212442.096   127237230.416       -3905.636          35.000    24212433.763    99145868.825       -3043.468          36.000  
> 2025 10 30 06 16 05.8400000  0 21                     
G32  21886295.108   115013257.291       -2812.919          46.000    21886288.729    89620691.911       -2191.657          42.000  
G29  23048648.046   121121474.848        -428.794          42.000    23048638.605    94380334.344        -334.045          41.000  
G28  21198370.071   111398187.424       -1134.063          46.000    21198359.877    86803741.452        -883.551          47.000  
G26  20379718.317   107096140.532         822.146          48.000    20379711.454    83451518.866         640.658          46.000  
G31  20632065.946   108422234.430         221.450          47.000    20632055.210    84484816.802         172.630          46.000  
G04  24641482.320   129491859.141        3193.624          35.000    24641481.020   100902754.726        2488.213          41.000  
C33  22474868.157   117032533.218        -553.732          50.000                                                                  
C06  36565301.715   190405121.323        -171.434          45.000    36565284.435   147233246.714        -132.512          48.000  
C14  22567666.284   117515748.030       -2138.353          46.000    22567651.827    90870577.280       -1653.435          51.000  
C16  36991679.147   192625376.321        -204.841          48.000    36991667.316   148950112.180        -158.505          48.000  
C24  21803096.915   113534451.005        -803.388          50.000                                                                  
C26  24307880.102   126577503.547       -2551.971          44.000                                                                  
G03  22886978.004   120271883.680          47.898          39.000    22886972.233    93718330.455          37.428          39.000  
G16  22572136.918   118617383.691        3066.990          42.000                                                                  
C09  37717274.915   196403748.595        -161.784          43.000    37717260.685   151871778.960        -125.024          48.000  
C25  23724383.989   123539095.433        1622.644          46.000                                                                  
C13  38258018.204   199219537.791       -2239.122          42.000    38258012.737   154049162.972       -1731.360          44.000  
C08  39078082.606   203489822.983       -2445.711          37.000    39078071.260   157351177.977       -1891.180          43.000  
C10  40540982.477   211107535.534         927.123          33.000    40540984.333   163241795.096         717.068          38.000  
C35  25975046.215   135258894.716         499.108          37.000                                                                  
G25  24212471.815   127237386.651       -3905.766          35.000    24212463.484    99145990.573       -3043.668          35.000  
> 2025 10 30 06 16 05.8800000  0 21                     
G32  21886316.522   115013369.810       -2813.004          46.000    21886310.122    89620779.578       -2191.691          42.000  
G29  23048651.296   121121492.000        -428.824          42.000    23048641.885    94380347.712        -334.166          41.000  
G28  21198378.709   111398232.780       -1133.974          46.000    21198368.535    86803776.801        -883.666          47.000  
G26  20379712.075   107096107.643         822.166          48.000    20379705.206    83451493.241         640.578          46.000  
G31  20632064.223   108422225.572         221.359          47.000    20632053.540    84484809.890         172.729          46.000  
G04  24641458.026   129491731.417        3193.317          35.000    24641456.717   100902655.192        2488.264          41.000  
C33  22474872.419   117032555.370        -553.825          50.000                                                                  
C06  36565303.036   190405128.176        -171.399          45.000    36565285.758   147233252.022        -132.664          48.000  
C14  22567682.714   117515833.558       -2138.292          46.000    22567668.233    90870643.419       -1653.491          51.000  
C16  36991680.731   192625384.511        -204.800          48.000    36991668.916   148950118.514        -158.451          48.000  
C24  21803103.124   113534483.138        -803.365          50.000                                                                  
C26  24307899.698   126577605.627       -2552.028          44.000                                                                  
G03  22886977.642   120271881.743          48.208          39.000    22886971.882    93718328.959          37.393          39.000  
G16  22572113.573   118617261.006        3066.959          42.000                                                                  
C09  37717276.138   196403755.053        -161.597          43.000    37717261.958   151871783.964        -125.124          48.000  
C25  23724371.538   123539030.523        1622.681          46.000                                                                  
C13  38258035.415   199219627.357       -2239.220          41.000    38258029.899   154049232.222       -1731.305          44.000  
C08  39078101.378   203489920.837       -2446.148          37.000    39078090.071   157351253.644       -1891.569          43.000  
C10  40540975.358   211107498.428         927.664          33.000    40540977.189   163241766.425         716.899          38.000  
C35  25975042.382   135258874.775         498.768          37.000                                                                  
G25  24212501.539   127237542.904       -3906.128          35.000    24212493.225    99146112.321       -3043.776          36.000  
> 2025 10 30 06 16 05.9200000  0 21                     
G32  21886337.926   115013482.323       -2812.934          46.000    21886331.537    89620867.254       -2191.824          42.000  
G29  23048654.561   121121509.157        -428.956          42.000    23048645.155    94380361.088        -334.391          41.000  
G28  21198387.351   111398278.142       -1134.056          46.000    21198377.168    86803812.156        -883.864          47.000  
G26  20379705.842   107096074.758         822.098          48.000    20379698.956    83451467.619         640.504          46.000  
G31  20632062.530   108422216.705         221.539          47.000    20632051.854    84484802.977         172.809          46.000  
G04  24641433.713   129491603.702        3192.935          35.000    24641432.415   100902555.648        2488.473          41.000  
C33  22474876.649   117032577.524        -553.880          50.000                                                                  
C06  36565304.344   190405135.040        -171.561          45.000    36565287.067   147233257.320        -132.552          48.000  
C14  22567699.127   117515919.093       -2138.412          46.000    22567684.662    90870709.551       -1653.381          51.000  
C16  36991682.303   192625392.700        -204.763          48.000    36991670.490   148950124.839        -158.226          48.000  
C24  21803109.321   113534515.267        -803.268          50.000                                                                  
C26  24307919.292   126577707.697       -2551.865          44.000                                                                  
G03  22886977.278   120271879.801          48.489          39.000    22886971.502    93718327.445          37.701          39.000  
G16  22572090.230   118617138.305        3067.281          42.000                                                                  
C09  37717277.382   196403761.509        -161.464          43.000    37717263.199   151871788.968        -125.146          48.000  
C25  23724359.059   123538965.620        1622.571          46.000                                                                  
C13  38258052.616   199219716.927       -2239.293          41.000    38258047.090   154049301.481       -1731.443          44.000  
C08  39078120.166   203490018.667       -2445.986          37.000    39078108.890   157351329.307       -1891.649          43.000  
C10  40540968.260   211107461.364         927.151          33.000    40540970.044   163241737.746         716.976          38.000  
C35  25975038.544   135258854.814         498.985          37.000                                                                  
G25  24212531.285   127237699.133       -3905.895          35.000    24212522.946    99146234.074       -3043.871          36.000  
> 2025 10 30 06 16 05.9600000  0 21                     
G32  21886359.342   115013594.826       -2812.720          46.000    21886352.955    89620954.938       -2192.046          42.000  
G29  23048657.828   121121526.318        -429.080          42.000    23048648.433    94380374.462        -334.425          41.000  
G28  21198395.984   111398323.500       -1134.029          46.000    21198385.785    86803847.500        -883.750          47.000  
G26  20379699.577   107096041.866         822.198          48.000    20379692.702    83451441.988         640.630          46.000  
G31  20632060.818   108422207.834         221.736          47.000    20632050.177    84484796.068         172.760          46.000  
G04  24641409.386   129491475.919        3193.968          35.000    24641408.127   100902456.100        2488.705          41.000  
C33  22474880.896   117032599.675        -553.871          50.000                                                                  
C06  36565305.644   190405141.897        -171.495          45.000    36565288.359   147233262.624        -132.605          48.000  
C14  22567715.561   117516004.625       -2138.417          46.000    22567701.090    90870775.688       -1653.400          51.000  
C16  36991683.830   192625400.890        -204.777          48.000    36991672.067   148950131.172        -158.269          48.000  
C24  21803115.505   113534547.399        -803.270          50.000                                                                  
C26  24307938.892   126577809.771       -2551.841          44.000                                                                  
G03  22886976.926   120271877.886          48.140          39.000    22886971.139    93718325.951          37.491          39.000  
G16  22572066.887   118617015.606        3067.425          42.000                                                                  
C09  37717278.625   196403767.973        -161.543          43.000    37717264.436   151871793.957        -124.873          48.000  
C25  23724346.604   123538900.711        1622.608          45.000                                                                  
C13  38258069.825   199219806.487       -2239.136          41.000    38258064.295   154049370.742       -1731.547          44.000  
C08  39078138.936   203490116.512       -2446.083          37.000    39078127.685   157351404.958       -1891.423          43.000  
C10  40540961.165   211107424.264         927.468          33.000    40540962.909   163241709.077         716.770          38.000  
C35  25975034.697   135258834.843         499.247          37.000                                                                  
G25  24212561.039   127237855.379       -3906.118          35.000    24212552.693    99146355.828       -3043.962          36.000  
> 2025 10 30 06 16 06.0000000  0 21                     
G32  21886380.768   115013707.345       -2812.899          46.000    21886374.357    89621042.608       -2191.898          42.000  
G29  23048661.106   121121543.483        -429.197          42.000    23048651.706    94380387.828        -334.271          41.000  
G28  21198404.610   111398368.876       -1134.344          46.000    21198394.420    86803882.851        -883.809          47.000  
G26  20379693.326   107096008.989         821.973          48.000    20379686.433    83451416.371         640.462          46.000  
G31  20632059.142   108422198.973         221.656          47.000    20632048.514    84484789.173         172.451          46.000  
G04  24641385.082   129491348.185        3193.692          35.000    24641383.822   100902356.581        2488.281          41.000  
C33  22474885.165   117032621.829        -553.902          50.000                                                                  
C06  36565306.961   190405148.754        -171.469          45.000    36565289.644   147233267.925        -132.600          48.000  
C14  22567731.991   117516090.153       -2138.327          46.000    22567717.492    90870841.833       -1653.598          51.000  
C16  36991685.346   192625409.092        -205.004          48.000    36991673.629   148950137.508        -158.361          48.000  
C24  21803121.673   113534579.542        -803.494          50.000                                                                  
C26  24307958.475   126577911.852       -2551.990          44.000                                                                  
G03  22886976.582   120271875.963          48.054          39.000    22886970.763    93718324.470          37.056          39.000  
G16  22572043.561   118616892.918        3067.301          42.000                                                                  
C09  37717279.832   196403774.445        -161.727          43.000    37717265.670   151871798.957        -124.932          48.000  
C25  23724334.142   123538835.810        1622.504          45.000                                                                  
C13  38258087.033   199219896.056       -2239.224          41.000    38258081.498   154049439.999       -1731.534          44.000  
C08  39078157.747   203490214.360       -2446.158          37.000    39078146.488   157351480.604       -1891.247          43.000  
C10  40540954.060   211107387.190         927.159          33.000    40540955.810   163241680.432         716.174          38.000  
C35  25975030.857   135258814.897         498.878          37.000                                                                  
G25  24212590.762   127238011.633       -3906.316          35.000    24212582.428    99146477.566       -3043.718          36.000  
> 2025 10 30 06 16 06.0400000  0 21                     
G32  21886402.201   115013819.865       -2813.033          46.000    21886395.771    89621130.284       -2191.917          42.000  
G29  23048664.379   121121560.642        -429.118          42.000    23048654.959    94380401.201        -334.291          41.000  
G28  21198413.224   111398414.239       -1134.265          46.000    21198403.035    86803918.194        -883.685          47.000  
G26  20379687.094   107095976.108         821.969          48.000    20379680.181    83451390.750         640.476          46.000  
G31  20632057.476   108422190.108         221.618          47.000    20632046.831    84484782.270         172.471          46.000  
G04  24641360.786   129491220.453        3193.536          35.000    24641359.501   100902257.049        2488.238          41.000  
C33  22474889.372   117032643.985        -553.912          50.000                                                                  
C06  36565308.302   190405155.611        -171.428          45.000    36565290.954   147233273.232        -132.677          48.000  
C14  22567748.405   117516175.690       -2138.422          46.000    22567733.924    90870907.975       -1653.627          51.000  
C16  36991686.912   192625417.291        -205.043          48.000    36991675.219   148950143.846        -158.437          48.000  
C24  21803127.802   113534611.685        -803.606          50.000                                                                  
C26  24307978.061   126578013.943       -2552.244          44.000                                                                  
G03  22886976.224   120271874.059          47.666          39.000    22886970.409    93718322.976          37.131          39.000  
G16  22572020.223   118616770.239        3067.041          42.000                                                                  
C09  37717281.064   196403780.917        -161.865          43.000    37717266.912   151871803.956        -124.958          48.000  
C25  23724321.664   123538770.910        1622.449          45.000                                                                  
C13  38258104.252   199219985.617       -2239.130          41.000    38258098.696   154049509.263       -1731.626          44.000  
C08  39078176.547   203490312.207       -2446.219          37.000    39078165.265   157351556.256       -1891.241          43.000  
C10  40540946.937   211107350.118         926.880          33.000    40540948.697   163241651.749         716.681          38.000  
C35  25975027.011   135258794.968         498.372          37.000                                                                  
G25  24212620.507   127238167.883       -3906.381          35.000    24212612.149    99146599.283       -3043.187          36.000  
> 2025 10 30 06 16 06.0800000  0 21                     
G32  21886423.603   115013932.382       -2813.017          46.000    21886417.191    89621217.961       -2191.943          42.000  
G29  23048667.665   121121577.809        -429.218          42.000    23048658.210    94380414.571        -334.298          41.000  
G28  21198421.855   111398459.603       -1134.208          46.000    21198411.662    86803953.546        -883.767          47.000  
G26  20379680.849   107095943.222         822.045          48.000    20379673.926    83451365.124         640.563          46.000  
G31  20632055.816   108422181.244         221.575          47.000    20632045.128    84484775.361         172.620          46.000  
G04  24641336.491   129491092.706        3193.555          35.000    24641335.198   100902157.512        2488.313          41.000  
C33  22474893.656   117032666.141        -553.936          50.000                                                                  
C06  36565309.622   190405162.457        -171.240          45.000    36565292.244   147233278.533        -132.616          48.000  
C14  22567764.838   117516261.221       -2138.344          46.000    22567750.357    90870974.117       -1653.619          51.000  
C16  36991688.483   192625425.479        -204.858          48.000    36991676.808   148950150.183        -158.462          48.000  
C24  21803133.991   113534643.826        -803.607          49.000                                                                  
C26  24307997.690   126578116.022       -2552.163          44.000                                                                  
G03  22886975.855   120271872.139          47.757          39.000    22886970.047    93718321.493          37.009          39.000  
G16  22571996.854   118616647.545        3067.197          42.000                                                                  
C09  37717282.313   196403787.390        -161.919          43.000    37717268.122   151871808.959        -125.061          48.000  
C25  23724309.203   123538706.008        1622.455          45.000                                                                  
C13  38258121.441   199220075.175       -2238.943          41.000    38258115.887   154049578.514       -1731.440          44.000  
C08  39078195.346   203490410.031       -2445.822          37.000    39078184.057   157351631.908       -1891.244          43.000  
C10  40540939.806   211107313.066         926.436          33.000    40540941.583   163241623.068         717.019          38.000  
C35  25975023.204   135258775.027         498.340          37.000                                                                  
G25  24212650.250   127238324.126       -3906.237          35.000    24212641.865    99146721.037       -3043.534          36.000  
> 2025 10 30 06 16 06.1200000  0 21                     
G32  21886444.997   115014044.893       -2812.858          46.000    21886438.606    89621305.622       -2191.637          42.000  
G29  23048670.924   121121594.961        -428.958          42.000    23048661.474    94380427.941        -334.298          41.000  
G28  21198430.499   111398504.968       -1134.157          46.000    21198420.281    86803988.887        -883.611          47.000  
G26  20379674.579   107095910.338         822.088          48.000    20379667.655    83451339.499         640.594          46.000  
G31  20632054.150   108422172.383         221.513          47.000    20632043.442    84484768.450         172.730          46.000  
G04  24641312.211   129490964.988        3193.098          35.000    24641310.868   100902057.973        2488.391          41.000  
C33  22474897.920   117032688.292        -553.847          50.000                                                                  
C06  36565310.928   190405169.313        -171.318          45.000    36565293.536   147233283.829        -132.472          48.000  
C14  22567781.269   117516346.756       -2138.363          46.000    22567766.786    90871040.252       -1653.452          51.000  
C16  36991690.066   192625433.670        -204.795          48.000    36991678.371   148950156.514        -158.369          48.000  
C24  21803140.139   113534675.956        -803.393          49.000                                                                  
C26  24308017.330   126578218.096       -2551.993          44.000                                                                  
G03  22886975.480   120271870.211          48.044          39.000    22886969.674    93718319.964          37.885          39.000  
G16  22571973.496   118616524.860        3067.142          42.000                                                                  
C09  37717283.561   196403793.847        -161.650          43.000    37717269.351   151871813.959        -125.060          48.000  
C25  23724296.743   123538641.103        1622.534          45.000                                                                  
C13  38258138.648   199220164.731       -2238.845          41.000    38258133.080   154049647.761       -1731.247          44.000  
C08  39078214.129   203490507.861       -2445.683          37.000    39078202.828   157351707.572       -1891.487          43.000  
C10  40540932.704   211107275.988         926.692          33.000    40540934.422   163241594.375         717.303          38.000  
C35  25975019.377   135258755.076         498.570          37.000                                                                  
G25  24212679.961   127238480.348       -3905.738          35.000    24212671.591    99146842.772       -3043.433          36.000  
> 2025 10 30 06 16 06.1600000  0 21                     
G32  21886466.422   115014157.418       -2813.082          46.000    21886460.021    89621393.307       -2191.954          42.000  
G29  23048674.186   121121612.120        -428.960          42.000    23048664.752    94380441.315        -334.367          41.000  
G28  21198439.125   111398550.334       -1134.194          46.000    21198428.896    86804024.239        -883.735          47.000  
G26  20379668.332   107095877.453         822.107          48.000    20379661.393    83451313.875         640.587          46.000  
G31  20632052.482   108422163.521         221.514          47.000    20632041.764    84484761.545         172.625          46.000  
G04  24641287.908   129490837.254        3193.186          35.000    24641286.562   100901958.442        2488.305          41.000  
C33  22474902.173   117032710.449        -553.931          49.000                                                                  
C06  36565312.213   190405176.176        -171.484          45.000    36565294.842   147233289.129        -132.496          48.000  
C14  22567797.698   117516432.288       -2138.317          46.000    22567783.205    90871106.394       -1653.511          51.000  
C16  36991691.694   192625441.854        -204.655          48.000    36991679.920   148950162.849        -158.369          48.000  
C24  21803146.333   113534708.092        -803.363          49.000                                                                  
C26  24308036.941   126578320.171       -2551.941          44.000                                                                  
G03  22886975.120   120271868.291          48.042          39.000    22886969.309    93718318.471          37.665          39.000  
G16  22571950.156   118616402.171        3067.147          42.000                                                                  
C09  37717284.782   196403800.300        -161.378          43.000    37717270.582   151871818.951        -124.907          48.000  
C25  23724284.284   123538576.198        1622.595          45.000                                                                  
C13  38258155.822   199220254.295       -2238.958          41.000    38258150.286   154049717.015       -1731.274          44.000  
C08  39078232.922   203490605.712       -2445.997          37.000    39078221.609   157351783.221       -1891.368          43.000  
C10  40540925.584   211107238.879         927.324          33.000    40540927.289   163241565.726         716.669          38.000  
C35  25975015.553   135258735.104         499.188          36.000                                                                  
G25  24212709.678   127238636.582       -3905.721          35.000    24212701.316    99146964.531       -3043.913          36.000  
> 2025 10 30 06 16 06.2000000  0 21                     
G32  21886487.813   115014269.934       -2813.006          46.000    21886481.434    89621480.983       -2191.896          42.000  
G29  23048677.458   121121629.280        -428.973          42.000    23048668.010    94380454.693        -334.473          41.000  
G28  21198447.754   111398595.694       -1134.081          46.000    21198437.522    86804059.588        -883.734          47.000  
G26  20379662.082   107095844.577         821.938          48.000    20379655.151    83451288.261         640.381          46.000  
G31  20632050.776   108422154.656         221.588          47.000    20632040.079    84484754.640         172.613          46.000  
G04  24641263.614   129490709.522        3193.266          35.000    24641262.252   100901858.915        2488.216          41.000  
C33  22474906.435   117032732.611        -554.031          49.000                                                                  
C06  36565313.516   190405183.038        -171.588          45.000    36565296.166   147233294.433        -132.562          48.000  
C14  22567814.128   117516517.828       -2138.431          46.000    22567799.646    90871172.533       -1653.472          51.000  
C16  36991693.259   192625450.052        -204.801          48.000    36991681.504   148950169.185        -158.416          48.000  
C24  21803152.489   113534740.230        -803.407          49.000                                                                  
C26  24308056.537   126578422.253       -2552.029          44.000                                                                  
G03  22886974.745   120271866.370          47.982          39.000    22886968.936    93718316.972          37.561          39.000  
G16  22571926.825   118616279.477        3067.242          42.000                                                                  
C09  37717285.997   196403806.763        -161.473          43.000    37717271.845   151871823.948        -124.908          48.000  
C25  23724271.798   123538511.297        1622.534          45.000                                                                  
C13  38258173.037   199220343.860       -2239.115          41.000    38258167.485   154049786.276       -1731.429          44.000  
C08  39078251.695   203490703.557       -2446.137          37.000    39078240.405   157351858.877       -1891.387          43.000  
C10  40540918.448   211107201.787         927.531          33.000    40540920.190   163241537.046         716.838          38.000  
C35  25975011.710   135258715.159         498.948          36.000                                                                  
G25  24212739.391   127238792.825       -3905.918          35.000    24212731.064    99147086.294       -3044.155          36.000  
> 2025 10 30 06 16 06.2400000  0 21                     
G32  21886509.215   115014382.452       -2812.972          45.000    21886502.834    89621568.655       -2191.818          42.000  
G29  23048680.732   121121646.444        -429.068          42.000    23048671.277    94380468.077        -334.616          41.000  
G28  21198456.372   111398641.054       -1134.061          46.000    21198446.145    86804094.938        -883.788          47.000  
G26  20379655.826   107095811.695         822.002          48.000    20379648.889    83451262.638         640.439          46.000  
G31  20632049.091   108422145.796         221.520          47.000    20632038.372    84484747.732         172.656          46.000  
G04  24641239.296   129490581.752        3193.928          35.000    24641237.935   100901759.379        2488.296          41.000  
C33  22474910.673   117032754.767        -553.998          49.000                                                                  
C06  36565314.825   190405189.894        -171.523          45.000    36565297.504   147233299.735        -132.589          48.000  
C14  22567830.556   117516603.364       -2138.424          46.000    22567816.059    90871238.676       -1653.549          51.000  
C16  36991694.856   192625458.242        -204.808          47.000    36991683.046   148950175.518        -158.397          48.000  
C24  21803158.639   113534772.367        -803.435          49.000                                                                  
C26  24308076.146   126578524.334       -2552.040          44.000                                                                  
G03  22886974.357   120271864.459          47.723          39.000    22886968.562    93718315.494          37.076          39.000  
G16  22571903.491   118616156.803        3066.956          41.000                                                                  
C09  37717287.235   196403813.229        -161.575          43.000    37717273.084   151871828.945        -124.928          48.000  
C25  23724259.334   123538446.393        1622.559          45.000                                                                  
C13  38258190.245   199220433.439       -2239.425          41.000    38258184.668   154049855.538       -1731.566          44.000  
C08  39078270.478   203490801.388       -2445.941          37.000    39078259.181   157351934.529       -1891.378          43.000  
C10  40540911.325   211107164.695         927.489          33.000    40540913.052   163241508.380         716.653          38.000  
C35  25975007.880   135258695.200         499.028          36.000                                                                  
G25  24212769.120   127238949.066       -3906.036          35.000    24212760.789    99147208.044       -3044.010          36.000  
> 2025 10 30 06 16 06.2800000  0 21                     
G32  21886530.604   115014494.976       -2813.077          45.000    21886524.247    89621656.346       -2192.143          42.000  
G29  23048684.013   121121663.619        -429.299          42.000    23048674.569    94380481.447        -334.431          41.000  
G28  21198465.021   111398686.425       -1134.243          46.000    21198454.770    86804130.286        -883.758          47.000  
G26  20379649.595   107095778.820         821.909          48.000    20379642.623    83451237.020         640.415          46.000  
G31  20632047.425   108422136.943         221.342          47.000    20632036.687    84484740.831         172.532          46.000  
G04  24641214.998   129490454.044        3193.042          35.000    24641213.631   100901659.845        2488.322          41.000  
C33  22474914.901   117032776.930        -554.099          49.000                                                                  
C06  36565316.140   190405196.749        -171.434          45.000    36565298.839   147233305.041        -132.659          48.000  
C14  22567846.952   117516688.900       -2138.430          46.000    22567832.507    90871304.823       -1653.656          51.000  
C16  36991696.427   192625466.442        -204.976          47.000    36991684.614   148950181.853        -158.403          48.000  
C24  21803164.778   113534804.514        -803.629          49.000                                                                  
C26  24308095.743   126578626.417       -2552.113          44.000                                                                  
G03  22886973.993   120271862.562          47.382          39.000    22886968.192    93718314.015          36.900          39.000  
G16  22571880.146   118616034.120        3066.979          41.000                                                                  
C09  37717288.491   196403819.703        -161.771          43.000    37717274.354   151871833.950        -125.067          48.000  
C25  23724246.845   123538381.497        1622.412          45.000                                                                  
C13  38258207.455   199220523.015       -2239.547          41.000    38258201.859   154049924.797       -1731.527          44.000  
C08  39078289.289   203490899.239       -2446.190          37.000    39078277.987   157352010.192       -1891.519          43.000  
C10  40540904.194   211107127.644         926.595          33.000    40540905.933   163241479.697         716.930          38.000  
C35  25975004.056   135258675.273         498.397          36.000                                                                  
G25  24212798.844   127239105.281       -3905.634          35.000    24212790.506    99147329.793       -3043.907          36.000  
> 2025 10 30 06 16 06.3200000  0 21                     
G32  21886552.016   115014607.505       -2813.215          45.000    21886545.678    89621744.031       -2192.188          42.000  
G29  23048687.270   121121680.797        -429.485          42.000    23048677.846    94380494.820        -334.369          41.000  
G28  21198473.650   111398731.789       -1134.203          45.000    21198463.397    86804165.640        -883.822          47.000  
G26  20379643.349   107095745.943         821.878          48.000    20379636.374    83451211.396         640.521          46.000  
G31  20632045.731   108422128.081         221.453          47.000    20632035.001    84484733.924         172.594          46.000  
G04  24641190.707   129490326.312        3193.085          35.000    24641189.321   100901560.312        2488.308          41.000  
C33  22474919.183   117032799.096        -554.173          49.000                                                                  
C06  36565317.444   190405203.618        -171.627          45.000    36565300.166   147233310.345        -132.649          48.000  
C14  22567863.371   117516774.452       -2138.708          46.000    22567848.940    90871370.969       -1653.679          51.000  
C16  36991698.024   192625474.634        -204.907          47.000    36991686.202   148950188.193        -158.487          48.000  
C24  21803170.979   113534836.662        -803.735          49.000                                                                  
C26  24308115.337   126578728.504       -2552.216          44.000                                                                  
G03  22886973.630   120271860.642          47.722          39.000    22886967.825    93718312.526          37.017          39.000  
G16  22571856.799   118615911.435        3067.018          42.000                                                                  
C09  37717289.733   196403826.175        -161.870          43.000    37717275.568   151871838.951        -125.078          48.000  
C25  23724234.384   123538316.597        1622.400          45.000                                                                  
C13  38258224.655   199220612.583       -2239.370          41.000    38258219.082   154049994.059       -1731.601          44.000  
C08  39078308.076   203490997.068       -2445.952          37.000    39078296.775   157352085.849       -1891.509          43.000  
C10  40540897.081   211107090.562         926.737          33.000    40540898.812   163241451.045         716.476          38.000  
C35  25975000.231   135258655.328         498.486          36.000                                                                  
G25  24212828.589   127239261.531       -3905.977          35.000    24212820.253    99147451.530       -3043.581          36.000  
> 2025 10 30 06 16 06.3600000  0 21                     
G32  21886573.437   115014720.022       -2813.056          45.000    21886567.093    89621831.703       -2191.958          42.000  
G29  23048690.510   121121697.959        -429.249          42.000    23048681.098    94380508.196        -334.415          41.000  
G28  21198482.285   111398777.158       -1134.240          45.000    21198472.058    86804200.988        -883.752          47.000  
G26  20379637.073   107095713.063         821.941          48.000    20379630.124    83451185.783         640.378          46.000  
G31  20632044.046   108422119.221         221.497          47.000    20632033.336    84484727.022         172.539          46.000  
G04  24641166.385   129490198.562        3193.420          35.000    24641164.999   100901460.776        2488.375          41.000  
C33  22474923.478   117032821.253        -554.035          49.000                                                                  
C06  36565318.764   190405210.461        -171.288          45.000    36565301.504   147233315.650        -132.654          48.000  
C14  22567879.795   117516859.989       -2138.558          46.000    22567865.386    90871437.114       -1653.665          51.000  
C16  36991699.595   192625482.827        -204.854          47.000    36991687.787   148950194.525        -158.387          48.000  
C24  21803177.154   113534868.800        -803.592          49.000                                                                  
C26  24308134.954   126578830.577       -2552.008          44.000                                                                  
G03  22886973.291   120271858.727          47.849          39.000    22886967.448    93718311.025          37.327          39.000  
G16  22571833.475   118615788.752        3067.064          42.000                                                                  
C09  37717290.968   196403832.638        -161.721          43.000    37717276.838   151871843.944        -124.945          48.000  
C25  23724221.927   123538251.695        1622.473          45.000                                                                  
C13  38258241.841   199220702.133       -2238.940          41.000    38258236.301   154050063.310       -1731.388          43.000  
C08  39078326.851   203491094.915       -2446.121          37.000    39078315.571   157352161.507       -1891.501          43.000  
C10  40540889.991   211107053.502         926.476          33.000    40540891.676   163241422.376         716.552          38.000  
C35  25974996.378   135258635.372         498.765          36.000                                                                  
G25  24212858.320   127239417.788       -3906.309          35.000    24212849.971    99147573.245       -3043.037          36.000  
> 2025 10 30 06 16 06.4000000  0 21                     
G32  21886594.842   115014832.537       -2812.922          45.000    21886588.506    89621919.376       -2191.838          42.000  
G29  23048693.752   121121715.116        -429.010          42.000    23048684.371    94380521.573        -334.484          41.000  
G28  21198490.914   111398822.516       -1134.056          46.000    21198480.691    86804236.340        -883.795          47.000  
G26  20379630.812   107095680.181         822.022          48.000    20379623.870    83451160.160         640.478          46.000  
G31  20632042.344   108422110.355         221.588          47.000    20632031.676    84484720.125         172.447          46.000  
G04  24641142.087   129490070.823        3193.522          35.000    24641140.678   100901361.229        2488.574          41.000  
C33  22474927.769   117032843.411        -553.978          49.000                                                                  
C06  36565320.071   190405217.306        -171.117          45.000    36565302.847   147233320.946        -132.495          48.000  
C14  22567896.239   117516945.527       -2138.489          46.000    22567881.804    90871503.258       -1653.620          51.000  
C16  36991701.138   192625491.006        -204.576          47.000    36991689.367   148950200.859        -158.376          48.000  
C24  21803183.314   113534900.929        -803.353          49.000                                                                  
C26  24308154.548   126578932.652       -2551.930          44.000                                                                  
G03  22886972.914   120271856.806          47.985          39.000    22886967.063    93718309.527          37.450          39.000  
G16  22571810.139   118615666.068        3067.070          42.000                                                                  
C09  37717292.220   196403839.096        -161.544          43.000    37717278.096   151871848.945        -125.009          48.000  
C25  23724209.463   123538186.789        1622.589          45.000                                                                  
C13  38258259.041   199220791.694       -2238.931          41.000    38258253.489   154050132.565       -1731.346          44.000  
C08  39078345.641   203491192.773       -2446.418          37.000    39078334.363   157352237.151       -1891.225          43.000  
C10  40540882.867   211107016.398         927.220          33.000    40540884.571   163241393.684         717.040          38.000  
C35  25974992.543   135258615.427         498.719          36.000                                                                  
G25  24212888.050   127239574.035       -3906.398          35.000    24212879.703    99147694.993       -3043.368          36.000  
> 2025 10 30 06 16 06.4400000  0 21                     
G32  21886616.250   115014945.051       -2812.853          45.000    21886609.927    89622007.060       -2192.010          42.000  
G29  23048697.011   121121732.277        -428.982          42.000    23048687.617    94380534.949        -334.431          41.000  
G28  21198499.556   111398867.878       -1134.005          46.000    21198489.316    86804271.686        -883.701          47.000  
G26  20379624.544   107095647.302         821.971          48.000    20379617.643    83451134.544         640.403          46.000  
G31  20632040.654   108422101.492         221.582          47.000    20632029.996    84484713.216         172.608          46.000  
G04  24641117.776   129489943.088        3193.530          35.000    24641116.375   100901261.696        2488.444          41.000  
C33  22474932.038   117032865.569        -553.935          50.000                                                                  
C06  36565321.389   190405224.155        -171.140          45.000    36565304.188   147233326.241        -132.415          48.000  
C14  22567912.654   117517031.057       -2138.318          46.000    22567898.239    90871569.401       -1653.601          51.000  
C16  36991702.683   192625499.197        -204.667          47.000    36991690.956   148950207.184        -158.196          48.000  
C24  21803189.494   113534933.065        -803.360          49.000                                                                  
C26  24308174.144   126579034.728       -2551.914          44.000                                                                  
G03  22886972.552   120271854.895          47.824          39.000    22886966.688    93718308.031          37.402          39.000  
G16  22571786.768   118615543.373        3067.285          42.000                                                                  
C09  37717293.472   196403845.546        -161.299          43.000    37717279.335   151871853.943        -124.984          48.000  
C25  23724197.031   123538121.883        1622.626          45.000                                                                  
C13  38258276.262   199220881.252       -2238.934          41.000    38258270.690   154050201.816       -1731.266          44.000  
C08  39078364.421   203491290.570       -2445.499          37.000    39078353.143   157352312.817       -1891.508          43.000  
C10  40540875.729   211106979.307         927.377          33.000    40540877.445   163241364.990         717.372          38.000  
C35  25974988.710   135258595.483         498.585          36.000                                                                  
G25  24212917.804   127239730.253       -3905.870          35.000    24212909.441    99147816.739       -3043.550          36.000  
> 2025 10 30 06 16 06.4800000  0 21                     
G32  21886637.669   115015057.584       -2813.188          46.000    21886631.356    89622094.746       -2192.097          42.000  
G29  23048700.291   121121749.448        -429.166          42.000    23048690.877    94380548.328        -334.495          41.000  
G28  21198508.178   111398913.243       -1134.064          46.000    21198497.941    86804307.031        -883.660          47.000  
G26  20379618.285   107095614.425         821.922          48.000    20379611.401    83451108.924         640.441          46.000  
G31  20632038.984   108422092.636         221.459          47.000    20632028.308    84484706.310         172.681          46.000  
G04  24641093.492   129489815.370        3193.264          35.000    24641092.061   100901162.164        2488.360          41.000  
C33  22474936.249   117032887.734        -554.071          50.000                                                                  
C06  36565322.681   190405231.022        -171.472          45.000    36565305.519   147233331.538        -132.386          48.000  
C14  22567929.061   117517116.597       -2138.416          46.000    22567914.657    90871635.548       -1653.667          51.000  
C16  36991704.249   192625507.384        -204.663          47.000    36991692.517   148950213.518        -158.283          48.000  
C24  21803195.651   113534965.207        -803.494          49.000                                                                  
C26  24308193.739   126579136.802       -2551.859          44.000                                                                  
G03  22886972.197   120271852.989          47.687          39.000    22886966.346    93718306.552          37.126          39.000  
G16  22571763.426   118615420.683        3067.347          42.000                                                                  
C09  37717294.708   196403852.009        -161.450          43.000    37717280.595   151871858.937        -124.915          48.000  
C25  23724184.529   123538056.989        1622.418          45.000                                                                  
C13  38258293.467   199220970.818       -2239.064          41.000    38258287.892   154050271.078       -1731.454          44.000  
C08  39078383.199   203491388.418       -2445.914          37.000    39078371.941   157352388.464       -1891.332          43.000  
C10  40540868.615   211106942.239         926.919          33.000    40540870.315   163241336.330         716.863          38.000  
C35  25974984.891   135258575.525         498.799          36.000                                                                  
G25  24212947.548   127239886.487       -3905.819          35.000    24212939.187    99147938.492       -3043.799          36.000  
> 2025 10 30 06 16 06.5200000  0 21                     
G32  21886659.091   115015170.103       -2813.099          45.000    21886652.746    89622182.424       -2192.037          42.000  
G29  23048703.552   121121766.622        -429.303          42.000    23048694.144    94380561.712        -334.568          41.000  
G28  21198516.805   111398958.609       -1134.132          46.000    21198506.561    86804342.388        -883.883          47.000  
G26  20379612.045   107095581.554         821.785          48.000    20379605.134    83451083.306         640.441          46.000  
G31  20632037.298   108422083.779         221.403          47.000    20632026.618    84484699.404         172.675          46.000  
G04  24641069.168   129489687.629        3193.470          35.000    24641067.731   100901062.624        2488.440          41.000  
C33  22474940.513   117032909.898        -554.154          50.000                                                                  
C06  36565324.003   190405237.881        -171.560          45.000    36565306.843   147233336.837        -132.435          48.000  
C14  22567945.488   117517202.138       -2138.459          46.000    22567931.084    90871701.693       -1653.672          51.000  
C16  36991705.790   192625515.578        -204.801          47.000    36991694.083   148950219.853        -158.335          48.000  
C24  21803201.814   113534997.348        -803.543          49.000                                                                  
C26  24308213.366   126579238.880       -2551.936          44.000                                                                  
G03  22886971.831   120271851.091          47.469          39.000    22886965.990    93718305.065          37.116          39.000  
G16  22571740.089   118615297.998        3067.250          42.000                                                                  
C09  37717295.960   196403858.469        -161.509          43.000    37717281.829   151871863.932        -124.877          48.000  
C25  23724172.045   123537992.086        1622.473          45.000                                                                  
C13  38258310.665   199221060.392       -2239.275          41.000    38258305.103   154050340.337       -1731.560          44.000  
C08  39078401.950   203491486.268       -2446.206          37.000    39078390.746   157352464.120       -1891.373          43.000  
C10  40540861.486   211106905.145         927.122          33.000    40540863.223   163241307.665         716.597          38.000  
C35  25974981.053   135258555.578         498.729          37.000                                                                  
G25  24212977.264   127240042.708       -3905.615          35.000    24212968.911    99148060.230       -3043.695          36.000  
> 2025 10 30 06 16 06.5600000  0 21                     
G32  21886680.516   115015282.634       -2813.245          46.000    21886674.136    89622270.097       -2191.883          42.000  
G29  23048706.836   121121783.804        -429.488          42.000    23048697.397    94380575.101        -334.673          41.000  
G28  21198525.442   111399003.989       -1134.403          46.000    21198515.189    86804377.741        -883.890          47.000  
G26  20379605.790   107095548.685         821.687          48.000    20379598.864    83451057.687         640.441          46.000  
G31  20632035.635   108422074.928         221.225          47.000    20632024.945    84484692.504         172.526          46.000  
G04  24641044.862   129489559.859        3194.125          35.000    24641043.414   100900963.093        2488.294          41.000  
C33  22474944.749   117032932.069        -554.292          50.000                                                                  
C06  36565325.327   190405244.736        -171.493          45.000    36565308.156   147233342.145        -132.620          48.000  
C14  22567961.899   117517287.688       -2138.682          46.000    22567947.512    90871767.841       -1653.696          51.000  
C16  36991707.344   192625523.777        -204.966          47.000    36991695.648   148950226.192        -158.444          48.000  
C24  21803208.000   113535029.495        -803.678          49.000                                                                  
C26  24308232.956   126579340.963       -2552.073          44.000                                                                  
G03  22886971.471   120271849.185          47.516          39.000    22886965.634    93718303.577          37.150          39.000  
G16  22571716.772   118615175.319        3067.046          42.000                                                                  
C09  37717297.186   196403864.937        -161.660          43.000    37717283.077   151871868.930        -124.917          48.000  
C25  23724159.581   123537927.185        1622.498          45.000                                                                  
C13  38258327.874   199221149.953       -2239.162          41.000    38258322.286   154050409.586       -1731.391          44.000  
C08  39078420.732   203491584.122       -2446.444          37.000    39078409.518   157352539.778       -1891.433          43.000  
C10  40540854.391   211106868.061         927.170          33.000    40540856.095   163241279.008         716.323          38.000  
C35  25974977.190   135258535.657         498.247          36.000                                                                  
G25  24213006.998   127240198.981       -3906.361          35.000    24212998.644    99148181.979       -3043.800          36.000  
> 2025 10 30 06 16 06.6000000  0 21                     
G32  21886701.911   115015395.157       -2813.176          46.000    21886695.550    89622357.774       -2191.905          42.000  
G29  23048710.117   121121800.987        -429.643          42.000    23048700.652    94380588.479        -334.571          41.000  
G28  21198534.086   111399049.360       -1134.402          46.000    21198523.789    86804413.089        -883.814          47.000  
G26  20379599.535   107095515.814         821.695          48.000    20379592.588    83451032.074         640.347          46.000  
G31  20632033.940   108422066.070         221.306          47.000    20632023.265    84484685.604         172.484          46.000  
G04  24641020.556   129489432.128        3193.686          35.000    24641019.115   100900863.569        2488.150          41.000  
C33  22474949.009   117032954.238        -554.294          50.000                                                                  
C06  36565326.666   190405251.590        -171.405          45.000    36565309.454   147233347.448        -132.609          48.000  
C14  22567978.310   117517373.233       -2138.703          46.000    22567963.918    90871833.988       -1653.708          51.000  
C16  36991708.916   192625531.966        -204.864          47.000    36991697.188   148950232.524        -158.371          48.000  
C24  21803214.212   113535061.640        -803.686          50.000                                                                  
C26  24308252.564   126579443.046       -2552.100          44.000                                                                  
G03  22886971.114   120271847.276          47.644          39.000    22886965.280    93718302.100          37.007          39.000  
G16  22571693.432   118615052.645        3066.878          42.000                                                                  
C09  37717298.428   196403871.409        -161.842          43.000    37717284.326   151871873.930        -124.986          48.000  
C25  23724147.112   123537862.288        1622.412          45.000                                                                  
C13  38258345.062   199221239.521       -2239.255          41.000    38258339.518   154050478.840       -1731.385          43.000  
C08  39078439.525   203491681.942       -2445.839          37.000    39078428.294   157352615.430       -1891.408          43.000  
C10  40540847.259   211106831.017         926.514          33.000    40540848.988   163241250.330         716.608          38.000  
C35  25974973.345   135258515.706         498.503          37.000                                                                  
G25  24213036.740   127240355.212       -3906.075          35.000    24213028.390    99148303.693       -3043.158          36.000  
> 2025 10 30 06 16 06.6400000  0 21                     
G32  21886723.334   115015507.680       -2813.139          46.000    21886716.984    89622445.466       -2192.179          42.000  
G29  23048713.370   121121818.156        -429.414          42.000    23048703.935    94380601.849        -334.281          41.000  
G28  21198542.706   111399094.726       -1134.297          46.000    21198532.412    86804448.441        -883.842          47.000  
G26  20379593.271   107095482.943         821.708          48.000    20379586.349    83451006.468         640.161          46.000  
G31  20632032.239   108422057.213         221.374          47.000    20632021.566    84484678.703         172.503          46.000  
G04  24640996.242   129489304.410        3193.099          35.000    24640994.786   100900764.039        2488.197          41.000  
C33  22474953.276   117032976.408        -554.318          50.000                                                                  
C06  36565328.005   190405258.446        -171.378          45.000    36565310.745   147233352.750        -132.620          48.000  
C14  22567994.740   117517458.783       -2138.777          46.000    22567980.341    90871900.135       -1653.707          51.000  
C16  36991710.523   192625540.155        -204.765          47.000    36991698.774   148950238.860        -158.390          48.000  
C24  21803220.401   113535093.778        -803.558          50.000                                                                  
C26  24308272.190   126579545.127       -2552.090          44.000                                                                  
G03  22886970.738   120271845.347          48.096          39.000    22886964.922    93718300.610          37.140          39.000  
G16  22571670.085   118614929.973        3066.768          42.000                                                                  
C09  37717299.697   196403877.869        -161.653          43.000    37717285.574   151871878.924        -124.890          48.000  
C25  23724134.656   123537797.387        1622.504          45.000                                                                  
C13  38258362.268   199221329.088       -2239.261          41.000    38258356.718   154050548.099       -1731.466          44.000  
C08  39078458.316   203491779.795       -2446.143          37.000    39078447.071   157352691.077       -1891.260          43.000  
C10  40540840.128   211106793.902         927.488          33.000    40540841.838   163241221.666         716.559          38.000  
C35  25974969.512   135258495.768         498.400          37.000                                                                  
G25  24213066.468   127240511.464       -3906.348          35.000    24213058.124    99148425.466       -3043.891          36.000  
> 2025 10 30 06 16 06.6800000  0 21                     
G32  21886744.734   115015620.201       -2813.066          46.000    21886738.401    89622533.148       -2192.128          42.000  
G29  23048716.643   121121835.313        -429.036          42.000    23048707.197    94380615.236        -334.575          41.000  
G28  21198551.328   111399140.087       -1134.123          46.000    21198541.053    86804483.792        -883.835          47.000  
G26  20379586.983   107095450.067         821.827          48.000    20379580.084    83450980.850         640.275          46.000  
G31  20632030.524   108422048.346         221.596          47.000    20632019.863    84484671.797         172.614          46.000  
G04  24640971.948   129489176.679        3193.115          35.000    24640970.473   100900664.492        2488.509          41.000  
C33  22474957.544   117032998.572        -554.213          50.000                                                                  
C06  36565329.320   190405265.294        -171.257          45.000    36565312.060   147233358.049        -132.537          48.000  
C14  22568011.156   117517544.325       -2138.641          46.000    22567996.772    90871966.280       -1653.637          51.000  
C16  36991712.116   192625548.337        -204.612          47.000    36991700.308   148950245.188        -158.267          48.000  
C24  21803226.582   113535125.915        -803.448          50.000                                                                  
C26  24308291.817   126579647.197       -2551.904          44.000                                                                  
G03  22886970.356   120271843.438          47.882          39.000    22886964.571    93718299.132          37.040          39.000  
G16  22571646.742   118614807.283        3067.129          42.000                                                                  
C09  37717300.949   196403884.320        -161.367          43.000    37717286.814   151871883.918        -124.865          48.000  
C25  23724122.191   123537732.476        1622.723          45.000                                                                  
C13  38258379.468   199221418.643       -2238.979          41.000    38258373.936   154050617.361       -1731.559          43.000  
C08  39078477.112   203491877.622       -2445.781          37.000    39078465.832   157352766.739       -1891.437          43.000  
C10  40540833.010   211106756.809         927.513          33.000    40540834.688   163241192.980         717.000          38.000  
C35  25974965.676   135258475.835         498.219          36.000                                                                  
G25  24213096.180   127240667.702       -3906.204          35.000    24213087.851    99148547.201       -3043.581          35.000  
> 2025 10 30 06 16 06.7200000  0 21                     
G32  21886766.131   115015732.724       -2813.047          46.000    21886759.815    89622620.829       -2192.039          42.000  
G29  23048719.919   121121852.483        -429.091          42.000    23048710.476    94380628.619        -334.664          41.000  
G28  21198559.945   111399185.441       -1133.907          46.000    21198549.675    86804519.135        -883.666          47.000  
G26  20379580.707   107095417.181         822.075          48.000    20379573.802    83450955.228         640.456          46.000  
G31  20632028.825   108422039.482         221.644          47.000    20632018.160    84484664.891         172.657          46.000  
G04  24640947.627   129489048.922        3193.634          35.000    24640946.180   100900564.961        2488.391          41.000  
C33  22474961.820   117033020.729        -554.022          50.000                                                                  
C06  36565330.642   190405272.138        -171.138          45.000    36565313.336   147233363.338        -132.301          48.000  
C14  22568027.602   117517629.860       -2138.439          46.000    22568013.207    90872032.426       -1653.631          51.000  
C16  36991713.684   192625556.522        -204.604          47.000    36991701.845   148950251.518        -158.243          48.000  
C24  21803232.755   113535158.048        -803.348          50.000                                                                  
C26  24308311.402   126579749.271       -2551.849          44.000                                                                  
G03  22886970.020   120271841.539          47.580          39.000    22886964.200    93718297.638          37.260          39.000  
G16  22571623.391   118614684.584        3067.442          42.000                                                                  
C09  37717302.172   196403890.770        -161.212          43.000    37717288.080   151871888.916        -124.930          48.000  
C25  23724109.718   123537667.570        1622.699          45.000                                                                  
C13  38258396.647   199221508.194       -2238.782          41.000    38258391.134   154050686.614       -1731.402          43.000  
C08  39078495.887   203491975.434       -2445.340          37.000    39078484.628   157352842.390       -1891.362          43.000  
C10  40540825.891   211106719.724         927.289          33.000    40540827.571   163241164.287         717.310          38.000  
C35  25974961.859   135258455.892         498.419          36.000                                                                  
G25  24213125.921   127240823.932       -3905.893          35.000    24213117.585    99148668.943       -3043.528          35.000  
> 2025 10 30 06 16 06.7600000  0 21                     
G32  21886787.522   115015845.233       -2812.811          46.000    21886781.246    89622708.496       -2191.750          42.000  
G29  23048723.182   121121869.646        -429.062          42.000    23048713.732    94380641.989        -334.442          41.000  
G28  21198568.557   111399230.803       -1133.931          46.000    21198558.309    86804554.482        -883.628          47.000  
G26  20379574.437   107095384.303         822.016          48.000    20379567.531    83450929.606         640.529          47.000  
G31  20632027.123   108422030.614         221.718          47.000    20632016.461    84484657.980         172.780          46.000  
G04  24640923.316   129488921.167        3193.789          35.000    24640921.854   100900465.418        2488.505          41.000  
C33  22474966.101   117033042.884        -553.879          50.000                                                                  
C06  36565331.943   190405278.986        -171.144          45.000    36565314.614   147233368.624        -132.145          48.000  
C14  22568044.026   117517715.394       -2138.315          46.000    22568029.638    90872098.567       -1653.575          51.000  
C16  36991715.290   192625564.704        -204.563          47.000    36991703.414   148950257.833        -157.970          48.000  
C24  21803238.888   113535190.185        -803.379          50.000                                                                  
C26  24308331.019   126579851.335       -2551.635          44.000                                                                  
G03  22886969.649   120271839.642          47.401          39.000    22886963.825    93718296.146          37.321          39.000  
G16  22571600.036   118614561.891        3067.454          42.000                                                                  
C09  37717303.417   196403897.226        -161.256          43.000    37717289.329   151871893.903        -124.771          48.000  
C25  23724097.209   123537602.664        1622.675          45.000                                                                  
C13  38258413.842   199221597.753       -2238.873          41.000    38258408.330   154050755.859       -1731.172          43.000  
C08  39078514.673   203492073.256       -2445.261          37.000    39078503.400   157352918.039       -1891.254          43.000  
C10  40540818.757   211106682.611         927.542          33.000    40540820.478   163241135.607         717.168          38.000  
C35  25974958.044   135258435.942         498.663          36.000                                                                  
G25  24213155.655   127240980.151       -3905.612          35.000    24213147.308    99148790.694       -3043.667          35.000  
> 2025 10 30 06 16 06.8000000  0 21                     
G32  21886808.946   115015957.756       -2812.954          46.000    21886802.648    89622796.175       -2191.896          42.000  
G29  23048726.423   121121886.808        -429.020          42.000    23048716.985    94380655.374        -334.548          41.000  
G28  21198577.206   111399276.165       -1134.012          46.000    21198566.949    86804589.825        -883.573          47.000  
G26  20379568.203   107095351.429         821.884          48.000    20379561.285    83450903.985         640.559          46.000  
G31  20632025.452   108422021.753         221.606          47.000    20632014.777    84484651.076         172.686          46.000  
G04  24640899.031   129488793.449        3193.228          35.000    24640897.528   100900365.877        2488.542          41.000  
C33  22474970.321   117033065.044        -553.948          50.000                                                                  
C06  36565333.237   190405285.835        -171.201          45.000    36565315.948   147233373.921        -132.280          48.000  
C14  22568060.439   117517800.934       -2138.415          46.000    22568046.073    90872164.713       -1653.615          51.000  
C16  36991716.839   192625572.888        -204.604          47.000    36991705.028   148950264.159        -158.060          48.000  
C24  21803245.059   113535222.322        -803.429          50.000                                                                  
C26  24308350.614   126579953.409       -2551.743          44.000                                                                  
G03  22886969.289   120271837.724          47.732          39.000    22886963.451    93718294.660          37.140          39.000  
G16  22571576.692   118614439.216        3067.062          42.000                                                                  
C09  37717304.621   196403903.686        -161.405          43.000    37717290.570   151871898.893        -124.736          48.000  
C25  23724084.726   123537537.766        1622.498          45.000                                                                  
C13  38258431.037   199221687.306       -2238.836          41.000    38258425.538   154050825.120       -1731.386          43.000  
C08  39078533.473   203492171.087       -2445.551          37.000    39078522.187   157352993.696       -1891.372          43.000  
C10  40540811.632   211106645.510         927.540          33.000    40540813.379   163241106.919         717.222          38.000  
C35  25974954.206   135258415.974         499.164          36.000                                                                  
G25  24213185.353   127241136.375       -3905.685          35.000    24213177.045    99148912.425       -3043.413          35.000  
> 2025 10 30 06 16 06.8400000  0 21                     
G32  21886830.362   115016070.280       -2813.070          46.000    21886824.062    89622883.864       -2192.170          42.000  
G29  23048729.680   121121903.991        -429.404          42.000    23048720.251    94380668.755        -334.568          41.000  
G28  21198585.815   111399321.528       -1134.043          46.000    21198575.578    86804625.174        -883.643          47.000  
G26  20379561.952   107095318.558         821.773          48.000    20379555.011    83450878.373         640.378          46.000  
G31  20632023.762   108422012.893         221.507          47.000    20632013.093    84484644.166         172.698          46.000  
G04  24640874.728   129488665.714        3193.259          35.000    24640873.202   100900266.330        2488.650          41.000  
C33  22474974.563   117033087.213        -554.148          50.000                                                                  
C06  36565334.540   190405292.685        -171.277          45.000    36565317.251   147233379.227        -132.538          48.000  
C14  22568076.846   117517886.473       -2138.448          46.000    22568062.512    90872230.859       -1653.672          51.000  
C16  36991718.408   192625581.072        -204.611          47.000    36991706.600   148950270.492        -158.223          48.000  
C24  21803251.228   113535254.462        -803.465          50.000                                                                  
C26  24308370.194   126580055.489       -2551.923          44.000                                                                  
G03  22886968.939   120271835.815          47.743          39.000    22886963.085    93718293.174          37.117          39.000  
G16  22571553.357   118614316.529        3067.083          42.000                                                                  
C09  37717305.875   196403910.137        -161.308          43.000    37717291.807   151871903.883        -124.757          48.000  
C25  23724072.253   123537472.863        1622.522          45.000                                                                  
C13  38258448.248   199221776.869       -2239.004          41.000    38258442.743   154050894.374       -1731.373          43.000  
C08  39078552.264   203492268.949       -2446.240          37.000    39078541.010   157353069.349       -1891.363          43.000  
C10  40540804.531   211106608.431         927.119          33.000    40540806.243   163241078.246         717.000          38.000  
C35  25974950.360   135258396.040         498.697          36.000                                                                  
G25  24213215.088   127241292.626       -3906.089          35.000    24213206.758    99149034.158       -3043.224          35.000  
> 2025 10 30 06 16 06.8800000  0 21                     
G32  21886851.805   115016182.809       -2813.210          46.000    21886845.458    89622971.546       -2192.171          42.000  
G29  23048732.973   121121921.170        -429.564          42.000    23048723.525    94380682.137        -334.593          41.000  
G28  21198594.468   111399366.896       -1134.147          46.000    21198584.243    86804660.524        -883.726          47.000  
G26  20379555.703   107095285.688         821.719          48.000    20379548.733    83450852.759         640.304          46.000  
G31  20632022.078   108422004.030         221.507          47.000    20632011.413    84484637.259         172.643          46.000  
G04  24640850.413   129488537.927        3194.278          35.000    24640848.884   100900166.783        2488.677          41.000  
C33  22474978.817   117033109.387        -554.324          50.000                                                                  
C06  36565335.878   190405299.530        -171.213          45.000    36565318.586   147233384.525        -132.523          48.000  
C14  22568093.250   117517972.023       -2138.690          46.000    22568078.911    90872297.004       -1653.652          51.000  
C16  36991719.995   192625589.254        -204.572          47.000    36991708.169   148950276.827        -158.377          48.000  
C24  21803257.412   113535286.597        -803.420          50.000                                                                  
C26  24308389.781   126580157.567       -2552.001          44.000                                                                  
G03  22886968.580   120271833.906          47.761          39.000    22886962.722    93718291.693          37.012          39.000  
G16  22571530.023   118614193.846        3067.067          42.000                                                                  
C09  37717307.115   196403916.597        -161.442          43.000    37717293.067   151871908.879        -124.859          48.000  
C25  23724059.808   123537407.954        1622.638          45.000                                                                  
C13  38258465.431   199221866.426       -2238.935          41.000    38258459.922   154050963.614       -1731.125          43.000  
C08  39078571.064   203492366.789       -2446.250          37.000    39078559.795   157353144.999       -1891.318          43.000  
C10  40540797.408   211106571.374         926.517          33.000    40540799.119   163241049.573         716.870          38.000  
C35  25974946.510   135258376.092         498.704          36.000                                                                  
G25  24213244.778   127241448.856       -3906.054          35.000    24213236.492    99149155.915       -3043.754          35.000  
> 2025 10 30 06 16 06.9200000  0 21                     
G32  21886873.224   115016295.335       -2813.231          46.000    21886866.864    89623059.228       -2192.162          42.000  
G29  23048736.246   121121938.339        -429.384          42.000    23048726.788    94380695.511        -334.448          41.000  
G28  21198603.100   111399412.259       -1134.132          46.000    21198592.894    86804695.875        -883.798          47.000  
G26  20379549.421   107095252.812         821.769          48.000    20379542.501    83450827.143         640.343          46.000  
G31  20632020.419   108421995.168         221.489          47.000    20632009.729    84484630.355         172.612          46.000  
G04  24640826.085   129488410.186        3194.016          35.000    24640824.569   100900067.236        2488.673          41.000  
C33  22474983.114   117033131.555        -554.293          50.000                                                                  
C06  36565337.199   190405306.378        -171.193          45.000    36565319.929   147233389.818        -132.415          48.000  
C14  22568109.691   117518057.563       -2138.608          46.000    22568095.331    90872363.152       -1653.709          51.000  
C16  36991721.553   192625597.437        -204.565          47.000    36991709.759   148950283.155        -158.321          48.000  
C24  21803263.581   113535318.729        -803.315          50.000                                                                  
C26  24308409.390   126580259.641       -2551.956          44.000                                                                  
G03  22886968.215   120271831.998          47.761          39.000    22886962.353    93718290.212          36.950          39.000  
G16  22571506.695   118614071.164        3067.043          42.000                                                                  
C09  37717308.352   196403923.058        -161.536          43.000    37717294.303   151871913.870        -124.839          48.000  
C25  23724047.337   123537343.054        1622.504          45.000                                                                  
C13  38258482.615   199221955.988       -2239.047          41.000    38258477.119   154051032.860       -1731.101          43.000  
C08  39078589.855   203492464.623       -2446.113          37.000    39078578.548   157353220.632       -1890.995          43.000  
C10  40540790.301   211106534.301         926.607          33.000    40540791.998   163241020.886         717.082          38.000  
C35  25974942.685   135258356.144         498.706          36.000                                                                  
G25  24213274.527   127241605.063       -3905.601          35.000    24213266.235    99149277.632       -3043.199          35.000  
> 2025 10 30 06 16 06.9600000  0 21                     
G32  21886894.619   115016407.851       -2813.027          46.000    21886888.263    89623146.900       -2191.966          42.000  
G29  23048739.526   121121955.510        -429.347          42.000    23048730.066    94380708.897        -334.580          41.000  
G28  21198611.715   111399457.609       -1133.872          46.000    21198601.534    86804731.224        -883.794          47.000  
G26  20379543.170   107095219.934         821.868          48.000    20379536.251    83450801.526         640.374          46.000  
G31  20632018.721   108421986.300         221.588          47.000    20632008.042    84484623.451         172.582          46.000  
G04  24640801.788   129488282.465        3193.261          35.000    24640800.303   100899967.698        2488.549          41.000  
C33  22474987.370   117033153.716        -554.151          50.000                                                                  
C06  36565338.516   190405313.221        -171.128          45.000    36565321.252   147233395.102        -132.186          48.000  
C14  22568126.142   117518143.100       -2138.494          46.000    22568111.773    90872429.299       -1653.701          51.000  
C16  36991723.127   192625605.613        -204.444          48.000    36991711.337   148950289.484        -158.281          48.000  
C24  21803269.740   113535350.864        -803.350          50.000                                                                  
C26  24308428.999   126580361.698       -2551.591          44.000                                                                  
G03  22886967.835   120271830.098          47.552          39.000    22886962.001    93718288.729          36.944          39.000  
G16  22571483.319   118613948.477        3067.107          42.000                                                                  
C09  37717309.594   196403929.502        -161.262          43.000    37717295.542   151871918.860        -124.774          48.000  
C25  23724034.874   123537278.141        1622.705          45.000                                                                  
C13  38258499.849   199222045.542       -2238.877          41.000    38258494.313   154051102.110       -1731.177          43.000  
C08  39078608.636   203492562.447       -2445.868          37.000    39078597.343   157353296.277       -1891.017          43.000  
C10  40540783.170   211106497.217         926.893          33.000    40540784.865   163240992.214         716.901          38.000  
C35  25974938.844   135258336.199         498.655          36.000                                                                  
G25  24213304.265   127241761.285       -3905.576          35.000    24213295.974    99149399.360       -3043.227          35.000  
> 2025 10 30 06 16 07.0000000  0 21                     
G32  21886916.021   115016520.375       -2813.063          46.000    21886909.674    89623234.583       -2192.040          42.000  
G29  23048742.770   121121972.689        -429.448          42.000    23048733.322    94380722.278        -334.553          41.000  
G28  21198620.365   111399502.976       -1134.052          46.000    21198610.157    86804766.575        -883.834          47.000  
G26  20379536.938   107095187.067         821.694          48.000    20379529.987    83450775.911         640.367          46.000  
G31  20632017.039   108421977.436         221.550          47.000    20632006.344    84484616.541         172.644          46.000  
G04  24640777.489   129488154.735        3192.997          35.000    24640775.983   100899868.170        2488.262          41.000  
C33  22474991.602   117033175.886        -554.221          50.000                                                                  
C06  36565339.852   190405320.068        -171.156          45.000    36565322.598   147233400.398        -132.294          48.000  
C14  22568142.564   117518228.643       -2138.539          46.000    22568128.180    90872495.446       -1653.688          51.000  
C16  36991724.689   192625613.794        -204.467          48.000    36991712.924   148950295.810        -158.203          48.000  
C24  21803275.897   113535383.004        -803.477          50.000                                                                  
C26  24308448.615   126580463.770       -2551.700          44.000                                                                  
G03  22886967.459   120271828.190          47.591          39.000    22886961.637    93718287.247          36.972          39.000  
G16  22571459.982   118613825.796        3067.010          42.000                                                                  
C09  37717310.846   196403935.961        -161.378          43.000    37717296.800   151871923.845        -124.674          48.000  
C25  23724022.399   123537213.234        1622.693          45.000                                                                  
C13  38258517.040   199222135.097       -2238.803          41.000    38258511.494   154051171.367       -1731.402          43.000  
C08  39078627.429   203492660.273       -2445.790          37.000    39078616.132   157353371.944       -1891.483          43.000  
C10  40540776.041   211106460.113         927.398          33.000    40540777.713   163240963.523         717.110          38.000  
C35  25974934.985   135258316.274         498.228          36.000                                                                  
G25  24213334.004   127241917.538       -3906.080          35.000    24213325.721    99149521.103       -3043.478          35.000  
> 2025 10 30 06 16 07.0400000  0 21                     
G32  21886937.421   115016632.896       -2813.065          46.000    21886931.076    89623322.265       -2192.065          42.000  
G29  23048746.024   121121989.853        -429.188          42.000    23048736.589    94380735.651        -334.403          41.000  
G28  21198629.013   111399548.336       -1134.010          46.000    21198618.785    86804801.916        -883.643          47.000  
G26  20379530.646   107095154.197         821.695          48.000    20379523.729    83450750.297         640.343          46.000  
G31  20632015.360   108421968.572         221.582          47.000    20632004.651    84484609.637         172.600          46.000  
G04  24640753.200   129488027.020        3192.624          35.000    24640751.669   100899768.632        2488.304          41.000  
C33  22474995.883   117033198.053        -554.202          50.000                                                                  
C06  36565341.195   190405326.913        -171.152          45.000    36565323.932   147233405.691        -132.322          48.000  
C14  22568159.023   117518314.181       -2138.482          46.000    22568144.611    90872561.589       -1653.638          51.000  
C16  36991726.244   192625621.974        -204.494          48.000    36991714.479   148950302.126        -157.992          48.000  
C24  21803282.070   113535415.142        -803.501          50.000                                                                  
C26  24308468.194   126580565.842       -2551.775          44.000                                                                  
G03  22886967.079   120271826.284          47.585          39.000    22886961.261    93718285.749          37.292          39.000  
G16  22571436.641   118613703.109        3067.081          42.000                                                                  
C09  37717312.079   196403942.418        -161.410          43.000    37717298.052   151871928.835        -124.694          48.000  
C25  23724009.917   123537148.331        1622.620          45.000                                                                  
C13  38258534.264   199222224.645       -2238.712          41.000    38258528.686   154051240.627       -1731.537          43.000  
C08  39078646.221   203492758.110       -2445.867          37.000    39078634.922   157353447.593       -1891.413          43.000  
C10  40540768.880   211106422.994         927.870          33.000    40540770.598   163240934.831         717.240          38.000  
C35  25974931.156   135258296.320         498.624          36.000                                                                  
G25  24213363.736   127242073.779       -3906.140          35.000    24213355.474    99149642.886       -3044.306          35.000  
> 2025 10 30 06 16 07.0800000  0 21                     
G32  21886958.855   115016745.422       -2813.149          46.000    21886952.477    89623409.936       -2191.903          42.000  
G29  23048749.268   121122007.017        -429.091          42.000    23048739.862    94380749.044        -334.726          41.000  
G28  21198637.667   111399593.706       -1134.196          46.000    21198627.439    86804837.264        -883.682          47.000  
G26  20379524.389   107095121.321         821.814          48.000    20379517.473    83450724.684         640.299          46.000  
G31  20632013.639   108421959.706         221.625          47.000    20632002.960    84484602.730         172.631          46.000  
G04  24640728.898   129487899.238        3193.746          35.000    24640727.351   100899669.088        2488.478          41.000  
C33  22475000.186   117033220.215        -554.106          50.000                                                                  
C06  36565342.522   190405333.756        -171.106          45.000    36565325.254   147233410.988        -132.415          48.000  
C14  22568175.399   117518399.728       -2138.629          46.000    22568161.036    90872627.739       -1653.728          51.000  
C16  36991727.817   192625630.154        -204.493          48.000    36991716.046   148950308.450        -158.042          48.000  
C24  21803288.233   113535447.280        -803.476          50.000                                                                  
C26  24308487.801   126580667.910       -2551.749          44.000                                                                  
G03  22886966.731   120271824.379          47.573          39.000    22886960.893    93718284.255          37.364          39.000  
G16  22571413.299   118613580.418        3067.195          42.000                                                                  
C09  37717313.332   196403948.867        -161.316          43.000    37717299.286   151871933.828        -124.791          48.000  
C25  23723997.477   123537083.421        1622.729          45.000                                                                  
C13  38258551.465   199222314.207       -2238.900          41.000    38258545.916   154051309.868       -1731.211          43.000  
C08  39078665.007   203492855.919       -2445.415          37.000    39078653.710   157353523.248       -1891.464          43.000  
C10  40540761.746   211106385.882         927.887          33.000    40540763.473   163240906.159         716.874          38.000  
C35  25974927.318   135258276.390         498.390          36.000                                                                  
G25  24213393.463   127242229.998       -3905.700          35.000    24213385.207    99149764.622       -3043.854          35.000  
> 2025 10 30 06 16 07.1200000  0 21                     
G32  21886980.257   115016857.943       -2813.096          46.000    21886973.876    89623497.620       -2192.042          42.000  
G29  23048752.554   121122024.202        -429.458          42.000    23048743.143    94380762.426        -334.667          41.000  
G28  21198646.295   111399639.068       -1134.147          46.000    21198636.076    86804872.612        -883.696          47.000  
G26  20379518.141   107095088.448         821.813          48.000    20379511.214    83450699.068         640.349          46.000  
G31  20632011.955   108421950.849         221.458          47.000    20632001.284    84484595.826         172.600          46.000  
G04  24640704.573   129487771.465        3194.318          35.000    24640703.045   100899569.550        2488.436          41.000  
C33  22475004.432   117033242.383        -554.179          50.000                                                                  
C06  36565343.867   190405340.592        -170.970          45.000    36565326.564   147233416.273        -132.261          48.000  
C14  22568191.831   117518485.267       -2138.539          46.000    22568177.446    90872693.884       -1653.676          51.000  
C16  36991729.435   192625638.333        -204.508          48.000    36991717.585   148950314.772        -158.017          48.000  
C24  21803294.425   113535479.414        -803.393          50.000                                                                  
C26  24308507.438   126580769.979       -2551.763          44.000                                                                  
G03  22886966.364   120271822.484          47.404          39.000    22886960.518    93718282.768          37.222          39.000  
G16  22571389.958   118613457.728        3067.244          42.000                                                                  
C09  37717314.557   196403955.314        -161.229          43.000    37717300.550   151871938.820        -124.820          48.000  
C25  23723984.984   123537018.508        1622.791          45.000                                                                  
C13  38258568.659   199222403.770       -2239.061          41.000    38258563.127   154051379.129       -1731.456          43.000  
C08  39078683.793   203492953.762       -2445.794          37.000    39078672.496   157353598.887       -1891.142          43.000  
C10  40540754.641   211106348.802         927.324          33.000    40540756.334   163240877.483         716.829          38.000  
C35  25974923.498   135258256.442         498.560          36.000                                                                  
G25  24213423.188   127242386.233       -3905.775          35.000    24213414.917    99149886.321       -3042.924          35.000  
> 2025 10 30 06 16 07.1600000  0 21                     
G32  21887001.674   115016970.467       -2813.095          46.000    21886995.298    89623585.309       -2192.216          42.000  
G29  23048755.819   121122041.386        -429.611          42.000    23048746.401    94380775.812        -334.749          41.000  
G28  21198654.921   111399684.435       -1134.204          46.000    21198644.694    86804907.959        -883.702          47.000  
G26  20379511.892   107095055.579         821.745          48.000    20379504.978    83450673.459         640.225          47.000  
G31  20632010.253   108421941.987         221.464          47.000    20631999.605    84484588.926         172.471          46.000  
G04  24640680.270   129487643.767        3193.106          35.000    24640678.727   100899470.005        2488.532          41.000  
C33  22475008.665   117033264.555        -554.300          50.000                                                                  
C06  36565345.215   190405347.447        -171.239          45.000    36565327.902   147233421.567        -132.351          48.000  
C14  22568208.274   117518570.814       -2138.652          46.000    22568193.859    90872760.036       -1653.778          51.000  
C16  36991731.001   192625646.524        -204.729          48.000    36991719.143   148950321.103        -158.200          48.000  
C24  21803300.557   113535511.556        -803.505          50.000                                                                  
C26  24308527.016   126580872.056       -2551.866          44.000                                                                  
G03  22886966.002   120271820.579          47.488          39.000    22886960.162    93718281.292          36.908          39.000  
G16  22571366.627   118613335.054        3066.938          42.000                                                                  
C09  37717315.782   196403961.775        -161.440          43.000    37717301.790   151871943.817        -124.915          48.000  
C25  23723972.503   123536953.615        1622.449          45.000                                                                  
C13  38258585.834   199222493.333       -2239.116          41.000    38258580.328   154051448.376       -1731.299          43.000  
C08  39078702.583   203493051.598       -2445.854          37.000    39078691.269   157353674.529       -1891.051          43.000  
C10  40540747.517   211106311.765         926.266          33.000    40540749.199   163240848.821         716.540          38.000  
C35  25974919.671   135258236.483         498.913          36.000                                                                  
G25  24213452.921   127242542.460       -3905.708          35.000    24213444.663    99150008.061       -3043.157          35.000  
> 2025 10 30 06 16 07.2000000  0 21                     
G32  21887023.099   115017083.001       -2813.281          46.000    21887016.705    89623672.988       -2192.094          43.000  
G29  23048759.102   121122058.575        -429.823          42.000    23048749.685    94380789.202        -334.802          41.000  
G28  21198663.572   111399729.805       -1134.267          46.000    21198653.344    86804943.311        -883.795          47.000  
G26  20379505.632   107095022.710         821.727          48.000    20379498.715    83450647.850         640.195          47.000  
G31  20632008.559   108421933.130         221.391          47.000    20631997.895    84484582.020         172.552          46.000  
G04  24640655.980   129487516.040        3192.958          35.000    24640654.436   100899370.470        2488.419          41.000  
C33  22475012.921   117033286.733        -554.470          50.000                                                                  
C06  36565346.533   190405354.305        -171.471          45.000    36565329.232   147233426.867        -132.480          48.000  
C14  22568224.682   117518656.369       -2138.875          46.000    22568210.284    90872826.185       -1653.776          51.000  
C16  36991732.581   192625654.711        -204.762          48.000    36991720.691   148950327.435        -158.334          48.000  
C24  21803306.719   113535543.698        -803.562          50.000                                                                  
C26  24308546.629   126580974.131       -2551.908          44.000                                                                  
G03  22886965.665   120271818.696          47.169          39.000    22886959.815    93718279.831          36.549          39.000  
G16  22571343.312   118613212.379        3066.821          42.000                                                                  
C09  37717316.997   196403968.239        -161.628          43.000    37717303.023   151871948.811        -124.888          48.000  
C25  23723960.026   123536888.715        1622.430          45.000                                                                  
C13  38258603.027   199222582.886       -2239.010          41.000    38258597.537   154051517.630       -1731.318          43.000  
C08  39078721.376   203493149.450       -2446.197          37.000    39078710.043   157353750.174       -1891.079          43.000  
C10  40540740.403   211106274.677         926.730          33.000    40540742.081   163240820.135         716.797          38.000  
C35  25974915.866   135258216.542         498.667          36.000                                                                  
G25  24213482.641   127242698.689       -3905.807          35.000    24213474.417    99150129.811       -3043.531          35.000  
> 2025 10 30 06 16 07.2400000  0 21                     
G32  21887044.522   115017195.532       -2813.336          46.000    21887038.119    89623760.679       -2192.241          43.000  
G29  23048762.354   121122075.755        -429.680          42.000    23048752.930    94380802.595        -334.863          41.000  
G28  21198672.220   111399775.177       -1134.316          46.000    21198661.983    86804978.660        -883.788          47.000  
G26  20379499.379   107094989.843         821.659          48.000    20379492.449    83450622.234         640.288          47.000  
G31  20632006.878   108421924.269         221.447          47.000    20631996.206    84484575.120         172.484          46.000  
G04  24640631.670   129487388.252        3194.132          35.000    24640630.113   100899270.929        2488.480          41.000  
C33  22475017.209   117033308.906        -554.434          50.000                                                                  
C06  36565347.864   190405361.152        -171.342          45.000    36565330.518   147233432.160        -132.410          48.000  
C14  22568241.116   117518741.919       -2138.871          46.000    22568226.713    90872892.336       -1653.794          51.000  
C16  36991734.179   192625662.885        -204.539          48.000    36991722.260   148950333.766        -158.329          48.000  
C24  21803312.907   113535575.838        -803.566          50.000                                                                  
C26  24308566.226   126581076.210       -2551.992          44.000                                                                  
G03  22886965.288   120271816.786          47.506          39.000    22886959.465    93718278.363          36.543          39.000  
G16  22571319.965   118613089.692        3067.035          42.000                                                                  
C09  37717318.254   196403974.695        -161.514          43.000    37717304.260   151871953.803        -124.849          48.000  
C25  23723947.572   123536823.816        1622.424          45.000                                                                  
C13  38258620.263   199222672.442       -2238.972          41.000    38258614.744   154051586.879       -1731.249          43.000  
C08  39078740.190   203493247.273       -2445.844          37.000    39078728.831   157353825.827       -1891.219          43.000  
C10  40540733.262   211106237.524         928.097          33.000    40540734.958   163240791.454         716.899          38.000  
C35  25974912.024   135258196.613         498.283          36.000                                                                  
G25  24213512.363   127242854.948       -3906.343          35.000    24213504.161    99150251.554       -3043.633          35.000  
> 2025 10 30 06 16 07.2800000  0 21                     
G32  21887065.936   115017308.060       -2813.295          46.000    21887059.550    89623848.366       -2192.259          43.000  
G29  23048765.616   121122092.936        -429.622          42.000    23048756.189    94380815.974        -334.662          41.000  
G28  21198680.841   111399820.537       -1134.140          46.000    21198670.616    86805014.014        -883.901          47.000  
G26  20379493.130   107094956.986         821.448          48.000    20379486.204    83450596.623         640.276          47.000  
G31  20632005.180   108421915.412         221.385          47.000    20631994.509    84484568.210         172.620          46.000  
G04  24640607.354   129487260.502        3194.086          35.000    24640605.799   100899171.387        2488.486          41.000  
C33  22475021.495   117033331.079        -554.406          50.000                                                                  
C06  36565349.190   190405367.993        -171.135          45.000    36565331.801   147233437.449        -132.311          48.000  
C14  22568257.561   117518827.462       -2138.735          46.000    22568243.195    90872958.488       -1653.824          51.000  
C16  36991735.775   192625671.065        -204.497          48.000    36991723.849   148950340.092        -158.237          48.000  
C24  21803319.095   113535607.976        -803.507          50.000                                                                  
C26  24308585.831   126581178.288       -2552.001          44.000                                                                  
G03  22886964.917   120271814.883          47.554          39.000    22886959.097    93718276.876          36.962          39.000  
G16  22571296.610   118612967.010        3067.034          42.000                                                                  
C09  37717319.512   196403981.136        -161.204          43.000    37717305.480   151871958.792        -124.780          48.000  
C25  23723935.145   123536758.908        1622.601          45.000                                                                  
C13  38258637.460   199222761.997       -2238.948          41.000    38258631.921   154051656.122       -1731.094          43.000  
C08  39078758.980   203493345.090       -2445.546          37.000    39078747.591   157353901.480       -1891.340          43.000  
C10  40540726.138   211106200.426         927.846          33.000    40540727.829   163240762.753         717.296          38.000  
C35  25974908.191   135258176.676         498.282          36.000                                                                  
G25  24213542.076   127243011.187       -3906.271          35.000    24213533.888    99150373.295       -3043.560          36.000  
> 2025 10 30 06 16 07.3200000  0 21                     
G32  21887087.363   115017420.586       -2813.207          46.000    21887080.959    89623936.046       -2192.114          43.000  
G29  23048768.880   121122110.116        -429.566          42.000    23048759.457    94380829.357        -334.625          41.000  
G28  21198689.477   111399865.890       -1133.927          46.000    21198679.257    86805049.362        -883.778          47.000  
G26  20379486.870   107094924.114         821.630          48.000    20379479.961    83450571.010         640.314          47.000  
G31  20632003.475   108421906.550         221.478          47.000    20631992.821    84484561.305         172.607          46.000  
G04  24640583.029   129487132.752        3193.997          35.000    24640581.500   100899071.849        2488.404          41.000  
C33  22475025.766   117033353.252        -554.373          50.000                                                                  
C06  36565350.513   190405374.834        -170.999          45.000    36565333.131   147233442.740        -132.266          48.000  
C14  22568273.983   117518913.013       -2138.773          46.000    22568259.625    90873024.638       -1653.800          51.000  
C16  36991737.384   192625679.237        -204.363          48.000    36991725.430   148950346.411        -158.061          48.000  
C24  21803325.262   113535640.117        -803.532          50.000                                                                  
C26  24308605.434   126581280.355       -2551.786          44.000                                                                  
G03  22886964.580   120271812.990          47.402          39.000    22886958.724    93718275.386          37.230          39.000  
G16  22571273.289   118612844.332        3066.958          42.000                                                                  
C09  37717320.769   196403987.596        -161.367          43.000    37717306.719   151871963.769        -124.521          48.000  
C25  23723922.668   123536694.007        1622.552          45.000                                                                  
C13  38258654.624   199222851.560       -2239.079          41.000    38258649.159   154051725.381       -1731.332          43.000  
C08  39078777.750   203493442.918       -2445.605          37.000    39078766.376   157353977.129       -1891.320          43.000  
C10  40540719.002   211106163.381         926.733          33.000    40540720.680   163240734.052         717.506          38.000  
C35  25974904.358   135258156.743         498.228          36.000                                                                  
G25  24213571.797   127243167.392       -3905.580          35.000    24213563.630    99150495.047       -3043.739          36.000  
> 2025 10 30 06 16 07.3600000  0 21                     
G32  21887108.753   115017533.102       -2812.989          46.000    21887102.382    89624023.722       -2191.954          43.000  
G29  23048772.169   121122127.293        -429.473          42.000    23048762.734    94380842.749        -334.758          41.000  
G28  21198698.105   111399911.247       -1133.909          46.000    21198687.849    86805084.698        -883.535          47.000  
G26  20379480.602   107094891.235         821.904          48.000    20379473.711    83450545.395         640.357          47.000  
G31  20632001.792   108421897.687         221.552          47.000    20631991.129    84484554.399         172.631          46.000  
G04  24640558.708   129487005.007        3193.753          35.000    24640557.198   100898972.293        2488.713          41.000  
C33  22475030.049   117033375.418        -554.219          50.000                                                                  
C06  36565351.817   190405381.660        -170.704          45.000    36565334.449   147233448.025        -132.178          48.000  
C14  22568290.399   117518998.551       -2138.543          46.000    22568276.088    90873090.786       -1653.741          51.000  
C16  36991738.920   192625687.414        -204.374          48.000    36991727.030   148950352.730        -157.956          48.000  
C24  21803331.474   113535672.248        -803.362          50.000                                                                  
C26  24308625.032   126581382.409       -2551.434          44.000                                                                  
G03  22886964.213   120271811.089          47.427          39.000    22886958.371    93718273.906          37.150          39.000  
G16  22571249.931   118612721.630        3067.390          42.000                                                                  
C09  37717322.009   196403994.035        -161.107          43.000    37717307.929   151871968.757        -124.621          48.000  
C25  23723910.193   123536629.093        1622.760          45.000                                                                  
C13  38258671.810   199222941.118       -2239.060          41.000    38258666.373   154051794.635       -1731.368          43.000  
C08  39078796.523   203493540.760       -2445.929          37.000    39078785.163   157354052.771       -1891.152          43.000  
C10  40540711.914   211106126.269         927.349          34.000    40540713.537   163240705.392         716.860          38.000  
C35  25974900.549   135258136.808         498.275          36.000                                                                  
G25  24213601.508   127243323.609       -3905.435          35.000    24213593.368    99150616.775       -3043.444          36.000  
> 2025 10 30 06 16 07.4000000  0 21                     
G32  21887130.145   115017645.616       -2812.826          46.000    21887123.811    89624111.409       -2192.087          43.000  
G29  23048775.439   121122144.469        -429.411          42.000    23048766.015    94380856.133        -334.688          41.000  
G28  21198706.747   111399956.597       -1133.774          46.000    21198696.485    86805120.041        -883.538          47.000  
G26  20379474.333   107094858.360         821.926          48.000    20379467.459    83450519.784         640.319          47.000  
G31  20632000.081   108421888.812         221.817          47.000    20631989.440    84484547.487         172.773          46.000  
G04  24640534.399   129486877.261        3193.652          35.000    24640532.883   100898872.748        2488.661          41.000  
C33  22475034.311   117033397.584        -554.158          50.000                                                                  
C06  36565353.101   190405388.500        -170.836          45.000    36565335.777   147233453.315        -132.228          48.000  
C14  22568306.853   117519084.091       -2138.477          46.000    22568292.528    90873156.927       -1653.590          51.000  
C16  36991740.463   192625695.588        -204.336          48.000    36991728.610   148950359.040        -157.780          48.000  
C24  21803337.659   113535704.371        -803.132          50.000                                                                  
C26  24308644.636   126581484.463       -2551.268          44.000                                                                  
G03  22886963.827   120271809.184          47.541          39.000    22886958.015    93718272.412          37.311          39.000  
G16  22571226.572   118612598.936        3067.441          42.000                                                                  
C09  37717323.248   196404000.479        -161.086          43.000    37717309.169   151871973.740        -124.571          48.000  
C25  23723897.728   123536564.187        1622.687          45.000                                                                  
C13  38258689.021   199223030.662       -2238.761          41.000    38258683.537   154051863.874       -1731.081          43.000  
C08  39078815.319   203493638.592       -2445.930          37.000    39078803.937   157354128.407       -1890.991          43.000  
C10  40540704.811   211106089.174         927.423          34.000    40540706.423   163240676.705         716.947          38.000  
C35  25974896.714   135258116.858         498.570          36.000                                                                  
G25  24213631.249   127243479.827       -3905.361          35.000    24213623.100    99150738.513       -3043.444          36.000  
> 2025 10 30 06 16 07.4400000  0 21                     
G32  21887151.548   115017758.132       -2812.805          46.000    21887145.218    89624199.079       -2191.881          43.000  
G29  23048778.710   121122161.641        -429.312          42.000    23048769.289    94380869.513        -334.543          41.000  
G28  21198715.381   111400001.953       -1133.829          46.000    21198705.127    86805155.381        -883.506          47.000  
G26  20379468.117   107094825.487         821.875          48.000    20379461.225    83450494.168         640.381          47.000  
G31  20631998.381   108421879.937         221.889          47.000    20631987.737    84484540.565         172.982          46.000  
G04  24640510.072   129486749.491        3194.145          35.000    24640508.585   100898773.196        2488.783          41.000  
C33  22475038.579   117033419.747        -554.078          50.000                                                                  
C06  36565354.393   190405395.329        -170.771          45.000    36565337.098   147233458.596        -132.113          48.000  
C14  22568323.289   117519169.627       -2138.398          46.000    22568308.949    90873223.067       -1653.485          51.000  
C16  36991742.030   192625703.753        -204.164          48.000    36991730.180   148950365.359        -157.837          48.000  
C24  21803343.813   113535736.499        -803.155          50.000                                                                  
C26  24308664.211   126581586.525       -2551.382          44.000                                                                  
G03  22886963.457   120271807.278          47.641          39.000    22886957.654    93718270.927          37.226          39.000  
G16  22571203.218   118612476.242        3067.450          42.000                                                                  
C09  37717324.503   196404006.915        -160.917          43.000    37717310.412   151871978.719        -124.490          48.000  
C25  23723885.271   123536499.266        1622.925          45.000                                                                  
C13  38258706.224   199223120.213       -2238.724          41.000    38258700.739   154051933.107       -1730.854          43.000  
C08  39078834.119   203493736.398       -2445.434          37.000    39078822.735   157354204.060       -1891.219          43.000  
C10  40540697.679   211106052.061         927.695          34.000    40540699.284   163240648.042         716.620          38.000  
C35  25974892.871   135258096.888         499.063          36.000                                                                  
G25  24213660.974   127243636.052       -3905.447          35.000    24213652.814    99150860.217       -3042.901          36.000  
> 2025 10 30 06 16 07.4800000  0 21                     
G32  21887172.963   115017870.661       -2813.064          46.000    21887166.629    89624286.759       -2191.937          43.000  
G29  23048781.959   121122178.809        -429.188          42.000    23048772.575    94380882.891        -334.470          41.000  
G28  21198724.045   111400047.320       -1134.065          46.000    21198713.746    86805190.725        -883.575          47.000  
G26  20379461.875   107094792.621         821.700          48.000    20379454.969    83450468.554         640.331          47.000  
G31  20631996.709   108421871.070         221.752          47.000    20631986.062    84484533.662         172.685          46.000  
G04  24640485.749   129486621.771        3193.275          35.000    24640484.279   100898673.650        2488.750          41.000  
C33  22475042.826   117033441.914        -554.139          50.000                                                                  
C06  36565355.694   190405402.168        -170.936          45.000    36565338.424   147233463.878        -132.063          48.000  
C14  22568339.726   117519255.167       -2138.446          46.000    22568325.356    90873289.216       -1653.641          51.000  
C16  36991743.576   192625711.922        -204.183          48.000    36991731.749   148950371.683        -157.996          48.000  
C24  21803349.953   113535768.626        -803.161          50.000                                                                  
C26  24308683.783   126581688.593       -2551.571          44.000                                                                  
G03  22886963.076   120271805.389          47.318          39.000    22886957.298    93718269.459          36.862          39.000  
G16  22571179.873   118612353.562        3067.175          42.000                                                                  
C09  37717325.737   196404013.357        -160.966          43.000    37717311.632   151871983.709        -124.689          48.000  
C25  23723872.791   123536434.350        1622.925          45.000                                                                  
C13  38258723.430   199223209.756       -2238.576          41.000    38258717.916   154052002.361       -1731.168          43.000  
C08  39078852.889   203493834.199       -2445.081          37.000    39078841.500   157354279.697       -1891.042          43.000  
C10  40540690.561   211106014.964         927.550          34.000    40540692.153   163240619.360         716.836          38.000  
C35  25974889.034   135258076.922         499.187          36.000                                                                  
G25  24213690.686   127243792.272       -3905.435          35.000    24213682.551    99150981.938       -3042.904          36.000  
> 2025 10 30 06 16 07.5200000  0 21                     
G32  21887194.387   115017983.190       -2813.244          46.000    21887188.043    89624374.438       -2191.999          43.000  
G29  23048785.219   121122195.994        -429.467          42.000    23048775.844    94380896.287        -334.760          41.000  
G28  21198732.662   111400092.684       -1134.152          46.000    21198722.387    86805226.074        -883.716          47.000  
G26  20379455.598   107094759.753         821.639          48.000    20379448.728    83450442.942         640.268          47.000  
G31  20631995.040   108421862.206         221.635          47.000    20631984.393    84484526.763         172.476          46.000  
G04  24640461.416   129486494.009        3193.616          35.000    24640459.965   100898574.103        2488.729          41.000  
C33  22475047.053   117033464.091        -554.357          50.000                                                                  
C06  36565356.985   190405409.015        -171.141          45.000    36565339.747   147233469.174        -132.283          48.000  
C14  22568356.148   117519340.714       -2138.619          46.000    22568341.811    90873355.371       -1653.857          51.000  
C16  36991745.114   192625720.092        -204.233          48.000    36991733.277   148950378.004        -158.045          48.000  
C24  21803356.107   113535800.773        -803.534          50.000                                                                  
C26  24308703.389   126581790.666       -2551.772          44.000                                                                  
G03  22886962.723   120271803.501          47.151          39.000    22886956.924    93718267.997          36.519          39.000  
G16  22571156.534   118612230.883        3066.967          42.000                                                                  
C09  37717326.970   196404019.804        -161.121          43.000    37717312.879   151871988.699        -124.783          48.000  
C25  23723860.317   123536369.444        1622.711          45.000                                                                  
C13  38258740.601   199223299.311       -2238.790          41.000    38258735.090   154052071.613       -1731.323          43.000  
C08  39078871.657   203493932.039       -2445.580          37.000    39078860.276   157354355.344       -1891.139          43.000  
C10  40540683.416   211105977.872         927.347          34.000    40540685.026   163240590.665         717.256          38.000  
C35  25974885.216   135258057.015         498.023          36.000                                                                  
G25  24213720.411   127243948.494       -3905.430          35.000    24213712.274    99151103.665       -3043.071          36.000  
> 2025 10 30 06 16 07.5600000  0 21                     
G32  21887215.801   115018095.720       -2813.328          46.000    21887209.469    89624462.114       -2191.917          43.000  
G29  23048788.515   121122213.170        -429.453          42.000    23048779.117    94380909.671        -334.708          41.000  
G28  21198741.302   111400138.036       -1133.953          46.000    21198731.021    86805261.421        -883.721          47.000  
G26  20379449.344   107094726.882         821.690          48.000    20379442.474    83450417.329         640.281          47.000  
G31  20631993.366   108421853.345         221.488          47.000    20631982.716    84484519.863         172.415          46.000  
G04  24640437.124   129486366.264        3193.665          35.000    24640435.652   100898474.553        2488.716          41.000  
C33  22475051.329   117033486.260        -554.329          50.000                                                                  
C06  36565358.285   190405415.849        -171.022          45.000    36565341.091   147233474.461        -132.239          48.000  
C14  22568372.573   117519426.262       -2138.717          46.000    22568358.222    90873421.522       -1653.859          51.000  
C16  36991746.688   192625728.266        -204.351          48.000    36991734.837   148950384.324        -158.031          48.000  
C24  21803362.268   113535832.906        -803.454          50.000                                                                  
C26  24308722.999   126581892.725       -2551.600          44.000                                                                  
G03  22886962.360   120271801.596          47.392          39.000    22886956.567    93718266.520          36.740          39.000  
G16  22571133.209   118612108.201        3066.946          42.000                                                                  
C09  37717328.229   196404026.256        -161.302          43.000    37717314.098   151871993.682        -124.700          48.000  
C25  23723847.883   123536304.542        1622.534          45.000                                                                  
C13  38258757.794   199223388.861       -2238.777          41.000    38258752.319   154052140.866       -1731.434          43.000  
C08  39078890.429   203494029.877       -2445.869          37.000    39078879.049   157354430.990       -1891.164          43.000  
C10  40540676.287   211105940.767         927.541          34.000    40540677.919   163240561.961         717.573          38.000  
C35  25974881.397   135258037.071         498.184          36.000                                                                  
G25  24213750.153   127244104.716       -3905.481          35.000    24213742.026    99151225.428       -3043.795          36.000  
> 2025 10 30 06 16 07.6000000  0 21                     
G32  21887237.192   115018208.237       -2813.117          45.000    21887230.889    89624549.805       -2192.150          43.000  
G29  23048791.790   121122230.345        -429.440          42.000    23048782.411    94380923.052        -334.581          41.000  
G28  21198749.925   111400183.388       -1133.821          46.000    21198739.647    86805296.760        -883.563          47.000  
G26  20379443.077   107094694.006         821.846          48.000    20379436.218    83450391.715         640.301          47.000  
G31  20631991.688   108421844.486         221.427          47.000    20631981.027    84484512.946         172.712          46.000  
G04  24640412.809   129486238.473        3194.527          35.000    24640411.342   100898375.008        2488.604          41.000  
C33  22475055.624   117033508.427        -554.263          50.000                                                                  
C06  36565359.614   190405422.674        -170.758          45.000    36565342.392   147233479.739        -132.059          48.000  
C14  22568389.018   117519511.802       -2138.613          46.000    22568374.656    90873487.669       -1653.774          51.000  
C16  36991748.278   192625736.440        -204.372          48.000    36991736.405   148950390.639        -157.927          48.000  
C24  21803368.450   113535865.036        -803.345          50.000                                                                  
C26  24308742.620   126581994.788       -2551.594          44.000                                                                  
G03  22886962.003   120271799.692          47.523          39.000    22886956.183    93718265.030          37.073          39.000  
G16  22571109.839   118611985.511        3067.114          42.000                                                                  
C09  37717329.486   196404032.699        -161.184          43.000    37717315.356   151871998.656        -124.489          48.000  
C25  23723835.436   123536239.620        1622.870          45.000                                                                  
C13  38258775.005   199223478.408       -2238.734          41.000    38258769.522   154052210.109       -1731.283          43.000  
C08  39078909.196   203494127.698       -2445.677          37.000    39078897.835   157354506.626       -1891.010          43.000  
C10  40540669.166   211105903.668         927.527          34.000    40540670.817   163240533.267         717.566          38.000  
C35  25974877.566   135258017.112         498.712          36.000                                                                  
G25  24213779.876   127244260.932       -3905.386          35.000    24213771.759    99151347.156       -3043.575          36.000  
> 2025 10 30 06 16 07.6400000  0 21                     
G32  21887258.583   115018320.743       -2812.817          45.000    21887252.273    89624637.467       -2191.738          43.000  
G29  23048795.065   121122247.514        -429.301          42.000    23048785.689    94380936.432        -334.494          41.000  
G28  21198758.552   111400228.733       -1133.654          46.000    21198748.266    86805332.093        -883.362          47.000  
G26  20379436.809   107094661.122         822.044          48.000    20379429.960    83450366.094         640.462          47.000  
G31  20631989.998   108421835.608         221.773          47.000    20631979.312    84484506.018         173.112          46.000  
G04  24640388.500   129486110.709        3194.426          35.000    24640387.025   100898275.459        2488.656          41.000  
C33  22475059.907   117033530.590        -554.142          50.000                                                                  
C06  36565360.943   190405429.497        -170.580          45.000    36565343.716   147233485.018        -131.965          48.000  
C14  22568405.443   117519597.329       -2138.283          46.000    22568391.100    90873553.808       -1653.552          51.000  
C16  36991749.849   192625744.597        -204.078          48.000    36991737.966   148950396.951        -157.832          48.000  
C24  21803374.620   113535897.157        -803.119          50.000                                                                  
C26  24308762.200   126582096.838       -2551.323          44.000                                                                  
G03  22886961.623   120271797.773          47.842          39.000    22886955.810    93718263.549          37.102          39.000  
G16  22571086.508   118611862.815        3067.316          42.000                                                                  
C09  37717330.723   196404039.135        -160.980          43.000    37717316.594   151872003.629        -124.327          48.000  
C25  23723822.971   123536174.703        1622.943          45.000                                                                  
C13  38258792.187   199223567.945       -2238.516          41.000    38258786.725   154052279.335       -1730.822          43.000  
C08  39078927.984   203494225.508       -2445.385          37.000    39078916.598   157354582.262       -1890.929          43.000  
C10  40540662.025   211105866.563         927.563          34.000    40540663.686   163240504.583         717.255          38.000  
C35  25974873.713   135257997.177         498.553          36.000                                                                  
G25  24213809.592   127244417.147       -3905.301          35.000    24213801.478    99151468.879       -3043.257          36.000  
> 2025 10 30 06 16 07.6800000  0 21                     
G32  21887280.013   115018433.250       -2812.628          46.000    21887273.678    89624725.145       -2191.871          43.000  
G29  23048798.325   121122264.675        -429.096          42.000    23048788.979    94380949.812        -334.516          41.000  
G28  21198767.157   111400274.072       -1133.491          46.000    21198756.903    86805367.427        -883.325          47.000  
G26  20379430.532   107094628.238         822.141          48.000    20379423.702    83450340.470         640.592          47.000  
G31  20631988.277   108421826.726         222.037          47.000    20631977.622    84484499.096         173.141          46.000  
G04  24640364.178   129485982.949        3194.154          35.000    24640362.732   100898175.898        2488.889          41.000  
C33  22475064.145   117033552.752        -554.061          50.000                                                                  
C06  36565362.265   190405436.314        -170.427          45.000    36565345.006   147233490.288        -131.775          48.000  
C14  22568421.844   117519682.863       -2138.276          46.000    22568407.529    90873619.944       -1653.397          51.000  
C16  36991751.402   192625752.743        -203.728          48.000    36991739.500   148950403.247        -157.499          48.000  
C24  21803380.803   113535929.270        -802.879          50.000                                                                  
C26  24308781.793   126582198.887       -2551.187          44.000                                                                  
G03  22886961.258   120271795.860          47.895          39.000    22886955.434    93718262.057          37.334          39.000  
G16  22571063.127   118611740.097        3067.853          42.000                                                                  
C09  37717331.932   196404045.559        -160.640          43.000    37717317.843   151872008.597        -124.211          48.000  
C25  23723810.515   123536109.778        1623.132          45.000                                                                  
C13  38258809.386   199223657.484       -2238.443          41.000    38258803.902   154052348.565       -1730.669          43.000  
C08  39078946.768   203494323.316       -2445.195          37.000    39078935.394   157354657.896       -1890.875          43.000  
C10  40540654.906   211105829.473         927.300          34.000    40540656.542   163240475.871         717.611          38.000  
C35  25974869.874   135257977.201         499.148          36.000                                                                  
G25  24213839.330   127244573.360       -3905.305          35.000    24213831.208    99151590.584       -3042.756          36.000  
> 2025 10 30 06 16 07.7200000  0 21                     
G32  21887301.420   115018545.768       -2812.791          46.000    21887295.096    89624812.819       -2191.880          42.000  
G29  23048801.596   121122281.853        -429.364          42.000    23048792.270    94380963.193        -334.529          41.000  
G28  21198775.800   111400319.424       -1133.628          46.000    21198765.536    86805402.761        -883.327          47.000  
G26  20379424.297   107094595.368         821.922          48.000    20379417.424    83450314.844         640.664          47.000  
G31  20631986.587   108421817.847         222.054          47.000    20631975.924    84484492.189         172.862          46.000  
G04  24640339.870   129485855.225        3193.441          35.000    24640338.415   100898076.327        2489.203          41.000  
C33  22475068.420   117033574.911        -553.993          50.000                                                                  
C06  36565363.586   190405443.135        -170.443          45.000    36565346.310   147233495.562        -131.777          48.000  
C14  22568438.276   117519768.398       -2138.343          46.000    22568423.954    90873686.081       -1653.370          51.000  
C16  36991752.951   192625760.904        -203.856          48.000    36991741.052   148950409.560        -157.670          48.000  
C24  21803386.928   113535961.390        -802.922          50.000                                                                  
C26  24308801.390   126582300.933       -2551.084          44.000                                                                  
G03  22886960.896   120271793.958          47.677          39.000    22886955.077    93718260.548          37.731          39.000  
G16  22571039.786   118611617.400        3067.664          42.000                                                                  
C09  37717333.148   196404051.983        -160.508          43.000    37717319.092   151872013.571        -124.285          48.000  
C25  23723798.025   123536044.856        1623.108          45.000                                                                  
C13  38258826.545   199223747.029       -2238.569          41.000    38258821.092   154052417.808       -1730.890          43.000  
C08  39078965.555   203494421.105       -2444.839          37.000    39078954.183   157354733.523       -1890.733          43.000  
C10  40540647.784   211105792.354         927.684          34.000    40540649.406   163240447.180         717.417          38.000  
C35  25974866.029   135257957.256         498.982          36.000                                                                  
G25  24213869.076   127244729.584       -3905.495          35.000    24213860.938    99151712.315       -3043.041          36.000  
> 2025 10 30 06 16 07.7600000  0 21                     
G32  21887322.834   115018658.288       -2812.948          46.000    21887316.523    89624900.498       -2191.991          42.000  
G29  23048804.851   121122299.027        -429.432          42.000    23048795.543    94380976.567        -334.352          41.000  
G28  21198784.434   111400364.778       -1133.803          46.000    21198774.183    86805438.100        -883.416          47.000  
G26  20379418.048   107094562.495         821.829          48.000    20379411.144    83450289.230         640.451          47.000  
G31  20631984.903   108421808.970         221.972          47.000    20631974.231    84484485.279         172.746          46.000  
G04  24640315.568   129485727.454        3193.987          35.000    24640314.113   100897976.775        2489.023          41.000  
C33  22475072.682   117033597.072        -554.009          50.000                                                                  
C06  36565364.916   190405449.959        -170.536          45.000    36565347.595   147233500.840        -131.860          48.000  
C14  22568454.700   117519853.941       -2138.534          46.000    22568440.360    90873752.224       -1653.500          51.000  
C16  36991754.506   192625769.069        -204.023          48.000    36991742.639   148950415.875        -157.789          48.000  
C24  21803393.068   113535993.515        -803.044          50.000                                                                  
C26  24308820.956   126582402.988       -2551.260          44.000                                                                  
G03  22886960.545   120271792.064          47.421          39.000    22886954.727    93718259.096          36.768          39.000  
G16  22571016.441   118611494.715        3067.285          42.000                                                                  
C09  37717334.384   196404058.422        -160.721          43.000    37717320.309   151872018.552        -124.445          48.000  
C25  23723785.554   123535979.937        1623.029          45.000                                                                  
C13  38258843.764   199223836.560       -2238.358          41.000    38258838.301   154052487.044       -1730.922          43.000  
C08  39078984.348   203494518.921       -2445.238          37.000    39078972.961   157354809.166       -1890.988          43.000  
C10  40540640.659   211105755.220         928.221          34.000    40540642.298   163240418.497         717.151          38.000  
C35  25974862.185   135257937.305         498.890          36.000                                                                  
G25  24213898.787   127244885.780       -3905.155          35.000    24213890.670    99151834.056       -3043.350          36.000  
> 2025 10 30 06 16 07.8000000  0 21                     
G32  21887344.264   115018770.810       -2813.056          46.000    21887337.922    89624988.177       -2192.061          42.000  
G29  23048808.122   121122316.207        -429.504          42.000    23048798.798    94380989.936        -334.248          41.000  
G28  21198793.041   111400410.130       -1133.840          46.000    21198782.833    86805473.434        -883.383          47.000  
G26  20379411.781   107094529.617         821.886          48.000    20379404.907    83450263.615         640.340          47.000  
G31  20631983.253   108421800.100         221.818          47.000    20631972.543    84484478.358         172.888          46.000  
G04  24640291.259   129485599.725        3193.432          35.000    24640289.817   100897877.226        2488.819          41.000  
C33  22475076.895   117033619.241        -554.171          50.000                                                                  
C06  36565366.187   190405456.783        -170.615          45.000    36565348.909   147233506.122        -132.008          48.000  
C14  22568471.150   117519939.487       -2138.677          46.000    22568456.794    90873818.376       -1653.741          51.000  
C16  36991756.055   192625777.233        -204.106          48.000    36991744.207   148950422.182        -157.748          48.000  
C24  21803399.233   113536025.646        -803.212          50.000                                                                  
C26  24308840.561   126582505.049       -2551.459          44.000                                                                  
G03  22886960.206   120271790.154          47.632          39.000    22886954.366    93718257.606          36.950          39.000  
G16  22570993.093   118611372.011        3067.409          42.000                                                                  
C09  37717335.607   196404064.849        -160.659          43.000    37717321.550   151872023.525        -124.392          48.000  
C25  23723773.093   123535915.020        1622.937          45.000                                                                  
C13  38258860.956   199223926.105       -2238.540          41.000    38258855.488   154052556.282       -1730.953          43.000  
C08  39079003.133   203494616.756       -2445.745          37.000    39078991.734   157354884.806       -1891.059          43.000  
C10  40540633.543   211105718.100         928.239          34.000    40540635.191   163240389.794         717.455          38.000  
C35  25974858.358   135257917.343         498.982          36.000                                                                  
G25  24213928.520   127245041.996       -3905.275          35.000    24213920.391    99151955.763       -3042.961          36.000  
> 2025 10 30 06 16 07.8400000  0 21                     
G32  21887365.687   115018883.328       -2813.013          46.000    21887359.331    89625075.854       -2192.066          42.000  
G29  23048811.378   121122333.377        -429.371          42.000    23048802.060    94381003.322        -334.469          41.000  
G28  21198801.667   111400455.484       -1133.882          46.000    21198791.456    86805508.772        -883.448          47.000  
G26  20379405.550   107094496.746         821.824          48.000    20379398.654    83450237.995         640.410          47.000  
G31  20631981.566   108421791.231         221.677          47.000    20631970.857    84484471.442         172.913          46.000  
G04  24640266.955   129485471.921        3194.554          35.000    24640265.519   100897777.667        2488.880          41.000  
C33  22475081.128   117033641.411        -554.250          50.000                                                                  
C06  36565367.496   190405463.616        -170.775          45.000    36565350.193   147233511.401        -132.017          48.000  
C14  22568487.591   117520025.033       -2138.744          46.000    22568473.181    90873884.519       -1653.718          51.000  
C16  36991757.587   192625785.394        -204.076          48.000    36991745.787   148950428.498        -157.865          48.000  
C24  21803405.413   113536057.774        -803.267          50.000                                                                  
C26  24308860.145   126582607.107       -2551.569          44.000                                                                  
G03  22886959.830   120271788.263          47.354          39.000    22886954.004    93718256.129          36.857          39.000  
G16  22570969.755   118611249.329        3067.104          42.000                                                                  
C09  37717336.830   196404071.289        -160.902          43.000    37717322.765   151872028.491        -124.239          48.000  
C25  23723760.626   123535850.101        1622.919          45.000                                                                  
C13  38258878.167   199224015.645       -2238.514          41.000    38258872.678   154052625.518       -1730.940          43.000  
C08  39079021.930   203494714.592       -2445.975          37.000    39079010.525   157354960.440       -1890.981          43.000  
C10  40540626.425   211105681.002         927.815          34.000    40540628.044   163240361.088         717.669          38.000  
C35  25974854.513   135257897.392         498.784          36.000                                                                  
G25  24213958.252   127245198.190       -3904.977          35.000    24213950.115    99152077.494       -3043.163          36.000  
> 2025 10 30 06 16 07.8800000  0 21                     
G32  21887387.104   115018995.842       -2812.920          46.000    21887380.730    89625163.523       -2191.929          42.000  
G29  23048814.629   121122350.544        -429.208          42.000    23048805.339    94381016.720        -334.858          41.000  
G28  21198810.280   111400500.831       -1133.792          46.000    21198800.091    86805544.112        -883.509          47.000  
G26  20379399.262   107094463.864         821.968          48.000    20379392.395    83450212.375         640.428          47.000  
G31  20631979.868   108421782.356         221.745          47.000    20631969.175    84484464.531         172.795          46.000  
G04  24640242.635   129485344.153        3194.422          35.000    24640241.203   100897678.120        2488.705          41.000  
C33  22475085.387   117033663.576        -554.203          50.000                                                                  
C06  36565368.824   190405470.439        -170.684          45.000    36565351.486   147233516.677        -131.968          48.000  
C14  22568504.059   117520110.561       -2138.410          46.000    22568489.621    90873950.663       -1653.678          51.000  
C16  36991759.133   192625793.549        -203.946          48.000    36991747.380   148950434.805        -157.765          48.000  
C24  21803411.618   113536089.897        -803.177          50.000                                                                  
C26  24308879.751   126582709.153       -2551.378          44.000                                                                  
G03  22886959.487   120271786.349          47.698          39.000    22886953.647    93718254.655          36.830          39.000  
G16  22570946.412   118611126.626        3067.370          42.000                                                                  
C09  37717338.103   196404077.720        -160.850          43.000    37717323.999   151872033.461        -124.224          48.000  
C25  23723748.179   123535785.176        1623.035          45.000                                                                  
C13  38258895.353   199224105.203       -2238.818          41.000    38258889.911   154052694.760       -1731.014          43.000  
C08  39079040.727   203494812.407       -2445.667          37.000    39079029.314   157355036.070       -1890.848          43.000  
C10  40540619.285   211105643.879         927.929          34.000    40540620.930   163240332.387         717.620          38.000  
C35  25974850.682   135257877.422         499.063          36.000                                                                  
G25  24213987.985   127245354.415       -3905.420          35.000    24213979.842    99152199.227       -3043.329          36.000  
> 2025 10 30 06 16 07.9200000  0 21                     
G32  21887408.512   115019108.354       -2812.838          46.000    21887402.126    89625251.188       -2191.729          42.000  
G29  23048817.893   121122367.713        -429.172          42.000    23048808.602    94381030.100        -334.703          41.000  
G28  21198818.923   111400546.177       -1133.686          46.000    21198808.721    86805579.449        -883.501          47.000  
G26  20379393.014   107094430.982         822.054          48.000    20379386.131    83450186.757         640.454          47.000  
G31  20631978.179   108421773.475         221.937          47.000    20631967.473    84484457.617         172.789          46.000  
G04  24640218.306   129485216.395        3194.222          35.000    24640216.889   100897578.556        2488.917          41.000  
C33  22475089.655   117033685.738        -554.126          50.000                                                                  
C06  36565370.117   190405477.256        -170.540          45.000    36565352.793   147233521.947        -131.823          48.000  
C14  22568520.508   117520196.093       -2138.280          46.000    22568506.049    90874016.805       -1653.602          51.000  
C16  36991760.703   192625801.695        -203.722          48.000    36991748.977   148950441.106        -157.624          48.000  
C24  21803417.805   113536122.017        -803.067          50.000                                                                  
C26  24308899.345   126582811.203       -2551.327          44.000                                                                  
G03  22886959.113   120271784.435          47.917          39.000    22886953.288    93718253.169          37.078          39.000  
G16  22570923.067   118611003.931        3067.390          42.000                                                                  
C09  37717339.339   196404084.145        -160.689          43.000    37717325.245   151872038.430        -124.258          48.000  
C25  23723735.736   123535720.244        1623.236          45.000                                                                  
C13  38258912.540   199224194.733       -2238.500          41.000    38258907.100   154052763.991       -1730.827          43.000  
C08  39079059.524   203494910.194       -2444.954          37.000    39079048.122   157355111.703       -1890.839          43.000  
C10  40540612.169   211105606.765         927.819          34.000    40540613.804   163240303.685         717.631          38.000  
C35  25974846.851   135257857.491         498.502          36.000                                                                  
G25  24214017.722   127245510.636       -3905.544          35.000    24214009.580    99152320.949       -3043.187          36.000  
> 2025 10 30 06 16 07.9600000  0 21                     
G32  21887429.916   115019220.867       -2812.816          46.000    21887423.520    89625338.852       -2191.582          42.000  
G29  23048821.175   121122384.894        -429.432          42.000    23048811.882    94381043.485        -334.663          41.000  
G28  21198827.520   111400591.516       -1133.545          46.000    21198817.355    86805614.780        -883.392          47.000  
G26  20379386.737   107094398.101         822.065          48.000    20379379.900    83450161.142         640.397          47.000  
G31  20631976.473   108421764.596         221.985          47.000    20631965.772    84484450.692         173.018          46.000  
G04  24640194.000   129485088.610        3194.393          35.000    24640192.580   100897478.981        2489.226          41.000  
C33  22475093.917   117033707.901        -554.102          50.000                                                                  
C06  36565371.383   190405484.066        -170.349          45.000    36565354.095   147233527.218        -131.775          48.000  
C14  22568536.925   117520281.618       -2138.125          46.000    22568522.457    90874082.948       -1653.616          51.000  
C16  36991762.269   192625809.844        -203.677          48.000    36991750.530   148950447.412        -157.649          48.000  
C24  21803423.968   113536154.133        -802.954          50.000                                                                  
C26  24308918.939   126582913.249       -2551.217          44.000                                                                  
G03  22886958.769   120271782.532          47.717          39.000    22886952.921    93718251.681          37.143          39.000  
G16  22570899.714   118610881.224        3067.651          42.000                                                                  
C09  37717340.558   196404090.565        -160.573          43.000    37717326.480   151872043.402        -124.302          48.000  
C25  23723723.278   123535655.321        1623.145          45.000                                                                  
C13  38258929.726   199224284.254       -2238.127          41.000    38258924.283   154052833.225       -1730.803          43.000  
C08  39079078.315   203495007.995       -2444.888          37.000    39079066.899   157355187.342       -1890.941          43.000  
C10  40540605.044   211105569.669         927.512          34.000    40540606.678   163240274.980         717.675          38.000  
C35  25974843.017   135257837.555         498.313          36.000                                                                  
G25  24214047.451   127245666.866       -3905.791          35.000    24214039.299    99152442.678       -3043.167          36.000  
> 2025 10 30 06 16 08.0000000  0 21                     
G32  21887451.355   115019333.386       -2812.940          46.000    21887444.941    89625426.532       -2191.882          42.000  
G29  23048824.434   121122402.075        -429.555          42.000    23048815.140    94381056.866        -334.588          41.000  
G28  21198836.150   111400636.863       -1133.612          46.000    21198825.992    86805650.118        -883.457          47.000  
G26  20379380.475   107094365.237         821.716          48.000    20379373.661    83450135.536         640.174          47.000  
G31  20631974.775   108421755.725         221.825          47.000    20631964.084    84484443.782         172.819          46.000  
G04  24640169.695   129484960.842        3194.281          35.000    24640168.268   100897379.437        2488.779          41.000  
C33  22475098.108   117033730.075        -554.275          50.000                                                                  
C06  36565372.683   190405490.895        -170.587          45.000    36565355.398   147233532.496        -131.879          48.000  
C14  22568553.335   117520367.166       -2138.491          46.000    22568538.860    90874149.090       -1653.591          51.000  
C16  36991763.844   192625818.008        -203.961          48.000    36991752.079   148950453.725        -157.806          48.000  
C24  21803430.109   113536186.272        -803.317          50.000                                                                  
C26  24308938.533   126583015.295       -2551.161          44.000                                                                  
G03  22886958.411   120271780.649          47.252          39.000    22886952.573    93718250.193          37.158          39.000  
G16  22570876.357   118610758.534        3067.423          42.000                                                                  
C09  37717341.772   196404096.999        -160.786          43.000    37717327.693   151872048.382        -124.453          48.000  
C25  23723710.805   123535590.412        1622.809          45.000                                                                  
C13  38258946.916   199224373.803       -2238.504          41.000    38258941.470   154052902.484       -1731.314          43.000  
C08  39079097.094   203495105.807       -2445.116          37.000    39079085.676   157355262.985       -1891.065          43.000  
C10  40540597.913   211105532.541         927.915          34.000    40540599.524   163240246.279         717.621          38.000  
C35  25974839.192   135257817.615         498.298          36.000                                                                  
G25  24214077.160   127245823.069       -3905.463          35.000    24214069.018    99152564.379       -3042.727          36.000  
> 2025 10 30 06 16 08.0400000  0 21                     
G32  21887472.771   115019445.920       -2813.254          46.000    21887466.363    89625514.236       -2192.474          42.000  
G29  23048827.692   121122419.257        -429.622          42.000    23048818.398    94381070.254        -334.638          41.000  
G28  21198844.791   111400682.227       -1133.966          46.000    21198834.623    86805685.465        -883.648          47.000  
G26  20379374.228   107094332.382         821.389          48.000    20379367.419    83450109.932         640.064          47.000  
G31  20631973.095   108421746.868         221.499          47.000    20631962.419    84484436.876         172.647          46.000  
G04  24640145.400   129484833.097        3193.766          35.000    24640143.962   100897279.900        2488.468          41.000  
C33  22475102.355   117033752.252        -554.405          50.000                                                                  
C06  36565373.983   190405497.728        -170.745          45.000    36565356.704   147233537.777        -132.009          48.000  
C14  22568569.746   117520452.726       -2138.927          46.000    22568555.265    90874215.240       -1653.744          51.000  
C16  36991765.426   192625826.180        -204.254          48.000    36991753.617   148950460.040        -157.927          48.000  
C24  21803436.265   113536218.401        -803.330          50.000                                                                  
C26  24308958.120   126583117.353       -2551.383          44.000                                                                  
G03  22886958.059   120271778.758          47.143          39.000    22886952.216    93718248.728          36.717          39.000  
G16  22570852.993   118610635.852        3067.137          42.000                                                                  
C09  37717343.007   196404103.451        -161.189          43.000    37717328.938   151872053.366        -124.603          48.000  
C25  23723698.323   123535525.513        1622.485          45.000                                                                  
C13  38258964.109   199224463.366       -2239.001          41.000    38258958.678   154052971.729       -1731.273          43.000  
C08  39079115.896   203495203.636       -2445.637          37.000    39079104.471   157355338.630       -1891.188          43.000  
C10  40540590.806   211105495.454         927.426          34.000    40540592.384   163240217.587         717.366          38.000  
C35  25974835.356   135257797.711         497.699          36.000                                                                  
G25  24214106.913   127245979.271       -3905.169          35.000    24214098.762    99152686.119       -3043.173          36.000  
> 2025 10 30 06 16 08.0800000  0 21                     
G32  21887494.179   115019558.446       -2813.260          46.000    21887487.773    89625601.919       -2192.369          42.000  
G29  23048830.991   121122436.452        -429.857          42.000    23048821.676    94381083.651        -334.819          41.000  
G28  21198853.442   111400727.591       -1134.127          46.000    21198843.276    86805720.817        -883.819          47.000  
G26  20379367.955   107094299.518         821.436          48.000    20379361.164    83450084.324         640.084          47.000  
G31  20631971.401   108421738.004         221.512          47.000    20631960.733    84484429.976         172.500          46.000  
G04  24640121.095   129484705.362        3193.392          35.000    24640119.646   100897180.340        2488.782          41.000  
C33  22475106.597   117033774.432        -554.516          50.000                                                                  
C06  36565375.295   190405504.562        -170.884          45.000    36565358.061   147233543.056        -132.023          48.000  
C14  22568586.198   117520538.273       -2138.880          46.000    22568571.699    90874281.390       -1653.799          51.000  
C16  36991767.011   192625834.348        -204.309          48.000    36991755.165   148950466.351        -157.877          48.000  
C24  21803442.450   113536250.533        -803.351          50.000                                                                  
C26  24308977.683   126583219.420       -2551.620          44.000                                                                  
G03  22886957.686   120271776.857          47.278          39.000    22886951.871    93718247.248          36.835          39.000  
G16  22570829.643   118610513.166        3067.079          42.000                                                                  
C09  37717344.233   196404109.885        -161.022          43.000    37717330.170   151872058.339        -124.453          48.000  
C25  23723685.855   123535460.601        1622.583          45.000                                                                  
C13  38258981.328   199224552.915       -2238.992          41.000    38258975.872   154053040.966       -1731.035          43.000  
C08  39079134.694   203495301.451       -2445.578          37.000    39079123.269   157355414.265       -1891.033          44.000  
C10  40540583.680   211105458.339         927.719          34.000    40540585.293   163240188.926         716.705          38.000  
C35  25974831.528   135257777.774         498.047          36.000                                                                  
G25  24214136.632   127246135.468       -3904.902          35.000    24214128.479    99152807.850       -3043.338          36.000  
> 2025 10 30 06 16 08.1200000  0 21                     
G32  21887515.575   115019670.974       -2813.274          46.000    21887509.181    89625689.599       -2192.173          42.000  
G29  23048834.258   121122453.635        -429.747          42.000    23048824.938    94381097.036        -334.711          41.000  
G28  21198862.048   111400772.941       -1133.965          46.000    21198851.912    86805756.151        -883.577          47.000  
G26  20379361.675   107094266.647         821.624          48.000    20379354.900    83450058.707         640.278          47.000  
G31  20631969.691   108421729.127         221.753          47.000    20631959.036    84484423.057         172.779          46.000  
G04  24640096.783   129484577.593        3193.805          35.000    24640095.306   100897080.784        2488.872          41.000  
C33  22475110.879   117033796.603        -554.404          50.000                                                                  
C06  36565376.630   190405511.391        -170.852          45.000    36565359.394   147233548.337        -132.046          48.000  
C14  22568602.643   117520623.819       -2138.786          46.000    22568588.129    90874347.539       -1653.809          51.000  
C16  36991768.602   192625842.507        -204.135          48.000    36991756.714   148950472.658        -157.798          48.000  
C24  21803448.637   113536282.660        -803.270          50.000                                                                  
C26  24308997.298   126583321.476       -2551.572          44.000                                                                  
G03  22886957.354   120271774.967          47.230          39.000    22886951.505    93718245.754          37.189          39.000  
G16  22570806.278   118610390.474        3067.171          42.000                                                                  
C09  37717345.490   196404116.313        -160.825          43.000    37717331.410   151872063.304        -124.230          48.000  
C25  23723673.367   123535395.675        1622.980          45.000                                                                  
C13  38258998.519   199224642.447       -2238.591          41.000    38258993.045   154053110.198       -1730.862          43.000  
C08  39079153.474   203495399.272       -2445.617          37.000    39079142.041   157355489.895       -1890.875          44.000  
C10  40540576.553   211105421.210         928.071          34.000    40540578.153   163240160.229         717.020          38.000  
C35  25974827.663   135257757.790         499.135          36.000                                                                  
G25  24214166.369   127246291.693       -3905.267          35.000    24214158.214    99152929.605       -3043.838          36.000  
> 2025 10 30 06 16 08.1600000  0 21                     
G32  21887536.991   115019783.484       -2812.928          46.000    21887530.581    89625777.271       -2191.961          42.000  
G29  23048837.525   121122470.807        -429.431          42.000    23048828.206    94381110.417        -334.605          41.000  
G28  21198870.670   111400818.287       -1133.776          46.000    21198860.544    86805791.477        -883.301          47.000  
G26  20379355.394   107094233.773         821.767          48.000    20379348.635    83450033.087         640.445          47.000  
G31  20631967.979   108421720.246         221.968          47.000    20631957.335    84484416.138         172.920          46.000  
G04  24640072.454   129484449.828        3194.021          35.000    24640070.998   100896981.233        2488.796          41.000  
C33  22475115.169   117033818.770        -554.237          50.000                                                                  
C06  36565377.938   190405518.199        -170.435          45.000    36565360.720   147233553.612        -131.960          48.000  
C14  22568619.067   117520709.351       -2138.456          46.000    22568604.558    90874413.686       -1653.737          51.000  
C16  36991770.190   192625850.655        -203.858          48.000    36991758.284   148950478.965        -157.741          48.000  
C24  21803454.819   113536314.781        -803.106          50.000                                                                  
C26  24309016.909   126583423.529       -2551.458          44.000                                                                  
G03  22886956.995   120271773.076          47.219          39.000    22886951.148    93718244.283          36.922          39.000  
G16  22570782.936   118610267.774        3067.374          42.000                                                                  
C09  37717346.718   196404122.736        -160.650          43.000    37717332.657   151872068.277        -124.272          48.000  
C25  23723660.882   123535330.746        1623.206          45.000                                                                  
C13  38259015.715   199224731.973       -2238.225          41.000    38259010.243   154053179.435       -1730.864          43.000  
C08  39079172.246   203495497.078       -2445.329          37.000    39079160.812   157355565.525       -1890.782          44.000  
C10  40540569.411   211105384.092         927.985          34.000    40540571.015   163240131.531         717.269          38.000  
C35  25974823.809   135257737.847         498.936          36.000                                                                  
G25  24214196.100   127246447.897       -3905.187          35.000    24214187.947    99153051.311       -3043.178          36.000  
> 2025 10 30 06 16 08.2000000  0 21                     
G32  21887558.393   115019896.003       -2812.934          46.000    21887552.006    89625864.944       -2191.796          42.000  
G29  23048840.774   121122487.991        -429.516          42.000    23048831.501    94381123.807        -334.675          41.000  
G28  21198879.304   111400863.626       -1133.541          46.000    21198869.159    86805826.806        -883.219          47.000  
G26  20379349.140   107094200.901         821.828          48.000    20379342.374    83450007.475         640.362          47.000  
G31  20631966.311   108421711.377         221.832          47.000    20631955.634    84484409.217         173.024          46.000  
G04  24640048.147   129484322.049        3194.368          35.000    24640046.671   100896881.674        2488.971          41.000  
C33  22475119.437   117033840.935        -554.125          50.000                                                                  
C06  36565379.260   190405525.011        -170.262          45.000    36565362.028   147233558.880        -131.770          48.000  
C14  22568635.489   117520794.886       -2138.353          46.000    22568620.987    90874479.838       -1653.820          51.000  
C16  36991771.775   192625858.808        -203.786          48.000    36991759.851   148950485.269        -157.658          48.000  
C24  21803460.987   113536346.905        -803.090          50.000                                                                  
C26  24309036.507   126583525.575       -2551.245          44.000                                                                  
G03  22886956.624   120271771.186          47.175          39.000    22886950.796    93718242.815          36.702          39.000  
G16  22570759.591   118610145.079        3067.430          42.000                                                                  
C09  37717347.939   196404129.158        -160.546          43.000    37717333.913   151872073.244        -124.178          48.000  
C25  23723648.411   123535265.822        1623.224          45.000                                                                  
C13  38259032.904   199224821.505       -2238.229          41.000    38259027.457   154053248.665       -1730.759          43.000  
C08  39079191.017   203495594.896       -2445.393          37.000    39079179.612   157355641.163       -1890.881          44.000  
C10  40540562.282   211105346.979         927.870          34.000    40540563.895   163240102.811         717.793          38.000  
C35  25974819.974   135257717.887         499.057          36.000                                                                  
G25  24214225.825   127246604.129       -3905.592          35.000    24214217.694    99153173.017       -3042.662          36.000  
> 2025 10 30 06 16 08.2400000  0 21                     
G32  21887579.832   115020008.519       -2812.913          46.000    21887573.430    89625952.612       -2191.686          42.000  
G29  23048844.022   121122505.160        -429.336          42.000    23048834.755    94381137.193        -334.657          41.000  
G28  21198887.938   111400908.975       -1133.647          46.000    21198877.819    86805862.140        -883.281          47.000  
G26  20379342.901   107094168.030         821.808          48.000    20379336.127    83449981.859         640.362          46.000  
G31  20631964.642   108421702.508         221.752          47.000    20631953.954    84484402.305         172.900          46.000  
G04  24640023.824   129484194.230        3195.172          35.000    24640022.350   100896782.115        2489.010          41.000  
C33  22475123.675   117033863.107        -554.231          50.000                                                                  
C06  36565380.576   190405531.826        -170.255          45.000    36565363.340   147233564.150        -131.743          48.000  
C14  22568651.900   117520880.428       -2138.439          46.000    22568637.418    90874545.977       -1653.616          51.000  
C16  36991773.341   192625866.964        -203.804          48.000    36991761.425   148950491.569        -157.551          48.000  
C24  21803467.151   113536379.031        -803.106          50.000                                                                  
C26  24309056.094   126583627.622       -2551.180          44.000                                                                  
G03  22886956.237   120271769.295          47.182          39.000    22886950.441    93718241.345          36.630          39.000  
G16  22570736.243   118610022.389        3067.327          42.000                                                                  
C09  37717349.140   196404135.587        -160.645          43.000    37717335.174   151872078.211        -124.142          48.000  
C25  23723635.935   123535200.906        1623.016          45.000                                                                  
C13  38259050.123   199224911.045       -2238.399          41.000    38259044.653   154053317.899       -1730.798          43.000  
C08  39079209.817   203495692.682       -2444.854          37.000    39079198.398   157355716.795       -1890.884          44.000  
C10  40540555.131   211105309.878         927.612          34.000    40540556.724   163240074.115         717.573          38.000  
C35  25974816.140   135257697.926         499.103          36.000                                                                  
G25  24214255.558   127246760.364       -3905.828          35.000    24214247.441    99153294.730       -3042.561          36.000  
> 2025 10 30 06 16 08.2800000  0 21                     
G32  21887601.241   115020121.037       -2812.922          46.000    21887594.844    89626040.293       -2191.907          42.000  
G29  23048847.288   121122522.338        -429.407          42.000    23048838.042    94381150.579        -334.657          41.000  
G28  21198896.565   111400954.323       -1133.682          46.000    21198886.460    86805897.484        -883.503          47.000  
G26  20379336.647   107094135.157         821.807          48.000    20379329.860    83449956.243         640.374          46.000  
G31  20631962.948   108421693.637         221.746          47.000    20631952.252    84484395.399         172.690          46.000  
G04  24639999.500   129484066.488        3194.144          35.000    24639998.038   100896682.558        2488.986          41.000  
C33  22475127.923   117033885.280        -554.295          50.000                                                                  
C06  36565381.892   190405538.643        -170.313          45.000    36565364.631   147233569.421        -131.754          48.000  
C14  22568668.327   117520965.968       -2138.511          46.000    22568653.833    90874612.123       -1653.632          51.000  
C16  36991774.893   192625875.110        -203.671          48.000    36991762.997   148950497.871        -157.529          48.000  
C24  21803473.342   113536411.155        -803.115          50.000                                                                  
C26  24309075.702   126583729.668       -2551.119          44.000                                                                  
G03  22886955.884   120271767.376          47.755          39.000    22886950.092    93718239.864          36.827          39.000  
G16  22570712.909   118609899.698        3067.281          42.000                                                                  
C09  37717350.350   196404142.016        -160.721          43.000    37717336.432   151872083.181        -124.208          48.000  
C25  23723623.452   123535135.991        1622.888          45.000                                                                  
C13  38259067.310   199225000.584       -2238.473          41.000    38259061.861   154053387.122       -1730.650          43.000  
C08  39079228.601   203495790.499       -2445.098          37.000    39079217.202   157355792.424       -1890.803          44.000  
C10  40540547.995   211105272.752         927.828          34.000    40540549.597   163240045.403         717.716          38.000  
C35  25974812.319   135257677.994         498.527          37.000                                                                  
G25  24214285.269   127246916.564       -3905.347          35.000    24214277.151    99153416.433       -3042.436          38.000  
> 2025 10 30 06 16 08.3200000  0 21                     
G32  21887622.648   115020233.562       -2813.098          46.000    21887616.261    89626127.984       -2192.243          42.000  
G29  23048850.567   121122539.523        -429.532          42.000    23048841.321    94381163.975        -334.858          41.000  
G28  21198905.222   111400999.682       -1133.882          46.000    21198895.118    86805932.830        -883.691          47.000  
G26  20379330.402   107094102.285         821.801          48.000    20379323.632    83449930.630         640.324          46.000  
G31  20631961.249   108421684.761         221.845          47.000    20631950.585    84484388.489         172.679          46.000  
G04  24639975.187   129483938.770        3193.158          35.000    24639973.726   100896582.975        2489.443          41.000  
C33  22475132.149   117033907.462        -554.491          50.000                                                                  
C06  36565383.205   190405545.470        -170.590          45.000    36565365.929   147233574.699        -131.874          48.000  
C14  22568684.746   117521051.517       -2138.674          46.000    22568670.239    90874678.275       -1653.779          51.000  
C16  36991776.437   192625883.264        -203.786          48.000    36991764.581   148950504.178        -157.621          48.000  
C24  21803479.487   113536443.283        -803.166          50.000                                                                  
C26  24309095.303   126583831.724       -2551.274          44.000                                                                  
G03  22886955.513   120271765.472          47.755          39.000    22886949.738    93718238.381          36.977          39.000  
G16  22570689.552   118609777.007        3067.217          42.000                                                                  
C09  37717351.559   196404148.440        -160.618          43.000    37717337.631   151872088.147        -124.177          48.000  
C25  23723610.992   123535071.079        1622.778          45.000                                                                  
C13  38259084.514   199225090.127       -2238.616          41.000    38259079.057   154053456.366       -1730.943          43.000  
C08  39079247.387   203495888.301       -2445.084          37.000    39079235.990   157355868.042       -1890.581          44.000  
C10  40540540.885   211105235.622         928.074          34.000    40540542.473   163240016.699         717.610          38.000  
C35  25974808.468   135257658.066         498.103          37.000                                                                  
G25  24214314.969   127247072.757       -3904.956          35.000    24214306.879    99153538.172       -3043.137          38.000  
> 2025 10 30 06 16 08.3600000  0 21                     
G32  21887644.077   115020346.095       -2813.294          46.000    21887637.667    89626215.668       -2192.235          42.000  
G29  23048853.841   121122556.712        -429.714          42.000    23048844.577    94381177.358        -334.751          41.000  
G28  21198913.860   111401045.043       -1134.020          46.000    21198903.760    86805968.174        -883.709          47.000  
G26  20379324.135   107094069.418         821.702          48.000    20379317.382    83449905.019         640.262          46.000  
G31  20631959.564   108421675.883         221.918          47.000    20631948.891    84484381.577         172.735          46.000  
G04  24639950.909   129483811.021        3193.177          35.000    24639949.397   100896483.410        2489.303          41.000  
C33  22475136.425   117033929.632        -554.366          50.000                                                                  
C06  36565384.518   190405552.299        -170.781          45.000    36565367.200   147233579.978        -131.958          48.000  
C14  22568701.203   117521137.061       -2138.659          46.000    22568686.651    90874744.426       -1653.822          51.000  
C16  36991777.990   192625891.423        -203.929          48.000    36991766.150   148950510.488        -157.738          48.000  
C24  21803485.630   113536475.412        -803.239          50.000                                                                  
C26  24309114.912   126583933.774       -2551.267          44.000                                                                  
G03  22886955.161   120271763.589          47.216          39.000    22886949.394    93718236.896          37.134          39.000  
G16  22570666.209   118609654.318        3067.175          42.000                                                                  
C09  37717352.784   196404154.869        -160.670          43.000    37717338.862   151872093.121        -124.318          48.000  
C25  23723598.522   123535006.167        1622.754          45.000                                                                  
C13  38259101.730   199225179.678       -2238.776          41.000    38259096.253   154053525.616       -1731.253          43.000  
C08  39079266.160   203495986.118       -2445.312          37.000    39079254.775   157355943.679       -1890.802          44.000  
C10  40540533.768   211105198.521         927.711          34.000    40540535.342   163239988.004         717.336          38.000  
C35  25974804.622   135257638.110         498.475          37.000                                                                  
G25  24214344.664   127247228.947       -3904.720          35.000    24214336.603    99153659.887       -3043.076          38.000  
> 2025 10 30 06 16 08.4000000  0 21                     
G32  21887665.480   115020458.617       -2813.204          46.000    21887659.089    89626303.345       -2192.109          42.000  
G29  23048857.103   121122573.903        -429.837          42.000    23048847.864    94381190.759        -335.008          41.000  
G28  21198922.472   111401090.392       -1133.879          46.000    21198912.387    86806003.522        -883.782          47.000  
G26  20379317.885   107094036.553         821.609          48.000    20379311.118    83449879.409         640.207          46.000  
G31  20631957.877   108421667.016         221.739          47.000    20631947.204    84484374.663         172.753          46.000  
G04  24639926.587   129483683.229        3194.125          35.000    24639925.079   100896383.861        2488.921          41.000  
C33  22475140.670   117033951.809        -554.431          50.000                                                                  
C06  36565385.826   190405559.132        -170.917          45.000    36565368.506   147233585.248        -131.886          48.000  
C14  22568717.631   117521222.615       -2138.868          46.000    22568703.072    90874810.576       -1653.807          51.000  
C16  36991779.530   192625899.587        -204.113          48.000    36991767.702   148950516.795        -157.756          48.000  
C24  21803491.838   113536507.539        -803.250          50.000                                                                  
C26  24309134.481   126584035.815       -2551.115          44.000                                                                  
G03  22886954.831   120271761.709          46.995          39.000    22886949.045    93718235.432          36.792          39.000  
G16  22570642.857   118609531.619        3067.360          42.000                                                                  
C09  37717354.012   196404161.297        -160.697          43.000    37717340.086   151872098.090        -124.316          48.000  
C25  23723586.077   123534941.242        1622.974          45.000                                                                  
C13  38259118.934   199225269.228       -2238.830          41.000    38259113.434   154053594.867       -1731.368          43.000  
C08  39079284.954   203496083.930       -2445.325          37.000    39079273.581   157356019.324       -1891.085          44.000  
C10  40540526.650   211105161.403         927.869          34.000    40540528.211   163239959.312         717.176          38.000  
C35  25974800.783   135257618.164         498.500          38.000                                                                  
G25  24214374.396   127247385.162       -3905.069          35.000    24214366.334    99153781.622       -3043.348          37.000  
> 2025 10 30 06 16 08.4400000  0 21                     
G32  21887686.900   115020571.143       -2813.195          46.000    21887680.505    89626391.023       -2192.085          42.000  
G29  23048860.341   121122591.091        -429.828          42.000    23048851.142    94381204.161        -335.117          41.000  
G28  21198931.124   111401135.754       -1134.018          46.000    21198921.022    86806038.860        -883.624          47.000  
G26  20379311.632   107094003.700         821.374          48.000    20379304.870    83449853.812         639.946          46.000  
G31  20631956.165   108421658.151         221.641          47.000    20631945.509    84484367.745         172.876          46.000  
G04  24639902.281   129483555.418        3194.978          35.000    24639900.764   100896284.326        2488.466          41.000  
C33  22475144.909   117033973.992        -554.584          50.000                                                                  
C06  36565387.118   190405565.951        -170.724          45.000    36565369.838   147233590.518        -131.820          48.000  
C14  22568734.049   117521308.170       -2138.940          46.000    22568719.487    90874876.729       -1653.857          51.000  
C16  36991781.099   192625907.745        -204.063          48.000    36991769.269   148950523.112        -157.907          48.000  
C24  21803497.979   113536539.674        -803.385          50.000                                                                  
C26  24309154.056   126584137.876       -2551.376          44.000                                                                  
G03  22886954.476   120271759.842          46.649          39.000    22886948.701    93718233.969          36.573          39.000  
G16  22570619.506   118609408.928        3067.288          42.000                                                                  
C09  37717355.241   196404167.726        -160.753          43.000    37717341.308   151872103.070        -124.479          48.000  
C25  23723573.592   123534876.320        1623.047          45.000                                                                  
C13  38259136.134   199225358.777       -2238.854          41.000    38259130.622   154053664.115       -1731.296          43.000  
C08  39079303.745   203496181.744       -2445.359          37.000    39079292.365   157356094.970       -1891.198          44.000  
C10  40540519.521   211105124.303         927.575          34.000    40540521.082   163239930.617         717.215          38.000  
C35  25974796.951   135257598.209         498.772          38.000                                                                  
G25  24214404.127   127247541.389       -3905.507          35.000    24214396.051    99153903.358       -3043.487          37.000  
> 2025 10 30 06 16 08.4800000  0 21                     
G32  21887708.335   115020683.673       -2813.237          46.000    21887701.929    89626478.717       -2192.331          42.000  
G29  23048863.588   121122608.288        -429.978          42.000    23048854.410    94381217.558        -335.025          41.000  
G28  21198939.752   111401181.110       -1133.980          46.000    21198929.629    86806074.201        -883.556          46.000  
G26  20379305.365   107093970.841         821.363          48.000    20379298.603    83449828.211         639.893          46.000  
G31  20631954.491   108421649.292         221.438          47.000    20631943.844    84484360.846         172.592          46.000  
G04  24639877.956   129483427.668        3194.354          35.000    24639876.457   100896184.791        2488.217          41.000  
C33  22475149.171   117033996.177        -554.676          50.000                                                                  
C06  36565388.450   190405572.764        -170.486          45.000    36565371.148   147233595.804        -132.063          48.000  
C14  22568750.495   117521393.717       -2138.815          46.000    22568735.924    90874942.881       -1653.868          51.000  
C16  36991782.645   192625915.904        -204.041          48.000    36991770.828   148950529.420        -157.818          48.000  
C24  21803504.150   113536571.812        -803.484          50.000                                                                  
C26  24309173.648   126584239.949       -2551.741          44.000                                                                  
G03  22886954.109   120271757.948          47.012          39.000    22886948.358    93718232.514          36.319          39.000  
G16  22570596.172   118609286.255        3066.940          42.000                                                                  
C09  37717356.495   196404174.168        -161.005          43.000    37717342.517   151872108.050        -124.552          48.000  
C25  23723561.085   123534811.410        1622.827          45.000                                                                  
C13  38259153.340   199225448.316       -2238.596          41.000    38259147.838   154053733.358       -1731.126          43.000  
C08  39079322.529   203496279.577       -2445.743          37.000    39079311.158   157356170.613       -1891.188          44.000  
C10  40540512.413   211105087.179         927.858          34.000    40540513.926   163239901.916         717.462          38.000  
C35  25974793.123   135257578.277         498.391          38.000                                                                  
G25  24214433.849   127247697.605       -3905.519          35.000    24214425.782    99154025.080       -3043.252          37.000  
> 2025 10 30 06 16 08.5200000  0 21                     
G32  21887729.744   115020796.196       -2813.119          46.000    21887723.354    89626566.405       -2192.323          42.000  
G29  23048866.865   121122625.489        -430.113          42.000    23048857.679    94381230.942        -334.703          41.000  
G28  21198948.374   111401226.458       -1133.805          46.000    21198938.255    86806109.542        -883.552          46.000  
G26  20379299.126   107093937.989         821.259          48.000    20379292.338    83449802.605         640.044          46.000  
G31  20631952.787   108421640.434         221.328          47.000    20631942.169    84484353.948         172.377          46.000  
G04  24639853.664   129483299.962        3193.114          35.000    24639852.155   100896085.231        2488.584          41.000  
C33  22475153.435   117034018.360        -554.692          50.000                                                                  
C06  36565389.757   190405579.594        -170.636          45.000    36565372.453   147233601.082        -132.051          48.000  
C14  22568766.913   117521479.264       -2138.726          46.000    22568752.353    90875009.031       -1653.804          51.000  
C16  36991784.240   192625924.065        -204.052          48.000    36991772.397   148950535.727        -157.719          48.000  
C24  21803510.357   113536603.942        -803.396          50.000                                                                  
C26  24309193.243   126584342.008       -2551.646          44.000                                                                  
G03  22886953.747   120271756.050          47.282          39.000    22886948.005    93718231.049          36.438          39.000  
G16  22570572.812   118609163.576        3066.850          42.000                                                                  
C09  37717357.770   196404180.601        -160.937          43.000    37717343.738   151872113.022        -124.436          48.000  
C25  23723548.609   123534746.497        1622.803          45.000                                                                  
C13  38259170.524   199225537.858       -2238.510          41.000    38259165.007   154053802.591       -1730.898          43.000  
C08  39079341.321   203496377.382       -2445.418          37.000    39079329.957   157356246.237       -1890.815          44.000  
C10  40540505.286   211105050.053         927.999          34.000    40540506.771   163239873.195         717.962          38.000  
C35  25974789.286   135257558.343         498.262          38.000                                                                  
G25  24214463.552   127247853.797       -3905.057          36.000    24214455.504    99154146.820       -3043.518          37.000  
> 2025 10 30 06 16 08.5600000  0 21                     
G32  21887751.125   115020908.724       -2813.167          46.000    21887744.778    89626654.085       -2192.137          42.000  
G29  23048870.152   121122642.675        -429.864          42.000    23048860.936    94381244.326        -334.562          41.000  
G28  21198957.001   111401271.803       -1133.645          46.000    21198946.878    86806144.877        -883.436          46.000  
G26  20379292.847   107093905.124         821.479          48.000    20379286.060    83449776.996         640.150          46.000  
G31  20631951.059   108421631.557         221.674          47.000    20631940.450    84484347.032         172.687          46.000  
G04  24639829.366   129483172.210        3193.328          35.000    24639827.844   100895985.666        2488.938          41.000  
C33  22475157.689   117034040.545        -554.688          50.000                                                                  
C06  36565391.060   190405586.413        -170.542          45.000    36565373.772   147233606.361        -132.041          48.000  
C14  22568783.336   117521564.807       -2138.613          46.000    22568768.791    90875075.182       -1653.785          51.000  
C16  36991785.841   192625932.209        -203.728          48.000    36991773.949   148950542.033        -157.670          48.000  
C24  21803516.539   113536636.060        -803.121          50.000                                                                  
C26  24309212.864   126584444.056       -2551.385          44.000                                                                  
G03  22886953.377   120271754.167          47.167          39.000    22886947.652    93718229.570          36.765          39.000  
G16  22570549.481   118609040.896        3066.886          42.000                                                                  
C09  37717359.041   196404187.020        -160.651          43.000    37717344.970   151872117.993        -124.313          48.000  
C25  23723536.145   123534681.588        1622.723          45.000                                                                  
C13  38259187.727   199225627.386       -2238.244          41.000    38259182.206   154053871.827       -1730.863          43.000  
C08  39079360.103   203496475.182       -2445.141          37.000    39079348.746   157356321.865       -1890.706          44.000  
C10  40540498.121   211105012.946         927.787          34.000    40540499.629   163239844.492         717.806          38.000  
C35  25974785.446   135257538.414         498.127          38.000                                                                  
G25  24214493.262   127248010.012       -3905.256          35.000    24214485.252    99154268.540       -3043.242          37.000  
> 2025 10 30 06 16 08.6000000  0 21                     
G32  21887772.543   115021021.254       -2813.245          46.000    21887766.171    89626741.755       -2191.848          42.000  
G29  23048873.392   121122659.852        -429.519          42.000    23048864.198    94381257.721        -334.710          41.000  
G28  21198965.657   111401317.153       -1133.651          46.000    21198955.487    86806180.212        -883.365          46.000  
G26  20379286.585   107093872.257         821.627          48.000    20379279.807    83449751.393         640.106          46.000  
G31  20631949.369   108421622.677         221.939          47.000    20631938.745    84484340.111         172.964          46.000  
G04  24639805.051   129483044.433        3194.014          35.000    24639803.519   100895886.089        2489.319          41.000  
C33  22475161.967   117034062.718        -554.457          50.000                                                                  
C06  36565392.340   190405593.231        -170.444          45.000    36565375.095   147233611.621        -131.675          48.000  
C14  22568799.757   117521650.357       -2138.691          46.000    22568785.208    90875141.329       -1653.722          51.000  
C16  36991787.415   192625940.353        -203.580          48.000    36991775.499   148950548.335        -157.582          48.000  
C24  21803522.706   113536668.179        -802.977          50.000                                                                  
C26  24309232.449   126584546.087       -2550.922          44.000                                                                  
G03  22886953.015   120271752.290          46.959          39.000    22886947.298    93718228.094          36.876          39.000  
G16  22570526.128   118608918.189        3067.402          42.000                                                                  
C09  37717360.286   196404193.433        -160.342          43.000    37717346.210   151872122.955        -124.073          48.000  
C25  23723523.684   123534616.663        1622.974          45.000                                                                  
C13  38259204.890   199225716.918       -2238.260          41.000    38259199.375   154053941.068       -1730.932          43.000  
C08  39079378.871   203496573.009       -2445.498          37.000    39079367.492   157356397.494       -1890.669          44.000  
C10  40540490.992   211104975.798         928.425          34.000    40540492.522   163239815.828         716.932          38.000  
C35  25974781.623   135257518.447         498.829          38.000                                                                  
G25  24214523.002   127248166.243       -3905.735          35.000    24214514.971    99154390.262       -3043.019          35.000  
> 2025 10 30 06 16 08.6400000  0 21                     
G32  21887793.932   115021133.777       -2813.141          46.000    21887787.585    89626829.440       -2191.970          42.000  
G29  23048876.670   121122677.033        -429.449          42.000    23048867.472    94381271.107        -334.667          41.000  
G28  21198974.283   111401362.505       -1133.758          46.000    21198964.113    86806215.549        -883.363          46.000  
G26  20379280.318   107093839.388         821.725          48.000    20379273.567    83449725.777         640.323          46.000  
G31  20631947.669   108421613.796         222.073          47.000    20631937.031    84484333.192         173.043          46.000  
G04  24639780.721   129482916.619        3194.998          35.000    24639779.219   100895786.532        2489.142          41.000  
C33  22475166.249   117034084.887        -554.275          50.000                                                                  
C06  36565393.644   190405600.040        -170.280          45.000    36565376.419   147233616.885        -131.547          48.000  
C14  22568816.190   117521735.898       -2138.571          46.000    22568801.632    90875207.477       -1653.704          51.000  
C16  36991788.955   192625948.503        -203.658          48.000    36991777.031   148950554.635        -157.528          48.000  
C24  21803528.862   113536700.298        -802.946          50.000                                                                  
C26  24309252.051   126584648.124       -2550.834          44.000                                                                  
G03  22886952.650   120271750.403          47.101          39.000    22886946.945    93718226.611          37.120          39.000  
G16  22570502.774   118608795.491        3067.503          42.000                                                                  
C09  37717361.499   196404199.860        -160.481          43.000    37717347.450   151872127.910        -123.850          48.000  
C25  23723511.209   123534551.744        1622.992          45.000                                                                  
C13  38259222.094   199225806.469       -2238.655          41.000    38259216.553   154054010.296       -1730.746          43.000  
C08  39079397.662   203496670.795       -2444.990          37.000    39079386.272   157356473.128       -1890.781          44.000  
C10  40540483.850   211104938.678         928.226          34.000    40540485.413   163239787.126         717.223          38.000  
C35  25974777.762   135257498.491         498.980          38.000                                                                  
G25  24214552.727   127248322.452       -3905.580          35.000    24214544.690    99154511.961       -3042.513          35.000  
> 2025 10 30 06 16 08.6800000  0 21                     
G32  21887815.347   115021246.290       -2812.929          46.000    21887809.020    89626917.128       -2192.163          42.000  
G29  23048879.946   121122694.217        -429.535          42.000    23048870.729    94381284.507        -334.919          41.000  
G28  21198982.910   111401407.848       -1133.658          46.000    21198972.760    86806250.887        -883.391          46.000  
G26  20379274.065   107093806.517         821.798          48.000    20379267.306    83449700.162         640.402          46.000  
G31  20631945.990   108421604.925         221.880          47.000    20631935.325    84484326.280         172.882          46.000  
G04  24639756.391   129482788.830        3194.998          35.000    24639754.894   100895686.977        2488.962          41.000  
C33  22475170.513   117034107.058        -554.236          50.000                                                                  
C06  36565394.951   190405606.848        -170.182          45.000    36565377.755   147233622.157        -131.675          48.000  
C14  22568832.616   117521821.441       -2138.600          46.000    22568818.066    90875273.626       -1653.712          51.000  
C16  36991790.505   192625956.654        -203.739          48.000    36991778.604   148950560.931        -157.421          48.000  
C24  21803534.996   113536732.428        -803.140          50.000                                                                  
C26  24309271.633   126584750.163       -2550.837          44.000                                                                  
G03  22886952.304   120271748.501          47.446          39.000    22886946.590    93718225.145          36.877          40.000  
G16  22570479.387   118608672.785        3067.630          42.000                                                                  
C09  37717362.727   196404206.280        -160.444          43.000    37717348.667   151872132.876        -123.990          48.000  
C25  23723498.760   123534486.821        1623.053          45.000                                                                  
C13  38259239.301   199225896.008       -2238.596          41.000    38259233.760   154054079.535       -1730.866          43.000  
C08  39079416.454   203496768.600       -2445.034          37.000    39079405.051   157356548.767       -1890.928          44.000  
C10  40540476.726   211104901.573         927.917          34.000    40540478.285   163239758.434         717.238          38.000  
C35  25974773.907   135257478.543         498.790          38.000                                                                  
G25  24214582.424   127248478.633       -3904.944          35.000    24214574.400    99154633.664       -3042.471          35.000  
> 2025 10 30 06 16 08.7200000  0 21                     
G32  21887836.774   115021358.827       -2813.286          46.000    21887830.443    89627004.809       -2192.109          42.000  
G29  23048883.231   121122711.415        -429.830          42.000    23048873.990    94381297.897        -334.829          42.000  
G28  21198991.545   111401453.206       -1133.890          46.000    21198981.399    86806286.227        -883.460          46.000  
G26  20379267.812   107093773.656         821.604          48.000    20379261.068    83449674.558         640.195          46.000  
G31  20631944.304   108421596.062         221.615          47.000    20631933.644    84484319.376         172.653          46.000  
G04  24639732.096   129482661.044        3194.841          35.000    24639730.576   100895587.417        2488.999          41.000  
C33  22475174.744   117034129.238        -554.393          50.000                                                                  
C06  36565396.218   190405613.657        -170.176          45.000    36565379.095   147233627.431        -131.802          48.000  
C14  22568849.040   117521906.987       -2138.658          46.000    22568834.487    90875339.780       -1653.826          51.000  
C16  36991792.081   192625964.812        -203.913          48.000    36991780.176   148950567.233        -157.489          48.000  
C24  21803541.119   113536764.562        -803.342          50.000                                                                  
C26  24309291.248   126584852.209       -2551.024          44.000                                                                  
G03  22886951.943   120271746.603          47.523          39.000    22886946.236    93718223.668          36.902          40.000  
G16  22570456.041   118608550.095        3067.397          42.000                                                                  
C09  37717363.940   196404212.714        -160.707          43.000    37717349.908   151872137.858        -124.366          48.000  
C25  23723486.275   123534421.909        1622.852          45.000                                                                  
C13  38259256.498   199225985.545       -2238.508          41.000    38259250.952   154054148.771       -1730.897          43.000  
C08  39079435.249   203496866.392       -2444.833          37.000    39079423.844   157356624.388       -1890.713          44.000  
C10  40540469.572   211104864.456         927.842          34.000    40540471.172   163239729.727         717.477          38.000  
C35  25974770.095   135257458.631         498.023          38.000                                                                  
G25  24214612.150   127248634.846       -3905.100          35.000    24214604.139    99154755.389       -3042.904          36.000  
> 2025 10 30 06 16 08.7600000  0 21                     
G32  21887858.187   115021471.355       -2813.280          46.000    21887851.868    89627092.491       -2192.128          42.000  
G29  23048886.499   121122728.614        -430.003          42.000    23048877.237    94381311.290        -334.854          42.000  
G28  21199000.183   111401498.561       -1133.944          46.000    21198990.023    86806321.568        -883.545          46.000  
G26  20379261.562   107093740.797         821.480          48.000    20379254.818    83449648.951         640.190          46.000  
G31  20631942.615   108421587.193         221.629          47.000    20631931.940    84484312.468         172.611          46.000  
G04  24639707.773   129482533.316        3193.738          35.000    24639706.257   100895487.870        2488.724          41.000  
C33  22475178.953   117034151.426        -554.642          50.000                                                                  
C06  36565397.522   190405620.474        -170.303          45.000    36565380.395   147233632.708        -131.912          48.000  
C14  22568865.464   117521992.547       -2138.949          46.000    22568850.912    90875405.937       -1653.907          51.000  
C16  36991793.650   192625972.970        -203.979          48.000    36991781.760   148950573.533        -157.497          48.000  
C24  21803547.319   113536796.694        -803.400          50.000                                                                  
C26  24309310.831   126584954.271       -2551.433          44.000                                                                  
G03  22886951.591   120271744.735          46.948          39.000    22886945.887    93718222.198          36.762          40.000  
G16  22570432.710   118608427.421        3066.939          42.000                                                                  
C09  37717365.177   196404219.138        -160.687          43.000    37717351.152   151872142.831        -124.425          48.000  
C25  23723473.825   123534356.995        1622.797          45.000                                                                  
C13  38259273.711   199226075.098       -2238.732          41.000    38259268.173   154054218.007       -1730.928          43.000  
C08  39079454.008   203496964.211       -2445.199          37.000    39079442.631   157356700.017       -1890.673          44.000  
C10  40540462.429   211104827.344         927.795          34.000    40540464.043   163239701.010         717.791          38.000  
C35  25974766.294   135257438.682         498.333          38.000                                                                  
G25  24214641.864   127248791.048       -3905.040          35.000    24214633.887    99154877.123       -3043.305          36.000  
> 2025 10 30 06 16 08.8000000  0 21                     
G32  21887879.589   115021583.881       -2813.238          46.000    21887873.287    89627180.182       -2192.268          42.000  
G29  23048889.768   121122745.802        -429.900          42.000    23048880.502    94381324.672        -334.633          42.000  
G28  21199008.806   111401543.914       -1133.910          46.000    21198998.652    86806356.913        -883.636          46.000  
G26  20379255.335   107093707.942         821.332          48.000    20379248.579    83449623.350         640.022          46.000  
G31  20631940.939   108421578.333         221.494          47.000    20631930.235    84484305.552         172.766          46.000  
G04  24639683.469   129482405.573        3193.340          35.000    24639681.951   100895388.315        2488.777          41.000  
C33  22475183.219   117034173.619        -554.840          50.000                                                                  
C06  36565398.820   190405627.305        -170.680          45.000    36565381.706   147233637.980        -131.866          48.000  
C14  22568881.894   117522078.099       -2138.931          46.000    22568867.329    90875472.089       -1653.867          51.000  
C16  36991795.213   192625981.116        -203.788          48.000    36991783.337   148950579.837        -157.596          48.000  
C24  21803553.508   113536828.824        -803.355          50.000                                                                  
C26  24309330.419   126585056.330       -2551.571          44.000                                                                  
G03  22886951.249   120271742.855          46.864          39.000    22886945.533    93718220.747          36.336          40.000  
G16  22570409.373   118608304.746        3066.758          42.000                                                                  
C09  37717366.398   196404225.568        -160.774          43.000    37717352.369   151872147.801        -124.351          48.000  
C25  23723461.396   123534292.073        1622.925          45.000                                                                  
C13  38259290.918   199226164.625       -2238.357          41.000    38259285.379   154054287.247       -1730.996          43.000  
C08  39079472.793   203497062.041       -2445.580          37.000    39079461.435   157356775.655       -1890.856          44.000  
C10  40540455.303   211104790.226         927.933          34.000    40540456.877   163239672.293         717.931          38.000  
C35  25974762.459   135257418.753         498.177          38.000                                                                  
G25  24214671.579   127248947.270       -3905.411          35.000    24214663.602    99154998.830       -3042.989          36.000  
> 2025 10 30 06 16 08.8400000  0 21                     
G32  21887901.011   115021696.415       -2813.327          46.000    21887894.706    89627267.876       -2192.340          42.000  
G29  23048893.039   121122762.987        -429.736          42.000    23048883.777    94381338.062        -334.706          42.000  
G28  21199017.419   111401589.267       -1133.879          46.000    21199007.284    86806392.255        -883.674          46.000  
G26  20379249.084   107093675.091         821.203          48.000    20379242.332    83449597.757         639.831          46.000  
G31  20631939.237   108421569.469         221.507          47.000    20631928.531    84484298.636         172.877          46.000  
G04  24639659.141   129482277.804        3193.765          35.000    24639657.634   100895288.738        2489.175          41.000  
C33  22475187.501   117034195.806        -554.802          50.000                                                                  
C06  36565400.141   190405634.130        -170.714          45.000    36565383.004   147233643.250        -131.835          48.000  
C14  22568898.333   117522163.653       -2138.909          46.000    22568883.771    90875538.242       -1653.860          51.000  
C16  36991796.775   192625989.265        -203.732          48.000    36991784.917   148950586.143        -157.697          48.000  
C24  21803559.709   113536860.953        -803.300          50.000                                                                  
C26  24309350.020   126585158.387       -2551.586          44.000                                                                  
G03  22886950.897   120271740.995          46.497          39.000    22886945.174    93718219.291          36.305          40.000  
G16  22570386.016   118608182.072        3066.729          42.000                                                                  
C09  37717367.643   196404231.992        -160.703          43.000    37717353.605   151872152.768        -124.255          48.000  
C25  23723448.946   123534227.153        1622.961          45.000                                                                  
C13  38259308.131   199226254.160       -2238.309          41.000    38259302.593   154054356.487       -1731.020          43.000  
C08  39079491.589   203497159.856       -2445.529          37.000    39079480.229   157356851.288       -1890.859          44.000  
C10  40540448.171   211104753.118         927.811          34.000    40540449.715   163239643.584         717.896          38.000  
C35  25974758.619   135257398.808         498.530          36.000                                                                  
G25  24214701.319   127249103.477       -3905.330          35.000    24214693.340    99155120.574       -3043.490          36.000  
> 2025 10 30 06 16 08.8800000  0 21                     
G32  21887922.415   115021808.950       -2813.388          46.000    21887916.105    89627355.557       -2192.182          42.000  
G29  23048896.313   121122780.181        -429.819          42.000    23048887.048    94381351.465        -335.033          42.000  
G28  21199026.053   111401634.624       -1133.940          46.000    21199015.913    86806427.605        -883.802          46.000  
G26  20379242.850   107093642.230         821.367          48.000    20379236.064    83449572.144         640.126          46.000  
G31  20631937.526   108421560.606         221.532          47.000    20631926.838    84484291.737         172.562          46.000  
G04  24639634.808   129482150.047        3193.794          35.000    24639633.326   100895189.186        2489.016          41.000  
C33  22475191.786   117034217.994        -554.806          50.000                                                                  
C06  36565401.486   190405640.947        -170.573          45.000    36565384.292   147233648.526        -131.901          48.000  
C14  22568914.738   117522249.208       -2138.940          46.000    22568900.192    90875604.400       -1653.955          51.000  
C16  36991798.312   192625997.432        -204.079          48.000    36991786.488   148950592.455        -157.850          48.000  
C24  21803565.916   113536893.085        -803.314          50.000                                                                  
C26  24309369.640   126585260.439       -2551.454          44.000                                                                  
G03  22886950.567   120271739.134          46.339          39.000    22886944.813    93718217.821          36.625          40.000  
G16  22570362.668   118608059.380        3067.050          41.000                                                                  
C09  37717368.866   196404238.422        -160.779          43.000    37717354.883   151872157.734        -124.207          48.000  
C25  23723436.453   123534162.238        1622.882          45.000                                                                  
C13  38259325.338   199226343.693       -2238.292          42.000    38259319.773   154054425.717       -1730.859          43.000  
C08  39079510.353   203497257.683       -2445.704          37.000    39079499.024   157356926.928       -1890.976          44.000  
C10  40540441.037   211104716.004         927.771          34.000    40540442.571   163239614.895         717.449          38.000  
C35  25974754.764   135257378.898         498.109          36.000                                                                  
G25  24214731.061   127249259.687       -3905.306          35.000    24214723.080    99155242.292       -3043.245          36.000  
> 2025 10 30 06 16 08.9200000  0 21                     
G32  21887943.829   115021921.489       -2813.482          46.000    21887937.522    89627443.245       -2192.189          42.000  
G29  23048899.591   121122797.384        -430.031          42.000    23048890.317    94381364.880        -335.342          42.000  
G28  21199034.667   111401679.980       -1133.958          46.000    21199024.536    86806462.955        -883.849          46.000  
G26  20379236.606   107093609.377         821.311          48.000    20379229.823    83449546.544         639.993          46.000  
G31  20631935.828   108421551.744         221.545          47.000    20631925.172    84484284.836         172.445          46.000  
G04  24639610.520   129482022.299        3193.644          35.000    24639609.017   100895089.637        2488.833          41.000  
C33  22475196.027   117034240.185        -554.849          50.000                                                                  
C06  36565402.805   190405647.769        -170.547          45.000    36565385.598   147233653.800        -131.886          48.000  
C14  22568931.182   117522334.764       -2138.932          46.000    22568916.639    90875670.566       -1654.130          51.000  
C16  36991799.870   192626005.591        -204.072          48.000    36991788.081   148950598.767        -157.883          48.000  
C24  21803572.083   113536925.224        -803.484          50.000                                                                  
C26  24309389.249   126585362.483       -2551.257          44.000                                                                  
G03  22886950.205   120271737.245          46.834          39.000    22886944.458    93718216.355          36.654          40.000  
G16  22570339.330   118607936.692        3067.188          41.000                                                                  
C09  37717370.103   196404244.845        -160.676          43.000    37717356.145   151872162.707        -124.302          48.000  
C25  23723423.991   123534097.330        1622.717          45.000                                                                  
C13  38259342.524   199226433.241       -2238.585          42.000    38259336.985   154054494.958       -1730.984          43.000  
C08  39079529.138   203497355.501       -2445.664          37.000    39079517.797   157357002.565       -1891.000          44.000  
C10  40540433.896   211104678.892         927.780          34.000    40540435.446   163239586.234         716.680          38.000  
C35  25974750.944   135257358.961         498.312          36.000                                                                  
G25  24214760.802   127249415.895       -3905.303          35.000    24214752.818    99155364.003       -3042.965          36.000  
> 2025 10 30 06 16 08.9600000  0 21                     
G32  21887965.224   115022034.019       -2813.376          46.000    21887958.937    89627530.934       -2192.216          42.000  
G29  23048902.847   121122814.584        -430.060          42.000    23048893.581    94381378.289        -335.387          42.000  
G28  21199043.304   111401725.340       -1134.001          46.000    21199033.172    86806498.293        -883.636          47.000  
G26  20379230.347   107093576.520         821.361          48.000    20379223.577    83449520.948         639.863          46.000  
G31  20631934.127   108421542.877         221.600          47.000    20631923.493    84484277.925         172.613          46.000  
G04  24639586.218   129481894.541        3193.859          35.000    24639584.689   100894990.078        2488.915          41.000  
C33  22475200.297   117034262.380        -554.910          50.000                                                                  
C06  36565404.092   190405654.584        -170.450          45.000    36565386.890   147233659.077        -131.943          48.000  
C14  22568947.638   117522420.325       -2139.040          46.000    22568933.072    90875736.723       -1654.031          51.000  
C16  36991801.450   192626013.745        -203.977          48.000    36991789.619   148950605.072        -157.789          48.000  
C24  21803578.229   113536957.362        -803.519          50.000                                                                  
C26  24309408.850   126585464.526       -2551.133          44.000                                                                  
G03  22886949.845   120271735.370          46.896          39.000    22886944.102    93718214.907          36.365          40.000  
G16  22570316.003   118607814.014        3067.051          41.000                                                                  
C09  37717371.328   196404251.273        -160.728          43.000    37717357.392   151872167.673        -124.232          48.000  
C25  23723411.516   123534032.419        1622.717          45.000                                                                  
C13  38259359.699   199226522.789       -2238.752          42.000    38259354.154   154054564.200       -1731.083          43.000  
C08  39079547.933   203497453.310       -2445.432          37.000    39079536.566   157357078.196       -1890.877          44.000  
C10  40540426.783   211104641.776         927.876          34.000    40540428.309   163239557.525         717.272          38.000  
C35  25974747.131   135257339.024         498.463          36.000                                                                  
G25  24214790.546   127249572.095       -3905.171          35.000    24214782.544    99155485.709       -3042.688          36.000  
> 2025 10 30 06 16 09.0000000  0 21                     
G32  21887986.635   115022146.547       -2813.272          46.000    21887980.334    89627618.607       -2191.950          42.000  
G29  23048906.115   121122831.794        -430.278          42.000    23048896.844    94381391.699        -335.383          42.000  
G28  21199051.935   111401770.706       -1134.160          46.000    21199041.798    86806533.629        -883.485          47.000  
G26  20379224.105   107093543.673         821.219          48.000    20379217.320    83449495.349         639.896          46.000  
G31  20631932.433   108421534.016         221.526          47.000    20631921.804    84484271.015         172.705          46.000  
G04  24639561.892   129481766.747        3194.562          35.000    24639560.392   100894890.528        2488.824          41.000  
C33  22475204.569   117034284.572        -554.869          50.000                                                                  
C06  36565405.396   190405661.412        -170.603          45.000    36565388.176   147233664.349        -131.847          48.000  
C14  22568964.067   117522505.889       -2139.146          46.000    22568949.489    90875802.875       -1653.872          51.000  
C16  36991803.012   192626021.902        -203.945          48.000    36991791.169   148950611.381        -157.761          48.000  
C24  21803584.462   113536989.496        -803.435          50.000                                                                  
C26  24309428.430   126585566.573       -2551.158          44.000                                                                  
G03  22886949.480   120271733.485          47.089          39.000    22886943.744    93718213.460          36.192          40.000  
G16  22570292.638   118607691.342        3066.868          41.000                                                                  
C09  37717372.543   196404257.706        -160.816          43.000    37717358.614   151872172.645        -124.290          48.000  
C25  23723399.058   123533967.504        1622.797          45.000                                                                  
C13  38259376.880   199226612.337       -2238.768          42.000    38259371.361   154054633.439       -1731.038          43.000  
C08  39079566.737   203497551.123       -2445.341          37.000    39079555.370   157357153.825       -1890.778          44.000  
C10  40540419.669   211104604.665         927.845          34.000    40540421.175   163239528.813         717.645          38.000  
C35  25974743.292   135257319.113         497.910          36.000                                                                  
G25  24214820.284   127249728.333       -3905.753          36.000    24214812.253    99155607.443       -3043.112          36.000  
> 2025 10 30 06 16 09.0400000  0 21                     
G32  21888008.068   115022259.080       -2813.315          46.000    21888001.757    89627706.291       -2191.980          42.000  
G29  23048909.393   121122849.011        -430.489          42.000    23048900.130    94381405.115        -335.431          41.000  
G28  21199060.581   111401816.065       -1134.108          46.000    21199050.437    86806568.977        -883.619          47.000  
G26  20379217.820   107093510.815         821.350          48.000    20379211.051    83449469.750         639.909          46.000  
G31  20631930.714   108421525.150         221.606          47.000    20631920.122    84484264.105         172.755          46.000  
G04  24639537.577   129481638.948        3194.958          35.000    24639536.097   100894790.974        2488.848          41.000  
C33  22475208.834   117034306.761        -554.811          50.000                                                                  
C06  36565406.709   190405668.235        -170.634          45.000    36565389.492   147233669.620        -131.788          48.000  
C14  22568980.508   117522591.435       -2138.832          46.000    22568965.914    90875869.035       -1653.957          51.000  
C16  36991804.599   192626030.046        -203.687          48.000    36991792.718   148950617.681        -157.593          48.000  
C24  21803590.644   113537021.623        -803.285          50.000                                                                  
C26  24309448.004   126585668.619       -2551.154          44.000                                                                  
G03  22886949.125   120271731.597          47.250          39.000    22886943.391    93718211.993          36.542          40.000  
G16  22570269.278   118607568.641        3067.269          42.000                                                                  
C09  37717373.794   196404264.132        -160.751          43.000    37717359.851   151872177.614        -124.283          48.000  
C25  23723386.593   123533902.595        1622.723          45.000                                                                  
C13  38259394.048   199226701.881       -2238.685          42.000    38259388.592   154054702.685       -1731.118          43.000  
C08  39079585.512   203497648.901       -2444.702          37.000    39079574.136   157357229.459       -1890.838          44.000  
C10  40540412.565   211104567.513         928.580          34.000    40540414.034   163239500.114         717.555          38.000  
C35  25974739.464   135257299.166         498.316          36.000                                                                  
G25  24214850.032   127249884.542       -3905.585          36.000    24214841.999    99155729.160       -3043.016          36.000  
> 2025 10 30 06 16 09.0800000  0 21                     
G32  21888029.508   115022371.622       -2813.522          46.000    21888023.160    89627793.990       -2192.326          42.000  
G29  23048912.678   121122866.216        -430.320          42.000    23048903.410    94381418.528        -335.423          40.000  
G28  21199069.207   111401861.420       -1133.998          46.000    21199059.070    86806604.318        -883.563          47.000  
G26  20379211.568   107093477.961         821.369          48.000    20379204.817    83449444.159         639.766          46.000  
G31  20631929.008   108421516.281         221.693          47.000    20631918.447    84484257.205         172.588          46.000  
G04  24639513.256   129481511.172        3194.729          35.000    24639511.753   100894691.402        2489.166          41.000  
C33  22475213.074   117034328.953        -554.805          50.000                                                                  
C06  36565408.006   190405675.050        -170.480          45.000    36565390.812   147233674.891        -131.794          48.000  
C14  22568996.936   117522676.997       -2139.007          46.000    22568982.333    90875935.204       -1654.166          51.000  
C16  36991806.157   192626038.194        -203.675          48.000    36991794.268   148950623.992        -157.714          48.000  
C24  21803596.792   113537053.762        -803.405          50.000                                                                  
C26  24309467.596   126585770.661       -2551.106          43.000                                                                  
G03  22886948.767   120271729.745          46.670          39.000    22886943.054    93718210.518          36.840          40.000  
G16  22570245.931   118607445.948        3067.373          42.000                                                                  
C09  37717375.023   196404270.567        -160.845          43.000    37717361.076   151872182.583        -124.251          48.000  
C25  23723374.149   123533837.687        1622.699          45.000                                                                  
C13  38259411.224   199226791.418       -2238.498          42.000    38259405.798   154054771.918       -1730.912          43.000  
C08  39079604.284   203497746.729       -2445.219          37.000    39079592.905   157357305.094       -1890.906          44.000  
C10  40540405.436   211104530.413         927.881          34.000    40540406.905   163239471.428         717.301          38.000  
C35  25974735.635   135257279.198         498.988          36.000                                                                  
G25  24214879.756   127250040.767       -3905.750          36.000    24214871.740    99155850.883       -3043.141          36.000  
> 2025 10 30 06 16 09.1200000  0 21                     
G32  21888050.941   115022484.161       -2813.563          46.000    21888044.606    89627881.696       -2192.603          42.000  
G29  23048915.933   121122883.408        -429.961          41.000    23048906.673    94381431.934        -335.226          40.000  
G28  21199077.821   111401906.768       -1133.792          46.000    21199067.676    86806639.653        -883.426          46.000  
G26  20379205.329   107093445.114         821.237          48.000    20379198.564    83449418.565         639.767          46.000  
G31  20631927.322   108421507.420         221.581          47.000    20631916.758    84484250.302         172.539          46.000  
G04  24639488.941   129481383.446        3193.597          35.000    24639487.457   100894591.856        2488.859          41.000  
C33  22475217.333   117034351.146        -554.844          50.000                                                                  
C06  36565409.270   190405681.860        -170.292          45.000    36565392.120   147233680.165        -131.836          48.000  
C14  22569013.357   117522762.569       -2139.246          46.000    22568998.789    90876001.371       -1654.227          51.000  
C16  36991807.705   192626046.347        -203.783          48.000    36991795.823   148950630.298        -157.661          48.000  
C24  21803602.943   113537085.903        -803.508          50.000                                                                  
C26  24309487.191   126585872.711       -2551.248          43.000                                                                  
G03  22886948.414   120271727.879          46.605          39.000    22886942.699    93718209.064          36.538          40.000  
G16  22570222.599   118607323.284        3066.836          42.000                                                                  
C09  37717376.265   196404276.999        -160.817          43.000    37717362.298   151872187.552        -124.251          48.000  
C25  23723361.682   123533772.771        1622.797          45.000                                                                  
C13  38259428.395   199226880.960       -2238.519          42.000    38259422.993   154054841.165       -1731.068          43.000  
C08  39079623.064   203497844.540       -2445.230          37.000    39079611.669   157357380.728       -1890.881          44.000  
C10  40540398.318   211104493.297         927.881          34.000    40540399.780   163239442.726         717.391          38.000  
C35  25974731.789   135257259.246         499.011          36.000                                                                  
G25  24214909.496   127250196.993       -3905.768          36.000    24214901.471    99155972.630       -3043.574          36.000  
> 2025 10 30 06 16 09.1600000  0 21                     
G32  21888072.343   115022596.701       -2813.551          45.000    21888066.021    89627969.395       -2192.593          42.000  
G29  23048919.184   121122900.613        -430.040          41.000    23048909.944    94381445.328        -334.895          40.000  
G28  21199086.461   111401952.126       -1133.881          46.000    21199076.291    86806674.993        -883.473          46.000  
G26  20379199.084   107093412.271         821.064          48.000    20379192.323    83449392.965         639.886          46.000  
G31  20631925.649   108421498.566         221.378          47.000    20631915.087    84484243.403         172.490          46.000  
G04  24639464.669   129481255.704        3193.281          35.000    24639463.146   100894492.314        2488.578          41.000  
C33  22475221.606   117034373.337        -554.811          50.000                                                                  
C06  36565410.541   190405688.678        -170.365          45.000    36565393.435   147233685.444        -131.968          48.000  
C14  22569029.812   117522848.133       -2139.230          46.000    22569015.203    90876067.527       -1654.053          51.000  
C16  36991809.279   192626054.515        -204.099          48.000    36991797.366   148950636.595        -157.486          48.000  
C24  21803609.126   113537118.042        -803.506          50.000                                                                  
C26  24309506.792   126585974.759       -2551.228          43.000                                                                  
G03  22886948.063   120271726.022          46.419          39.000    22886942.355    93718207.616          36.282          40.000  
G16  22570199.233   118607200.611        3066.760          42.000                                                                  
C09  37717377.517   196404283.417        -160.544          43.000    37717363.494   151872192.528        -124.372          47.000  
C25  23723349.197   123533707.861        1622.736          45.000                                                                  
C13  38259445.575   199226970.494       -2238.364          42.000    38259440.210   154054910.406       -1731.050          43.000  
C08  39079641.840   203497942.351       -2445.250          37.000    39079630.470   157357456.386       -1891.297          44.000  
C10  40540391.202   211104456.203         927.412          34.000    40540392.646   163239414.034         717.297          38.000  
C35  25974727.954   135257239.313         498.604          36.000                                                                  
G25  24214939.230   127250353.216       -3905.741          36.000    24214931.198    99156094.371       -3043.689          36.000  
> 2025 10 30 06 16 09.2000000  0 21                     
G32  21888093.752   115022709.241       -2813.590          45.000    21888087.417    89628057.073       -2192.223          42.000  
G29  23048922.448   121122917.811        -429.947          41.000    23048913.194    94381458.735        -335.091          40.000  
G28  21199095.102   111401997.485       -1133.929          46.000    21199084.951    86806710.342        -883.680          46.000  
G26  20379192.820   107093379.427         821.022          48.000    20379186.066    83449367.363         639.991          46.000  
G31  20631923.975   108421489.714         221.268          47.000    20631913.395    84484236.495         172.626          46.000  
G04  24639440.379   129481127.925        3193.955          35.000    24639438.833   100894392.755        2488.786          41.000  
C33  22475225.851   117034395.533        -554.882          50.000                                                                  
C06  36565411.832   190405695.503        -170.531          45.000    36565394.756   147233690.717        -131.945          48.000  
C14  22569046.216   117522933.696       -2139.197          46.000    22569031.636    90876133.679       -1653.890          51.000  
C16  36991810.852   192626062.678        -204.176          48.000    36991798.954   148950642.897        -157.463          48.000  
C24  21803615.295   113537150.165        -803.223          50.000                                                                  
C26  24309526.388   126586076.815       -2551.378          43.000                                                                  
G03  22886947.723   120271724.152          46.547          39.000    22886942.008    93718206.156          36.341          40.000  
G16  22570175.880   118607077.931        3066.886          42.000                                                                  
C09  37717378.764   196404289.836        -160.413          43.000    37717364.700   151872197.513        -124.586          47.000  
C25  23723336.711   123533642.959        1622.559          45.000                                                                  
C13  38259462.785   199227060.035       -2238.465          42.000    38259457.422   154054979.655       -1731.206          43.000  
C08  39079660.639   203498040.172       -2445.535          37.000    39079649.247   157357532.032       -1891.276          44.000  
C10  40540384.085   211104419.050         928.386          34.000    40540385.511   163239385.373         716.664          38.000  
C35  25974724.115   135257219.353         498.856          36.000                                                                  
G25  24214968.955   127250509.434       -3905.592          36.000    24214960.914    99156216.096       -3043.459          36.000  
> 2025 10 30 06 16 09.2400000  0 21                     
G32  21888115.194   115022821.791       -2813.743          45.000    21888108.842    89628144.771       -2192.376          42.000  
G29  23048925.715   121122935.018        -430.099          41.000    23048916.467    94381472.146        -335.229          40.000  
G28  21199103.736   111402042.848       -1134.041          46.000    21199093.581    86806745.707        -884.074          46.000  
G26  20379186.577   107093346.589         820.924          48.000    20379179.818    83449341.767         639.947          46.000  
G31  20631922.283   108421480.858         221.281          47.000    20631911.699    84484229.591         172.632          46.000  
G04  24639416.067   129481000.166        3194.000          35.000    24639414.514   100894293.198        2488.875          41.000  
C33  22475230.059   117034417.744        -555.201          50.000                                                                  
C06  36565413.146   190405702.343        -170.918          45.000    36565396.070   147233695.989        -131.854          48.000  
C14  22569062.663   117523019.257       -2139.121          46.000    22569048.066    90876199.838       -1653.937          51.000  
C16  36991812.417   192626070.834        -204.054          48.000    36991800.556   148950649.207        -157.649          48.000  
C24  21803621.478   113537182.297        -803.236          50.000                                                                  
C26  24309546.021   126586178.871       -2551.473          43.000                                                                  
G03  22886947.355   120271722.299          46.315          39.000    22886941.663    93718204.715          36.073          40.000  
G16  22570152.503   118606955.228        3067.374          42.000                                                                  
C09  37717380.014   196404296.258        -160.457          43.000    37717365.962   151872202.490        -124.543          47.000  
C25  23723324.266   123533578.059        1622.467          45.000                                                                  
C13  38259479.997   199227149.584       -2238.708          42.000    38259474.595   154055048.889       -1731.005          43.000  
C08  39079679.407   203498137.992       -2445.640          37.000    39079668.025   157357607.671       -1891.151          44.000  
C10  40540376.966   211104381.924         928.350          34.000    40540378.385   163239356.669         717.162          38.000  
C35  25974720.296   135257199.424         498.415          36.000                                                                  
G25  24214998.694   127250665.635       -3905.239          36.000    24214990.630    99156337.794       -3042.763          36.000  
> 2025 10 30 06 16 09.2800000  0 21                     
G32  21888136.620   115022934.337       -2813.738          45.000    21888130.271    89628232.465       -2192.368          42.000  
G29  23048928.993   121122952.230        -430.287          41.000    23048919.729    94381485.541        -335.014          40.000  
G28  21199112.352   111402088.202       -1133.928          46.000    21199102.207    86806781.062        -884.041          46.000  
G26  20379180.369   107093313.745         821.000          48.000    20379173.566    83449316.174         639.841          47.000  
G31  20631920.598   108421471.990         221.559          47.000    20631910.015    84484222.679         172.749          46.000  
G04  24639391.749   129480872.402        3194.095          35.000    24639390.231   100894193.665        2488.489          41.000  
C33  22475234.328   117034439.948        -555.220          50.000                                                                  
C06  36565414.454   190405709.174        -170.944          45.000    36565397.388   147233701.268        -131.956          48.000  
C14  22569079.085   117523104.815       -2139.005          46.000    22569064.488    90876266.001       -1654.033          51.000  
C16  36991813.959   192626078.990        -203.967          48.000    36991802.135   148950655.516        -157.744          49.000  
C24  21803627.614   113537214.430        -803.292          50.000                                                                  
C26  24309565.628   126586280.926       -2551.481          43.000                                                                  
G03  22886946.999   120271720.437          46.452          39.000    22886941.291    93718203.263          36.171          40.000  
G16  22570129.135   118606832.552        3067.094          42.000                                                                  
C09  37717381.252   196404302.691        -160.715          43.000    37717367.192   151872207.462        -124.388          47.000  
C25  23723311.802   123533513.144        1622.705          45.000                                                                  
C13  38259497.219   199227239.133       -2238.787          42.000    38259491.784   154055118.147       -1731.317          43.000  
C08  39079698.189   203498235.820       -2445.801          37.000    39079686.814   157357683.291       -1890.697          44.000  
C10  40540369.857   211104344.869         926.923          34.000    40540371.238   163239327.965         717.498          38.000  
C35  25974716.476   135257179.515         497.783          36.000                                                                  
G25  24215028.415   127250821.833       -3905.029          36.000    24215020.351    99156459.531       -3043.125          36.000  
> 2025 10 30 06 16 09.3200000  0 21                     
G32  21888158.015   115023046.885       -2813.767          45.000    21888151.677    89628320.170       -2192.595          42.000  
G29  23048932.269   121122969.437        -430.272          41.000    23048923.012    94381498.970        -335.556          40.000  
G28  21199120.985   111402133.557       -1133.905          46.000    21199110.838    86806816.402        -883.690          46.000  
G26  20379174.091   107093280.896         821.156          48.000    20379167.323    83449290.575         639.910          47.000  
G31  20631918.931   108421463.129         221.583          47.000    20631908.340    84484215.774         172.674          46.000  
G04  24639367.410   129480744.615        3194.531          35.000    24639365.907   100894094.101        2488.837          41.000  
C33  22475238.602   117034462.147        -555.106          50.000                                                                  
C06  36565415.782   190405715.987        -170.585          45.000    36565398.692   147233706.538        -131.830          48.000  
C14  22569095.517   117523190.371       -2138.944          46.000    22569080.916    90876332.163       -1654.095          51.000  
C16  36991815.545   192626087.145        -203.897          48.000    36991803.709   148950661.823        -157.762          49.000  
C24  21803633.763   113537246.568        -803.403          50.000                                                                  
C26  24309585.250   126586382.977       -2551.399          43.000                                                                  
G03  22886946.622   120271718.561          46.766          39.000    22886940.937    93718201.795          36.498          40.000  
G16  22570105.794   118606709.892        3066.591          42.000                                                                  
C09  37717382.481   196404309.136        -161.105          43.000    37717368.442   151872212.422        -124.105          47.000  
C25  23723299.345   123533448.210        1623.218          46.000                                                                  
C13  38259514.433   199227328.697       -2239.103          42.000    38259508.985   154055187.389       -1731.165          43.000  
C08  39079716.957   203498333.644       -2445.695          37.000    39079705.599   157357758.918       -1890.606          44.000  
C10  40540362.761   211104307.780         926.892          34.000    40540364.105   163239299.246         717.832          38.000  
C35  25974712.659   135257159.602         497.681          36.000                                                                  
G25  24215058.137   127250978.032       -3904.956          36.000    24215050.069    99156581.249       -3043.039          36.000  
> 2025 10 30 06 16 09.3600000  0 21                     
G32  21888179.437   115023159.426       -2813.636          45.000    21888173.075    89628407.880       -2192.722          42.000  
G29  23048935.538   121122986.647        -430.296          41.000    23048926.305    94381512.393        -335.656          40.000  
G28  21199129.626   111402178.911       -1133.890          46.000    21199119.449    86806851.736        -883.404          46.000  
G26  20379167.832   107093248.046         821.217          48.000    20379161.060    83449264.981         639.842          47.000  
G31  20631917.233   108421454.272         221.502          47.000    20631906.655    84484208.874         172.526          46.000  
G04  24639343.091   129480616.851        3194.279          35.000    24639341.573   100893994.528        2489.183          41.000  
C33  22475242.920   117034484.347        -555.048          50.000                                                                  
C06  36565417.106   190405722.805        -170.458          45.000    36565399.988   147233711.815        -131.904          48.000  
C14  22569111.952   117523275.931       -2138.972          46.000    22569097.345    90876398.329       -1654.196          51.000  
C16  36991817.117   192626095.293        -203.752          48.000    36991805.295   148950668.126        -157.675          49.000  
C24  21803639.914   113537278.709        -803.537          50.000                                                                  
C26  24309604.842   126586485.046       -2551.667          43.000                                                                  
G03  22886946.289   120271716.696          46.719          39.000    22886940.590    93718200.316          36.949          40.000  
G16  22570082.467   118606587.241        3066.238          42.000                                                                  
C09  37717383.727   196404315.576        -161.182          43.000    37717369.651   151872217.382        -123.984          47.000  
C25  23723286.885   123533383.283        1623.291          46.000                                                                  
C13  38259531.664   199227418.260       -2239.192          41.000    38259526.170   154055256.621       -1730.904          43.000  
C08  39079735.733   203498431.453       -2445.409          37.000    39079724.382   157357834.549       -1890.666          44.000  
C10  40540355.634   211104270.653         927.645          34.000    40540356.983   163239270.533         717.894          38.000  
C35  25974708.856   135257139.680         497.749          36.000                                                                  
G25  24215087.874   127251134.243       -3905.095          36.000    24215079.799    99156702.962       -3042.868          36.000  
> 2025 10 30 06 16 09.4000000  0 21                     
G32  21888200.849   115023271.962       -2813.468          45.000    21888194.482    89628495.561       -2192.250          42.000  
G29  23048938.805   121123003.861        -430.344          41.000    23048929.563    94381525.806        -335.580          40.000  
G28  21199138.256   111402224.266       -1133.905          46.000    21199128.074    86806887.073        -883.355          46.000  
G26  20379161.597   107093215.201         821.160          48.000    20379154.803    83449239.384         639.880          47.000  
G31  20631915.541   108421445.407         221.595          47.000    20631904.962    84484201.972         172.490          46.000  
G04  24639318.798   129480489.115        3193.605          35.000    24639317.250   100893894.968        2489.114          41.000  
C33  22475247.203   117034506.540        -554.881          50.000                                                                  
C06  36565418.443   190405729.615        -170.259          45.000    36565401.302   147233717.087        -131.857          48.000  
C14  22569128.359   117523361.500       -2139.188          46.000    22569113.763    90876464.498       -1654.276          51.000  
C16  36991818.655   192626103.443        -203.730          48.000    36991806.882   148950674.428        -157.578          49.000  
C24  21803646.079   113537310.851        -803.591          50.000                                                                  
C26  24309624.439   126586587.097       -2551.482          43.000                                                                  
G03  22886945.940   120271714.825          46.754          39.000    22886940.234    93718198.857          36.741          40.000  
G16  22570059.136   118606464.576        3066.343          42.000                                                                  
C09  37717384.971   196404321.997        -160.808          43.000    37717370.885   151872222.357        -124.210          47.000  
C25  23723274.404   123533318.371        1622.974          46.000                                                                  
C13  38259548.856   199227507.801       -2238.798          41.000    38259543.354   154055325.859       -1730.906          43.000  
C08  39079754.537   203498529.253       -2445.012          37.000    39079743.139   157357910.186       -1890.802          44.000  
C10  40540348.531   211104233.539         927.857          34.000    40540349.844   163239241.845         717.392          38.000  
C35  25974705.015   135257119.761         497.886          36.000                                                                  
G25  24215117.608   127251290.466       -3905.438          36.000    24215109.519    99156824.709       -3043.454          36.000  
> 2025 10 30 06 16 09.4400000  0 21                     
G32  21888222.254   115023384.512       -2813.594          45.000    21888215.887    89628583.251       -2192.187          42.000  
G29  23048942.092   121123021.077        -430.425          41.000    23048932.830    94381539.206        -335.193          40.000  
G28  21199146.898   111402269.631       -1134.047          45.000    21199136.699    86806922.409        -883.360          46.000  
G26  20379155.320   107093182.352         821.172          48.000    20379148.544    83449213.787         639.917          47.000  
G31  20631913.845   108421436.535         221.773          47.000    20631903.264    84484195.062         172.638          46.000  
G04  24639294.497   129480361.371        3193.448          35.000    24639292.933   100893795.406        2489.088          41.000  
C33  22475251.481   117034528.731        -554.771          50.000                                                                  
C06  36565419.756   190405736.424        -170.135          45.000    36565402.611   147233722.349        -131.674          48.000  
C14  22569144.794   117523447.064       -2139.172          46.000    22569130.196    90876530.659       -1654.160          51.000  
C16  36991820.235   192626111.585        -203.579          48.000    36991808.429   148950680.728        -157.536          49.000  
C24  21803652.265   113537342.988        -803.521          50.000                                                                  
C26  24309644.053   126586689.138       -2551.187          43.000                                                                  
G03  22886945.583   120271712.956          46.714          39.000    22886939.871    93718197.405          36.425          40.000  
G16  22570035.799   118606341.882        3067.034          42.000                                                                  
C09  37717386.194   196404328.407        -160.365          43.000    37717372.104   151872227.331        -124.330          47.000  
C25  23723261.915   123533253.463        1622.736          46.000                                                                  
C13  38259566.066   199227597.334       -2238.363          41.000    38259560.551   154055395.099       -1730.951          43.000  
C08  39079773.307   203498627.067       -2445.173          37.000    39079761.929   157357985.820       -1890.840          44.000  
C10  40540341.392   211104196.383         928.720          34.000    40540342.697   163239213.126         717.700          38.000  
C35  25974701.181   135257099.803         498.659          36.000                                                                  
G25  24215147.344   127251446.666       -3905.223          36.000    24215139.234    99156946.407       -3042.807          37.000  
> 2025 10 30 06 16 09.4800000  0 21                     
G32  21888243.660   115023497.047       -2813.445          45.000    21888237.305    89628670.937       -2192.137          42.000  
G29  23048945.373   121123038.282        -430.267          40.000    23048936.109    94381552.629        -335.383          40.000  
G28  21199155.534   111402315.003       -1134.247          45.000    21199145.350    86806957.753        -883.510          46.000  
G26  20379149.096   107093149.505         821.166          48.000    20379142.290    83449188.190         639.922          46.000  
G31  20631912.147   108421427.669         221.704          47.000    20631901.568    84484188.154         172.675          46.000  
G04  24639270.184   129480233.602        3193.879          35.000    24639268.625   100893695.853        2488.884          41.000  
C33  22475255.700   117034550.926        -554.814          50.000                                                                  
C06  36565421.092   190405743.225        -169.982          45.000    36565403.883   147233727.608        -131.488          48.000  
C14  22569161.225   117523532.624       -2139.062          46.000    22569146.629    90876596.819       -1654.045          51.000  
C16  36991821.804   192626119.728        -203.559          48.000    36991809.994   148950687.026        -157.467          49.000  
C24  21803658.468   113537375.115        -803.307          50.000                                                                  
C26  24309663.671   126586791.179       -2551.052          43.000                                                                  
G03  22886945.224   120271711.073          46.940          39.000    22886939.531    93718195.966          36.037          40.000  
G16  22570012.461   118606219.194        3067.281          42.000                                                                  
C09  37717387.453   196404334.823        -160.310          43.000    37717373.346   151872232.309        -124.454          47.000  
C25  23723249.417   123533188.566        1622.424          46.000                                                                  
C13  38259583.256   199227686.869       -2238.243          41.000    38259577.753   154055464.327       -1730.759          43.000  
C08  39079792.090   203498724.867       -2444.993          37.000    39079780.708   157358061.458       -1890.923          44.000  
C10  40540334.263   211104159.261         928.462          34.000    40540335.603   163239184.418         717.706          38.000  
C35  25974697.352   135257079.849         498.958          36.000                                                                  
G25  24215177.045   127251602.853       -3904.866          36.000    24215168.962    99157068.113       -3042.575          37.000  
> 2025 10 30 06 16 09.5200000  0 21                     
G32  21888265.079   115023609.588       -2813.475          45.000    21888258.703    89628758.639       -2192.481          42.000  
G29  23048948.659   121123055.482        -430.093          40.000    23048939.377    94381566.017        -334.880          40.000  
G28  21199164.149   111402360.369       -1134.209          45.000    21199154.011    86806993.107        -883.766          46.000  
G26  20379142.831   107093116.657         821.147          48.000    20379136.047    83449162.592         639.929          46.000  
G31  20631910.471   108421418.806         221.593          47.000    20631899.907    84484181.250         172.594          46.000  
G04  24639245.877   129480105.810        3194.619          35.000    24639244.325   100893596.300        2488.790          41.000  
C33  22475259.919   117034573.125        -554.938          50.000                                                                  
C06  36565422.390   190405750.047        -170.295          45.000    36565405.158   147233732.879        -131.649          48.000  
C14  22569177.643   117523618.182       -2138.975          46.000    22569163.070    90876662.978       -1653.989          51.000  
C16  36991823.335   192626127.874        -203.602          48.000    36991811.545   148950693.330        -157.581          49.000  
C24  21803664.644   113537407.244        -803.226          50.000                                                                  
C26  24309683.262   126586893.237       -2551.263          43.000                                                                  
G03  22886944.853   120271709.192          47.032          39.000    22886939.199    93718194.524          35.918          40.000  
G16  22569989.096   118606096.503        3067.412          42.000                                                                  
C09  37717388.694   196404341.244        -160.417          43.000    37717374.603   151872237.279        -124.369          47.000  
C25  23723236.968   123533123.657        1622.559          45.000                                                                  
C13  38259600.448   199227776.394       -2238.034          41.000    38259594.954   154055533.562       -1730.797          44.000  
C08  39079810.870   203498822.679       -2445.164          37.000    39079799.486   157358137.081       -1890.701          44.000  
C10  40540327.152   211104122.136         928.292          34.000    40540328.451   163239155.716         717.565          38.000  
C35  25974693.549   135257059.914         498.641          36.000                                                                  
G25  24215206.774   127251759.065       -3905.117          36.000    24215198.696    99157189.827       -3042.683          37.000  
> 2025 10 30 06 16 09.5600000  0 21                     
G32  21888286.498   115023722.135       -2813.577          45.000    21888280.130    89628846.341       -2192.603          42.000  
G29  23048951.952   121123072.691        -430.138          39.000    23048942.640    94381579.415        -334.811          40.000  
G28  21199172.765   111402405.725       -1134.049          45.000    21199162.628    86807028.448        -883.657          46.000  
G26  20379136.571   107093083.805         821.234          48.000    20379129.787    83449137.001         639.854          46.000  
G31  20631908.792   108421409.946         221.476          47.000    20631898.228    84484174.346         172.563          46.000  
G04  24639221.557   129479978.023        3194.867          35.000    24639219.998   100893496.740        2488.893          41.000  
C33  22475264.174   117034595.328        -555.045          51.000                                                                  
C06  36565423.672   190405756.868        -170.492          45.000    36565406.453   147233738.149        -131.729          48.000  
C14  22569194.068   117523703.743       -2138.988          46.000    22569179.481    90876729.140       -1654.017          51.000  
C16  36991824.887   192626136.024        -203.718          48.000    36991813.097   148950699.632        -157.593          49.000  
C24  21803670.816   113537439.375        -803.231          50.000                                                                  
C26  24309702.870   126586995.271       -2550.944          43.000                                                                  
G03  22886944.490   120271707.322          46.880          39.000    22886938.838    93718193.072          36.086          40.000  
G16  22569965.773   118605973.826        3067.144          42.000                                                                  
C09  37717389.905   196404347.670        -160.590          43.000    37717375.817   151872242.246        -124.216          47.000  
C25  23723224.481   123533058.747        1622.662          45.000                                                                  
C13  38259617.632   199227865.939       -2238.400          42.000    38259612.169   154055602.792       -1730.717          44.000  
C08  39079829.655   203498920.497       -2445.403          37.000    39079818.266   157358212.718       -1890.833          44.000  
C10  40540320.039   211104085.019         927.977          34.000    40540321.311   163239127.009         717.611          38.000  
C35  25974689.706   135257039.995         498.046          36.000                                                                  
G25  24215236.491   127251915.266       -3905.061          36.000    24215228.431    99157311.530       -3042.596          37.000  
