     3.04           OBSERVATION DATA    M: Mixed            RINEX VERSION / TYPE
RTKCONV 2.4.3 b34                       20251030 064107 UTC PGM / RUN BY / DATE 
format: u-blox UBX                                          COMMENT             
log: D:\GPdata\10_30\fingure_290_200_10_30_4.ubx            COMMENT             
                                                            MARKER NAME         
                                                            MARKER NUMBER       
                                                            MARKER TYPE         
                                                            OBSERVER / AGENCY   
                                                            REC # / TYPE / VERS 
                                                            ANT # / TYPE        
        0.0000        0.0000        0.0000                  APPROX POSITION XYZ 
        0.0000        0.0000        0.0000                  ANTENNA: DELTA H/E/N
G    8 C1C L1C D1C S1C C2L L2L D2L S2L                      SYS / # / OBS TYPES 
C    8 C2I L2I D2I S2I C7I L7I D7I S7I                      SYS / # / OBS TYPES 
  2025    10    30    06    25   39.4400000     GPS         TIME OF FIRST OBS   
  2025    10    30    06    25   59.9600000     GPS         TIME OF LAST OBS    
G L1C                                                       SYS / PHASE SHIFT   
G L2L  0.00000                                              SYS / PHASE SHIFT   
C L2I                                                       SYS / PHASE SHIFT   
C L7I                                                       SYS / PHASE SHIFT   
  0                                                         GLONASS SLOT / FRQ #
 C1C    0.000 C1P    0.000 C2C    0.000 C2P    0.000        GLONASS COD/PHS/BIS 
                                                            END OF HEADER       
> 2025 10 30 06 25 39.4400000  0 23                     
G32  22206450.610   116695652.1281      -3051.769          40.000    22206444.292    90931674.6901      -2377.846          35.000  
G29  23115083.632   121470605.6561       -789.982          44.000    23115075.809    94652390.4101       -615.579          39.000  
G28  21329099.860   112085178.9611      -1262.681          42.000    21329090.684    87339059.7801       -984.122          47.000  
G26  20306848.299   106713209.0831        512.191          46.000    20306841.048    83153131.8121        399.050          44.000  
G31  20616375.405   108339780.2361         64.501          45.000    20616364.574    84420567.1371         50.291          42.000  
G04  24294754.673   127669782.5651       3154.197          42.000    24294751.605    99482977.3291       2457.770          45.000  
C33  22554077.624   117444992.3071       -885.070          47.000                                                                  
C06  36582854.735   190496529.5901       -148.560          38.000    36582837.865   147303929.6451       -114.772          44.000  
C14  22817890.953   118818726.5951      -2402.804          41.000    22817875.923    91878122.2091      -1857.922          45.000  
C16  37012604.700   192734343.8241       -176.124          45.000    37012592.439   149034372.8921       -136.247          43.000  
C24  21898956.645   114033616.7711       -936.349          48.000                                                                  
C26  24590283.529   128048055.9961      -2575.221          45.000                                                                  
G03  22902541.216   120353667.3943       -333.457          37.000    22902536.184    93782058.1281       -259.724          37.000  
G16  22247943.844   116913722.0291       2868.593          36.000                                                                  
C09  37733632.170   196488906.8831       -135.844          36.000    37733618.925   151937648.5631       -105.131          42.000  
C25  23551809.981   122640466.0591       1510.079          40.000                                                                  
C08  39349318.229                1      -2478.541          28.000    39349305.563                1      -1916.794          30.000  
C10  40438175.770                3        938.620          26.000    40438167.899   162827749.5791        724.806          34.000  
C35  25934073.417   135045545.1981        241.309          39.000                                                                  
C13  38507717.097                3      -2294.402          24.000    38507725.292                1      -1774.439          28.000  
C12  26310197.733   137004108.5491       2326.626          33.000    26310194.536   105940256.4771       1799.108          44.000  
G25  24639741.546   129482718.9171      -3920.244          38.000    24639736.623   100895589.0861      -3055.035          37.000  
C07                                                                  39490694.089   159012671.5361        863.990          33.000  
> 2025 10 30 06 25 39.4800000  0 23                     
G32  22206473.827   116695774.199       -3051.822          40.000    22206467.528    90931769.788       -2377.664          35.000  
G29  23115089.627   121470637.249        -789.906          44.000    23115081.809    94652415.034        -615.616          39.000  
G28  21329109.459   112085229.462       -1262.565          42.000    21329100.292    87339099.140        -984.088          47.000  
G26  20306844.391   106713188.595         512.129          46.000    20306837.142    83153115.849         399.001          44.000  
G31  20616374.925   108339777.653          64.538          45.000    20616364.067    84420565.124          50.280          42.000  
G04  24294730.675   127669656.402        3154.109          42.000    24294727.598    99482879.015        2457.834          45.000  
C33  22554084.449   117445027.704        -885.005          47.000                                                                  
C06  36582855.864   190496535.531        -148.609          38.000    36582839.017   147303934.225        -114.660          44.000  
C14  22817909.380   118818822.706       -2402.829          41.000    22817894.378    91878196.526       -1857.936          45.000  
C16  37012606.059   192734350.869        -176.131          44.000    37012593.803   149034378.337        -136.197          43.000  
C24  21898963.826   114033654.225        -936.399          48.000                                                                  
C26  24590303.319   128048159.008       -2575.306          45.000                                                                  
G03  22902543.733   120353680.7292       -333.397          37.000    22902538.728    93782068.527        -259.877          37.000  
G16  22247922.020   116913607.311        2868.185          36.000                                                                  
C09  37733633.218   196488912.340        -136.176          36.000    37733619.950   151937652.781        -105.349          42.000  
C25  23551798.372   122640405.666        1509.917          40.000                                                                  
C08  39349337.295                       -2477.928          28.000    39349324.743                       -1916.844          31.000  
C10  40438168.166                3        937.919          26.000    40438160.681   162827720.528         726.046          34.000  
C35  25934071.550   135045535.558         241.089          39.000                                                                  
C13  38507734.530                3      -2293.680          24.000    38507742.801                       -1774.162          28.000  
C12  26310179.841   137004015.485        2326.667          33.000    26310176.660   105940184.506        1799.213          44.000  
G25  24639771.380   129482875.736       -3920.409          38.000    24639766.456   100895711.272       -3054.903          37.000  
C07                                                                  39490685.524   159012636.954         864.305          33.000  
> 2025 10 30 06 25 39.5200000  0 23                     
G32  22206497.053   116695896.252       -3051.540          40.000    22206490.761    90931864.887       -2377.566          35.000  
G29  23115095.640   121470668.834        -789.726          44.000    23115087.823    94652439.666        -615.770          39.000  
G28  21329119.056   112085279.962       -1262.527          42.000    21329109.877    87339138.487        -983.822          47.000  
G26  20306840.505   106713168.096         512.361          46.000    20306833.235    83153099.884         399.040          44.000  
G31  20616374.433   108339775.066          64.618          45.000    20616363.583    84420563.122          50.114          42.000  
G04  24294706.650   127669530.227        3154.272          42.000    24294703.610    99482780.703        2457.826          45.000  
C33  22554091.243   117445063.104        -884.998          47.000                                                                  
C06  36582856.986   190496541.435        -147.944          38.000    36582840.146   147303938.806        -114.574          44.000  
C14  22817927.828   118818918.808       -2402.640          41.000    22817912.842    91878270.840       -1857.867          45.000  
C16  37012607.411   192734357.914        -176.125          44.000    37012595.157   149034383.777        -136.061          43.000  
C24  21898971.051   114033691.674        -936.326          48.000                                                                  
C26  24590323.118   128048262.016       -2575.291          45.000                                                                  
G03  22902546.254   120353694.0772       -333.573          37.000    22902541.277    93782078.944        -260.227          37.000  
G16  22247900.212   116913492.630        2867.251          36.000                                                                  
C09  37733634.265   196488917.789        -136.210          36.000    37733620.996   151937656.989        -105.295          42.000  
C25  23551786.787   122640345.289        1509.542          40.000                                                                  
C08  39349356.316                       -2478.060          28.000    39349343.811                       -1915.826          31.000  
C10  40438160.917                3        938.349          26.000    40438153.470   162827691.513         725.840          34.000  
C35  25934069.702   135045525.905         241.255          39.000                                                                  
C13  38507751.204                3      -2295.053          24.000    38507760.295                       -1774.202          28.000  
C12  26310161.969   137003922.426        2326.618          33.000    26310158.808   105940112.540        1799.150          44.000  
G25  24639801.234   129483032.521       -3919.880          38.000    24639796.298   100895833.437       -3054.412          37.000  
C07                                                                  39490676.905   159012602.370         864.493          33.000  
> 2025 10 30 06 25 39.5600000  0 23                     
G32  22206520.287   116696018.303       -3051.297          40.000    22206513.986    90931960.012       -2378.087          35.000  
G29  23115101.650   121470700.432        -789.870          44.000    23115093.822    94652464.270        -615.352          39.000  
G28  21329128.686   112085330.468       -1262.581          42.000    21329119.482    87339177.834        -983.695          47.000  
G26  20306836.592   106713147.597         512.466          46.000    20306829.334    83153083.905         399.307          44.000  
G31  20616373.949   108339772.477          64.692          45.000    20616363.078    84420561.110          50.213          42.000  
G04  24294682.656   127669404.070        3154.023          42.000    24294679.602    99482682.391        2457.838          45.000  
C33  22554098.040   117445098.502        -884.987          47.000                                                                  
C06  36582858.095   190496547.343        -147.693          38.000    36582841.318   147303943.382        -114.474          44.000  
C14  22817946.289   118819014.909       -2402.470          41.000    22817931.312    91878345.151       -1857.837          45.000  
C16  37012608.768   192734364.947        -175.947          44.000    37012596.502   149034389.213        -135.963          43.000  
C24  21898978.238   114033729.121        -936.269          48.000                                                                  
C26  24590342.909   128048365.006       -2574.921          45.000                                                                  
G03  22902548.797   120353707.4242       -333.647          37.000    22902543.815    93782089.348        -260.172          37.000  
G16  22247878.348   116913377.886        2867.934          36.000                                                                  
C09  37733635.300   196488923.219        -135.913          36.000    37733622.060   151937661.183        -104.971          42.000  
C25  23551775.190   122640284.881        1509.956          40.000                                                                  
C08  39349375.369                       -2477.811          27.000    39349362.831                       -1916.534          30.000  
C10  40438153.795                3        936.655          26.000    40438146.286   162827662.520         725.246          34.000  
C35  25934067.832   135045516.239         241.485          39.000                                                                  
C13  38507768.718                3      -2295.280          24.000    38507778.295                       -1774.091          28.000  
C12  26310144.090   137003829.359        2326.667          33.000    26310140.925   105940040.573        1799.175          44.000  
G25  24639831.058   129483189.312       -3919.762          38.000    24639826.133   100895955.626       -3054.592          37.000  
C07                                                                  39490668.330   159012567.828         863.881          33.000  
> 2025 10 30 06 25 39.6000000  0 23                     
G32  22206543.532   116696140.354       -3051.241          40.000    22206537.226    90932055.139       -2378.180          35.000  
G29  23115107.664   121470732.026        -789.882          44.000    23115099.811    94652488.881        -615.255          39.000  
G28  21329138.298   112085380.968       -1262.550          42.000    21329129.096    87339217.184        -983.677          47.000  
G26  20306832.699   106713127.099         512.483          46.000    20306825.434    83153067.924         399.467          44.000  
G31  20616373.463   108339769.895          64.586          45.000    20616362.581    84420559.090          50.385          42.000  
G04  24294658.621   127669277.895        3154.220          42.000    24294655.605    99482584.075        2457.889          45.000  
C33  22554104.879   117445133.897        -884.899          47.000                                                                  
C06  36582859.228   190496553.247        -147.559          38.000    36582842.450   147303947.965        -114.555          44.000  
C14  22817964.755   118819111.011       -2402.500          41.000    22817949.775    91878419.465       -1857.850          45.000  
C16  37012610.085   192734371.977        -175.788          44.000    37012597.856   149034394.655        -136.012          43.000  
C24  21898985.458   114033766.565        -936.128          48.000                                                                  
C26  24590362.686   128048468.012       -2574.993          45.000                                                                  
G03  22902551.326   120353720.7562       -333.432          37.000    22902546.346    93782099.728        -259.675          37.000  
G16  22247856.513   116913263.150        2868.295          36.000                                                                  
C09  37733636.373   196488928.651        -135.802          36.000    37733623.075   151937665.372        -104.728          42.000  
C25  23551763.578   122640224.472        1510.190          40.000                                                                  
C08  39349394.400                       -2478.265          27.000    39349382.010                       -1916.472          30.000  
C10  40438146.514                3        938.973          26.000    40438139.138   162827633.528         724.885          34.000  
C35  25934065.975   135045506.572         241.709          39.000                                                                  
C13  38507786.034                3      -2293.183          24.000    38507795.572                       -1774.464          28.000  
C12  26310126.243   137003736.276        2326.958          33.000    26310123.033   105939968.599        1799.287          44.000  
G25  24639860.892   129483346.116       -3919.906          38.000    24639855.959   100896077.803       -3054.503          37.000  
C07                                                                  39490659.742   159012533.247         864.293          33.000  
> 2025 10 30 06 25 39.6400000  0 23                     
G32  22206566.757   116696262.415       -3051.427          40.000    22206560.453    90932150.237       -2377.719          35.000  
G29  23115113.636   121470763.604        -789.615          44.000    23115105.828    94652513.485        -615.140          39.000  
G28  21329147.906   112085431.477       -1262.683          42.000    21329138.720    87339256.541        -983.840          47.000  
G26  20306828.810   106713106.601         512.450          46.000    20306821.536    83153051.957         399.310          44.000  
G31  20616372.997   108339767.312          64.543          45.000    20616362.099    84420557.064          50.588          42.000  
G04  24294634.613   127669151.730        3154.136          42.000    24294631.588    99482485.764        2457.815          45.000  
C33  22554111.706   117445169.294        -884.932          47.000                                                                  
C06  36582860.363   190496559.186        -148.174          38.000    36582843.557   147303952.548        -114.567          44.000  
C14  22817983.195   118819207.111       -2402.470          41.000    22817968.235    91878493.780       -1857.856          45.000  
C16  37012611.412   192734379.017        -175.917          44.000    37012599.241   149034400.105        -136.235          43.000  
C24  21898992.631   114033804.009        -936.106          48.000                                                                  
C26  24590382.468   128048571.011       -2574.945          45.000                                                                  
G03  22902553.871   120353734.0952       -333.421          37.000    22902548.871    93782110.116        -259.521          37.000  
G16  22247834.697   116913148.428        2868.186          36.000                                                                  
C09  37733637.399   196488934.079        -135.653          36.000    37733624.092   151937669.565        -104.728          42.000  
C25  23551751.999   122640164.069        1510.145          40.000                                                                  
C08  39349413.441                       -2478.326          27.000    39349400.886                       -1916.937          30.000  
C10  40438139.228                3        938.254          26.000    40438131.941   162827604.536         724.641          34.000  
C35  25934064.094   135045496.929         241.289          39.000                                                                  
C13  38507803.492                3      -2293.426          24.000    38507813.423                       -1774.174          28.000  
C12  26310108.373   137003643.189        2327.256          33.000    26310105.166   105939896.632        1799.180          44.000  
G25  24639890.684   129483502.920       -3920.019          38.000    24639885.792   100896199.988       -3054.548          37.000  
C07                                                                  39490651.156   159012498.656         864.653          33.000  
> 2025 10 30 06 25 39.6800000  0 23                     
G32  22206589.979   116696384.472       -3051.473          40.000    22206583.680    90932245.332       -2377.354          35.000  
G29  23115119.632   121470795.195        -789.698          44.000    23115111.850    94652538.107        -615.434          39.000  
G28  21329157.520   112085481.981       -1262.653          42.000    21329148.326    87339295.898        -983.938          47.000  
G26  20306824.932   106713086.107         512.344          46.000    20306817.653    83153035.988         399.203          44.000  
G31  20616372.501   108339764.725          64.624          45.000    20616361.606    84420555.045          50.538          42.000  
G04  24294610.602   127669025.549        3154.380          42.000    24294607.583    99482387.453        2457.766          45.000  
C33  22554118.501   117445204.690        -884.919          47.000                                                                  
C06  36582861.485   190496565.110        -148.229          38.000    36582844.694   147303957.110        -114.235          44.000  
C14  22818001.657   118819303.212       -2402.516          41.000    22817986.701    91878568.090       -1857.788          45.000  
C16  37012612.763   192734386.052        -175.899          44.000    37012600.598   149034405.542        -136.102          43.000  
C24  21898999.856   114033841.446        -935.953          48.000                                                                  
C26  24590402.258   128048674.008       -2574.902          45.000                                                                  
G03  22902556.403   120353747.4432       -333.598          37.000    22902551.404    93782120.521        -259.865          37.000  
G16  22247812.876   116913033.694        2868.250          36.000                                                                  
C09  37733638.446   196488939.497        -135.428          36.000    37733625.137   151937673.782        -105.235          42.000  
C25  23551740.401   122640103.668        1510.108          40.000                                                                  
C08  39349432.483                       -2478.246          27.000    39349419.964                       -1915.276          30.000  
C10  40438131.688                3        939.068          26.000    40438124.752   162827575.529         724.842          34.000  
C35  25934062.232   135045487.279         241.165          39.000                                                                  
C13  38507820.715                3      -2294.321          24.000    38507831.044                       -1774.097          28.000  
C12  26310090.472   137003550.092        2327.488          33.000    26310087.259   105939824.652        1799.373          44.000  
G25  24639920.529   129483659.708       -3919.823          38.000    24639915.630   100896322.153       -3054.264          37.000  
C07                                                                  39490642.594   159012464.095         864.320          33.000  
> 2025 10 30 06 25 39.7200000  0 23                     
G32  22206613.214   116696506.529       -3051.491          40.000    22206606.908    90932340.484       -2378.362          35.000  
G29  23115125.645   121470826.783        -789.723          44.000    23115117.853    94652562.731        -615.645          39.000  
G28  21329167.147   112085532.479       -1262.520          42.000    21329157.946    87339335.255        -983.981          47.000  
G26  20306821.068   106713065.615         512.245          46.000    20306813.753    83153020.030         398.961          44.000  
G31  20616372.017   108339762.139          64.617          45.000    20616361.107    84420553.028          50.445          42.000  
G04  24294586.611   127668899.369        3154.508          42.000    24294583.558    99482289.127        2457.985          45.000  
C33  22554125.292   117445240.086        -884.940          47.000                                                                  
C06  36582862.608   190496571.052        -148.582          38.000    36582845.851   147303961.688        -114.328          44.000  
C14  22818020.103   118819399.321       -2402.654          41.000    22818005.192    91878642.411       -1857.945          46.000  
C16  37012614.098   192734393.083        -175.781          44.000    37012601.940   149034410.990        -136.204          43.000  
C24  21899007.037   114033878.893        -936.087          48.000                                                                  
C26  24590422.012   128048777.010       -2574.997          45.000                                                                  
G03  22902558.961   120353760.7902       -333.756          37.000    22902553.947    93782130.938        -260.338          37.000  
G16  22247791.067   116912918.951        2868.519          36.000                                                                  
C09  37733639.516   196488944.946        -135.876          36.000    37733626.150   151937677.981        -105.153          42.000  
C25  23551728.806   122640043.276        1509.879          40.000                                                                  
C08  39349451.570                       -2478.022          27.000    39349438.886                       -1916.067          30.000  
C10  40438124.783                3        936.761          26.000    40438117.567   162827546.517         725.074          34.000  
C35  25934060.374   135045477.621         241.293          39.000                                                                  
C13  38507838.399                3      -2293.140          24.000    38507848.804                       -1773.998          27.000  
C12  26310072.601   137003457.000        2327.389          33.000    26310069.416   105939752.675        1799.440          44.000  
G25  24639950.356   129483816.503       -3919.840          38.000    24639945.479   100896444.337       -3054.488          37.000  
C07                                                                  39490633.996   159012429.526         864.197          33.000  
> 2025 10 30 06 25 39.7600000  0 23                     
G32  22206636.459   116696628.593       -3051.591          40.000    22206630.155    90932435.613       -2378.480          34.000  
G29  23115131.671   121470858.388        -790.015          44.000    23115123.872    94652587.359        -615.830          39.000  
G28  21329176.723   112085582.982       -1262.585          42.000    21329167.558    87339374.609        -983.959          47.000  
G26  20306817.175   106713045.133         512.041          46.000    20306809.857    83153004.059         399.100          44.000  
G31  20616371.524   108339759.555          64.593          45.000    20616360.625    84420551.027          50.087          42.000  
G04  24294562.613   127668773.191        3154.526          42.000    24294559.559    99482190.818        2457.836          45.000  
C33  22554132.056   117445275.499        -885.250          47.000                                                                  
C06  36582863.757   190496576.961        -148.153          38.000    36582846.969   147303966.276        -114.597          44.000  
C14  22818038.545   118819495.432       -2402.791          41.000    22818023.693    91878716.724       -1857.893          45.000  
C16  37012615.433   192734400.136        -176.174          44.000    37012603.306   149034416.426        -136.054          43.000  
C24  21899014.234   114033916.351        -936.384          48.000                                                                  
C26  24590441.791   128048880.015       -2575.102          45.000                                                                  
G03  22902561.502   120353774.1412       -333.853          37.000    22902556.473    93782141.326        -259.999          37.000  
G16  22247769.248   116912804.244        2867.908          36.000                                                                  
C09  37733640.555   196488950.383        -135.977          36.000    37733627.203   151937682.189        -105.206          42.000  
C25  23551717.221   122639982.887        1509.701          40.000                                                                  
C08  39349470.584                       -2478.253          27.000    39349458.094                       -1917.159          30.000  
C10  40438117.478                3        937.505          26.000    40438110.362   162827517.505         725.320          34.000  
C35  25934058.508   135045467.976         241.149          39.000                                                                  
C13  38507856.367                3      -2295.981          24.000    38507866.554                       -1773.696          27.000  
C12  26310054.735   137003363.981        2325.975          33.000    26310051.510   105939680.706        1799.277          44.000  
G25  24639980.205   129483973.293       -3919.764          38.000    24639975.308   100896566.509       -3054.390          37.000  
C07                                                                  39490625.416   159012394.973         863.802          33.000  
> 2025 10 30 06 25 39.8000000  0 23                     
G32  22206659.711   116696750.677       -3051.943          40.000    22206653.365    90932530.680       -2377.397          34.000  
G29  23115137.689   121470890.010        -790.485          44.000    23115129.883    94652611.990        -615.882          39.000  
G28  21329186.334   112085633.505       -1262.990          42.000    21329177.177    87339413.981        -984.247          47.000  
G26  20306813.294   106713024.664         511.707          46.000    20306805.969    83152988.098         398.995          44.000  
G31  20616371.010   108339756.984          64.309          45.000    20616360.133    84420549.033          49.805          42.000  
G04  24294538.609   127668647.056        3153.718          42.000    24294535.559    99482092.513        2457.673          45.000  
C33  22554138.846   117445310.916        -885.487          47.000                                                                  
C06  36582864.933   190496582.893        -148.292          38.000    36582848.110   147303970.870        -114.862          44.000  
C14  22818056.999   118819591.579       -2403.556          41.000    22818042.134    91878791.059       -1858.271          46.000  
C16  37012616.783   192734407.196        -176.502          44.000    37012604.672   149034421.888        -136.431          43.000  
C24  21899021.443   114033953.821        -936.719          48.000                                                                  
C26  24590461.555   128048983.032       -2575.379          45.000                                                                  
G03  22902564.015   120353787.4962       -333.944          38.000    22902559.012    93782151.732        -260.118          37.000  
G16  22247747.427   116912689.558        2867.313          36.000                                                                  
C09  37733641.587   196488955.834        -136.299          36.000    37733628.231   151937686.413        -105.528          42.000  
C25  23551705.628   122639922.498        1509.578          40.000                                                                  
C08  39349489.658                       -2478.412          27.000    39349477.211                       -1917.089          30.000  
C10  40438109.795                3        936.886          26.000    40438103.174   162827488.502         725.170          34.000  
C35  25934056.645   135045458.338         240.944          39.000                                                                  
C13  38507874.470                3      -2295.904          24.000    38507883.796                       -1774.119          27.000  
C12  26310036.875   137003270.919        2326.179          32.000    26310033.655   105939608.756        1798.854          44.000  
G25  24640010.037   129484130.115       -3920.252          39.000    24640005.132   100896688.693       -3054.553          37.000  
C07                                                                  39490616.861   159012360.425         863.612          33.000  
> 2025 10 30 06 25 39.8400000  0 23                     
G32  22206682.940   116696872.757       -3052.130          40.000    22206676.598    90932625.810       -2377.874          34.000  
G29  23115143.691   121470921.612        -790.331          44.000    23115135.895    94652636.625        -615.928          39.000  
G28  21329195.945   112085684.028       -1263.180          42.000    21329186.771    87339453.345        -984.230          47.000  
G26  20306809.397   106713004.178         511.892          46.000    20306802.072    83152972.147         398.766          44.000  
G31  20616370.535   108339754.415          64.150          45.000    20616359.645    84420547.026          49.937          42.000  
G04  24294514.600   127668520.900        3153.678          42.000    24294511.539    99481994.210        2457.548          45.000  
C33  22554145.650   117445346.323        -885.366          47.000                                                                  
C06  36582866.058   190496588.814        -148.131          38.000    36582849.261   147303975.458        -114.809          44.000  
C14  22818075.492   118819687.693       -2403.295          41.000    22818060.618    91878865.385       -1858.272          46.000  
C16  37012618.118   192734414.247        -176.438          44.000    37012606.021   149034427.327        -136.196          43.000  
C24  21899028.640   114033991.285        -936.726          48.000                                                                  
C26  24590481.335   128049086.046       -2575.433          45.000                                                                  
G03  22902566.547   120353800.8532       -334.016          38.000    22902561.564    93782162.149        -260.368          37.000  
G16  22247725.573   116912574.811        2868.101          36.000                                                                  
C09  37733642.645   196488961.264        -135.986          36.000    37733629.268   151937690.625        -105.471          42.000  
C25  23551694.032   122639862.107        1509.641          40.000                                                                  
C08  39349508.723                       -2478.243          27.000    39349496.302                       -1916.733          30.000  
C10  40438102.816                3        938.781          26.000    40438095.982   162827459.484         725.401          34.000  
C35  25934054.792   135045448.708         240.735          39.000                                                                  
C13  38507892.402                3      -2293.947          24.000    38507901.890                       -1775.121          27.000  
C12  26310018.972   137003177.840        2326.612          33.000    26310015.789   105939536.792        1798.920          44.000  
G25  24640039.870   129484286.926       -3920.319          39.000    24640034.977   100896810.889       -3054.856          37.000  
C07                                                                  39490608.297   159012325.885         863.397          33.000  
> 2025 10 30 06 25 39.8800000  0 23                     
G32  22206706.159   116696994.837       -3052.181          40.000    22206699.852    90932720.954       -2378.442          35.000  
G29  23115149.701   121470953.217        -790.236          44.000    23115141.909    94652661.244        -615.660          39.000  
G28  21329205.558   112085734.538       -1263.016          42.000    21329196.376    87339492.702        -984.106          47.000  
G26  20306805.493   106712983.699         511.918          46.000    20306798.182    83152956.190         398.805          44.000  
G31  20616370.053   108339751.847          64.090          45.000    20616359.172    84420545.020          50.067          42.000  
G04  24294490.581   127668394.743        3153.746          42.000    24294487.528    99481895.907        2457.501          45.000  
C33  22554152.465   117445381.737        -885.408          47.000                                                                  
C06  36582867.182   190496594.742        -148.193          38.000    36582850.391   147303980.039        -114.641          44.000  
C14  22818093.964   118819783.807       -2403.059          41.000    22818079.044    91878939.711       -1858.238          46.000  
C16  37012619.482   192734421.286        -176.148          44.000    37012607.356   149034432.761        -135.990          43.000  
C24  21899035.842   114034028.738        -936.512          48.000                                                                  
C26  24590501.114   128049189.060       -2575.427          45.000                                                                  
G03  22902569.092   120353814.2192       -334.198          38.000    22902564.108    93782172.538        -259.988          37.000  
G16  22247703.769   116912460.077        2868.306          36.000                                                                  
C09  37733643.681   196488966.718        -136.300          36.000    37733630.329   151937694.830        -105.299          42.000  
C25  23551682.442   122639801.721        1509.574          40.000                                                                  
C08  39349527.753                       -2478.396          27.000    39349515.362                       -1915.801          30.000  
C10  40438095.981                3        938.378          26.000    40438088.748   162827430.482         725.158          34.000  
C35  25934052.971   135045439.067         240.846          39.000                                                                  
C13  38507909.456                3      -2293.404          24.000    38507919.938                       -1775.015          27.000  
C12  26310001.086   137003084.761        2326.872          33.000    26309997.919   105939464.820        1799.121          44.000  
G25  24640069.686   129484443.734       -3920.270          39.000    24640064.826   100896933.084       -3054.935          37.000  
C07                                                                  39490599.717   159012291.318         863.827          33.000  
> 2025 10 30 06 25 39.9200000  0 23                     
G32  22206729.405   116697116.901       -3051.859          40.000    22206723.082    90932816.051       -2377.849          35.000  
G29  23115155.711   121470984.822        -790.161          44.000    23115147.927    94652685.888        -615.959          39.000  
G28  21329215.174   112085785.042       -1262.769          42.000    21329205.997    87339532.054        -983.908          47.000  
G26  20306801.577   106712963.215         512.018          46.000    20306794.279    83152940.232         398.831          44.000  
G31  20616369.578   108339749.269          64.276          45.000    20616358.677    84420543.010          50.153          42.000  
G04  24294466.578   127668268.566        3154.202          42.000    24294463.504    99481797.600        2457.551          45.000  
C33  22554159.284   117445417.151        -885.413          47.000                                                                  
C06  36582868.318   190496600.675        -148.309          38.000    36582851.541   147303984.623        -114.610          44.000  
C14  22818112.408   118819879.913       -2402.776          41.000    22818097.524    91879014.031       -1858.093          46.000  
C16  37012620.862   192734428.326        -176.015          44.000    37012608.724   149034438.216        -136.235          43.000  
C24  21899043.027   114034066.187        -936.319          48.000                                                                  
C26  24590520.906   128049292.063       -2575.222          45.000                                                                  
G03  22902571.650   120353827.5732       -334.017          38.000    22902566.667    93782182.957        -260.355          37.000  
G16  22247681.974   116912345.376        2867.834          36.000                                                                  
C09  37733644.738   196488972.148        -136.018          36.000    37733631.392   151937699.029        -105.091          42.000  
C25  23551670.830   122639741.340        1509.470          40.000                                                                  
C08  39349546.806                       -2478.376          27.000    39349534.326                       -1915.582          30.000  
C10  40438088.675                3        939.266          26.000    40438081.568   162827401.502         724.541          34.000  
C35  25934051.116   135045429.432         240.834          39.000                                                                  
C13  38507926.995                3      -2293.317          24.000    38507937.226                       -1774.610          27.000  
C12  26309983.203   137002991.682        2326.956          33.000    26309980.047   105939392.853        1799.164          44.000  
G25  24640099.523   129484600.542       -3920.313          39.000    24640094.667   100897055.267       -3054.759          37.000  
C07                                                                  39490591.122   159012256.704         864.901          33.000  
> 2025 10 30 06 25 39.9600000  0 23                     
G32  22206752.636   116697238.955       -3051.457          40.000    22206746.327    90932911.178       -2378.065          35.000  
G29  23115161.720   121471016.425        -790.099          44.000    23115153.926    94652710.514        -615.841          39.000  
G28  21329224.804   112085835.565       -1262.963          42.000    21329215.626    87339571.414        -983.938          47.000  
G26  20306797.661   106712942.733         512.023          46.000    20306790.380    83152924.278         398.826          44.000  
G31  20616369.061   108339746.681          64.559          45.000    20616358.200    84420540.998          50.226          42.000  
G04  24294442.566   127668142.399        3154.281          42.000    24294439.482    99481699.294        2457.579          45.000  
C33  22554166.118   117445452.557        -885.252          47.000                                                                  
C06  36582869.451   190496606.604        -148.252          38.000    36582852.703   147303989.205        -114.554          44.000  
C14  22818130.838   118819976.026       -2402.774          41.000    22818115.971    91879088.350       -1857.992          46.000  
C16  37012622.217   192734435.360        -175.866          44.000    37012610.053   149034443.672        -136.401          43.000  
C24  21899050.232   114034103.639        -936.280          48.000                                                                  
C26  24590540.683   128049395.067       -2575.127          45.000                                                                  
G03  22902574.184   120353840.9402       -334.116          38.000    22902569.221    93782193.371        -260.428          37.000  
G16  22247660.149   116912230.681        2867.396          36.000                                                                  
C09  37733645.801   196488977.599        -136.149          36.000    37733632.411   151937703.235        -105.115          42.000  
C25  23551659.245   122639680.935        1509.915          40.000                                                                  
C08  39349565.824                       -2477.977          27.000    39349553.288                       -1915.308          30.000  
C10  40438081.629                3        936.836          26.000    40438074.378   162827372.527         724.207          34.000  
C35  25934049.263   135045419.788         241.031          39.000                                                                  
C13  38507944.117                3      -2292.940          24.000    38507954.903                       -1773.863          27.000  
C12  26309965.329   137002898.617        2326.832          32.000    26309962.193   105939320.896        1799.027          44.000  
G25  24640129.380   129484757.336       -3920.065          39.000    24640124.514   100897177.461       -3054.908          37.000  
C07                                                                  39490582.524   159012222.153         864.281          33.000  
> 2025 10 30 06 25 40.0000000  0 23                     
G32  22206775.874   116697361.019       -3051.479          40.000    22206769.568    90933006.313       -2378.366          35.000  
G29  23115167.734   121471048.035        -790.206          44.000    23115159.935    94652735.125        -615.468          39.000  
G28  21329234.410   112085886.065       -1262.686          42.000    21329225.254    87339610.780        -984.094          47.000  
G26  20306793.764   106712922.252         512.010          46.000    20306786.467    83152908.316         398.944          44.000  
G31  20616368.578   108339744.108          64.410          45.000    20616357.708    84420538.992          50.189          42.000  
G04  24294418.596   127668016.242        3154.087          42.000    24294415.462    99481600.981        2457.723          45.000  
C33  22554172.933   117445487.969        -885.240          47.000                                                                  
C06  36582870.581   190496612.527        -148.104          38.000    36582853.844   147303993.786        -114.523          44.000  
C14  22818149.305   118820072.146       -2402.902          41.000    22818134.452    91879162.674       -1858.018          46.000  
C16  37012623.587   192734442.407        -176.047          44.000    37012611.403   149034449.124        -136.449          43.000  
C24  21899057.406   114034141.097        -936.388          48.000                                                                  
C26  24590560.453   128049498.074       -2575.131          45.000                                                                  
G03  22902576.713   120353854.2892       -333.955          38.000    22902571.760    93782203.780        -260.388          37.000  
G16  22247638.326   116912115.957        2867.785          36.000                                                                  
C09  37733646.826   196488983.050        -136.342          36.000    37733633.440   151937707.437        -105.117          42.000  
C25  23551647.649   122639620.551        1509.754          40.000                                                                  
C08  39349584.854                       -2478.127          27.000    39349572.107                       -1916.555          30.000  
C10  40438074.310                3        937.910          26.000    40438067.203   162827343.526         724.668          34.000  
C35  25934047.419   135045410.145         241.085          40.000                                                                  
C13  38507961.649                3      -2292.940          24.000    38507972.116                       -1773.782          27.000  
C12  26309947.434   137002805.565        2326.305          33.000    26309944.302   105939248.925        1799.164          44.000  
G25  24640159.244   129484914.154       -3920.362          39.000    24640154.362   100897299.641       -3054.701          37.000  
C07                                                                  39490573.971   159012187.615         863.589          32.000  
> 2025 10 30 06 25 40.0400000  0 23                     
G32  22206799.118   116697483.100       -3051.842          40.000    22206792.808    90933101.469       -2378.865          35.000  
G29  23115173.750   121471079.644        -790.256          44.000    23115165.951    94652759.762        -615.813          39.000  
G28  21329244.029   112085936.574       -1262.706          42.000    21329234.880    87339650.138        -984.016          47.000  
G26  20306789.886   106712901.772         511.979          46.000    20306782.555    83152892.360         398.919          44.000  
G31  20616368.066   108339741.535          64.311          45.000    20616357.215    84420536.987          50.146          42.000  
G04  24294394.600   127667890.081        3154.033          42.000    24294391.441    99481502.663        2457.856          45.000  
C33  22554179.741   117445523.380        -885.273          47.000                                                                  
C06  36582871.700   190496618.446        -147.994          38.000    36582854.977   147303998.366        -114.513          44.000  
C14  22818167.748   118820168.269       -2403.000          41.000    22818152.877    91879237.007       -1858.239          46.000  
C16  37012624.932   192734449.454        -176.164          44.000    37012612.743   149034454.567        -136.236          43.000  
C24  21899064.546   114034178.564        -936.626          48.000                                                                  
C26  24590580.233   128049601.087       -2575.265          45.000                                                                  
G03  22902579.219   120353867.6372       -333.773          38.000    22902574.317    93782214.193        -260.302          37.000  
G16  22247616.526   116912001.232        2868.069          36.000                                                                  
C09  37733647.868   196488988.500        -136.409          36.000    37733634.464   151937711.648        -105.270          42.000  
C25  23551636.064   122639560.157        1509.839          41.000                                                                  
C08  39349603.875                       -2478.187          27.000    39349591.204                       -1917.155          30.000  
C10  40438066.618                3        939.217          26.000    40438059.987   162827314.521         724.954          34.000  
C35  25934045.560   135045400.511         240.985          40.000                                                                  
C13  38507979.597                3      -2292.940          24.000    38507990.035                       -1774.306          27.000  
C12  26309929.591   137002712.504        2326.228          32.000    26309926.420   105939176.961        1799.126          44.000  
G25  24640189.055   129485070.948       -3920.049          39.000    24640184.206   100897421.834       -3054.849          37.000  
C07                                                                  39490565.421   159012153.077         863.344          32.000  
> 2025 10 30 06 25 40.0800000  0 23                     
G32  22206822.366   116697605.177       -3051.954          40.000    22206816.024    90933196.566       -2378.041          35.000  
G29  23115179.776   121471111.258        -790.367          44.000    23115171.960    94652784.372        -615.470          39.000  
G28  21329253.669   112085987.085       -1262.789          42.000    21329244.478    87339689.501        -984.043          47.000  
G26  20306785.997   106712881.299         511.849          46.000    20306778.666    83152876.400         398.988          44.000  
G31  20616367.598   108339738.965          64.200          45.000    20616356.730    84420534.993          49.906          42.000  
G04  24294370.563   127667763.917        3154.054          42.000    24294367.453    99481404.362        2457.649          45.000  
C33  22554186.512   117445558.794        -885.331          47.000                                                                  
C06  36582872.836   190496624.366        -147.975          38.000    36582856.106   147304002.961        -114.762          44.000  
C14  22818186.204   118820264.393       -2403.074          41.000    22818171.352    91879311.331       -1858.156          46.000  
C16  37012626.298   192734456.498        -176.188          45.000    37012614.104   149034460.009        -136.128          43.000  
C24  21899071.734   114034216.024        -936.608          48.000                                                                  
C26  24590600.027   128049704.096       -2575.235          45.000                                                                  
G03  22902581.760   120353880.9902       -333.769          38.000    22902576.846    93782224.614        -260.460          37.000  
G16  22247594.686   116911886.516        2868.037          36.000                                                                  
C09  37733648.893   196488993.937        -136.145          36.000    37733635.503   151937715.863        -105.388          42.000  
C25  23551624.433   122639499.762        1509.870          41.000                                                                  
C08  39349622.950                       -2477.908          27.000    39349610.350                       -1916.897          30.000  
C10  40438059.556                3        938.047          26.000    40438052.787   162827285.475         725.858          34.000  
C35  25934043.700   135045390.868         241.028          40.000                                                                  
C13  38507997.300                3      -2290.561          24.000    38508006.949                       -1774.393          27.000  
C12  26309911.696   137002619.402        2327.109          33.000    26309908.525   105939104.990        1799.207          44.000  
G25  24640218.894   129485227.742       -3919.869          39.000    24640214.029   100897543.995       -3054.359          37.000  
C07                                                                  39490556.871   159012118.509         863.693          32.000  
> 2025 10 30 06 25 40.1200000  0 23                     
G32  22206845.601   116697727.259       -3052.084          40.000    22206839.246    90933291.707       -2378.462          34.000  
G29  23115185.779   121471142.869        -790.366          44.000    23115177.981    94652809.037        -616.279          39.000  
G28  21329263.295   112086037.603       -1262.939          42.000    21329254.091    87339728.864        -984.075          47.000  
G26  20306782.110   106712860.823         511.857          46.000    20306774.784    83152860.447         398.881          44.000  
G31  20616367.109   108339736.391          64.257          45.000    20616356.228    84420532.983          50.116          42.000  
G04  24294346.577   127667637.761        3153.907          42.000    24294343.443    99481306.055        2457.625          45.000  
C33  22554193.295   117445594.221        -885.621          47.000                                                                  
C06  36582873.995   190496630.311        -148.538          38.000    36582857.282   147304007.543        -114.672          44.000  
C14  22818204.647   118820360.520       -2403.179          41.000    22818189.794    91879385.657       -1858.188          46.000  
C16  37012627.638   192734463.543        -176.185          45.000    37012615.451   149034465.447        -135.976          43.000  
C24  21899078.928   114034253.479        -936.482          48.000                                                                  
C26  24590619.833   128049807.106       -2575.262          45.000                                                                  
G03  22902584.287   120353894.3672       -334.287          38.000    22902579.397    93782235.025        -260.404          37.000  
G16  22247572.866   116911771.774        2868.415          36.000                                                                  
C09  37733649.934   196488999.372        -135.995          36.000    37733636.544   151937720.061        -105.091          42.000  
C25  23551612.836   122639439.378        1509.647          41.000                                                                  
C08  39349641.984                       -2478.136          27.000    39349629.385                       -1916.284          30.000  
C10  40438052.058                3        937.724          26.000    40438045.567   162827256.501         724.887          34.000  
C35  25934041.830   135045381.229         240.963          39.000                                                                  
C13  38508014.021                3      -2297.178          24.000    38508024.428                       -1774.249          27.000  
C12  26309893.830   137002526.339        2326.780          33.000    26309890.626   105939033.024        1799.169          44.000  
G25  24640248.730   129485384.539       -3919.893          39.000    24640243.861   100897666.173       -3054.388          37.000  
C07                                                                  39490548.294   159012083.944         864.011          32.000  
> 2025 10 30 06 25 40.1600000  0 23                     
G32  22206868.821   116697849.328       -3051.901          40.000    22206862.470    90933386.808       -2377.899          34.000  
G29  23115191.780   121471174.475        -790.247          44.000    23115183.974    94652833.663        -615.964          39.000  
G28  21329272.886   112086088.122       -1263.025          42.000    21329263.728    87339768.232        -984.186          47.000  
G26  20306778.189   106712840.347         511.845          46.000    20306770.915    83152844.495         398.813          44.000  
G31  20616366.635   108339733.822          64.232          45.000    20616355.750    84420530.984          50.005          42.000  
G04  24294322.564   127667511.598        3153.972          42.000    24294319.429    99481207.755        2457.517          45.000  
C33  22554200.160   117445629.640        -885.598          47.000                                                                  
C06  36582875.138   190496636.251        -148.635          38.000    36582858.394   147304012.119        -114.502          44.000  
C14  22818223.118   118820456.654       -2403.392          41.000    22818208.254    91879459.989       -1858.320          46.000  
C16  37012628.988   192734470.582        -176.061          45.000    37012616.819   149034470.890        -136.013          43.000  
C24  21899086.130   114034290.936        -936.437          48.000                                                                  
C26  24590639.586   128049910.101       -2575.021          45.000                                                                  
G03  22902586.822   120353907.7282       -334.225          38.000    22902581.958    93782245.441        -260.370          37.000  
G16  22247551.050   116911657.091        2867.484          36.000                                                                  
C09  37733650.975   196489004.803        -135.813          36.000    37733637.577   151937724.275        -105.234          42.000  
C25  23551601.264   122639378.982        1509.796          41.000                                                                  
C08  39349661.028                       -2478.387          27.000    39349648.376                       -1916.499          30.000  
C10  40438044.896                3        937.795          26.000    40438038.375   162827227.465         725.522          34.000  
C35  25934039.991   135045371.603         240.739          40.000                                                                  
C13  38508031.700                3      -2297.178          24.000    38508042.594                       -1774.289          27.000  
C12  26309875.967   137002433.302        2326.102          33.000    26309872.767   105938961.054        1799.231          44.000  
G25  24640278.558   129485541.354       -3920.277          39.000    24640273.705   100897788.375       -3054.815          37.000  
C07                                                                  39490539.690   159012049.359         864.563          32.000  
> 2025 10 30 06 25 40.2000000  0 23                     
G32  22206892.042   116697971.415       -3052.111          40.000    22206885.710    90933481.912       -2377.718          34.000  
G29  23115197.785   121471206.085        -790.235          44.000    23115189.975    94652858.303        -616.044          39.000  
G28  21329282.503   112086138.644       -1263.098          42.000    21329273.321    87339807.589        -984.031          47.000  
G26  20306774.309   106712819.871         511.877          46.000    20306766.998    83152828.538         398.864          44.000  
G31  20616366.150   108339731.246          64.350          45.000    20616355.259    84420528.978          50.054          43.000  
G04  24294298.546   127667385.431        3154.062          42.000    24294295.410    99481109.445        2457.641          45.000  
C33  22554206.968   117445665.053        -885.450          47.000                                                                  
C06  36582876.274   190496642.163        -148.183          38.000    36582859.574   147304016.705        -114.619          44.000  
C14  22818241.593   118820552.769       -2403.139          41.000    22818226.701    91879534.318       -1858.292          46.000  
C16  37012630.301   192734477.631        -176.227          45.000    37012618.190   149034476.338        -136.071          43.000  
C24  21899093.310   114034328.394        -936.431          48.000                                                                  
C26  24590659.368   128050013.114       -2575.215          45.000                                                                  
G03  22902589.381   120353921.0982       -334.297          38.000    22902584.508    93782255.854        -260.262          37.000  
G16  22247529.240   116911542.386        2867.487          36.000                                                                  
C09  37733652.022   196489010.256        -136.134          37.000    37733638.636   151937728.474        -105.082          42.000  
C25  23551589.672   122639318.599        1509.636          41.000                                                                  
C08  39349680.084                       -2478.316          27.000    39349667.387                       -1916.836          30.000  
C10  40438037.343                3        937.441          26.000    40438031.181   162827198.484         724.880          34.000  
C35  25934038.154   135045361.966         240.792          40.000                                                                  
C13  38508049.770                3      -2297.178          24.000    38508060.392                       -1774.292          27.000  
C12  26309858.073   137002340.238        2326.167          33.000    26309854.887   105938889.090        1799.144          44.000  
G25  24640308.414   129485698.160       -3920.310          39.000    24640303.548   100897910.562       -3054.792          37.000  
C07                                                                  39490531.066   159012014.772         864.650          32.000  
> 2025 10 30 06 25 40.2400000  0 23                     
G32  22206915.262   116698093.488       -3051.975          40.000    22206908.925    90933577.034       -2377.882          34.000  
G29  23115203.830   121471237.708        -790.490          44.000    23115195.983    94652882.928        -615.801          39.000  
G28  21329292.088   112086189.154       -1262.936          42.000    21329282.942    87339846.956        -984.153          47.000  
G26  20306770.402   106712799.393         511.926          46.000    20306763.095    83152812.573         399.050          44.000  
G31  20616365.647   108339728.675          64.275          45.000    20616354.765    84420526.971          50.103          43.000  
G04  24294274.552   127667259.273        3153.969          42.000    24294271.412    99481011.134        2457.717          45.000  
C33  22554213.761   117445700.478        -885.591          47.000                                                                  
C06  36582877.411   190496648.079        -148.042          38.000    36582860.709   147304021.291        -114.669          44.000  
C14  22818260.058   118820648.896       -2403.189          41.000    22818245.164    91879608.650       -1858.317          46.000  
C16  37012631.649   192734484.676        -176.197          45.000    37012619.556   149034481.784        -136.117          43.000  
C24  21899100.488   114034365.860        -936.608          48.000                                                                  
C26  24590679.143   128050116.127       -2575.305          46.000                                                                  
G03  22902591.909   120353934.4642       -334.231          38.000    22902587.056    93782266.245        -259.888          37.000  
G16  22247507.420   116911427.668        2867.783          36.000                                                                  
C09  37733653.047   196489015.719        -136.526          37.000    37733639.644   151937732.690        -105.332          42.000  
C25  23551578.078   122639258.217        1509.531          41.000                                                                  
C08  39349699.129                       -2478.669          27.000    39349686.546                       -1916.359          30.000  
C10  40438030.232                3        938.148          26.000    40438023.992   162827169.518         724.274          34.000  
C35  25934036.298   135045352.330         240.849          40.000                                                                  
C13  38508067.243                3      -2293.068          24.000    38508078.527                       -1774.633          27.000  
C12  26309840.178   137002247.164        2326.557          33.000    26309837.023   105938817.123        1799.137          44.000  
G25  24640338.246   129485854.970       -3920.322          39.000    24640333.387   100898032.754       -3054.855          37.000  
C07                                                                  39490522.492   159011980.222         863.986          32.000  
> 2025 10 30 06 25 40.2800000  0 23                     
G32  22206938.508   116698215.570       -3052.011          40.000    22206932.181    90933672.164       -2378.124          34.000  
G29  23115209.844   121471269.325        -790.520          44.000    23115201.990    94652907.555        -615.709          39.000  
G28  21329301.688   112086239.674       -1262.996          42.000    21329292.582    87339886.326        -984.236          47.000  
G26  20306766.507   106712778.920         511.845          46.000    20306759.201    83152796.626         398.813          44.000  
G31  20616365.168   108339726.100          64.337          45.000    20616354.277    84420524.964          50.115          43.000  
G04  24294250.559   127667133.110        3153.997          42.000    24294247.406    99480912.829        2457.627          45.000  
C33  22554220.565   117445735.894        -885.513          47.000                                                                  
C06  36582878.563   190496654.009        -148.232          38.000    36582861.869   147304025.883        -114.784          44.000  
C14  22818278.518   118820745.013       -2403.045          41.000    22818263.609    91879682.983       -1858.367          46.000  
C16  37012633.013   192734491.721        -176.197          45.000    37012620.902   149034487.236        -136.232          43.000  
C24  21899107.677   114034403.326        -936.709          48.000                                                                  
C26  24590698.930   128050219.138       -2575.307          45.000                                                                  
G03  22902594.446   120353947.8302       -334.167          38.000    22902589.588    93782276.673        -260.435          38.000  
G16  22247485.604   116911312.981        2867.298          36.000                                                                  
C09  37733654.106   196489021.161        -136.342          37.000    37733640.681   151937736.907        -105.502          42.000  
C25  23551566.462   122639197.834        1509.514          41.000                                                                  
C08  39349718.162                       -2478.555          27.000    39349705.627                       -1914.559          30.000  
C10  40438023.002                3        938.014          26.000    40438016.767   162827140.514         724.567          34.000  
C35  25934034.425   135045342.699         240.826          40.000                                                                  
C13  38508084.563                3      -2293.068          24.000    38508096.141                       -1774.267          27.000  
C12  26309822.289   137002154.088        2326.798          33.000    26309819.129   105938745.160        1799.069          44.000  
G25  24640368.084   129486011.788       -3920.411          39.000    24640363.241   100898154.943       -3054.810          37.000  
C07                                                                  39490513.939   159011945.674         863.651          32.000  
> 2025 10 30 06 25 40.3200000  0 23                     
G32  22206961.737   116698337.653       -3052.108          40.000    22206955.396    90933767.317       -2378.651          34.000  
G29  23115215.878   121471300.942        -790.538          44.000    23115207.986    94652932.188        -615.753          39.000  
G28  21329311.305   112086290.190       -1262.949          42.000    21329302.196    87339925.689        -984.174          47.000  
G26  20306762.617   106712758.452         511.715          46.000    20306755.319    83152780.682         398.627          44.000  
G31  20616364.682   108339723.533          64.176          45.000    20616353.783    84420522.960          50.091          43.000  
G04  24294226.555   127667006.963        3153.747          42.000    24294223.416    99480814.516        2457.712          45.000  
C33  22554227.351   117445771.310        -885.476          47.000                                                                  
C06  36582879.691   190496659.942        -148.374          38.000    36582862.995   147304030.457        -114.542          44.000  
C14  22818296.996   118820841.152       -2403.380          41.000    22818282.088    91879757.309       -1858.272          46.000  
C16  37012634.347   192734498.764        -176.151          45.000    37012622.275   149034492.680        -136.167          43.000  
C24  21899114.851   114034440.792        -936.725          48.000                                                                  
C26  24590718.712   128050322.151       -2575.323          46.000                                                                  
G03  22902596.999   120353961.1982       -334.141          38.000    22902592.128    93782287.101        -260.708          38.000  
G16  22247463.779   116911198.248        2867.994          36.000                                                                  
C09  37733655.145   196489026.597        -136.054          37.000    37733641.728   151937741.111        -105.281          42.000  
C25  23551554.877   122639137.453        1509.521          41.000                                                                  
C08  39349737.197                       -2478.503          27.000    39349724.614                       -1914.703          30.000  
C10  40438015.942                3        938.986          26.000    40438009.578   162827111.512         724.782          34.000  
C35  25934032.577   135045333.068         240.742          40.000                                                                  
C13  38508102.033                3      -2293.068          24.000    38508113.723                       -1774.269          27.000  
C12  26309804.395   137002060.987        2327.254          33.000    26309801.255   105938673.196        1799.052          44.000  
G25  24640397.914   129486168.602       -3920.421          39.000    24640393.049   100898277.113       -3054.403          37.000  
C07                                                                  39490505.361   159011911.144         863.143          32.000  
> 2025 10 30 06 25 40.3600000  0 23                     
G32  22206984.977   116698459.722       -3051.888          40.000    22206978.628    90933862.435       -2378.253          34.000  
G29  23115221.886   121471332.552        -790.356          44.000    23115213.993    94652956.827        -615.859          39.000  
G28  21329320.884   112086340.705       -1262.931          42.000    21329311.809    87339965.045        -983.994          47.000  
G26  20306758.735   106712737.985         511.629          46.000    20306751.430    83152764.733         398.616          44.000  
G31  20616364.181   108339720.960          64.226          45.000    20616353.286    84420520.950          50.183          43.000  
G04  24294202.541   127666880.788        3154.126          42.000    24294199.400    99480716.205        2457.751          45.000  
C33  22554234.162   117445806.730        -885.520          47.000                                                                  
C06  36582880.835   190496665.880        -148.474          38.000    36582864.149   147304035.040        -114.557          44.000  
C14  22818315.448   118820937.274       -2403.245          41.000    22818300.540    91879831.634       -1858.178          46.000  
C16  37012635.698   192734505.804        -176.087          45.000    37012623.609   149034498.124        -136.120          43.000  
C24  21899122.068   114034478.245        -936.481          48.000                                                                  
C26  24590738.516   128050425.152       -2575.119          46.000                                                                  
G03  22902599.488   120353974.5612       -334.093          38.000    22902594.667    93782297.517        -260.616          38.000  
G16  22247441.943   116911083.532        2868.024          36.000                                                                  
C09  37733656.193   196489032.030        -135.841          37.000    37733642.777   151937745.315        -105.161          42.000  
C25  23551543.297   122639077.056        1509.817          41.000                                                                  
C08  39349756.276                       -2478.494          27.000    39349743.597                       -1914.653          30.000  
C10  40438008.321                3        936.767          26.000    40438002.376   162827082.497         725.178          34.000  
C35  25934030.716   135045323.432         240.812          40.000                                                                  
C13  38508119.278                3      -2291.888          24.000    38508131.290                       -1774.236          27.000  
C12  26309786.492   137001967.927        2326.797          32.000    26309783.389   105938601.223        1799.220          44.000  
G25  24640427.733   129486325.401       -3920.143          39.000    24640422.893   100898399.286       -3054.242          37.000  
C07                                                                  39490496.794   159011876.553         863.945          32.000  
> 2025 10 30 06 25 40.4000000  0 23                     
G32  22207008.202   116698581.788       -3051.706          40.000    22207001.859    90933957.577       -2378.486          34.000  
G29  23115227.855   121471364.163        -790.300          44.000    23115220.007    94652981.473        -616.031          39.000  
G28  21329330.484   112086391.214       -1262.786          42.000    21329321.418    87340004.401        -983.908          47.000  
G26  20306754.848   106712717.505         511.816          46.000    20306747.532    83152748.780         398.717          44.000  
G31  20616363.702   108339718.387          64.294          45.000    20616352.788    84420518.937          50.300          43.000  
G04  24294178.524   127666754.621        3154.205          42.000    24294175.416    99480617.899        2457.662          45.000  
C33  22554240.948   117445842.146        -885.463          47.000                                                                  
C06  36582881.985   190496671.793        -148.098          39.000    36582865.283   147304039.615        -114.421          44.000  
C14  22818333.917   118821033.391       -2403.042          41.000    22818319.019    91879905.962       -1858.204          46.000  
C16  37012637.039   192734512.840        -175.933          45.000    37012624.936   149034503.560        -135.981          43.000  
C24  21899129.271   114034515.694        -936.278          48.000                                                                  
C26  24590758.344   128050528.147       -2574.914          46.000                                                                  
G03  22902602.044   120353987.9202       -333.980          38.000    22902597.228    93782307.936        -260.615          38.000  
G16  22247420.128   116910968.803        2868.195          36.000                                                                  
C09  37733657.231   196489037.459        -135.681          37.000    37733643.835   151937749.519        -105.079          42.000  
C25  23551531.711   122639016.657        1509.976          41.000                                                                  
C08  39349775.328                       -2478.434          27.000    39349762.716                       -1915.372          30.000  
C10  40438001.366                3        936.849          26.000    40437995.156   162827053.454         725.807          34.000  
C35  25934028.857   135045313.788         241.007          40.000                                                                  
C13  38508136.486                3      -2291.888          24.000    38508148.910                       -1774.250          27.000  
C12  26309768.597   137001874.844        2326.959          32.000    26309765.534   105938529.252        1799.269          45.000  
G25  24640457.583   129486482.171       -3919.472          39.000    24640452.734   100898521.478       -3054.566          37.000  
C07                                                                  39490488.207   159011842.009         863.723          32.000  
> 2025 10 30 06 25 40.4400000  0 23                     
G32  22207031.447   116698703.860       -3051.710          40.000    22207025.071    90934052.680       -2377.927          34.000  
G29  23115233.854   121471395.770        -790.221          44.000    23115226.024    94653006.098        -615.782          39.000  
G28  21329340.093   112086441.723       -1262.739          42.000    21329331.033    87340043.760        -983.948          47.000  
G26  20306750.947   106712697.033         511.803          46.000    20306743.625    83152732.814         399.035          44.000  
G31  20616363.202   108339715.807          64.448          45.000    20616352.310    84420516.936          50.146          43.000  
G04  24294154.530   127666628.456        3154.171          42.000    24294151.406    99480519.594        2457.605          45.000  
C33  22554247.731   117445877.568        -885.513          47.000                                                                  
C06  36582883.133   190496677.696        -147.636          39.000    36582866.434   147304044.190        -114.367          44.000  
C14  22818352.374   118821129.503       -2402.766          41.000    22818337.467    91879980.295       -1858.273          46.000  
C16  37012638.414   192734519.876        -175.886          45.000    37012626.267   149034509.006        -136.074          43.000  
C24  21899136.462   114034553.147        -936.279          48.000                                                                  
C26  24590778.139   128050631.149       -2574.937          46.000                                                                  
G03  22902604.567   120354001.2972       -334.291          38.000    22902599.785    93782318.370        -260.832          38.000  
G16  22247398.294   116910854.099        2867.837          36.000                                                                  
C09  37733658.307   196489042.903        -135.908          37.000    37733644.886   151937753.713        -104.892          42.000  
C25  23551520.110   122638956.255        1510.079          41.000                                                                  
C08  39349794.383                       -2477.554          27.000    39349781.873                       -1916.130          30.000  
C10  40437994.360                3        937.340          25.000    40437987.974   162827024.484         724.875          34.000  
C35  25934027.005   135045304.161         240.727          40.000                                                                  
C13  38508153.956                3      -2291.888          23.000    38508166.477                       -1774.224          27.000  
C12  26309750.733   137001781.781        2326.882          32.000    26309747.673   105938457.283        1799.236          45.000  
G25  24640487.429   129486638.969       -3919.669          39.000    24640482.587   100898643.673       -3054.840          37.000  
C07                                                                  39490479.645   159011807.416         864.437          32.000  
> 2025 10 30 06 25 40.4800000  0 23                     
G32  22207054.674   116698825.929       -3051.714          40.000    22207048.300    90934147.796       -2377.846          34.000  
G29  23115239.877   121471427.390        -790.409          44.000    23115232.029    94653030.737        -615.863          39.000  
G28  21329349.710   112086492.229       -1262.671          42.000    21329340.670    87340083.125        -984.081          47.000  
G26  20306747.058   106712676.553         511.914          46.000    20306739.730    83152716.846         399.219          44.000  
G31  20616362.755   108339713.239          64.275          45.000    20616351.819    84420514.932          50.084          43.000  
G04  24294130.510   127666502.291        3154.127          42.000    24294127.376    99480421.282        2457.694          45.000  
C33  22554254.551   117445912.982        -885.437          47.000                                                                  
C06  36582884.269   190496683.618        -147.795          39.000    36582867.546   147304048.773        -114.510          44.000  
C14  22818370.827   118821225.621       -2402.802          41.000    22818355.941    91880054.619       -1858.198          46.000  
C16  37012639.740   192734526.910        -175.850          45.000    37012627.605   149034514.452        -136.091          43.000  
C24  21899143.616   114034590.607        -936.419          48.000                                                                  
C26  24590797.920   128050734.155       -2575.079          46.000                                                                  
G03  22902607.109   120354014.6742       -334.491          38.000    22902602.329    93782328.781        -260.528          38.000  
G16  22247376.483   116910739.376        2867.860          36.000                                                                  
C09  37733659.342   196489048.350        -136.124          37.000    37733645.901   151937757.912        -104.910          42.000  
C25  23551508.517   122638895.871        1509.776          41.000                                                                  
C08  39349813.436                       -2477.657          27.000    39349800.951                       -1916.090          30.000  
C10  40437987.090                3        937.474          25.000    40437980.776   162826995.471         725.012          34.000  
C35  25934025.150   135045294.523         240.843          40.000                                                                  
C13  38508171.768                3      -2295.651          23.000    38508184.223                       -1773.786          27.000  
C12  26309732.830   137001688.701        2326.980          32.000    26309729.788   105938385.312        1799.280          45.000  
G25  24640517.261   129486795.770       -3919.900          39.000    24640512.433   100898765.863       -3054.823          37.000  
C07                                                                  39490471.046   159011772.824         864.737          32.000  
> 2025 10 30 06 25 40.5200000  0 23                     
G32  22207077.910   116698948.017       -3052.014          40.000    22207071.541    90934242.912       -2377.879          34.000  
G29  23115245.866   121471459.001        -790.345          44.000    23115238.023    94653055.361        -615.658          39.000  
G28  21329359.325   112086542.744       -1262.800          42.000    21329350.264    87340122.487        -984.098          47.000  
G26  20306743.177   106712656.081         511.808          46.000    20306735.845    83152700.899         398.880          44.000  
G31  20616362.259   108339710.665          64.293          45.000    20616351.327    84420512.931          50.048          43.000  
G04  24294106.492   127666376.131        3154.022          42.000    24294103.365    99480322.964        2457.885          45.000  
C33  22554261.334   117445948.402        -885.482          47.000                                                                  
C06  36582885.390   190496689.545        -148.017          39.000    36582868.668   147304053.355        -114.565          44.000  
C14  22818389.301   118821321.751       -2403.101          41.000    22818374.405    91880128.943       -1858.136          46.000  
C16  37012641.099   192734533.951        -175.936          45.000    37012628.966   149034519.897        -136.137          43.000  
C24  21899150.809   114034628.064        -936.463          48.000                                                                  
C26  24590817.687   128050837.168       -2575.258          46.000                                                                  
G03  22902609.613   120354028.0562       -334.624          38.000    22902604.870    93782339.186        -260.253          38.000  
G16  22247354.659   116910624.663        2867.822          36.000                                                                  
C09  37733660.403   196489053.771        -135.734          37.000    37733646.954   151937762.118        -105.038          42.000  
C25  23551496.917   122638835.475        1509.820          41.000                                                                  
C08  39349832.498                       -2478.290          27.000    39349820.047                       -1916.682          30.000  
C10  40437979.933                3        938.318          26.000    40437973.574   162826966.443         725.444          34.000  
C35  25934023.306   135045284.885         240.912          40.000                                                                  
C13  38508189.311                3      -2295.651          23.000    38508201.285                       -1773.689          27.000  
C12  26309714.927   137001595.619        2327.053          32.000    26309711.909   105938313.337        1799.323          45.000  
G25  24640547.098   129486952.580       -3920.235          39.000    24640542.271   100898888.017       -3054.137          37.000  
C07                                                                  39490462.434                         863.983          32.000  
> 2025 10 30 06 25 40.5600000  0 23                     
G32  22207101.129   116699070.094       -3051.983          40.000    22207094.777    90934338.026       -2377.836          34.000  
G29  23115251.885   121471490.617        -790.408          44.000    23115244.028    94653079.996        -615.747          39.000  
G28  21329368.963   112086593.262       -1262.972          42.000    21329359.889    87340161.843        -983.998          47.000  
G26  20306739.246   106712635.599         511.970          46.000    20306731.949    83152684.947         398.793          44.000  
G31  20616361.766   108339708.088          64.349          45.000    20616350.841    84420510.913          50.313          43.000  
G04  24294082.491   127666249.964        3154.093          42.000    24294079.350    99480224.643        2457.981          45.000  
C33  22554268.132   117445983.813        -885.317          47.000                                                                  
C06  36582886.513   190496695.454        -147.813          39.000    36582869.779   147304057.930        -114.433          44.000  
C14  22818407.790   118821417.867       -2403.056          41.000    22818392.872    91880203.273       -1858.225          46.000  
C16  37012642.457   192734540.987        -175.910          45.000    37012630.316   149034525.324        -135.834          43.000  
C24  21899157.991   114034665.517        -936.384          48.000                                                                  
C26  24590837.471   128050940.168       -2575.097          46.000                                                                  
G03  22902612.120   120354041.4142       -334.194          38.000    22902607.421    93782349.579        -259.919          38.000  
G16  22247332.831   116910509.944        2867.940          36.000                                                                  
C09  37733661.430   196489059.197        -135.657          37.000    37733647.991   151937766.321        -105.108          42.000  
C25  23551485.322   122638775.079        1509.888          41.000                                                                  
C08  39349851.526                       -2478.640          27.000    39349839.005                       -1916.814          30.000  
C10  40437972.631                3        940.098          25.000    40437966.362   162826937.448         725.114          34.000  
C35  25934021.458   135045275.235         241.182          40.000                                                                  
C13  38508206.370                3      -2295.651          23.000    38508218.705                       -1774.484          27.000  
C12  26309697.074   137001502.534        2327.190          32.000    26309694.047   105938241.368        1799.229          45.000  
G25  24640576.951   129487109.363       -3919.823          39.000    24640572.092   100899010.187       -3054.048          37.000  
C07                                                                  39490453.858   159011703.695         864.228          32.000  
> 2025 10 30 06 25 40.6000000  0 23                     
G32  22207124.353   116699192.177       -3052.085          40.000    22207117.992    90934433.145       -2377.981          34.000  
G29  23115257.900   121471522.232        -790.407          44.000    23115250.034    94653104.621        -615.673          39.000  
G28  21329378.564   112086643.767       -1262.782          42.000    21329369.485    87340201.198        -983.927          47.000  
G26  20306735.351   106712615.119         512.026          46.000    20306728.055    83152668.995         398.751          44.000  
G31  20616361.279   108339705.510          64.435          45.000    20616350.357    84420508.902          50.337          43.000  
G04  24294058.454   127666123.769        3154.602          42.000    24294055.336    99480126.321        2458.040          45.000  
C33  22554274.930   117446019.223        -885.276          47.000                                                                  
C06  36582887.643   190496701.385        -148.090          39.000    36582870.914   147304062.496        -114.240          44.000  
C14  22818426.252   118821513.997       -2403.231          41.000    22818411.332    91880277.600       -1858.225          46.000  
C16  37012643.827   192734548.016        -175.782          45.000    37012631.673   149034530.755        -135.756          43.000  
C24  21899165.173   114034702.966        -936.289          48.000                                                                  
C26  24590857.268   128051043.159       -2574.878          46.000                                                                  
G03  22902614.666   120354054.7732       -334.001          38.000    22902609.993    93782359.997        -260.251          38.000  
G16  22247311.025   116910395.208        2868.263          36.000                                                                  
C09  37733662.484   196489064.621        -135.610          37.000    37733649.053   151937770.523        -105.061          42.000  
C25  23551473.743   122638714.679        1509.987          41.000                                                                  
C08  39349870.577                       -2478.506          27.000    39349858.091                       -1916.933          30.000  
C10  40437965.381                3        936.912          25.000    40437959.179   162826908.432         725.257          34.000  
C35  25934019.619   135045265.605         240.966          40.000                                                                  
C13  38508224.119                3      -2295.651          23.000    38508236.336                       -1774.297          27.000  
C12  26309679.180   137001409.462        2327.161          32.000    26309676.186   105938169.391        1799.347          45.000  
G25  24640606.795   129487266.150       -3919.671          39.000    24640601.934   100899132.373       -3054.378          37.000  
C07                                                                  39490445.263   159011669.145         863.901          32.000  
> 2025 10 30 06 25 40.6400000  0 23                     
G32  22207147.585   116699314.240       -3051.735          40.000    22207141.241    90934528.270       -2378.133          34.000  
G29  23115263.898   121471553.845        -790.369          44.000    23115256.062    94653129.256        -615.817          39.000  
G28  21329388.167   112086694.278       -1262.783          42.000    21329379.084    87340240.548        -983.778          47.000  
G26  20306731.428   106712594.640         512.018          46.000    20306724.155    83152653.044         398.747          44.000  
G31  20616360.797   108339702.928          64.521          45.000    20616349.871    84420506.892          50.337          43.000  
G04  24294034.456   127665997.606        3154.275          42.000    24294031.333    99480028.007        2457.909          45.000  
C33  22554281.721   117446054.647        -885.499          47.000                                                                  
C06  36582888.780   190496707.302        -148.051          39.000    36582872.052   147304067.080        -114.482          44.000  
C14  22818444.714   118821610.116       -2403.141          41.000    22818429.768    91880351.919       -1858.099          46.000  
C16  37012645.173   192734555.049        -175.811          45.000    37012633.050   149034536.196        -135.863          43.000  
C24  21899172.364   114034740.417        -936.278          48.000                                                                  
C26  24590877.032   128051146.146       -2574.695          46.000                                                                  
G03  22902617.180   120354068.1352       -333.993          38.000    22902612.533    93782370.410        -260.378          38.000  
G16  22247289.232   116910280.488        2868.163          36.000                                                                  
C09  37733663.521   196489070.059        -135.868          37.000    37733650.089   151937774.722        -105.024          42.000  
C25  23551462.140   122638654.283        1509.943          41.000                                                                  
C08  39349889.610                       -2478.187          27.000    39349877.147                       -1916.671          30.000  
C10  40437958.315                3        937.233          25.000    40437951.945   162826879.440         724.956          34.000  
C35  25934017.793   135045255.958         241.143          40.000                                                                  
C13  38508241.486                3      -2295.651          23.000    38508253.762                       -1774.199          27.000  
C12  26309661.271   137001316.344        2327.849          32.000    26309658.308   105938097.412        1799.452          45.000  
G25  24640636.643   129487422.949       -3919.846          39.000    24640631.789   100899254.534       -3054.132          37.000  
C07                                                                  39490436.692   159011634.588         863.839          32.000  
> 2025 10 30 06 25 40.6800000  0 23                     
G32  22207170.800   116699436.309       -3051.643          40.000    22207164.469    90934623.400       -2378.335          34.000  
G29  23115269.920   121471585.463        -790.450          44.000    23115262.069    94653153.894        -615.979          39.000  
G28  21329397.804   112086744.776       -1262.540          42.000    21329388.702    87340279.902        -983.783          47.000  
G26  20306727.530   106712574.160         512.005          46.000    20306720.260    83152637.086         398.897          44.000  
G31  20616360.284   108339700.354          64.416          45.000    20616349.376    84420504.886          50.231          43.000  
G04  24294010.448   127665871.431        3154.288          42.000    24294007.334    99479929.692        2457.873          45.000  
C33  22554288.495   117446090.070        -885.579          47.000                                                                  
C06  36582889.909   190496713.216        -147.943          38.000    36582873.212   147304071.651        -114.375          44.000  
C14  22818463.182   118821706.229       -2402.914          41.000    22818448.239    91880426.241       -1858.101          46.000  
C16  37012646.525   192734562.080        -175.781          45.000    37012634.422   149034541.645        -136.094          43.000  
C24  21899179.571   114034777.865        -936.216          48.000                                                                  
C26  24590896.802   128051249.158       -2575.074          46.000                                                                  
G03  22902619.726   120354081.4972       -334.033          38.000    22902615.093    93782380.832        -260.595          38.000  
G16  22247267.411   116910165.770        2868.032          36.000                                                                  
C09  37733664.571   196489075.494        -135.987          37.000    37733651.122   151937778.920        -105.000          42.000  
C25  23551450.526   122638593.877        1510.103          41.000                                                                  
C08  39349908.682                       -2477.937          27.000    39349896.149                       -1916.733          30.000  
C10  40437951.079                3        937.267          25.000    40437944.744   162826850.406         725.563          34.000  
C35  25934015.926   135045246.326         240.952          40.000                                                                  
C13  38508259.110                3      -2295.651          23.000    38508270.936                       -1774.673          27.000  
C12  26309643.376   137001223.287        2326.964          32.000    26309640.411   105938025.433        1799.476          45.000  
G25  24640666.479   129487579.738       -3919.712          39.000    24640661.626   100899376.708       -3054.199          37.000  
C07                                                                  39490428.100   159011599.985         864.747          32.000  
> 2025 10 30 06 25 40.7200000  0 23                     
G32  22207194.016   116699558.375       -3051.576          40.000    22207187.688    90934718.515       -2378.050          34.000  
G29  23115275.945   121471617.075        -790.350          44.000    23115268.092    94653178.522        -615.802          39.000  
G28  21329407.407   112086795.269       -1262.385          42.000    21329398.314    87340319.256        -983.806          47.000  
G26  20306723.624   106712553.683         511.936          46.000    20306716.362    83152621.121         399.076          44.000  
G31  20616359.801   108339697.768          64.595          45.000    20616348.878    84420502.873          50.293          43.000  
G04  24293986.441   127665745.243        3154.596          42.000    24293983.321    99479831.383        2457.755          45.000  
C33  22554295.299   117446125.482        -885.431          47.000                                                                  
C06  36582891.041   190496719.119        -147.713          38.000    36582874.357   147304076.224        -114.371          44.000  
C14  22818481.647   118821802.344       -2402.885          41.000    22818466.704    91880500.566       -1858.100          46.000  
C16  37012647.869   192734569.101        -175.575          45.000    37012635.760   149034547.079        -135.949          43.000  
C24  21899186.753   114034815.318        -936.275          48.000                                                                  
C26  24590916.579   128051352.153       -2574.999          46.000                                                                  
G03  22902622.252   120354094.8642       -334.134          38.000    22902617.638    93782391.255        -260.653          38.000  
G16  22247245.588   116910051.068        2867.674          36.000                                                                  
C09  37733665.644   196489080.923        -135.823          37.000    37733652.174   151937783.109        -104.758          42.000  
C25  23551438.907   122638533.481        1509.985          41.000                                                                  
C08  39349927.727                       -2477.962          27.000    39349915.165                       -1916.251          30.000  
C10  40437943.641                3        938.993          25.000    40437937.550   162826821.406         725.274          34.000  
C35  25934014.071   135045236.659         241.493          40.000                                                                  
C13  38508276.453                3      -2295.651          23.000    38508288.680                       -1774.527          27.000  
C12  26309625.466   137001130.199        2327.016          32.000    26309622.530   105937953.452        1799.518          45.000  
G25  24640696.312   129487736.522       -3919.583          39.000    24640691.458   100899498.900       -3054.501          37.000  
C07                                                                  39490419.509   159011565.401         864.829          32.000  
> 2025 10 30 06 25 40.7600000  0 23                     
G32  22207217.242   116699680.435       -3051.447          40.000    22207210.905    90934813.616       -2377.661          34.000  
G29  23115281.962   121471648.687        -790.326          44.000    23115274.113    94653203.158        -615.877          39.000  
G28  21329417.000   112086845.771       -1262.474          42.000    21329407.927    87340358.612        -983.896          47.000  
G26  20306719.711   106712533.205         511.906          46.000    20306712.482    83152605.167         398.962          44.000  
G31  20616359.303   108339695.177          64.717          45.000    20616348.370    84420500.868          50.138          43.000  
G04  24293962.433   127665619.054        3154.745          42.000    24293959.307    99479733.065        2457.881          45.000  
C33  22554302.089   117446160.892        -885.286          47.000                                                                  
C06  36582892.185   190496725.029        -147.671          38.000    36582875.482   147304080.789        -114.244          44.000  
C14  22818500.116   118821898.452       -2402.730          41.000    22818485.164    91880574.888       -1858.095          46.000  
C16  37012649.205   192734576.127        -175.581          45.000    37012637.117   149034552.512        -135.861          43.000  
C24  21899193.927   114034852.763        -936.192          48.000                                                                  
C26  24590936.374   128051455.136       -2574.713          46.000                                                                  
G03  22902624.777   120354108.2242       -334.039          38.000    22902620.169    93782401.644        -260.060          38.000  
G16  22247223.742   116909936.345        2867.880          36.000                                                                  
C09  37733666.680   196489086.339        -135.499          37.000    37733653.177   151937787.297        -104.674          42.000  
C25  23551427.307   122638473.077        1510.090          41.000                                                                  
C08  39349946.767                       -2478.363          27.000    39349934.194                       -1916.260          30.000  
C10  40437936.067                3        937.145          25.000    40437930.319   162826792.369         725.706          34.000  
C35  25934012.236   135045227.027         241.131          40.000                                                                  
C13  38508293.950                3      -2295.651          23.000    38508306.389                       -1774.500          27.000  
C12  26309607.609   137001037.138        2326.645          32.000    26309604.653   105937881.468        1799.555          45.000  
G25  24640726.146   129487893.307       -3919.537          39.000    24640721.300   100899621.072       -3054.439          37.000  
C07                                                                  39490410.922   159011530.792         865.139          32.000  
> 2025 10 30 06 25 40.8000000  0 23                     
G32  22207240.509   116699802.502       -3051.535          40.000    22207234.120    90934908.742       -2377.912          34.000  
G29  23115287.979   121471680.299        -790.352          44.000    23115280.119    94653227.804        -616.133          39.000  
G28  21329426.610   112086896.269       -1262.469          42.000    21329417.552    87340397.968        -983.940          47.000  
G26  20306715.820   106712512.728         511.925          46.000    20306708.595    83152589.210         398.956          44.000  
G31  20616358.825   108339692.599          64.550          45.000    20616347.881    84420498.850          50.305          43.000  
G04  24293938.421   127665492.901        3154.121          42.000    24293935.290    99479634.733        2458.175          45.000  
C33  22554308.877   117446196.308        -885.319          47.000                                                                  
C06  36582893.296   190496730.951        -147.896          38.000    36582876.620   147304085.358        -114.226          44.000  
C14  22818518.556   118821994.566       -2402.853          41.000    22818503.649    91880649.216       -1858.183          46.000  
C16  37012650.519   192734583.158        -175.700          45.000    37012638.449   149034557.933        -135.599          43.000  
C24  21899201.127   114034890.213        -936.219          48.000                                                                  
C26  24590956.138   128051558.133       -2574.816          46.000                                                                  
G03  22902627.298   120354121.5742       -333.891          38.000    22902622.717    93782412.049        -260.092          38.000  
G16  22247201.928   116909821.606        2868.249          36.000                                                                  
C09  37733667.715   196489091.756        -135.366          37.000    37733654.257   151937791.507        -105.046          42.000  
C25  23551415.730   122638412.678        1510.003          41.000                                                                  
C08  39349965.822                       -2478.206          27.000    39349953.277                       -1915.938          30.000  
C10  40437929.141                3        937.475          25.000    40437923.119   162826763.370         725.352          34.000  
C35  25934010.359   135045217.399         240.778          40.000                                                                  
C13  38508311.342                3      -2296.614          23.000    38508324.243                       -1774.432          27.000  
C12  26309589.709   137000944.054        2326.828          32.000    26309586.774   105937809.493        1799.430          45.000  
G25  24640756.001   129488050.103       -3919.801          39.000    24640751.126   100899743.225       -3054.076          37.000  
C07                                                                  39490402.349   159011496.300         863.207          32.000  
> 2025 10 30 06 25 40.8400000  0 23                     
G32  22207263.732   116699924.574       -3051.717          40.000    22207257.354    90935003.848       -2377.715          34.000  
G29  23115293.991   121471711.910        -790.308          44.000    23115286.117    94653252.431        -615.888          39.000  
G28  21329436.208   112086946.784       -1262.717          42.000    21329427.157    87340437.316        -983.813          47.000  
G26  20306711.906   106712492.247         511.988          46.000    20306704.711    83152573.246         399.042          44.000  
G31  20616358.326   108339690.022          64.408          45.000    20616347.399    84420496.841          50.225          43.000  
G04  24293914.405   127665366.708        3154.515          42.000    24293911.263    99479536.409        2458.178          45.000  
C33  22554315.712   117446231.718        -885.264          47.000                                                                  
C06  36582894.416   190496736.873        -148.039          38.000    36582877.758   147304089.930        -114.295          44.000  
C14  22818537.000   118822090.684       -2402.966          41.000    22818522.074    91880723.537       -1858.126          46.000  
C16  37012651.845   192734590.186        -175.740          45.000    37012639.828   149034563.367        -135.742          43.000  
C24  21899208.324   114034927.659        -936.182          48.000                                                                  
C26  24590975.934   128051661.129       -2574.877          46.000                                                                  
G03  22902629.853   120354134.9392       -334.088          38.000    22902625.267    93782422.469        -260.338          38.000  
G16  22247180.100   116909706.879        2868.242          36.000                                                                  
C09  37733668.752   196489097.172        -135.372          37.000    37733655.304   151937795.702        -104.991          42.000  
C25  23551404.146   122638352.272        1510.108          41.000                                                                  
C08  39349984.852                       -2478.238          27.000    39349972.205                       -1915.925          30.000  
C10  40437922.018                3        937.885          25.000    40437915.933   162826734.360         725.242          34.000  
C35  25934008.512   135045207.758         240.896          40.000                                                                  
C13  38508329.205                3      -2296.614          22.000    38508341.685                       -1774.405          27.000  
C12  26309571.807   137000850.907        2328.191          32.000    26309568.895   105937737.518        1799.362          45.000  
G25  24640785.854   129488206.889       -3919.718          39.000    24640780.966   100899865.412       -3054.517          37.000  
C07                                                                  39490393.775   159011461.721         863.801          32.000  
> 2025 10 30 06 25 40.8800000  0 23                     
G32  22207286.958   116700046.650       -3051.901          40.000    22207280.607    90935098.990       -2378.315          34.000  
G29  23115299.997   121471743.521        -790.289          44.000    23115292.106    94653277.051        -615.646          39.000  
G28  21329445.808   112086997.283       -1262.603          42.000    21329436.774    87340476.670        -983.855          47.000  
G26  20306708.021   106712471.773         511.881          46.000    20306700.829    83152557.296         398.812          44.000  
G31  20616357.833   108339687.445          64.372          45.000    20616346.907    84420494.832          50.206          43.000  
G04  24293890.370   127665240.537        3154.354          42.000    24293887.285    99479438.087        2458.113          45.000  
C33  22554322.516   117446267.133        -885.349          47.000                                                                  
C06  36582895.547   190496742.787        -147.906          38.000    36582878.917   147304094.503        -114.333          44.000  
C14  22818555.441   118822186.809       -2403.115          41.000    22818540.542    91880797.857       -1858.063          46.000  
C16  37012653.168   192734597.209        -175.621          45.000    37012641.180   149034568.788        -135.603          43.000  
C24  21899215.503   114034965.099        -936.088          48.000                                                                  
C26  24590995.697   128051764.116       -2574.780          46.000                                                                  
G03  22902632.357   120354148.2992       -334.061          38.000    22902627.807    93782432.880        -260.369          38.000  
G16  22247158.280   116909592.147        2868.343          36.000                                                                  
C09  37733669.792   196489102.578        -135.177          37.000    37733656.365   151937799.898        -104.946          42.000  
C25  23551392.543   122638291.869        1510.058          41.000                                                                  
C08  39350003.911                       -2477.999          27.000    39349991.241                       -1915.891          30.000  
C10  40437914.642                3        939.735          25.000    40437908.695   162826705.346         725.303          34.000  
C35  25934006.666   135045198.106         241.200          40.000                                                                  
C13  38508346.581                3      -2296.614          22.000    38508359.499                       -1774.091          27.000  
C12  26309553.921   137000757.810        2327.940          32.000    26309551.005   105937665.531        1799.524          45.000  
G25  24640815.686   129488363.667       -3919.515          39.000    24640810.809   100899987.580       -3054.379          37.000  
C07                                                                  39490385.186   159011427.128         864.501          32.000  
> 2025 10 30 06 25 40.9200000  0 23                     
G32  22207310.199   116700168.734       -3052.094          40.000    22207303.852    90935194.094       -2377.928          35.000  
G29  23115305.998   121471775.137        -790.365          44.000    23115298.124    94653301.687        -615.848          39.000  
G28  21329455.426   112087047.783       -1262.543          42.000    21329446.386    87340516.017        -983.750          47.000  
G26  20306704.105   106712451.289         512.006          46.000    20306696.921    83152541.331         398.962          44.000  
G31  20616357.354   108339684.853          64.637          45.000    20616346.423    84420492.812          50.391          43.000  
G04  24293866.348   127665114.343        3154.688          42.000    24293863.286    99479339.768        2458.019          45.000  
C33  22554329.322   117446302.550        -885.405          47.000                                                                  
C06  36582896.701   190496748.691        -147.680          38.000    36582880.055   147304099.073        -114.283          44.000  
C14  22818573.909   118822282.919       -2402.898          41.000    22818558.998    91880872.175       -1857.982          46.000  
C16  37012654.527   192734604.224        -175.415          45.000    37012642.530   149034574.238        -136.085          43.000  
C24  21899222.697   114035002.543        -936.071          48.000                                                                  
C26  24591015.470   128051867.110       -2574.848          46.000                                                                  
G03  22902634.887   120354161.6492       -333.859          38.000    22902630.336    93782443.293        -260.438          38.000  
G16  22247136.461   116909477.435        2867.974          38.000                                                                  
C09  37733670.827   196489108.023        -135.815          37.000    37733657.394   151937804.095        -105.018          42.000  
C25  23551380.925   122638231.468        1510.008          41.000                                                                  
C08  39350022.952                       -2477.814          27.000    39350010.344                       -1915.748          30.000  
C10  40437907.344                3        939.317          25.000    40437901.476   162826676.316         725.670          34.000  
C35  25934004.812   135045188.456         241.336          40.000                                                                  
C13  38508364.489                3      -2296.614          22.000    38508376.903                       -1773.984          27.000  
C12  26309536.017   137000664.705        2327.811          32.000    26309533.111   105937593.540        1799.704          45.000  
G25  24640845.532   129488520.450       -3919.549          39.000    24640840.641   100900109.739       -3054.058          37.000  
C07                                                                  39490376.593   159011392.556         864.443          33.000  
> 2025 10 30 06 25 40.9600000  0 23                     
G32  22207333.429   116700290.789       -3051.650          40.000    22207327.074    90935289.210       -2377.985          35.000  
G29  23115312.020   121471806.745        -790.258          43.000    23115304.132    94653326.328        -616.097          39.000  
G28  21329465.045   112087098.297       -1262.745          42.000    21329455.982    87340555.366        -983.740          47.000  
G26  20306700.222   106712430.816         511.843          46.000    20306693.029    83152525.373         398.949          44.000  
G31  20616356.861   108339682.270          64.606          45.000    20616345.947    84420490.795          50.409          43.000  
G04  24293842.325   127664988.150        3154.836          42.000    24293839.257    99479241.433        2458.208          45.000  
C33  22554336.117   117446337.968        -885.474          47.000                                                                  
C06  36582897.832   190496754.609        -147.872          38.000    36582881.188   147304103.636        -114.148          44.000  
C14  22818592.373   118822379.034       -2402.899          41.000    22818577.445    91880946.496       -1857.996          46.000  
C16  37012655.862   192734611.246        -175.479          45.000    37012643.881   149034579.680        -136.139          43.000  
C24  21899229.882   114035039.988        -936.110          48.000                                                                  
C26  24591035.235   128051970.092       -2574.678          45.000                                                                  
G03  22902637.413   120354175.0002       -333.792          38.000    22902632.872    93782453.695        -260.178          38.000  
G16  22247114.624   116909362.703        2868.050          38.000                                                                  
C09  37733671.903   196489113.467        -136.112          35.000    37733658.427   151937808.293        -105.036          42.000  
C25  23551369.310   122638171.074        1509.842          41.000                                                                  
C08  39350041.983                       -2477.536          27.000    39350029.412                       -1915.892          30.000  
C10  40437900.172                3        936.865          25.000    40437894.255   162826647.273         726.119          34.000  
C35  25934002.963   135045178.819         241.112          40.000                                                                  
C13  38508382.550                3      -2303.233          22.000    38508394.521                       -1773.501          27.000  
C12  26309518.126   137000571.605        2327.648          32.000    26309515.259   105937521.551        1799.739          45.000  
G25  24640875.338   129488677.205       -3919.062          39.000    24640870.470   100900231.885       -3053.646          37.000  
C07                                                                  39490368.016   159011357.977         864.502          33.000  
> 2025 10 30 06 25 41.0000000  0 23                     
G32  22207356.642   116700412.846       -3051.390          40.000    22207350.312    90935384.327       -2377.984          35.000  
G29  23115318.032   121471838.362        -790.371          43.000    23115310.153    94653350.965        -616.057          39.000  
G28  21329474.656   112087148.798       -1262.638          42.000    21329465.572    87340594.717        -983.811          47.000  
G26  20306696.321   106712410.342         511.807          46.000    20306689.126    83152509.416         398.867          44.000  
G31  20616356.380   108339679.692          64.464          45.000    20616345.466    84420488.800          50.014          43.000  
G04  24293818.313   127664861.962        3154.779          42.000    24293815.248    99479143.110        2458.091          45.000  
C33  22554342.901   117446373.377        -885.359          47.000                                                                  
C06  36582898.966   190496760.523        -147.889          38.000    36582882.304   147304108.200        -114.128          44.000  
C14  22818610.815   118822475.144       -2402.774          41.000    22818595.880    91881020.818       -1858.066          46.000  
C16  37012657.217   192734618.273        -175.605          45.000    37012645.211   149034585.109        -135.927          43.000  
C24  21899237.057   114035077.434        -936.164          48.000                                                                  
C26  24591055.000   128052073.085       -2574.759          45.000                                                                  
G03  22902639.945   120354188.3742       -334.151          36.000    22902635.409    93782464.097        -260.080          38.000  
G16  22247092.794   116909247.960        2868.333          38.000                                                                  
C09  37733672.949   196489118.884        -135.625          35.000    37733659.458   151937812.503        -105.250          42.000  
C25  23551357.722   122638110.691        1509.566          41.000                                                                  
C08  39350060.998                       -2477.453          27.000    39350048.468                       -1915.793          30.000  
C10  40437892.946                3        937.644          25.000    40437887.060   162826618.252         725.850          34.000  
C35  25934001.101   135045169.177         241.042          40.000                                                                  
C13  38508400.578                3      -2303.233          23.000    38508411.884                       -1773.265          27.000  
C12  26309500.235   137000478.546        2326.676          32.000    26309497.372   105937449.569        1799.607          45.000  
G25  24640905.161   129488833.984       -3919.292          39.000    24640900.304   100900354.043       -3053.715          37.000  
C07                                                                  39490359.423   159011323.395         864.581          33.000  
> 2025 10 30 06 25 41.0400000  0 23                     
G32  22207379.885   116700534.901       -3051.265          40.000    22207373.549    90935479.435       -2377.818          35.000  
G29  23115324.050   121471869.990        -790.631          43.000    23115316.154    94653375.579        -615.532          39.000  
G28  21329484.235   112087199.282       -1262.249          42.000    21329475.171    87340634.067        -983.795          47.000  
G26  20306692.436   106712389.866         511.852          46.000    20306685.247    83152493.453         398.968          44.000  
G31  20616355.895   108339677.110          64.470          45.000    20616344.971    84420486.783          50.250          43.000  
G04  24293794.313   127664735.769        3154.857          42.000    24293791.248    99479044.781        2458.151          45.000  
C33  22554349.713   117446408.793        -885.404          47.000                                                                  
C06  36582900.102   190496766.457        -148.231          38.000    36582883.438   147304112.768        -114.162          44.000  
C14  22818629.281   118822571.245       -2402.569          39.000    22818614.337    91881095.145       -1858.134          46.000  
C16  37012658.574   192734625.289        -175.487          45.000    37012646.568   149034590.532        -135.682          43.000  
C24  21899244.275   114035114.878        -936.130          48.000                                                                  
C26  24591074.777   128052176.072       -2574.721          45.000                                                                  
G03  22902642.500   120354201.7462       -334.304          36.000    22902637.951    93782474.484        -259.652          37.000  
G16  22247070.957   116909133.209        2868.722          38.000                                                                  
C09  37733673.981   196489124.309        -135.637          35.000    37733660.504   151937816.680        -104.713          42.000  
C25  23551346.120   122638050.276        1510.073          41.000                                                                  
C08  39350080.029                       -2477.389          27.000    39350067.502                       -1915.771          30.000  
C10  40437886.000                3        937.683          25.000    40437879.858   162826589.234         725.610          35.000  
C35  25933999.227   135045159.542         240.880          40.000                                                                  
C13  38508418.801                3      -2299.917          23.000    38508429.820                       -1773.298          27.000  
C12  26309482.353   137000385.460        2326.758          33.000    26309479.496   105937377.580        1799.644          45.000  
G25  24640934.999   129488990.763       -3919.425          39.000    24640930.138   100900476.227       -3054.329          37.000  
C07                                                                  39490350.848   159011288.809         864.683          33.000  
> 2025 10 30 06 25 41.0800000  0 23                     
G32  22207403.129   116700656.966       -3051.472          40.000    22207396.788    90935574.535       -2377.596          35.000  
G29  23115330.084   121471901.607        -790.593          43.000    23115322.173    94653400.209        -615.584          39.000  
G28  21329493.853   112087249.784       -1262.372          42.000    21329484.775    87340673.415        -983.727          47.000  
G26  20306688.526   106712369.379         512.089          46.000    20306681.332    83152477.491         399.011          44.000  
G31  20616355.383   108339674.517          64.711          45.000    20616344.491    84420484.772          50.287          43.000  
G04  24293770.287   127664609.577        3154.874          42.000    24293767.226    99478946.442        2458.367          45.000  
C33  22554356.509   117446444.197        -885.213          47.000                                                                  
C06  36582901.235   190496772.371        -148.105          38.000    36582884.575   147304117.329        -114.057          44.000  
C14  22818647.724   118822667.354       -2402.648          39.000    22818632.797    91881169.465       -1858.050          45.000  
C16  37012659.956   192734632.302        -175.409          45.000    37012647.878   149034595.962        -135.716          43.000  
C24  21899251.462   114035152.309        -935.897          48.000                                                                  
C26  24591094.536   128052279.045       -2574.441          45.000                                                                  
G03  22902645.034   120354215.1132       -334.211          33.000    22902640.497    93782484.902        -260.143          35.000  
G16  22247049.121   116909018.465        2868.732          38.000                                                                  
C09  37733675.025   196489129.744        -135.777          35.000    37733661.523   151937820.880        -104.897          42.000  
C25  23551334.520   122637989.868        1510.232          40.000                                                                  
C08  39350099.064                       -2477.260          27.000    39350086.527                       -1915.583          30.000  
C10  40437878.616                3        937.751          25.000    40437872.636   162826560.219         725.413          35.000  
C35  25933997.358   135045149.895         240.974          38.000                                                                  
C13  38508437.417                3      -2291.164          23.000    38508447.379                       -1772.911          27.000  
C12  26309464.471   137000292.334        2327.525          33.000    26309461.625   105937305.587        1799.795          45.000  
G25  24640964.847   129489147.548       -3919.610          39.000    24640959.967   100900598.373       -3053.973          37.000  
C07                                                                  39490342.274   159011254.248         864.362          33.000  
> 2025 10 30 06 25 41.1200000  0 23                     
G32  22207426.348   116700779.042       -3051.819          40.000    22207420.011    90935669.648       -2377.696          35.000  
G29  23115336.113   121471933.214        -790.330          43.000    23115328.170    94653424.843        -615.774          39.000  
G28  21329503.436   112087300.293       -1262.599          42.000    21329494.390    87340712.755        -983.572          47.000  
G26  20306684.605   106712348.893         512.192          46.000    20306677.440    83152461.530         398.998          44.000  
G31  20616354.892   108339671.928          64.722          45.000    20616343.999    84420482.750          50.447          43.000  
G04  24293746.259   127664483.380        3154.912          42.000    24293743.210    99478848.113        2458.287          45.000  
C33  22554363.277   117446479.613        -885.336          47.000                                                                  
C06  36582902.364   190496778.287        -148.015          38.000    36582885.706   147304121.900        -114.197          44.000  
C14  22818666.203   118822763.453       -2402.550          39.000    22818651.247    91881243.784       -1857.975          45.000  
C16  37012661.285   192734639.321        -175.496          45.000    37012649.202   149034601.396        -135.809          43.000  
C24  21899258.653   114035189.743        -935.832          48.000                                                                  
C26  24591114.297   128052382.027       -2574.490          45.000                                                                  
G03  22902647.568   120354228.4592       -333.894          33.000    22902643.048    93782495.291        -259.826          35.000  
G16  22247027.290   116908903.725        2868.651          38.000                                                                  
C09  37733676.076   196489135.203        -136.368          32.000    37733662.575   151937825.070        -104.842          42.000  
C25  23551322.931   122637929.468        1510.120          40.000                                                                  
C08  39350118.108                       -2477.560          27.000    39350105.507                       -1915.612          30.000  
C10  40437871.662                3        937.763          25.000    40437865.420   162826531.193         725.493          35.000  
C35  25933995.509   135045140.241         241.233          38.000                                                                  
C13  38508455.594                3      -2291.164          23.000    38508465.018                       -1773.657          27.000  
C12  26309446.579   137000199.209        2327.919          33.000    26309443.750   105937233.600        1799.731          45.000  
G25  24640994.681   129489304.313       -3919.387          39.000    24640989.806   100900720.537       -3054.115          37.000  
C07                                                                  39490333.676   159011219.693         863.993          33.000  
> 2025 10 30 06 25 41.1600000  0 23                     
G32  22207449.588   116700901.107       -3051.788          40.000    22207443.231    90935764.760       -2377.802          35.000  
G29  23115342.145   121471964.823        -790.232          43.000    23115334.194    94653449.481        -615.909          39.000  
G28  21329513.045   112087350.791       -1262.550          42.000    21329503.986    87340752.088        -983.380          47.000  
G26  20306680.695   106712328.411         512.135          46.000    20306673.541    83152445.566         399.029          44.000  
G31  20616354.404   108339669.336          64.789          45.000    20616343.507    84420480.726          50.594          43.000  
G04  24293722.229   127664357.193        3154.721          41.000    24293719.218    99478749.786        2458.202          45.000  
C33  22554370.072   117446515.025        -885.336          47.000                                                                  
C06  36582903.500   190496784.184        -147.596          38.000    36582886.826   147304126.466        -114.190          44.000  
C14  22818684.636   118822859.568       -2402.763          39.000    22818669.703    91881318.103       -1857.958          45.000  
C16  37012662.656   192734646.335        -175.437          45.000    37012650.582   149034606.822        -135.737          43.000  
C24  21899265.814   114035227.185        -935.946          48.000                                                                  
C26  24591134.061   128052485.013       -2574.583          45.000                                                                  
G03  22902650.111   120354241.8532       -334.465          33.000    22902645.606    93782505.711        -260.334          35.000  
G16  22247005.469   116908788.994        2868.365          38.000                                                                  
C09  37733677.110   196489140.595        -135.455          32.000    37733663.599   151937829.263        -104.823          42.000  
C25  23551311.341   122637869.068        1510.015          40.000                                                                  
C08  39350137.134                       -2477.515          28.000    39350124.528                       -1916.039          30.000  
C10  40437864.416                3        939.308          26.000    40437858.188   162826502.145         726.009          35.000  
C35  25933993.623   135045130.596         241.116          38.000                                                                  
C13  38508473.730                3      -2288.523          24.000    38508482.668                       -1773.473          27.000  
C12  26309428.701   137000106.101        2327.803          33.000    26309425.858   105937161.609        1799.755          45.000  
G25  24641024.507   129489461.085       -3919.406          37.000    24641019.631   100900842.691       -3053.945          37.000  
C07                                                                  39490325.073   159011185.092         864.602          33.000  
> 2025 10 30 06 25 41.2000000  0 23                     
G32  22207472.813   116701023.187       -3051.962          40.000    22207466.480    90935859.901       -2378.350          35.000  
G29  23115348.189   121471996.432        -790.234          43.000    23115340.200    94653474.107        -615.791          39.000  
G28  21329522.655   112087401.286       -1262.450          42.000    21329513.620    87340791.441        -983.646          47.000  
G26  20306676.800   106712307.936         511.922          46.000    20306669.649    83152429.602         399.110          44.000  
G31  20616353.911   108339666.745          64.789          45.000    20616343.014    84420478.704          50.649          43.000  
G04  24293698.242   127664231.002        3154.690          41.000    24293695.197    99478651.463        2458.055          45.000  
C33  22554376.844   117446550.436        -885.297          47.000                                                                  
C06  36582904.629   190496790.074        -147.275          38.000    36582887.933   147304131.024        -114.047          44.000  
C14  22818703.112   118822955.690       -2403.008          39.000    22818688.183    91881392.416       -1857.878          45.000  
C16  37012664.003   192734653.353        -175.462          45.000    37012651.948   149034612.243        -135.604          43.000  
C24  21899272.988   114035264.629        -936.082          48.000                                                                  
C26  24591153.844   128052588.002       -2574.728          45.000                                                                  
G03  22902652.669   120354255.2592       -334.928          33.000    22902648.163    93782516.121        -260.379          33.000  
G16  22246983.643   116908674.270        2868.099          38.000                                                                  
C09  37733678.148   196489146.079        -136.722          31.000    37733664.645   151937833.453        -104.779          42.000  
C25  23551299.738   122637808.658        1510.175          40.000                                                                  
C08  39350156.180                       -2477.543          28.000    39350143.548                       -1915.784          30.000  
C10  40437857.134                3        938.038          26.000    40437850.999   162826473.152         725.259          35.000  
C35  25933991.760   135045120.961         240.832          38.000                                                                  
C13  38508491.710                3      -2293.148          29.000    38508499.388                       -1773.918          27.000  
C12  26309410.807   137000013.010        2327.454          33.000    26309407.951   105937089.617        1799.824          45.000  
G25  24641054.350   129489617.853       -3919.224          37.000    24641049.482   100900964.879       -3054.463          37.000  
C07                                                                  39490316.466   159011150.489         865.072          36.000  
> 2025 10 30 06 25 41.2400000  0 23                     
G32  22207496.038   116701145.256       -3051.826          40.000    22207489.698    90935954.995       -2377.789          35.000  
G29  23115354.217   121472028.064        -790.658          43.000    23115346.219    94653498.746        -615.966          39.000  
G28  21329532.258   112087451.777       -1262.312          42.000    21329523.232    87340830.797        -983.868          47.000  
G26  20306672.910   106712287.454         511.979          46.000    20306665.747    83152413.659         398.698          44.000  
G31  20616353.427   108339664.161          64.684          45.000    20616342.516    84420476.694          50.389          43.000  
G04  24293674.242   127664104.813        3154.677          41.000    24293671.159    99478553.144        2457.938          44.000  
C33  22554383.629   117446585.850        -885.342          47.000                                                                  
C06  36582905.740   190496795.964        -147.126          38.000    36582889.049   147304135.577        -113.881          44.000  
C14  22818721.561   118823051.801       -2402.948          39.000    22818706.636    91881466.744       -1858.131          45.000  
C16  37012665.335   192734660.367        -175.377          44.000    37012653.312   149034617.674        -135.676          43.000  
C24  21899280.160   114035302.071        -936.105          48.000                                                                  
C26  24591173.646   128052690.993       -2574.809          45.000                                                                  
G03  22902655.208   120354268.5592       -332.980          30.000    22902650.709    93782526.526        -260.302          33.000  
G16  22246961.830   116908559.543        2868.064          38.000                                                                  
C09  37733679.175   196489151.491        -135.792          31.000    37733665.680   151937837.637        -104.634          42.000  
C25  23551288.172   122637748.265        1509.903          38.000                                                                  
C08  39350175.209                       -2477.520          28.000    39350162.580                       -1916.174          31.000  
C10  40437849.761                3        937.189          26.000    40437843.773   162826444.131         725.343          35.000  
C35  25933989.902   135045111.332         240.628          38.000                                                                  
C13  38508509.455                3      -2293.148          29.000    38508516.892                       -1774.141          27.000  
C12  26309392.941   136999919.923        2327.119          33.000    26309390.073   105937017.630        1799.711          45.000  
G25  24641084.189   129489774.644       -3919.564          37.000    24641079.311   100901087.036       -3054.182          37.000  
C07                                                                  39490307.899   159011115.915         864.736          36.000  
> 2025 10 30 06 25 41.2800000  0 23                     
G32  22207519.268   116701267.317       -3051.623          40.000    22207512.929    90936050.097       -2377.555          36.000  
G29  23115360.230   121472059.672        -790.400          43.000    23115352.244    94653523.389        -616.158          39.000  
G28  21329541.866   112087502.274       -1262.343          42.000    21329532.845    87340870.152        -983.954          47.000  
G26  20306669.023   106712266.979         511.887          46.000    20306661.843    83152397.698         398.831          44.000  
G31  20616352.946   108339661.580          64.574          45.000    20616342.048    84420474.683          50.254          43.000  
G04  24293650.239   127663978.633        3154.537          41.000    24293647.137    99478454.821        2457.970          44.000  
C33  22554390.434   117446621.269        -885.469          47.000                                                                  
C06  36582906.889   190496801.856        -147.194          38.000    36582890.158   147304140.143        -114.042          44.000  
C14  22818740.016   118823147.932       -2403.319          39.000    22818725.078    91881541.072       -1858.229          45.000  
C16  37012666.673   192734667.383        -175.406          44.000    37012654.651   149034623.093        -135.534          43.000  
C24  21899287.353   114035339.508        -936.027          48.000                                                                  
C26  24591193.416   128052793.972       -2574.628          45.000                                                                  
G03  22902657.695   120354281.9102       -332.812          29.000    22902653.260    93782536.951        -260.493          33.000  
G16  22246939.986   116908444.825        2867.936          38.000                                                                  
C09  37733680.206   196489156.894        -135.181          31.000    37733666.729   151937841.815        -104.517          42.000  
C25  23551276.572   122637687.852        1510.170          38.000                                                                  
C08  39350194.262                       -2477.107          28.000    39350181.620                       -1916.484          31.000  
C10  40437842.299                3        937.982          26.000    40437836.544   162826415.095         725.678          35.000  
C35  25933988.029   135045101.684         240.909          38.000                                                                  
C13  38508527.937                3      -2296.988          29.000    38508534.717                       -1773.710          27.000  
C12  26309375.029   136999826.832        2327.104          33.000    26309372.206   105936945.650        1799.531          45.000  
G25  24641114.049   129489931.440       -3919.866          37.000    24641109.132   100901209.191       -3053.948          37.000  
C07                                                                  39490299.332   159011081.354         864.236          36.000  
> 2025 10 30 06 25 41.3200000  0 23                     
G32  22207542.509   116701389.380       -3051.570          40.000    22207536.162    90936145.222       -2377.962          36.000  
G29  23115366.246   121472091.286        -790.388          43.000    23115358.255    94653548.022        -616.044          39.000  
G28  21329551.480   112087552.772       -1262.397          42.000    21329542.449    87340909.511        -984.037          47.000  
G26  20306665.159   106712246.500         511.925          46.000    20306657.944    83152381.745         398.776          44.000  
G31  20616352.433   108339658.997          64.512          45.000    20616341.540    84420472.675          50.162          43.000  
G04  24293626.233   127663852.466        3154.248          41.000    24293623.113    99478356.495        2458.044          44.000  
C33  22554397.245   117446656.688        -885.518          47.000                                                                  
C06  36582908.008   190496807.770        -147.607          38.000    36582891.273   147304144.713        -114.226          44.000  
C14  22818758.503   118823244.058       -2403.370          39.000    22818743.508    91881615.394       -1858.183          45.000  
C16  37012668.007   192734674.395        -175.369          44.000    37012655.979   149034628.516        -135.585          43.000  
C24  21899294.557   114035376.957        -936.196          47.000                                                                  
C26  24591213.183   128052896.963       -2574.734          45.000                                                                  
G03  22902660.233   120354295.3102       -333.445          29.000    22902655.804    93782547.405        -261.148          33.000  
G16  22246918.143   116908330.109        2867.825          38.000                                                                  
C09  37733681.231   196489162.266        -134.351          31.000    37733667.779   151937846.002        -104.590          42.000  
C25  23551264.983   122637627.455        1509.946          38.000                                                                  
C08  39350213.316                       -2478.036          28.000    39350200.659                       -1915.962          31.000  
C10  40437834.852                3        939.702          26.000    40437829.328   162826386.093         725.198          35.000  
C35  25933986.175   135045092.036         241.078          38.000                                                                  
C13  38508545.914                3      -2294.284          30.000    38508552.284                       -1774.180          28.000  
C12  26309357.144   136999733.762        2326.790          33.000    26309354.327   105936873.665        1799.520          45.000  
G25  24641143.882   129490088.221       -3919.733          37.000    24641138.963   100901331.388       -3054.733          37.000  
C07                                                                  39490290.748   159011046.777         864.318          36.000  
> 2025 10 30 06 25 41.3600000  0 23                     
G32  22207565.732   116701511.455       -3051.805          40.000    22207559.442    90936240.364       -2378.489          36.000  
G29  23115372.272   121472122.909        -790.563          43.000    23115364.264    94653572.666        -616.162          39.000  
G28  21329561.076   112087603.274       -1262.482          42.000    21329552.048    87340948.867        -984.031          47.000  
G26  20306661.256   106712226.035         511.669          46.000    20306654.058    83152365.799         398.621          44.000  
G31  20616351.958   108339656.422          64.340          45.000    20616341.062    84420470.665          50.175          43.000  
G04  24293602.233   127663726.292        3154.255          41.000    24293599.085    99478258.181        2457.866          44.000  
C33  22554404.067   117446692.113        -885.656          47.000                                                                  
C06  36582909.153   190496813.692        -147.987          38.000    36582892.396   147304149.281        -114.267          44.000  
C14  22818776.967   118823340.171       -2403.012          39.000    22818761.968    91881689.729       -1858.351          45.000  
C16  37012669.341   192734681.426        -175.720          44.000    37012657.348   149034633.952        -135.839          43.000  
C24  21899301.719   114035414.415        -936.463          47.000                                                                  
C26  24591232.973   128052999.957       -2574.863          45.000                                                                  
G03  22902662.772   120354308.6992       -333.823          29.000    22902658.348    93782557.811        -260.601          33.000  
G16  22246896.329   116908215.376        2868.085          39.000                                                                  
C09  37733682.270   196489167.719        -135.406          32.000    37733668.800   151937850.207        -104.984          42.000  
C25  23551253.385   122637567.059        1509.842          38.000                                                                  
C08  39350232.340                       -2479.025          28.000    39350219.713                       -1916.084          31.000  
C10  40437827.653                3        937.640          26.000    40437822.114   162826357.056         725.595          35.000  
C35  25933984.322   135045082.409         240.795          37.000                                                                  
C13  38508563.953                3      -2293.174          30.000    38508569.784                       -1774.121          28.000  
C12  26309339.251   136999640.662        2327.161          33.000    26309336.440   105936801.689        1799.372          45.000  
G25  24641173.724   129490245.009       -3919.770          37.000    24641168.801   100901453.552       -3054.501          37.000  
C07                                                                  39490282.160   159011012.217         864.102          36.000  
> 2025 10 30 06 25 41.4000000  0 23                     
G32  22207588.993   116701633.536       -3052.040          40.000    22207582.685    90936335.500       -2378.592          36.000  
G29  23115378.311   121472154.536        -790.723          43.000    23115370.278    94653597.308        -616.185          39.000  
G28  21329570.716   112087653.801       -1263.013          42.000    21329561.643    87340988.224        -983.999          47.000  
G26  20306657.370   106712205.573         511.510          46.000    20306650.181    83152349.851         398.592          44.000  
G31  20616351.466   108339653.845          64.341          45.000    20616340.571    84420468.659          50.077          43.000  
G04  24293578.231   127663600.112        3154.423          41.000    24293575.069    99478159.859        2457.931          44.000  
C33  22554410.885   117446727.549        -885.886          47.000                                                                  
C06  36582910.289   190496819.610        -148.097          38.000    36582893.533   147304153.848        -114.228          44.000  
C14  22818795.442   118823436.299       -2403.140          39.000    22818780.438    91881764.065       -1858.462          45.000  
C16  37012670.699   192734688.448        -175.692          44.000    37012658.691   149034639.381        -135.827          43.000  
C24  21899308.944   114035451.870        -936.506          47.000                                                                  
C26  24591252.751   128053102.955       -2575.009          45.000                                                                  
G03  22902665.281   120354322.0732       -333.974          29.000    22902660.903    93782568.246        -260.875          33.000  
G16  22246874.509   116908100.680        2867.585          39.000                                                                  
C09  37733683.315   196489173.138        -135.567          32.000    37733669.822   151937854.398        -104.927          42.000  
C25  23551241.786   122637506.666        1509.757          38.000                                                                  
C08  39350251.389                       -2477.748          29.000    39350238.734                       -1916.608          31.000  
C10  40437820.431                3        938.105          26.000    40437814.925   162826328.053         725.214          35.000  
C35  25933982.475   135045072.765         240.979          37.000                                                                  
C13  38508582.170                3      -2293.526          30.000    38508587.273                       -1774.169          28.000  
C12  26309321.345   136999547.531        2328.019          33.000    26309318.590   105936729.703        1799.536          45.000  
G25  24641203.552   129490401.787       -3919.652          37.000    24641198.635   100901575.710       -3054.133          37.000  
C07                                                                  39490273.574   159010977.632         864.327          36.000  
> 2025 10 30 06 25 41.4400000  0 23                     
G32  22207612.222   116701755.616       -3052.109          40.000    22207605.908    90936430.625       -2378.430          36.000  
G29  23115384.309   121472186.160        -790.684          43.000    23115376.298    94653621.966        -616.446          39.000  
G28  21329580.352   112087704.311       -1262.937          42.000    21329571.234    87341027.576        -983.885          47.000  
G26  20306653.478   106712185.101         511.637          46.000    20306646.293    83152333.903         398.649          44.000  
G31  20616350.974   108339651.269          64.335          45.000    20616340.081    84420466.653          50.053          43.000  
G04  24293554.217   127663473.923        3154.685          40.000    24293551.057    99478061.533        2458.052          44.000  
C33  22554417.731   117446762.978        -885.861          47.000                                                                  
C06  36582911.417   190496825.499        -147.562          38.000    36582894.678   147304158.415        -114.193          44.000  
C14  22818813.888   118823532.423       -2403.082          39.000    22818798.905    91881838.389       -1858.271          45.000  
C16  37012672.026   192734695.479        -175.784          44.000    37012660.045   149034644.809        -135.751          43.000  
C24  21899316.145   114035489.321        -936.415          47.000                                                                  
C26  24591272.555   128053205.940       -2574.821          45.000                                                                  
G03  22902667.861   120354335.4382       -333.975          29.000    22902663.454    93782578.675        -260.865          33.000  
G16  22246852.668   116907985.970        2867.567          39.000                                                                  
C09  37733684.359   196489178.546        -135.417          32.000    37733670.853   151937858.587        -104.818          42.000  
C25  23551230.205   122637446.254        1510.140          38.000                                                                  
C08  39350270.388                       -2476.748          29.000    39350257.761                       -1915.757          31.000  
C10  40437813.012                3        939.000          26.000    40437807.716   162826299.018         725.631          35.000  
C35  25933980.623   135045063.142         240.671          37.000                                                                  
C13  38508600.137                3      -2293.999          30.000    38508604.823                       -1773.821          28.000  
C12  26309303.453   136999454.423        2327.930          34.000    26309300.700   105936657.712        1799.684          45.000  
G25  24641233.384   129490558.571       -3919.626          37.000    24641228.478   100901697.902       -3054.605          37.000  
C07                                                                  39490264.993   159010943.059         864.349          36.000  
> 2025 10 30 06 25 41.4800000  0 23                     
G32  22207635.460   116701877.701       -3052.173          40.000    22207629.129    90936525.743       -2378.131          36.000  
G29  23115390.327   121472217.790        -790.782          43.000    23115382.298    94653646.592        -615.875          39.000  
G28  21329589.951   112087754.816       -1262.778          42.000    21329580.834    87341066.934        -983.920          47.000  
G26  20306649.572   106712164.632         511.675          46.000    20306642.419    83152317.951         398.750          44.000  
G31  20616350.469   108339648.685          64.509          45.000    20616339.597    84420464.640          50.195          43.000  
G04  24293530.224   127663347.743        3154.645          40.000    24293527.057    99477963.222        2457.844          44.000  
C33  22554424.539   117446798.403        -885.743          47.000                                                                  
C06  36582912.563   190496831.394        -147.367          38.000    36582895.819   147304162.983        -114.192          44.000  
C14  22818832.355   118823628.547       -2403.108          39.000    22818817.377    91881912.716       -1858.176          45.000  
C16  37012673.379   192734702.505        -175.726          44.000    37012661.368   149034650.243        -135.828          43.000  
C24  21899323.358   114035526.772        -936.349          47.000                                                                  
C26  24591292.325   128053308.925       -2574.698          45.000                                                                  
G03  22902670.372   120354348.8332       -334.354          29.000    22902665.982    93782589.091        -260.594          33.000  
G16  22246830.825   116907871.249        2867.889          39.000                                                                  
C09  37733685.395   196489183.937        -135.012          32.000    37733671.901   151937862.770        -104.626          42.000  
C25  23551218.597   122637385.854        1510.090          38.000                                                                  
C08  39350289.445                       -2478.135          29.000    39350276.768                       -1916.002          32.000  
C10  40437805.713                3        939.146          26.000    40437800.477   162826270.011         725.258          35.000  
C35  25933978.789   135045053.506         240.724          37.000                                                                  
C13  38508618.389                3      -2293.852          30.000    38508622.211                       -1774.538          32.000  
C12  26309285.580   136999361.349        2327.155          34.000    26309282.792   105936585.734        1799.553          45.000  
G25  24641263.203   129490715.351       -3919.526          37.000    24641258.307   100901820.050       -3054.028          37.000  
C07                                                                  39490256.405   159010908.455         864.852          36.000  
> 2025 10 30 06 25 41.5200000  0 23                     
G32  22207658.702   116701999.777       -3052.094          40.000    22207652.351    90936620.852       -2377.747          38.000  
G29  23115396.352   121472249.407        -790.563          43.000    23115388.300    94653671.231        -615.859          39.000  
G28  21329599.557   112087805.320       -1262.681          42.000    21329590.433    87341106.285        -983.835          47.000  
G26  20306645.656   106712144.156         511.812          46.000    20306638.532    83152302.008         398.599          44.000  
G31  20616349.995   108339646.106          64.483          45.000    20616339.085    84420462.632          50.145          43.000  
G04  24293506.201   127663221.556        3154.667          40.000    24293503.061    99477864.909        2457.755          44.000  
C33  22554431.351   117446833.825        -885.604          47.000                                                                  
C06  36582913.699   190496837.287        -147.267          38.000    36582896.950   147304167.548        -114.155          44.000  
C14  22818850.797   118823724.680       -2403.297          39.000    22818835.818    91881987.044       -1858.204          45.000  
C16  37012674.736   192734709.518        -175.480          44.000    37012662.698   149034655.668        -135.724          43.000  
C24  21899330.562   114035564.222        -936.293          47.000                                                                  
C26  24591312.108   128053411.916       -2574.733          45.000                                                                  
G03  22902672.901   120354362.2192       -334.528          29.000    22902668.527    93782599.520        -260.664          33.000  
G16  22246809.008   116907756.534        2867.926          39.000                                                                  
C09  37733686.434   196489189.365        -135.455          32.000    37733672.942   151937866.949        -104.490          42.000  
C25  23551207.012   122637325.461        1509.967          38.000                                                                  
C08  39350308.485                       -2478.870          29.000    39350295.839                       -1916.769          32.000  
C10  40437798.822                3        937.436          26.000    40437793.282   162826241.003         725.083          35.000  
C35  25933976.913   135045043.851         241.268          37.000                                                                  
C13  38508636.284                3      -2293.838          30.000    38508639.612                       -1774.326          32.000  
C12  26309267.679   136999268.266        2326.967          34.000    26309264.892   105936513.746        1799.659          45.000  
G25  24641293.033   129490872.141       -3919.696          37.000    24641288.162   100901942.238       -3054.447          37.000  
C07                                                                  39490247.833   159010873.882         864.595          36.000  
> 2025 10 30 06 25 41.5600000  0 23                     
G32  22207681.908   116702121.839       -3051.715          40.000    22207675.569    90936715.975       -2377.913          38.000  
G29  23115402.369   121472281.029        -790.539          43.000    23115394.311    94653695.879        -616.079          39.000  
G28  21329609.176   112087855.816       -1262.509          43.000    21329600.035    87341145.643        -983.938          47.000  
G26  20306641.760   106712123.693         511.623          46.000    20306634.653    83152286.058         398.643          44.000  
G31  20616349.506   108339643.528          64.434          45.000    20616338.590    84420460.616          50.281          43.000  
G04  24293482.185   127663095.389        3154.352          40.000    24293479.070    99477766.579        2458.025          44.000  
C33  22554438.160   117446869.255        -885.682          47.000                                                                  
C06  36582914.836   190496843.194        -147.489          38.000    36582898.091   147304172.113        -114.143          44.000  
C14  22818869.264   118823820.808       -2403.295          39.000    22818854.273    91882061.382       -1858.380          44.000  
C16  37012676.108   192734716.537        -175.446          45.000    37012664.057   149034661.106        -135.866          43.000  
C24  21899337.757   114035601.675        -936.333          47.000                                                                  
C26  24591331.895   128053514.904       -2574.714          45.000                                                                  
G03  22902675.422   120354375.5962       -334.532          29.000    22902671.070    93782609.935        -260.464          33.000  
G16  22246787.217   116907641.807        2868.126          39.000                                                                  
C09  37733687.471   196489194.781        -135.429          32.000    37733673.998   151937871.144        -104.723          42.000  
C25  23551195.438   122637265.066        1509.880          38.000                                                                  
C08  39350327.462                       -2477.318          29.000    39350314.919                       -1916.368          32.000  
C10  40437791.701                3        938.080          26.000    40437786.067   162826211.991         725.149          35.000  
C35  25933975.041   135045034.217         241.087          37.000                                                                  
C13  38508654.335                3      -2294.702          30.000    38508657.134                       -1774.111          32.000  
C12  26309249.794   136999175.192        2326.721          34.000    26309247.026   105936441.764        1799.571          45.000  
G25  24641322.882   129491028.934       -3919.793          37.000    24641317.992   100902064.411       -3054.367          37.000  
C07                                                                  39490239.260   159010839.322         864.165          36.000  
> 2025 10 30 06 25 41.6000000  0 23                     
G32  22207705.139   116702243.909       -3051.709          40.000    22207698.799    90936811.111       -2378.283          38.000  
G29  23115408.377   121472312.661        -790.745          43.000    23115400.337    94653720.522        -616.097          39.000  
G28  21329618.784   112087906.329       -1262.704          43.000    21329609.620    87341184.999        -983.928          47.000  
G26  20306637.857   106712103.229         511.530          46.000    20306630.760    83152270.105         398.768          44.000  
G31  20616349.027   108339640.952          64.378          45.000    20616338.114    84420458.603          50.318          43.000  
G04  24293458.162   127662969.217        3154.272          40.000    24293455.073    99477668.257        2458.053          44.000  
C33  22554444.978   117446904.685        -885.746          47.000                                                                  
C06  36582915.971   190496849.117        -147.888          38.000    36582899.223   147304176.686        -114.301          44.000  
C14  22818887.714   118823916.928       -2403.138          39.000    22818872.739    91882135.714       -1858.372          44.000  
C16  37012677.454   192734723.560        -175.507          45.000    37012665.412   149034666.525        -135.619          43.000  
C24  21899344.923   114035639.127        -936.352          47.000                                                                  
C26  24591351.654   128053617.896       -2574.766          45.000                                                                  
G03  22902677.987   120354389.0422       -335.364          29.000    22902673.606    93782620.360        -260.521          33.000  
G16  22246765.405   116907527.095        2867.942          39.000                                                                  
C09  37733688.528   196489200.226        -135.869          32.000    37733675.046   151937875.339        -104.887          42.000  
C25  23551183.850   122637204.673        1509.769          38.000                                                                  
C08  39350346.483                       -2477.533          29.000    39350333.967                       -1915.785          32.000  
C10  40437784.269                3        938.025          26.000    40437778.845   162826182.955         725.671          35.000  
C35  25933973.179   135045024.605         240.596          37.000                                                                  
C13  38508671.426                2      -2294.562          30.000    38508674.605                       -1773.832          32.000  
C12  26309231.906   136999082.105        2326.874          34.000    26309229.115   105936369.779        1799.596          45.000  
G25  24641352.723   129491185.711       -3919.603          37.000    24641347.826   100902186.574       -3054.200          37.000  
C07                                                                  39490230.680   159010804.750         864.098          36.000  
> 2025 10 30 06 25 41.6400000  0 23                     
G32  22207728.386   116702366.001       -3052.082          40.000    22207722.036    90936906.250       -2378.514          38.000  
G29  23115414.385   121472344.296        -790.881          43.000    23115406.339    94653745.178        -616.365          39.000  
G28  21329628.402   112087956.844       -1262.861          43.000    21329619.233    87341224.360        -984.027          47.000  
G26  20306633.976   106712082.776         511.295          46.000    20306626.882    83152254.160         398.680          44.000  
G31  20616348.527   108339638.384          64.225          45.000    20616337.626    84420456.604          50.083          43.000  
G04  24293434.152   127662843.053        3154.065          40.000    24293431.050    99477569.943        2457.896          44.000  
C33  22554451.748   117446940.122        -885.897          47.000                                                                  
C06  36582917.107   190496855.038        -148.056          38.000    36582900.364   147304181.259        -114.356          44.000  
C14  22818906.181   118824013.053       -2403.144          39.000    22818891.181    91882210.046       -1858.372          44.000  
C16  37012678.794   192734730.578        -175.495          45.000    37012666.753   149034671.948        -135.537          43.000  
C24  21899352.113   114035676.580        -936.357          47.000                                                                  
C26  24591371.421   128053720.887       -2574.800          45.000                                                                  
G03  22902680.522   120354402.4022       -334.906          30.000    22902676.145    93782630.784        -260.579          33.000  
G16  22246743.582   116907412.387        2867.750          39.000                                                                  
C09  37733689.567   196489205.648        -135.762          32.000    37733676.087   151937879.536        -104.986          42.000  
C25  23551172.252   122637144.286        1509.628          38.000                                                                  
C08  39350365.550                       -2477.456          29.000    39350352.992                       -1915.719          32.000  
C10  40437777.163                3        939.012          26.000    40437771.666   162826153.942         725.550          35.000  
C35  25933971.321   135045014.987         240.458          37.000                                                                  
C13  38508689.477                2      -2294.358          31.000    38508692.035                       -1773.061          32.000  
C12  26309213.995   136998989.002        2327.299          34.000    26309211.240   105936297.790        1799.683          45.000  
G25  24641382.571   129491342.496       -3919.612          37.000    24641377.659   100902308.742       -3054.064          37.000  
C07                                                                  39490222.073   159010770.157         864.590          36.000  
> 2025 10 30 06 25 41.6800000  0 23                     
G32  22207751.628   116702488.094       -3052.375          40.000    22207745.234    90937001.399       -2378.841          38.000  
G29  23115420.416   121472375.937        -791.040          43.000    23115412.352    94653769.833        -616.481          39.000  
G28  21329638.016   112088007.356       -1262.896          43.000    21329628.855    87341263.723        -984.124          47.000  
G26  20306630.092   106712062.319         511.292          46.000    20306622.986    83152238.225         398.457          44.000  
G31  20616348.039   108339635.816          64.133          45.000    20616337.129    84420454.604          49.979          43.000  
G04  24293410.139   127662716.888        3154.018          40.000    24293407.046    99477471.630        2457.789          44.000  
C33  22554458.529   117446975.558        -885.972          47.000                                                                  
C06  36582918.259   190496860.952        -148.036          38.000    36582901.491   147304185.821        -114.168          44.000  
C14  22818924.627   118824109.190       -2403.313          39.000    22818909.635    91882284.382       -1858.467          44.000  
C16  37012680.141   192734737.612        -175.748          45.000    37012668.092   149034677.386        -135.800          43.000  
C24  21899359.316   114035714.036        -936.414          47.000                                                                  
C26  24591391.211   128053823.891       -2575.039          45.000                                                                  
G03  22902683.026   120354415.7492       -334.108          30.000    22902678.699    93782641.244        -261.186          33.000  
G16  22246721.774   116907297.682        2867.593          39.000                                                                  
C09  37733690.602   196489211.083        -136.071          32.000    37733677.146   151937883.739        -105.147          42.000  
C25  23551160.661   122637083.883        1509.888          38.000                                                                  
C08  39350384.606                       -2477.656          30.000    39350372.017   158447638.3131      -1915.885          32.000  
C10  40437769.887                3        937.653          26.000    40437764.472   162826124.933         725.301          35.000  
C35  25933969.478   135045005.382         240.133          37.000                                                                  
C13  38508708.153                2      -2292.805          31.000    38508709.584                       -1774.224          32.000  
C12  26309196.137   136998895.897        2327.551          34.000    26309193.354   105936225.813        1799.483          45.000  
G25  24641412.427   129491499.290       -3919.824          37.000    24641407.475   100902430.902       -3053.887          37.000  
C07                                                                  39490213.477   159010735.574         864.552          36.000  
> 2025 10 30 06 25 41.7200000  0 23                     
G32  22207774.876   116702610.195       -3052.637          40.000    22207768.465    90937096.517       -2378.283          38.000  
G29  23115426.433   121472407.579        -791.163          43.000    23115418.371    94653794.505        -616.833          39.000  
G28  21329647.620   112088057.881       -1263.098          43.000    21329638.475    87341303.088        -984.177          47.000  
G26  20306626.195   106712041.866         511.250          46.000    20306619.093    83152222.283         398.452          44.000  
G31  20616347.523   108339633.250          64.060          45.000    20616336.646    84420452.603          49.943          43.000  
G04  24293386.140   127662590.697        3154.477          40.000    24293383.035    99477373.316        2457.738          44.000  
C33  22554465.298   117447011.002        -886.134          47.000                                                                  
C06  36582919.378   190496866.854        -147.817          38.000    36582902.626   147304190.395        -114.239          44.000  
C14  22818943.097   118824205.314       -2403.231          39.000    22818928.126    91882358.726       -1858.641          44.000  
C16  37012681.500   192734744.647        -175.911          45.000    37012669.448   149034682.826        -135.999          43.000  
C24  21899366.514   114035751.501        -936.594          47.000                                                                  
C26  24591410.989   128053926.900       -2575.233          45.000                                                                  
G03  22902685.570   120354429.1942       -335.336          30.000    22902681.252    93782651.697        -261.542          33.000  
G16  22246699.956   116907182.989        2867.304          39.000                                                                  
C09  37733691.649   196489216.500        -135.772          32.000    37733678.165   151937887.934        -105.021          42.000  
C25  23551149.080   122637023.508        1509.549          38.000                                                                  
C08  39350403.678                       -2478.414          30.000    39350391.054   158447714.979       -1916.370          32.000  
C10  40437762.934                3        937.973          26.000    40437757.266   162826095.904         725.601          36.000  
C35  25933967.618   135044995.756         240.391          37.000                                                                  
C13  38508725.449                2      -2294.013          31.000    38508727.329                       -1774.770          32.000  
C12  26309178.294   136998802.824        2327.114          34.000    26309175.474   105936153.845        1799.230          45.000  
G25  24641442.250   129491656.074       -3919.699          37.000    24641437.317   100902553.075       -3054.059          37.000  
C07                                                                  39490204.867   159010701.012         864.180          36.000  
> 2025 10 30 06 25 41.7600000  0 23                     
G32  22207798.114   116702732.270       -3052.216          40.000    22207791.689    90937191.633       -2378.041          38.000  
G29  23115432.430   121472439.214        -791.055          43.000    23115424.396    94653819.154        -616.499          39.000  
G28  21329657.215   112088108.391       -1262.903          43.000    21329648.073    87341342.450        -984.139          47.000  
G26  20306622.293   106712021.406         511.395          46.000    20306615.207    83152206.353         398.235          44.000  
G31  20616347.029   108339630.682          64.104          45.000    20616336.166    84420450.614          49.709          43.000  
G04  24293362.141   127662464.524        3154.402          40.000    24293359.031    99477275.009        2457.641          44.000  
C33  22554472.061   117447046.449        -886.229          47.000                                                                  
C06  36582920.528   190496872.747        -147.453          38.000    36582903.752   147304194.967        -114.307          44.000  
C14  22818961.553   118824301.462       -2403.589          39.000    22818946.586    91882433.071       -1858.687          44.000  
C16  37012682.839   192734751.676        -175.859          45.000    37012670.786   149034688.265        -136.010          43.000  
C24  21899373.704   114035788.969        -936.730          47.000                                                                  
C26  24591430.765   128054029.892       -2575.010          45.000                                                                  
G03  22902688.091                2       -335.788          30.000    22902683.818    93782662.147        -261.520          33.000  
G16  22246678.120   116907068.285        2867.388          39.000                                                                  
C09  37733692.681   196489221.914        -135.405          32.000    37733679.212   151937892.131        -104.957          42.000  
C25  23551137.491   122636963.117        1509.655          38.000                                                                  
C08  39350422.737                       -2478.485          30.000    39350410.059   158447791.602       -1915.886          32.000  
C10  40437755.747                3        937.766          26.000    40437750.076   162826066.912         725.114          36.000  
C35  25933965.760   135044986.130         240.560          37.000                                                                  
C13  38508743.414                2      -2294.593          31.000    38508744.928                       -1774.349          32.000  
C12  26309160.414   136998709.722        2327.408          34.000    26309157.584   105936081.867        1799.326          45.000  
G25  24641472.089   129491812.873       -3920.006          37.000    24641467.155   100902675.258       -3054.343          37.000  
C07                                                                  39490196.316   159010666.451         863.929          36.000  
> 2025 10 30 06 25 41.8000000  0 23                     
G32  22207821.334   116702854.360       -3052.249          40.000    22207814.934    90937286.759       -2378.024          38.000  
G29  23115438.417   121472470.853        -791.042          43.000    23115430.398    94653843.797        -616.200          39.000  
G28  21329666.850   112088158.921       -1263.163          43.000    21329657.705    87341381.819        -984.235          47.000  
G26  20306618.427   106712000.957         511.277          46.000    20306611.340    83152190.421         398.225          44.000  
G31  20616346.559   108339628.122          64.006          45.000    20616335.673    84420448.609          49.901          43.000  
G04  24293338.145   127662338.377        3153.881          40.000    24293335.003    99477176.692        2457.777          44.000  
C33  22554478.920   117447081.893        -886.188          47.000                                                                  
C06  36582921.654   190496878.678        -147.948          38.000    36582904.882   147304199.544        -114.458          44.000  
C14  22818980.025   118824397.612       -2403.862          39.000    22818965.041    91882507.406       -1858.534          44.000  
C16  37012684.187   192734758.705        -175.797          45.000    37012672.160   149034693.707        -136.097          43.000  
C24  21899380.923   114035826.436        -936.742          47.000                                                                  
C26  24591450.551   128054132.899       -2575.160          45.000                                                                  
G03  22902690.633                2       -334.839          30.000    22902686.335    93782672.551        -260.520          33.000  
G16  22246656.305   116906953.585        2867.438          39.000                                                                  
C09  37733693.721   196489227.359        -135.875          32.000    37733680.245   151937896.324        -104.875          42.000  
C25  23551125.904   122636902.726        1509.667          38.000                                                                  
C08  39350441.755                       -2478.215          30.000    39350429.116   158447868.253       -1916.066          32.000  
C10  40437748.548                3        937.346          26.000    40437742.853   162826037.905         725.087          36.000  
C35  25933963.891   135044976.512         240.412          37.000                                                                  
C13  38508761.581                2      -2294.696          31.000    38508762.034                       -1773.850          32.000  
C12  26309142.564   136998616.646        2327.153          34.000    26309139.725   105936009.889        1799.363          45.000  
G25  24641501.920   129491969.671       -3920.060          37.000    24641497.008   100902797.449       -3054.714          37.000  
C07                                                                  39490187.724   159010631.902         863.691          36.000  
> 2025 10 30 06 25 41.8400000  0 23                     
G32  22207844.565   116702976.458       -3052.456          40.000    22207838.155    90937381.902       -2378.361          38.000  
G29  23115444.455   121472502.505        -791.266          43.000    23115436.394    94653868.437        -616.029          39.000  
G28  21329676.481   112088209.454       -1263.339          43.000    21329667.316    87341421.189        -984.283          47.000  
G26  20306614.529   106711980.513         511.103          46.000    20306607.458    83152174.489         398.240          44.000  
G31  20616346.091   108339625.566          63.889          45.000    20616335.183    84420446.612          49.889          43.000  
G04  24293314.137   127662212.224        3153.738          40.000    24293310.978    99477078.381        2457.766          44.000  
C33  22554485.745   117447117.346        -886.339          47.000                                                                  
C06  36582922.780   190496884.597        -148.041          38.000    36582905.993   147304204.122        -114.505          44.000  
C14  22818998.505   118824493.764       -2403.963          39.000    22818983.509    91882581.753       -1858.667          44.000  
C16  37012685.563   192734765.740        -175.861          45.000    37012673.499   149034699.142        -135.976          43.000  
C24  21899388.130   114035863.907        -936.831          47.000                                                                  
C26  24591470.336   128054235.900       -2575.145          45.000                                                                  
G03  22902693.121                2       -333.723          30.000    22902688.890    93782682.989        -260.609          33.000  
G16  22246634.477   116906838.886        2867.414          39.000                                                                  
C09  37733694.747   196489232.794        -135.988          32.000    37733681.307   151937900.530        -105.087          42.000  
C25  23551114.287   122636842.343        1509.587          38.000                                                                  
C08  39350460.817                       -2478.118          30.000    39350448.150   158447944.911       -1916.278          32.000  
C10  40437741.273                3        939.236          26.000    40437735.665   162826008.900         725.091          36.000  
C35  25933962.022   135044966.910         240.021          37.000                                                                  
C13  38508779.453                2      -2295.613          31.000    38508779.704                       -1774.781          32.000  
C12  26309124.677   136998523.578        2326.760          34.000    26309121.840   105935937.909        1799.463          45.000  
G25  24641531.756   129492126.482       -3920.272          37.000    24641526.837   100902919.624       -3054.570          37.000  
C07                                                                  39490179.119   159010597.307         864.419          36.000  
> 2025 10 30 06 25 41.8800000  0 23                     
G32  22207867.804   116703098.558       -3052.620          40.000    22207861.426    90937477.051       -2378.631          38.000  
G29  23115450.450   121472534.167        -791.562          43.000    23115442.436    94653893.118        -616.748          39.000  
G28  21329686.088   112088259.972       -1263.138          43.000    21329676.924    87341460.560        -984.320          47.000  
G26  20306610.654   106711960.074         510.962          46.000    20306603.577    83152158.560         398.178          44.000  
G31  20616345.601   108339623.009          63.840          45.000    20616334.696    84420444.617          49.852          43.000  
G04  24293290.146   127662086.050        3154.073          40.000    24293286.943    99476980.072        2457.727          44.000  
C33  22554492.564   117447152.799        -886.399          47.000                                                                  
C06  36582923.906   190496890.519        -148.114          38.000    36582907.131   147304208.698        -114.515          44.000  
C14  22819016.957   118824589.904       -2403.680          39.000    22819001.977    91882656.101       -1858.721          44.000  
C16  37012686.899   192734772.782        -176.021          45.000    37012674.861   149034704.592        -136.202          43.000  
C24  21899395.314   114035901.374        -936.774          47.000                                                                  
C26  24591490.115   128054338.911       -2575.281          45.000                                                                  
G03  22902695.678                2       -334.876          30.000    22902691.444    93782693.447        -261.154          33.000  
G16  22246612.648   116906724.196        2867.248          39.000                                                                  
C09  37733695.796   196489238.213        -135.810          32.000    37733682.356   151937904.724        -104.996          42.000  
C25  23551102.703   122636781.963        1509.477          38.000                                                                  
C08  39350479.826                       -2477.798          30.000    39350467.199   158448021.570       -1916.537          32.000  
C10  40437734.429                3        937.251          26.000    40437728.469   162825979.896         725.033          36.000  
C35  25933960.183   135044957.313         239.783          37.000                                                                  
C13  38508797.569                2      -2294.783          31.000    38508797.422                       -1774.311          32.000  
C12  26309106.775   136998430.491        2327.072          34.000    26309103.961   105935865.935        1799.401          45.000  
G25  24641561.596   129492283.302       -3920.517          37.000    24641556.653   100903041.811       -3054.685          37.000  
C07                                                                  39490170.538   159010562.723         864.686          36.000  
> 2025 10 30 06 25 41.9200000  0 23                     
G32  22207891.040   116703220.669       -3052.836          40.000    22207884.666    90937572.214       -2379.012          38.000  
G29  23115456.467   121472565.828        -791.640          43.000    23115448.472    94653917.794        -616.935          39.000  
G28  21329695.699   112088310.506       -1263.275          43.000    21329686.560    87341499.935        -984.395          47.000  
G26  20306606.752   106711939.639         510.840          46.000    20306599.684    83152142.632         398.167          44.000  
G31  20616345.123   108339620.446          63.970          45.000    20616334.216    84420442.630          49.692          43.000  
G04  24293266.123   127661959.891        3154.041          40.000    24293262.946    99476881.777        2457.437          44.000  
C33  22554499.408   117447188.253        -886.421          47.000                                                                  
C06  36582925.058   190496896.438        -148.039          38.000    36582908.281   147304213.289        -114.761          44.000  
C14  22819035.398   118824686.059       -2403.864          39.000    22819020.465    91882730.452       -1858.808          44.000  
C16  37012688.243   192734779.824        -176.087          45.000    37012676.219   149034710.031        -136.089          43.000  
C24  21899402.511   114035938.848        -936.877          47.000                                                                  
C26  24591509.902   128054441.919       -2575.322          45.000                                                                  
G03  22902698.213                2       -335.600          30.000    22902694.021    93782703.918        -261.750          33.000  
G16  22246590.805   116906609.499        2867.350          39.000                                                                  
C09  37733696.854   196489243.649        -135.929          32.000    37733683.385   151937908.934        -105.185          42.000  
C25  23551091.118   122636721.586        1509.403          38.000                                                                  
C08  39350498.908                       -2477.977          30.000    39350486.248   158448098.261       -1917.113          32.000  
C10  40437727.164                3        936.722          26.000    40437721.239   162825950.877         725.271          36.000  
C35  25933958.322   135044947.704         239.984          37.000                                                                  
C13  38508815.529                2      -2295.022          31.000    38508815.152                       -1774.515          32.000  
C12  26309088.904   136998337.415        2326.920          34.000    26309086.076   105935793.966        1799.258          45.000  
G25  24641591.413   129492440.079       -3919.902          37.000    24641586.483   100903163.986       -3054.517          37.000  
C07                                                                  39490161.944   159010528.158         864.387          36.000  
> 2025 10 30 06 25 41.9600000  0 23                     
G32  22207914.268   116703342.788       -3053.033          40.000    22207907.894    90937667.354       -2378.758          38.000  
G29  23115462.479   121472597.484        -791.575          43.000    23115454.493    94653942.470        -617.006          39.000  
G28  21329705.301   112088361.032       -1263.240          43.000    21329696.142    87341539.311        -984.452          47.000  
G26  20306602.861   106711919.206         510.761          46.000    20306595.800    83152126.703         398.141          44.000  
G31  20616344.631   108339617.897          63.798          45.000    20616333.733    84420440.642          49.619          43.000  
G04  24293242.110   127661833.725        3154.118          40.000    24293238.953    99476783.476        2457.400          44.000  
C33  22554506.232   117447223.709        -886.438          47.000                                                                  
C06  36582926.182   190496902.366        -148.161          38.000    36582909.413   147304217.873        -114.765          44.000  
C14  22819053.833   118824782.217       -2403.962          39.000    22819038.939    91882804.808       -1858.950          44.000  
C16  37012689.596   192734786.856        -175.975          45.000    37012677.585   149034715.473        -136.089          43.000  
C24  21899409.708   114035976.316        -936.804          47.000                                                                  
C26  24591529.677   128054544.933       -2575.408          45.000                                                                  
G03  22902700.748                2       -335.237          30.000    22902696.567    93782714.377        -261.870          33.000  
G16  22246568.959   116906494.807        2867.312          39.000                                                                  
C09  37733697.903   196489249.091        -136.084          32.000    37733684.417   151937913.142        -105.272          42.000  
C25  23551079.528   122636661.213        1509.312          38.000                                                                  
C08  39350517.938                       -2478.420          30.000    39350505.280   158448174.919       -1916.891          32.000  
C10  40437719.683                3        937.513          26.000    40437714.024   162825921.875         725.122          36.000  
C35  25933956.468   135044938.109         239.802          37.000                                                                  
C13  38508833.765                2      -2294.522          31.000    38508832.708                       -1774.693          32.000  
C12  26309070.986   136998244.363        2326.385          34.000    26309068.182   105935722.003        1799.078          45.000  
G25  24641621.235   129492596.862       -3919.615          37.000    24641616.304   100903286.168       -3054.578          37.000  
C07                                                                  39490153.370   159010493.619         863.719          36.000  
> 2025 10 30 06 25 42.0000000  0 23                     
G32  22207937.512   116703464.877       -3052.530          40.000    22207931.118    90937762.496       -2378.637          38.000  
G29  23115468.499   121472629.131        -791.325          43.000    23115460.504    94653967.131        -616.742          39.000  
G28  21329714.936   112088411.564       -1263.290          43.000    21329705.783    87341578.684        -984.429          47.000  
G26  20306598.954   106711898.764         510.906          46.000    20306591.910    83152110.781         398.043          44.000  
G31  20616344.142   108339615.343          63.768          45.000    20616333.249    84420438.646          49.792          43.000  
G04  24293218.105   127661707.575        3153.905          40.000    24293214.943    99476685.167        2457.565          44.000  
C33  22554513.026   117447259.167        -886.461          47.000                                                                  
C06  36582927.323   190496908.326        -148.804          38.000    36582910.553   147304222.448        -114.535          44.000  
C14  22819072.309   118824878.358       -2403.683          39.000    22819057.415    91882879.162       -1858.941          44.000  
C16  37012690.949   192734793.892        -175.921          45.000    37012678.957   149034720.908        -135.972          43.000  
C24  21899416.901   114036013.784        -936.778          47.000                                                                  
C26  24591549.455   128054647.930       -2575.107          45.000                                                                  
G03  22902703.258                2       -335.228          30.000    22902699.115    93782724.789        -261.025          33.000  
G16  22246547.136   116906380.109        2867.396          39.000                                                                  
C09  37733698.926   196489254.544        -136.340          32.000    37733685.458   151937917.338        -105.085          42.000  
C25  23551067.931   122636600.825        1509.540          38.000                                                                  
C08  39350536.998                       -2478.167          30.000    39350524.278   158448251.540       -1916.073          32.000  
C10  40437712.866                3        938.780          26.000    40437706.837   162825892.884         724.895          36.000  
C35  25933954.589   135044928.490         240.202          37.000                                                                  
C13  38508851.923                2      -2294.283          31.000    38508850.087                       -1773.327          32.000  
C12  26309053.089   136998151.283        2326.802          34.000    26309050.293   105935650.025        1799.305          45.000  
G25  24641651.077   129492753.662       -3919.817          37.000    24641646.165   100903408.368       -3054.930          37.000  
C07                                                                  39490144.802   159010459.067         863.557          36.000  
> 2025 10 30 06 25 42.0400000  0 23                     
G32  22207960.725   116703586.964       -3052.241          40.000    22207954.357    90937857.635       -2378.524          38.000  
G29  23115474.534   121472660.783        -791.302          43.000    23115466.517    94653991.789        -616.537          39.000  
G28  21329724.517   112088462.084       -1263.110          43.000    21329715.381    87341618.054        -984.348          47.000  
G26  20306595.047   106711878.316         511.117          46.000    20306588.031    83152094.854         398.125          44.000  
G31  20616343.658   108339612.779          63.965          45.000    20616332.757    84420436.649          49.872          43.000  
G04  24293194.081   127661581.416        3153.937          40.000    24293190.932    99476586.853        2457.721          44.000  
C33  22554519.855   117447294.615        -886.302          47.000                                                                  
C06  36582928.446   190496914.221        -147.952          38.000    36582911.710   147304227.019        -114.337          44.000  
C14  22819090.771   118824974.507       -2403.743          39.000    22819075.864    91882953.509       -1858.815          44.000  
C16  37012692.284   192734800.918        -175.715          45.000    37012680.270   149034726.345        -135.930          43.000  
C24  21899424.098   114036051.248        -936.688          47.000                                                                  
C26  24591569.242   128054750.937       -2575.125          45.000                                                                  
G03  22902705.783                2       -334.760          30.000    22902701.658    93782735.221        -260.826          33.000  
G16  22246525.295   116906265.418        2867.270          39.000                                                                  
C09  37733699.968   196489259.962        -135.828          32.000    37733686.524   151937921.543        -105.104          42.000  
C25  23551056.327   122636540.451        1509.435          38.000                                                                  
C08  39350556.020                       -2478.491          30.000    39350543.320   158448328.178       -1915.942          32.000  
C10  40437705.730                3        939.360          26.000    40437699.609   162825863.868         725.174          36.000  
C35  25933952.779   135044918.869         240.515          37.000                                                                  
C13  38508869.792                2      -2294.137          31.000    38508867.454                       -1774.028          32.000  
C12  26309035.200   136998058.198        2327.037          34.000    26309032.430   105935578.045        1799.422          45.000  
G25  24641680.898   129492910.443       -3919.682          37.000    24641675.989   100903530.524       -3054.308          37.000  
C07                                                                  39490136.218   159010424.498         863.812          36.000  
> 2025 10 30 06 25 42.0800000  0 23                     
G32  22207983.958   116703709.052       -3052.215          40.000    22207977.595    90937952.779       -2378.592          37.000  
G29  23115480.585   121472692.447        -791.552          43.000    23115472.532    94654016.463        -616.764          39.000  
G28  21329734.139   112088512.615       -1263.206          43.000    21329725.009    87341657.424        -984.297          47.000  
G26  20306591.136   106711857.879         511.016          46.000    20306584.140    83152078.927         398.144          44.000  
G31  20616343.160   108339610.229          63.811          45.000    20616332.269    84420434.673          49.483          43.000  
G04  24293170.052   127661455.260        3153.872          40.000    24293166.926    99476488.557        2457.441          44.000  
C33  22554526.666   117447330.077        -886.481          47.000                                                                  
C06  36582929.568   190496920.133        -147.787          38.000    36582912.851   147304231.609        -114.584          44.000  
C14  22819109.265   118825070.661       -2403.864          39.000    22819094.337    91883027.858       -1858.752          44.000  
C16  37012693.638   192734807.953        -175.780          45.000    37012681.634   149034731.787        -135.995          43.000  
C24  21899431.274   114036088.726        -936.883          47.000                                                                  
C26  24591589.014   128054853.945       -2575.181          45.000                                                                  
G03  22902708.320                2       -335.668          30.000    22902704.209    93782745.694        -261.606          33.000  
G16  22246503.479   116906150.725        2867.232          39.000                                                                  
C09  37733701.002   196489265.395        -135.793          32.000    37733687.560   151937925.745        -105.118          42.000  
C25  23551044.720   122636480.079        1509.287          38.000                                                                  
C08  39350575.072                       -2478.866          30.000    39350562.378   158448404.847       -1916.398          32.000  
C10  40437698.415                3        937.887          26.000    40437692.431   162825834.867         725.036          36.000  
C35  25933950.929   135044909.257         240.427          37.000                                                                  
C13  38508887.790                2      -2294.552          31.000    38508885.258                       -1774.917          32.000  
C12  26309017.342   136997965.124        2326.967          34.000    26309014.536   105935506.076        1799.271          45.000  
G25  24641710.762   129493067.273       -3920.439          37.000    24641705.821   100903652.713       -3054.561          37.000  
C07                                                                  39490127.637   159010389.924         864.126          36.000  
> 2025 10 30 06 25 42.1200000  0 23                     
G32  22208007.205   116703831.184       -3053.013          40.000    22208000.848    90938047.939       -2378.872          37.000  
G29  23115486.641   121472724.115        -791.699          43.000    23115478.564    94654041.145        -617.050          39.000  
G28  21329743.739   112088563.147       -1263.270          43.000    21329734.618    87341696.808        -984.514          47.000  
G26  20306587.245   106711837.454         510.705          46.000    20306580.256    83152063.006         398.044          44.000  
G31  20616342.673   108339607.692          63.478          45.000    20616331.782    84420432.690          49.423          43.000  
G04  24293146.038   127661329.111        3153.729          40.000    24293142.929    99476390.262        2457.311          44.000  
C33  22554533.466   117447365.551        -886.823          47.000                                                                  
C06  36582930.709   190496926.073        -148.297          38.000    36582913.978   147304236.194        -114.653          44.000  
C14  22819127.734   118825166.814       -2403.900          39.000    22819112.810    91883102.214       -1858.885          44.000  
C16  37012695.009   192734815.007        -176.207          45.000    37012682.979   149034737.254        -136.512          43.000  
C24  21899438.441   114036126.213        -937.165          47.000                                                                  
C26  24591608.793   128054956.975       -2575.625          45.000                                                                  
G03  22902710.823                2       -335.308          30.000    22902706.789    93782756.173        -262.043          33.000  
G16  22246481.666   116906036.054        2866.838          39.000                                                                  
C09  37733702.027   196489270.823        -135.859          32.000    37733688.584   151937929.950        -105.129          42.000  
C25  23551033.116   122636419.710        1509.127          38.000                                                                  
C08  39350594.133                       -2479.180          30.000    39350581.434   158448481.529       -1916.898          33.000  
C10  40437690.944                3        937.227          26.000    40437685.198   162825805.862         725.063          36.000  
C35  25933949.085   135044899.679         239.722          37.000                                                                  
C13  38508905.927                2      -2295.723          31.000    38508903.145                       -1775.092          32.000  
C12  26308999.463   136997872.053        2326.728          34.000    26308996.641   105935434.113        1799.091          45.000  
G25  24641740.603   129493224.113       -3921.022          37.000    24641735.669   100903774.910       -3054.839          37.000  
C07                                                                  39490119.044   159010355.363         864.060          36.000  
> 2025 10 30 06 25 42.1600000  0 23                     
G32  22208030.439   116703953.306       -3053.191          40.000    22208024.064    90938143.087       -2378.911          37.000  
G29  23115492.692   121472755.794        -791.964          43.000    23115484.605    94654065.837        -617.332          39.000  
G28  21329753.355   112088613.707       -1263.800          43.000    21329744.244    87341736.193        -984.653          47.000  
G26  20306583.392   106711817.037         510.402          46.000    20306576.388    83152047.093         397.833          44.000  
G31  20616342.169   108339605.150          63.399          45.000    20616331.305    84420430.717          49.232          43.000  
G04  24293122.014   127661202.968        3153.564          40.000    24293118.929    99476291.973        2457.140          44.000  
C33  22554540.284   117447401.026        -886.995          47.000                                                                  
C06  36582931.856   190496932.016        -148.616          38.000    36582915.103   147304240.783        -114.756          44.000  
C14  22819146.219   118825263.000       -2404.455          39.000    22819131.270    91883176.573       -1858.991          44.000  
C16  37012696.365   192734822.060        -176.414          45.000    37012684.316   149034742.712        -136.598          43.000  
C24  21899445.629   114036163.709        -937.441          47.000                                                                  
C26  24591628.588   128055059.999       -2575.752          45.000                                                                  
G03  22902713.358                2       -336.296          30.000    22902709.336    93782766.620        -261.646          33.000  
G16  22246459.842   116905921.385        2866.636          39.000                                                                  
C09  37733703.098   196489276.309        -136.918          32.000    37733689.614   151937934.167        -105.383          42.000  
C25  23551021.505   122636359.351        1508.900          38.000                                                                  
C08  39350613.163                       -2478.853          30.000    39350600.500   158448558.190       -1916.769          33.000  
C10  40437683.854                3        937.227          26.000    40437678.008   162825776.876         724.670          36.000  
C35  25933947.243   135044890.093         239.482          38.000                                                                  
C13  38508923.455                2      -2295.706          31.000    38508920.393                       -1774.511          32.000  
C12  26308981.629   136997778.999        2326.375          34.000    26308978.767   105935362.154        1798.906          45.000  
G25  24641770.421   129493380.914       -3920.440          37.000    24641765.494   100903897.095       -3054.829          37.000  
C07                                                                  39490110.470   159010320.811         863.818          36.000  
> 2025 10 30 06 25 42.2000000  0 23                     
G32  22208053.683   116704075.442       -3053.454          40.000    22208047.311    90938238.270       -2379.455          37.000  
G29  23115498.727   121472787.481        -792.248          43.000    23115490.623    94654090.520        -617.285          39.000  
G28  21329762.984   112088664.258       -1263.951          43.000    21329753.876    87341775.586        -984.844          47.000  
G26  20306579.507   106711796.625         510.207          46.000    20306572.479    83152031.190         397.530          44.000  
G31  20616341.697   108339602.621          63.173          45.000    20616330.807    84420428.735          49.388          43.000  
G04  24293098.028   127661076.833        3153.372          40.000    24293094.935    99476193.677        2457.195          44.000  
C33  22554547.100   117447436.508        -887.147          47.000                                                                  
C06  36582932.982   190496937.965        -148.901          38.000    36582916.226   147304245.370        -114.777          44.000  
C14  22819164.671   118825359.185       -2404.725          39.000    22819149.714    91883250.946       -1859.316          44.000  
C16  37012697.715   192734829.136        -176.868          45.000    37012685.692   149034748.162        -136.460          43.000  
C24  21899452.818   114036201.202        -937.473          47.000                                                                  
C26  24591648.376   128055163.028       -2575.852          45.000                                                                  
G03  22902715.921                2       -335.240          30.000    22902711.886    93782777.078        -261.582          33.000  
G16  22246438.038   116905806.716        2866.596          39.000                                                                  
C09  37733704.153   196489281.783        -137.141          32.000    37733690.666   151937938.386        -105.519          42.000  
C25  23551009.927   122636299.008        1508.538          38.000                                                                  
C08  39350632.169                       -2477.639          30.000    39350619.531   158448634.869       -1916.921          33.000  
C10  40437676.586                3        937.455          26.000    40437670.817   162825747.887         724.549          36.000  
C35  25933945.410   135044880.517         239.290          38.000                                                                  
C13  38508940.830                2      -2295.098          31.000    38508938.256                       -1774.149          32.000  
C12  26308963.735   136997685.938        2326.347          34.000    26308960.891   105935290.203        1798.703          45.000  
G25  24641800.244   129493537.741       -3920.626          37.000    24641795.345   100904019.296       -3055.065          37.000  
C07                                                                  39490101.904   159010286.281         863.340          36.000  
> 2025 10 30 06 25 42.2400000  0 23                     
G32  22208076.913   116704197.559       -3053.193          40.000    22208070.572    90938333.427       -2379.244          37.000  
G29  23115504.770   121472819.154        -792.050          43.000    23115496.649    94654115.183        -616.804          39.000  
G28  21329772.569   112088714.811       -1263.976          43.000    21329763.484    87341814.968        -984.741          47.000  
G26  20306575.624   106711776.216         510.073          46.000    20306568.590    83152015.286         397.471          44.000  
G31  20616341.169   108339600.080          63.316          45.000    20616330.317    84420426.754          49.444          43.000  
G04  24293074.010   127660950.700        3153.229          40.000    24293070.923    99476095.382        2457.295          44.000  
C33  22554553.933   117447471.987        -887.133          47.000                                                                  
C06  36582934.096   190496943.885        -148.384          38.000    36582917.388   147304249.966        -114.931          44.000  
C14  22819183.153   118825455.345       -2404.315          39.000    22819168.176    91883325.315       -1859.348          44.000  
C16  37012699.067   192734836.180        -176.505          45.000    37012687.016   149034753.611        -136.321          43.000  
C24  21899460.037   114036238.688        -937.336          47.000                                                                  
C26  24591668.169   128055266.052       -2575.750          45.000                                                                  
G03  22902718.450                2       -335.994          30.000    22902714.427    93782787.548        -261.713          33.000  
G16  22246416.220   116905692.047        2866.608          39.000                                                                  
C09  37733705.206   196489287.232        -136.761          32.000    37733691.728   151937942.604        -105.566          42.000  
C25  23550998.341   122636238.650        1508.651          38.000                                                                  
C08  39350651.176                       -2478.234          30.000    39350638.575   158448711.527       -1916.637          33.000  
C10  40437669.521                3        936.918          26.000    40437663.602   162825718.905         724.416          36.000  
C35  25933943.574   135044870.927         239.484          38.000                                                                  
C13  38508958.699                2      -2294.354          31.000    38508955.629                       -1774.908          32.000  
C12  26308945.883   136997592.851        2326.860          34.000    26308942.986   105935218.236        1798.942          45.000  
G25  24641830.071   129493694.535       -3920.169          37.000    24641825.194   100904141.497       -3055.070          37.000  
C07                                                                  39490093.312   159010251.736         863.370          36.000  
> 2025 10 30 06 25 42.2800000  0 23                     
G32  22208100.150   116704319.660       -3052.717          40.000    22208093.803    90938428.599       -2379.381          37.000  
G29  23115510.785   121472850.827        -791.957          43.000    23115502.673    94654139.869        -617.050          39.000  
G28  21329782.188   112088765.351       -1263.721          43.000    21329773.104    87341854.356        -984.723          47.000  
G26  20306571.724   106711755.792         510.344          46.000    20306564.710    83151999.375         397.618          44.000  
G31  20616340.687   108339597.537          63.477          45.000    20616329.812    84420424.772          49.524          43.000  
G04  24293049.999   127660824.534        3153.828          40.000    24293046.913    99475997.083        2457.409          44.000  
C33  22554560.750   117447507.459        -886.958          47.000                                                                  
C06  36582935.225   190496949.818        -148.273          38.000    36582918.540   147304254.561        -114.951          44.000  
C14  22819201.611   118825551.503       -2404.000          39.000    22819186.653    91883399.683       -1859.307          44.000  
C16  37012700.436   192734843.222        -176.198          45.000    37012688.376   149034759.057        -136.180          43.000  
C24  21899467.236   114036276.171        -937.175          47.000                                                                  
C26  24591687.947   128055369.067       -2575.490          45.000                                                                  
G03  22902720.992                2       -336.659          30.000    22902717.001    93782798.014        -261.769          33.000  
G16  22246394.391   116905577.368        2866.770          39.000                                                                  
C09  37733706.250   196489292.656        -135.905          32.000    37733692.760   151937946.826        -105.599          42.000  
C25  23550986.757   122636178.290        1508.837          38.000                                                                  
C08  39350670.196                       -2479.089          30.000    39350657.634   158448788.197       -1916.702          33.000  
C10  40437662.266                3        936.186          26.000    40437656.395   162825689.896         724.890          36.000  
C35  25933941.740   135044861.337         239.688          38.000                                                                  
C13  38508976.589                2      -2294.480          31.000    38508973.443                       -1775.282          32.000  
C12  26308927.995   136997499.778        2326.889          34.000    26308925.071   105935146.273        1799.030          45.000  
G25  24641859.926   129493851.335       -3919.986          37.000    24641855.011   100904263.710       -3055.290          37.000  
C07                                                                  39490084.743   159010217.187         863.434          36.000  
> 2025 10 30 06 25 42.3200000  0 23                     
G32  22208123.370   116704441.779       -3052.807          40.000    22208117.034    90938523.724       -2378.631          37.000  
G29  23115516.843   121472882.501        -791.914          43.000    23115508.695    94654164.546        -616.987          39.000  
G28  21329791.815   112088815.882       -1263.385          43.000    21329782.722    87341893.730        -984.500          47.000  
G26  20306567.849   106711735.362         510.649          46.000    20306560.802    83151983.457         397.816          44.000  
G31  20616340.221   108339594.995          63.513          45.000    20616329.315    84420422.795          49.444          43.000  
G04  24293025.994   127660698.385        3153.822          40.000    24293022.900    99475898.792        2457.325          44.000  
C33  22554567.577   117447542.929        -886.812          47.000                                                                  
C06  36582936.373   190496955.735        -147.994          38.000    36582919.684   147304259.149        -114.828          44.000  
C14  22819220.076   118825647.675       -2404.168          39.000    22819205.157    91883474.046       -1859.142          44.000  
C16  37012701.802   192734850.265        -176.087          45.000    37012689.760   149034764.495        -135.991          43.000  
C24  21899474.414   114036313.659        -937.217          47.000                                                                  
C26  24591707.743   128055472.082       -2575.371          45.000                                                                  
G03  22902723.519                2       -335.382          30.000    22902719.557    93782808.467        -261.569          33.000  
G16  22246372.560   116905462.695        2866.816          39.000                                                                  
C09  37733707.288   196489298.101        -135.923          32.000    37733693.798   151937951.032        -105.324          42.000  
C25  23550975.167   122636117.920        1509.139          38.000                                                                  
C08  39350689.223                       -2479.253          30.000    39350676.667   158448864.804       -1915.688          33.000  
C10  40437654.989                3        937.265          26.000    40437649.189   162825660.887         725.229          36.000  
C35  25933939.893   135044851.755         239.624          38.000                                                                  
C13  38508994.022                2      -2294.161          31.000    38508991.019                       -1774.897          32.000  
C12  26308910.113   136997406.721        2326.652          34.000    26308907.192   105935074.301        1799.247          45.000  
G25  24641889.766   129494008.163       -3920.469          37.000    24641884.834   100904385.888       -3054.748          37.000  
C07                                                                  39490076.178   159010182.612         863.998          36.000  
> 2025 10 30 06 25 42.3600000  0 23                     
G32  22208146.611   116704563.897       -3052.896          40.000    22208140.275    90938618.884       -2378.873          37.000  
G29  23115522.878   121472914.174        -791.813          43.000    23115514.737    94654189.245        -617.347          39.000  
G28  21329801.431   112088866.413       -1263.280          43.000    21329792.358    87341933.117        -984.596          47.000  
G26  20306563.997   106711714.936         510.684          46.000    20306556.904    83151967.540         397.909          44.000  
G31  20616339.740   108339592.446          63.692          45.000    20616328.841    84420420.811          49.573          43.000  
G04  24293001.993   127660572.251        3153.475          40.000    24292998.885    99475800.495        2457.379          44.000  
C33  22554574.403   117447578.405        -886.853          47.000                                                                  
C06  36582937.500   190496961.673        -148.281          38.000    36582920.789   147304263.726        -114.549          44.000  
C14  22819238.525   118825743.853       -2404.377          39.000    22819223.649    91883548.404       -1858.992          44.000  
C16  37012703.170   192734857.308        -176.042          45.000    37012691.127   149034769.946        -136.194          43.000  
C24  21899481.629   114036351.144        -937.192          48.000                                                                  
C26  24591727.511   128055575.106       -2575.488          45.000                                                                  
G03  22902726.059                2       -335.683          30.000    22902722.114    93782818.899        -260.950          33.000  
G16  22246350.743   116905348.010        2867.098          39.000                                                                  
C09  37733708.316   196489303.525        -135.680          32.000    37733694.823   151937955.246        -105.301          42.000  
C25  23550963.555   122636057.553        1509.168          38.000                                                                  
C08  39350708.252                       -2477.811          30.000    39350695.683   158448941.483       -1916.377          33.000  
C10  40437647.658                3        936.900          26.000    40437641.957   162825631.876         725.454          36.000  
C35  25933938.020   135044842.149         240.045          38.000                                                                  
C13  38509011.738                2      -2295.748          31.000    38509008.544                       -1774.614          32.000  
C12  26308892.231   136997313.666        2326.461          34.000    26308889.333   105935002.333        1799.258          44.000  
G25  24641919.611   129494164.984       -3920.600          37.000    24641914.658   100904508.066       -3054.455          37.000  
C07                                                                  39490067.594   159010148.062         863.783          36.000  
> 2025 10 30 06 25 42.4000000  0 23                     
G32  22208169.843   116704686.008       -3052.831          40.000    22208163.523    90938714.041       -2378.937          37.000  
G29  23115528.893   121472945.842        -791.760          43.000    23115520.756    94654213.924        -617.107          39.000  
G28  21329811.033   112088916.951       -1263.291          43.000    21329801.970    87341972.497        -984.545          47.000  
G26  20306560.101   106711694.507         510.757          46.000    20306553.013    83151951.622         397.925          44.000  
G31  20616339.268   108339589.908          63.549          45.000    20616328.334    84420418.831          49.536          43.000  
G04  24292978.000   127660446.100        3153.628          40.000    24292974.841    99475702.198        2457.352          44.000  
C33  22554581.230   117447613.876        -886.804          47.000                                                                  
C06  36582938.651   190496967.603        -148.292          38.000    36582921.940   147304268.312        -114.582          44.000  
C14  22819257.003   118825840.018       -2404.223          39.000    22819242.131    91883622.765       -1859.021          44.000  
C16  37012704.532   192734864.349        -176.001          45.000    37012692.494   149034775.396        -136.236          43.000  
C24  21899488.843   114036388.626        -937.102          48.000                                                                  
C26  24591747.308   128055678.125       -2575.448          45.000                                                                  
G03  22902728.608                2       -336.246          30.000    22902724.650    93782829.410        -261.996          33.000  
G16  22246328.931   116905233.333        2867.047          39.000                                                                  
C09  37733709.346   196489309.002        -136.510          32.000    37733695.859   151937959.448        -105.093          42.000  
C25  23550951.953   122635997.203        1508.841          38.000                                                                  
C08  39350727.274                       -2478.384          30.000    39350714.729   158449018.168       -1917.056          33.000  
C10  40437640.298                3        937.172          26.000    40437634.747   162825602.904         724.685          36.000  
C35  25933936.186   135044832.559         239.868          37.000                                                                  
C13  38509029.963                2      -2295.299          31.000    38509026.138                       -1773.979          32.000  
C12  26308874.353   136997220.583        2326.955          34.000    26308871.458   105934930.372        1799.119          44.000  
G25  24641949.444   129494321.792       -3920.493          37.000    24641944.492   100904630.248       -3054.396          37.000  
C07                                                                  39490059.021   159010113.504         863.849          36.000  
> 2025 10 30 06 25 42.4400000  0 23                     
G32  22208193.081   116704808.142       -3053.278          40.000    22208186.764    90938809.194       -2378.865          37.000  
G29  23115534.946   121472977.523        -791.972          43.000    23115526.788    94654238.616        -617.239          39.000  
G28  21329820.656   112088967.495       -1263.442          43.000    21329811.578    87342011.888        -984.685          47.000  
G26  20306556.206   106711674.089         510.551          46.000    20306549.123    83151935.703         397.949          44.000  
G31  20616338.774   108339587.366          63.512          45.000    20616327.829    84420416.841          49.702          43.000  
G04  24292954.022   127660319.961        3153.496          40.000    24292950.844    99475603.905        2457.286          44.000  
C33  22554588.021   117447649.353        -886.900          47.000                                                                  
C06  36582939.778   190496973.548        -148.544          39.000    36582923.084   147304272.900        -114.645          44.000  
C14  22819275.469   118825936.182       -2404.117          39.000    22819260.607    91883697.122       -1858.972          44.000  
C16  37012705.877   192734871.403        -176.271          45.000    37012693.895   149034780.848        -136.280          43.000  
C24  21899496.058   114036426.103        -936.988          48.000                                                                  
C26  24591767.111   128055781.138       -2575.354          45.000                                                                  
G03  22902731.133                2       -336.419          30.000    22902727.218    93782839.885        -262.119          33.000  
G16  22246307.098   116905118.651        2867.074          39.000                                                                  
C09  37733710.396   196489314.451        -136.426          32.000    37733696.910   151937963.652        -105.067          42.000  
C25  23550940.353   122635936.843        1508.941          38.000                                                                  
C08  39350746.321                       -2478.539          30.000    39350733.771   158449094.819       -1916.825          33.000  
C10  40437632.990                3        937.224          26.000    40437627.554   162825573.897         724.982          36.000  
C35  25933934.343   135044822.971         239.716          37.000                                                                  
C13  38509047.487                2      -2294.045          31.000    38509043.859                       -1774.525          32.000  
C12  26308856.472   136997127.521        2326.778          34.000    26308853.582   105934858.409        1799.095          45.000  
G25  24641979.290   129494478.605       -3920.479          37.000    24641974.343   100904752.429       -3054.434          37.000  
C07                                                                  39490050.450   159010078.935         864.086          36.000  
> 2025 10 30 06 25 42.4800000  0 23                     
G32  22208216.330   116704930.263       -3053.218          40.000    22208210.006    90938904.339       -2378.679          37.000  
G29  23115540.999   121473009.209        -792.176          43.000    23115532.780    94654263.290        -617.059          39.000  
G28  21329830.260   112089018.043       -1263.661          43.000    21329821.203    87342051.272        -984.675          47.000  
G26  20306552.341   106711653.680         510.264          46.000    20306545.247    83151919.807         397.532          44.000  
G31  20616338.299   108339584.831          63.377          45.000    20616327.362    84420414.881          49.208          43.000  
G04  24292930.003   127660193.805        3153.665          40.000    24292926.837    99475505.614        2457.217          44.000  
C33  22554594.824   117447684.834        -887.019          47.000                                                                  
C06  36582940.914   190496979.477        -148.429          39.000    36582924.211   147304277.491        -114.763          44.000  
C14  22819293.931   118826032.354       -2404.232          39.000    22819279.096    91883771.486       -1859.087          44.000  
C16  37012707.218   192734878.449        -176.207          45.000    37012695.255   149034786.286        -136.085          43.000  
C24  21899503.253   114036463.597        -937.230          47.000                                                                  
C26  24591786.879   128055884.165       -2575.582          45.000                                                                  
G03  22902733.695                2       -335.119          30.000    22902729.787    93782850.360        -262.231          33.000  
G16  22246285.292   116905003.991        2866.623          39.000                                                                  
C09  37733711.458   196489319.907        -136.439          32.000    37733697.954   151937967.861        -105.172          42.000  
C25  23550928.764   122635876.479        1509.064          38.000                                                                  
C08  39350765.371                       -2479.602          30.000    39350752.842   158449171.547       -1917.982          33.000  
C10  40437625.828                2        937.219          26.000    40437620.338   162825544.915         724.694          36.000  
C35  25933932.511   135044813.391         239.523          37.000                                                                  
C13  38509065.533                2      -2294.430          31.000    38509061.739                       -1774.160          31.000  
C12  26308838.564   136997034.446        2326.851          34.000    26308835.695   105934786.443        1799.114          44.000  
G25  24642009.152   129494635.430       -3920.561          37.000    24642004.177   100904874.632       -3054.870          37.000  
C07                                                                  39490041.880   159010044.363         864.343          36.000  
> 2025 10 30 06 25 42.5200000  0 23                     
G32  22208239.591   116705052.395       -3053.408          40.000    22208233.253    90938999.524       -2379.411          37.000  
G29  23115547.024   121473040.898        -792.305          43.000    23115538.805    94654287.975        -617.154          39.000  
G28  21329839.895   112089068.599       -1263.899          43.000    21329830.820    87342090.658        -984.700          47.000  
G26  20306548.472   106711633.270         510.181          46.000    20306541.363    83151903.903         397.472          44.000  
G31  20616337.830   108339582.305          63.193          45.000    20616326.875    84420412.912          49.124          43.000  
G04  24292906.013   127660067.672        3153.408          40.000    24292902.806    99475407.314        2457.366          44.000  
C33  22554601.623   117447720.323        -887.220          48.000                                                                  
C06  36582942.040   190496985.411        -148.391          39.000    36582925.306   147304282.069        -114.626          44.000  
C14  22819312.393   118826128.519       -2404.214          39.000    22819297.556    91883845.855       -1859.249          44.000  
C16  37012708.593   192734885.508        -176.391          45.000    37012696.567   149034791.733        -136.121          43.000  
C24  21899510.431   114036501.089        -937.351          48.000                                                                  
C26  24591806.663   128055987.184       -2575.544          45.000                                                                  
G03  22902736.218                2       -335.143          30.000    22902732.331    93782860.794        -261.416          33.000  
G16  22246263.483   116904889.337        2866.316          39.000                                                                  
C09  37733712.497   196489325.336        -135.902          32.000    37733698.989   151937972.080        -105.413          42.000  
C25  23550917.158   122635816.124        1508.978          38.000                                                                  
C08  39350784.373                       -2479.202          30.000    39350771.883                       -1916.678          33.000  
C10  40437618.626                2        937.382          26.000    40437613.137   162825515.922         724.730          36.000  
C35  25933930.685   135044803.827         239.079          38.000                                                                  
C13  38509083.215                2      -2294.647          31.000    38509079.199                       -1774.261          31.000  
C12  26308820.671   136996941.390        2326.552          34.000    26308817.819   105934714.486        1798.958          44.000  
G25  24642039.011   129494792.229       -3920.111          37.000    24642034.040   100904996.849       -3055.351          38.000  
C07                                                                  39490033.280   159010009.835         863.733          36.000  
> 2025 10 30 06 25 42.5600000  0 23                     
G32  22208262.834   116705174.512       -3053.172          40.000    22208256.495    90939094.681       -2379.260          37.000  
G29  23115553.030   121473072.581        -792.203          43.000    23115544.836    94654312.658        -617.192          39.000  
G28  21329849.539   112089119.148       -1263.846          43.000    21329840.427    87342130.043        -984.658          47.000  
G26  20306544.573   106711612.847         510.400          46.000    20306537.478    83151887.998         397.500          44.000  
G31  20616337.355   108339579.759          63.427          45.000    20616326.387    84420410.925          49.464          43.000  
G04  24292882.002   127659941.523        3153.558          40.000    24292878.807    99475309.020        2457.366          44.000  
C33  22554608.440   117447755.800        -887.083          48.000                                                                  
C06  36582943.185   190496991.340        -148.288          39.000    36582926.425   147304286.658        -114.684          44.000  
C14  22819330.871   118826224.693       -2404.326          39.000    22819316.027    91883920.226       -1859.334          44.000  
C16  37012709.933   192734892.550        -176.216          45.000    37012697.925   149034797.185        -136.250          43.000  
C24  21899517.672   114036538.580        -937.345          48.000                                                                  
C26  24591826.443   128056090.193       -2575.354          45.000                                                                  
G03  22902738.765                2       -335.221          30.000    22902734.892    93782871.260        -261.509          33.000  
G16  22246241.664   116904774.653        2866.797          39.000                                                                  
C09  37733713.519   196489330.787        -136.088          32.000    37733700.017   151937976.310        -105.785          42.000  
C25  23550905.575   122635755.758        1509.126          38.000                                                                  
C08  39350803.428                       -2479.218          30.000    39350790.915   158449324.828       -1916.260          33.000  
C10  40437611.406                2        937.261          26.000    40437605.947   162825486.915         725.000          36.000  
C35  25933928.839   135044794.247         239.244          38.000                                                                  
C13  38509101.116                2      -2295.356          31.000    38509096.989                       -1775.044          31.000  
C12  26308802.791   136996848.320        2326.704          34.000    26308799.958   105934642.510        1799.259          44.000  
G25  24642068.847   129494949.053       -3920.397          37.000    24642063.868   100905119.038       -3055.080          38.000  
C07                                                                  39490024.711   159009975.293         863.506          36.000  
> 2025 10 30 06 25 42.6000000  0 23                     
G32  22208286.072   116705296.621       -3052.912          40.000    22208279.738    90939189.842       -2379.231          37.000  
G29  23115559.030   121473104.248        -791.848          43.000    23115550.851    94654337.354        -617.377          39.000  
G28  21329859.174   112089169.688       -1263.636          43.000    21329850.039    87342169.425        -984.595          47.000  
G26  20306540.698   106711592.430         510.400          46.000    20306533.593    83151872.082         397.743          44.000  
G31  20616336.867   108339577.213          63.594          45.000    20616325.903    84420408.950          49.445          43.000  
G04  24292858.006   127659815.385        3153.461          40.000    24292854.811    99475210.719        2457.514          44.000  
C33  22554615.266   117447791.277        -887.006          48.000                                                                  
C06  36582944.307   190496997.283        -148.528          39.000    36582927.566   147304291.243        -114.658          44.000  
C14  22819349.349   118826320.863       -2404.351          39.000    22819334.489    91883994.592       -1859.263          44.000  
C16  37012711.289   192734899.583        -175.953          45.000    37012699.275   149034802.644        -136.408          43.000  
C24  21899524.872   114036576.062        -937.182          48.000                                                                  
C26  24591846.232   128056193.214       -2575.463          45.000                                                                  
G03  22902741.327                2       -335.654          30.000    22902737.475    93782881.759        -262.201          33.000  
G16  22246219.847   116904659.960        2867.215          39.000                                                                  
C09  37733714.548   196489336.213        -135.767          32.000    37733701.086   151937980.506        -105.282          42.000  
C25  23550893.960   122635695.378        1509.446          38.000                                                                  
C08  39350822.491                       -2477.860          30.000    39350809.928   158449401.453       -1915.693          33.000  
C10  40437604.313                2        937.586          26.000    40437598.738   162825457.902         725.204          36.000  
C35  25933926.989   135044784.651         239.661          38.000                                                                  
C13  38509118.993                2      -2295.421          31.000    38509114.479                       -1774.709          31.000  
C12  26308784.934   136996755.231        2327.228          34.000    26308782.096   105934570.548        1799.139          44.000  
G25  24642098.690   129495105.863       -3920.354          37.000    24642093.699   100905241.212       -3054.564          38.000  
C07                                                                  39490016.115   159009940.728         863.848          36.000  
> 2025 10 30 06 25 42.6400000  0 23                     
G32  22208309.327   116705418.736       -3052.925          40.000    22208302.972    90939284.992       -2378.972          37.000  
G29  23115565.074   121473135.925        -791.900          43.000    23115556.872    94654362.027        -617.020          39.000  
G28  21329868.788   112089220.226       -1263.481          43.000    21329859.661    87342208.808        -984.581          47.000  
G26  20306536.834   106711572.014         510.368          46.000    20306529.702    83151856.171         397.760          44.000  
G31  20616336.410   108339574.677          63.500          45.000    20616325.429    84420406.965          49.599          43.000  
G04  24292833.994   127659689.221        3153.843          40.000    24292830.803    99475112.427        2457.417          44.000  
C33  22554622.081   117447826.751        -886.893          48.000                                                                  
C06  36582945.458   190497003.217        -148.450          39.000    36582928.703   147304295.827        -114.638          44.000  
C14  22819367.818   118826417.050       -2404.626          39.000    22819352.943    91884068.958       -1859.231          44.000  
C16  37012712.633   192734906.624        -175.980          45.000    37012700.628   149034808.086        -136.218          43.000  
C24  21899532.110   114036613.542        -937.048          48.000                                                                  
C26  24591866.020   128056296.237       -2575.573          45.000                                                                  
G03  22902743.900                2       -336.155          30.000    22902740.024    93782892.203        -261.477          33.000  
G16  22246198.005   116904545.280        2867.167          39.000                                                                  
C09  37733715.612   196489341.666        -136.141          32.000    37733702.155   151937984.712        -105.138          42.000  
C25  23550882.371   122635635.021        1509.186          38.000                                                                  
C08  39350841.501                       -2478.192          30.000    39350828.938   158449478.119       -1916.230          33.000  
C10  40437596.683                2        937.579          26.000    40437591.548   162825428.910         724.875          36.000  
C35  25933925.143   135044775.064         239.746          38.000                                                                  
C13  38509137.220                2      -2295.110          31.000    38509132.219                       -1774.789          31.000  
C12  26308767.026   136996662.138        2327.408          34.000    26308764.194   105934498.577        1799.257          44.000  
G25  24642128.511   129495262.667       -3920.232          37.000    24642123.540   100905363.408       -3054.678          38.000  
C07                                                                  39490007.535   159009906.170         863.993          36.000  
> 2025 10 30 06 25 42.6800000  0 23                     
G32  22208332.566   116705540.871       -3053.311          40.000    22208326.223    90939380.162       -2379.125          37.000  
G29  23115571.120   121473167.616        -792.206          43.000    23115562.906    94654386.736        -617.570          39.000  
G28  21329878.416   112089270.779       -1263.685          43.000    21329869.257    87342248.196        -984.669          47.000  
G26  20306532.964   106711551.613         510.101          46.000    20306525.837    83151840.265         397.698          44.000  
G31  20616335.923   108339572.141          63.439          45.000    20616324.941    84420404.991          49.406          43.000  
G04  24292809.994   127659563.080        3153.635          40.000    24292806.784    99475014.128        2457.440          44.000  
C33  22554628.895   117447862.240        -887.175          48.000                                                                  
C06  36582946.588   190497009.140        -148.200          39.000    36582929.842   147304300.416        -114.753          44.000  
C14  22819386.276   118826513.224       -2404.515          39.000    22819371.416    91884143.338       -1859.483          44.000  
C16  37012713.990   192734913.676        -176.236          45.000    37012701.955   149034813.537        -136.271          43.000  
C24  21899539.314   114036651.035        -937.247          48.000                                                                  
C26  24591885.794   128056399.259       -2575.603          45.000                                                                  
G03  22902746.429                1       -337.009          30.000    22902742.585    93782902.686        -261.872          33.000  
G16  22246176.183   116904430.635        2866.539          39.000                                                                  
C09  37733716.651   196489347.121        -136.281          33.000    37733703.215   151937988.923        -105.212          42.000  
C25  23550870.782   122635574.676        1508.785          38.000                                                                  
C08  39350860.595                       -2478.842          30.000    39350847.984   158449554.802       -1916.865          33.000  
C10  40437589.620                2        938.017          26.000    40437584.338   162825399.911         724.854          36.000  
C35  25933923.306   135044765.463         240.053          38.000                                                                  
C13  38509155.065                2      -2294.869          31.000    38509149.852                       -1774.400          31.000  
C12  26308749.213   136996569.114        2326.166          34.000    26308746.317   105934426.621        1799.013          44.000  
G25  24642158.354   129495419.505       -3920.769          37.000    24642153.396   100905485.603       -3054.802          38.000  
C07                                                                  39489998.971   159009871.597         864.246          36.000  
> 2025 10 30 06 25 42.7200000  0 23                     
G32  22208355.811   116705663.020       -3053.740          40.000    22208349.464    90939475.334       -2379.305          37.000  
G29  23115577.173   121473199.320        -792.596          43.000    23115568.946    94654411.439        -617.735          39.000  
G28  21329888.042   112089321.326       -1263.733          43.000    21329878.918    87342287.598        -984.963          47.000  
G26  20306529.067   106711531.215         509.923          46.000    20306521.971    83151824.375         397.343          44.000  
G31  20616335.452   108339569.625          63.033          45.000    20616324.443    84420403.025          49.123          43.000  
G04  24292786.020   127659436.955        3153.199          40.000    24292782.800    99474915.849        2457.096          44.000  
C33  22554635.688   117447897.741        -887.482          48.000                                                                  
C06  36582947.721   190497015.101        -148.754          39.000    36582930.991   147304305.020        -115.098          44.000  
C14  22819404.766   118826609.414       -2404.747          39.000    22819389.895    91884217.715       -1859.536          44.000  
C16  37012715.365   192734920.754        -176.818          45.000    37012703.313   149034819.006        -136.585          43.000  
C24  21899546.508   114036688.541        -937.581          48.000                                                                  
C26  24591905.598   128056502.296       -2575.866          45.000                                                                  
G03  22902748.996                        -336.760          30.000    22902745.149    93782913.163        -261.958          33.000  
G16  22246154.380   116904315.991        2866.157          39.000                                                                  
C09  37733717.710   196489352.598        -136.759          33.000    37733704.242   151937993.145        -105.493          42.000  
C25  23550859.186   122635514.321        1508.700          38.000                                                                  
C08  39350879.613                       -2478.250          30.000    39350867.008   158449631.498       -1917.485          33.000  
C10  40437582.480                2        936.944          26.000    40437577.156   162825370.916         724.894          36.000  
C35  25933921.449   135044755.907         239.389          38.000                                                                  
C13  38509173.487                2      -2294.342          31.000    38509167.299                       -1775.226          31.000  
C12  26308731.373   136996476.074        2325.824          34.000    26308728.429   105934354.668        1798.809          44.000  
G25  24642188.198   129495576.309       -3920.390          37.000    24642183.244   100905607.799       -3054.933          38.000  
C07                                                                  39489990.390   159009837.055         863.862          36.000  
> 2025 10 30 06 25 42.7600000  0 23                     
G32  22208379.054   116705785.150       -3053.602          40.000    22208372.709    90939570.526       -2379.715          37.000  
G29  23115583.184   121473231.032        -792.884          43.000    23115574.977    94654436.129        -617.520          39.000  
G28  21329897.683   112089371.897       -1264.186          43.000    21329888.542    87342326.999        -985.100          47.000  
G26  20306525.172   106711510.815         509.895          46.000    20306518.090    83151808.481         397.253          44.000  
G31  20616334.970   108339567.106          62.862          45.000    20616323.961    84420401.071          48.816          43.000  
G04  24292762.025   127659310.833        3152.922          40.000    24292758.820    99474817.570        2456.914          44.000  
C33  22554642.504   117447933.245        -887.690          48.000                                                                  
C06  36582948.850   190497021.044        -148.738          39.000    36582932.117   147304309.619        -115.166          44.000  
C14  22819423.236   118826705.598       -2404.718          39.000    22819408.398    91884292.097       -1859.609          44.000  
C16  37012716.744   192734927.821        -176.920          45.000    37012704.677   149034824.474        -136.760          43.000  
C24  21899553.717   114036726.053        -937.850          48.000                                                                  
C26  24591925.367   128056605.330       -2575.965          45.000                                                                  
G03  22902751.518                        -336.560          29.000    22902747.739    93782923.681        -262.798          33.000  
G16  22246132.583   116904201.332        2866.264          39.000                                                                  
C09  37733718.768   196489358.054        -136.691          33.000    37733705.278   151937997.373        -105.736          42.000  
C25  23550847.599   122635453.983        1508.418          38.000                                                                  
C08  39350898.652                       -2478.901          30.000    39350886.047   158449708.190       -1917.684          33.000  
C10  40437575.448                2        937.093          26.000    40437569.978   162825341.933         724.678          36.000  
C35  25933919.571   135044746.359         238.815          38.000                                                                  
C13  38509190.965                2      -2294.955          31.000    38509184.927                       -1775.372          31.000  
C12  26308713.506   136996383.010        2326.249          34.000    26308710.581   105934282.711        1798.773          44.000  
G25  24642218.054   129495733.138       -3920.640          37.000    24642213.094   100905729.996       -3054.884          38.000  
C07                                                                  39489981.828   159009802.526         863.344          36.000  
> 2025 10 30 06 25 42.8000000  0 23                     
G32  22208402.305   116705907.301       -3053.792          40.000    22208395.955    90939665.686       -2379.367          37.000  
G29  23115589.239   121473262.727        -792.636          43.000    23115581.005    94654460.841        -617.806          39.000  
G28  21329907.315   112089422.464       -1264.320          43.000    21329898.150    87342366.400        -985.123          47.000  
G26  20306521.275   106711490.414         509.953          46.000    20306514.220    83151792.579         397.348          44.000  
G31  20616334.476   108339564.587          62.838          45.000    20616323.485    84420399.103          48.960          43.000  
G04  24292738.009   127659184.692        3153.204          40.000    24292734.806    99474719.286        2456.917          44.000  
C33  22554649.340   117447968.746        -887.703          48.000                                                                  
C06  36582949.992   190497026.969        -148.402          39.000    36582933.251   147304314.213        -115.031          44.000  
C14  22819441.716   118826801.797       -2404.935          39.000    22819426.892    91884366.475       -1859.550          45.000  
C16  37012718.110   192734934.869        -176.519          45.000    37012706.004   149034829.930        -136.577          43.000  
C24  21899560.935   114036763.561        -937.850          48.000                                                                  
C26  24591945.143   128056708.360       -2575.926          45.000                                                                  
G03  22902754.070                        -335.488          29.000    22902750.294    93782934.150        -262.234          33.000  
G16  22246110.756   116904086.678        2866.216          39.000                                                                  
C09  37733719.832   196489363.516        -136.646          33.000    37733706.316   151938001.606        -105.935          42.000  
C25  23550836.032   122635393.651        1508.235          38.000                                                                  
C08  39350917.731                       -2479.302          30.000    39350905.098   158449784.847       -1917.047          33.000  
C10  40437568.315                2        937.290          26.000    40437562.808   162825312.951         724.595          36.000  
C35  25933917.713   135044736.793         238.892          38.000                                                                  
C13  38509208.263                2      -2295.361          32.000    38509202.536                       -1774.642          31.000  
C12  26308695.624   136996289.963        2326.149          34.000    26308692.719   105934210.762        1798.657          44.000  
G25  24642247.900   129495889.941       -3920.345          37.000    24642242.941   100905852.204       -3055.120          38.000  
C07                                                                  39489973.263   159009767.980         863.372          36.000  
> 2025 10 30 06 25 42.8400000  0 23                     
G32  22208425.570   116706029.431       -3053.451          40.000    22208419.194    90939760.857       -2379.343          37.000  
G29  23115595.289   121473294.420        -792.468          43.000    23115587.035    94654485.543        -617.723          39.000  
G28  21329916.942   112089473.023       -1264.189          43.000    21329907.749    87342405.791        -984.958          47.000  
G26  20306517.401   106711470.017         509.910          46.000    20306510.351    83151776.693         397.137          44.000  
G31  20616334.003   108339562.063          62.963          45.000    20616323.003    84420397.135          49.078          43.000  
G04  24292714.007   127659058.555        3153.341          40.000    24292710.788    99474621.008        2456.851          44.000  
C33  22554656.178   117448004.243        -887.565          48.000                                                                  
C06  36582951.140   190497032.911        -148.517          39.000    36582934.395   147304318.812        -115.027          44.000  
C14  22819460.187   118826897.981       -2404.722          39.000    22819445.355    91884440.850       -1859.449          45.000  
C16  37012719.468   192734941.917        -176.268          45.000    37012707.362   149034835.386        -136.433          43.000  
C24  21899568.142   114036801.059        -937.662          48.000                                                                  
C26  24591964.934   128056811.392       -2575.915          45.000                                                                  
G03  22902756.657                        -336.333          29.000    22902752.870    93782944.632        -262.121          33.000  
G16  22246088.915   116903971.999        2866.686          39.000                                                                  
C09  37733720.841   196489368.952        -136.065          33.000    37733707.334   151938005.813        -105.456          42.000  
C25  23550824.432   122635333.290        1508.686          38.000                                                                  
C08  39350936.777                       -2478.894          30.000    39350924.094   158449861.513       -1916.804          33.000  
C10  40437560.572                2        937.360          26.000    40437555.638   162825283.984         724.245          36.000  
C35  25933915.878   135044727.218         239.167          38.000                                                                  
C13  38509225.978                2      -2295.371          32.000    38509220.343                       -1774.478          31.000  
C12  26308677.759   136996196.894        2326.517          35.000    26308674.833   105934138.807        1798.740          44.000  
G25  24642277.736   129496046.785       -3920.799          37.000    24642272.779   100905974.414       -3055.214          38.000  
C07                                                                  39489964.689   159009733.436         863.456          36.000  
> 2025 10 30 06 25 42.8800000  0 23                     
G32  22208448.815   116706151.566       -3053.403          40.000    22208442.435    90939856.028       -2379.332          37.000  
G29  23115601.312   121473326.107        -792.263          43.000    23115593.051    94654510.234        -617.422          39.000  
G28  21329926.550   112089523.571       -1263.909          43.000    21329917.352    87342445.184        -984.852          47.000  
G26  20306513.501   106711449.612         510.041          46.000    20306506.463    83151760.796         397.276          44.000  
G31  20616333.529   108339559.524          63.345          45.000    20616322.507    84420395.162          49.263          43.000  
G04  24292690.009   127658932.424        3153.357          40.000    24292686.772    99474522.710        2457.213          44.000  
C33  22554662.986   117448039.727        -887.247          48.000                                                                  
C06  36582952.287   190497038.846        -148.430          39.000    36582935.561   147304323.399        -114.770          44.000  
C14  22819478.667   118826994.159       -2404.550          39.000    22819463.800    91884515.218       -1859.274          45.000  
C16  37012720.825   192734948.962        -176.120          45.000    37012708.679   149034840.821        -135.976          43.000  
C24  21899575.356   114036838.547        -937.326          48.000                                                                  
C26  24591984.720   128056914.415       -2575.751          45.000                                                                  
G03  22902759.187                        -336.166          30.000    22902755.438    93782955.098        -261.744          33.000  
G16  22246067.092   116903857.342        2866.527          39.000                                                                  
C09  37733721.874   196489374.393        -135.974          33.000    37733708.387   151938010.023        -105.263          42.000  
C25  23550812.869   122635272.924        1509.043          38.000                                                                  
C08  39350955.843                       -2479.069          31.000    39350943.119   158449938.168       -1916.444          33.000  
C10  40437553.493                2        937.542          26.000    40437548.433   162825254.965         725.081          36.000  
C35  25933914.034   135044717.651         239.172          38.000                                                                  
C13  38509243.094   200527697.1133      -2295.339          32.000    38509237.904                       -1774.646          31.000  
C12  26308659.905   136996103.820        2326.795          35.000    26308656.951   105934066.848        1798.877          44.000  
G25  24642307.585   129496203.632       -3921.170          37.000    24642302.624   100906096.615       -3055.132          38.000  
C07                                                                  39489956.117   159009698.864         864.015          36.000  
> 2025 10 30 06 25 42.9200000  0 23                     
G32  22208472.042   116706273.677       -3052.926          40.000    22208465.658    90939951.174       -2378.951          37.000  
G29  23115607.342   121473357.798        -792.209          43.000    23115599.078    94654534.931        -617.419          39.000  
G28  21329936.155   112089574.110       -1263.578          43.000    21329926.967    87342484.577        -984.830          47.000  
G26  20306509.617   106711429.202         510.208          46.000    20306502.584    83151744.888         397.556          44.000  
G31  20616333.056   108339556.989          63.411          45.000    20616322.027    84420393.184          49.391          43.000  
G04  24292665.994   127658806.276        3153.594          40.000    24292662.747    99474424.411        2457.445          44.000  
C33  22554669.826   117448075.217        -887.200          48.000                                                                  
C06  36582953.428   190497044.785        -148.430          39.000    36582936.697   147304327.983        -114.637          44.000  
C14  22819497.141   118827090.334       -2404.375          39.000    22819482.290    91884589.593       -1859.339          45.000  
C16  37012722.168   192734956.011        -176.133          45.000    37012710.003   149034846.277        -136.230          43.000  
C24  21899582.557   114036876.038        -937.243          48.000                                                                  
C26  24592004.502   128057017.436       -2575.611          45.000                                                                  
G03  22902761.722                        -336.537          30.000    22902757.996    93782965.569        -261.706          33.000  
G16  22246045.275   116903742.698        2866.212          39.000                                                                  
C09  37733722.925   196489379.840        -136.083          33.000    37733709.394   151938014.230        -105.168          42.000  
C25  23550801.265   122635212.567        1509.047          38.000                                                                  
C08  39350974.887                       -2478.773          31.000    39350962.166   158450014.836       -1916.599          33.000  
C10  40437546.286                2        937.574          26.000    40437541.242   162825225.964         725.164          36.000  
C35  25933912.193   135044708.077         239.245          38.000                                                                  
C13  38509260.534   200527788.9072      -2294.987          32.000    38509255.551                       -1774.577          31.000  
C12  26308641.997   136996010.776        2326.281          35.000    26308639.067   105933994.877        1799.163          44.000  
G25  24642337.425   129496360.421       -3920.353          37.000    24642332.455   100906218.815       -3055.038          38.000  
C07                                                                  39489947.528   159009664.321         863.789          36.000  
> 2025 10 30 06 25 42.9600000  0 23                     
G32  22208495.296   116706395.819       -3053.275          40.000    22208488.890    90940046.353       -2379.322          37.000  
G29  23115613.375   121473389.503        -792.516          43.000    23115605.121    94654559.632        -617.526          39.000  
G28  21329945.802   112089624.671       -1263.813          43.000    21329936.571    87342523.971        -984.830          47.000  
G26  20306505.750   106711408.804         510.026          46.000    20306498.738    83151728.993         397.473          44.000  
G31  20616332.584   108339554.462          63.262          45.000    20616321.560    84420391.204          49.532          43.000  
G04  24292641.977   127658680.133        3153.589          40.000    24292638.753    99474326.125        2457.274          44.000  
C33  22554676.625   117448110.708        -887.190          48.000                                                                  
C06  36582954.565   190497050.733        -148.648          39.000    36582937.853   147304332.568        -114.577          44.000  
C14  22819515.597   118827186.523       -2404.554          39.000    22819500.754    91884663.970       -1859.395          45.000  
C16  37012723.519   192734963.066        -176.246          45.000    37012711.399   149034851.735        -136.407          43.000  
C24  21899589.749   114036913.541        -937.451          48.000                                                                  
C26  24592024.253   128057120.465       -2575.681          45.000                                                                  
G03  22902764.261                        -335.693          29.000    22902760.570    93782976.084        -262.591          33.000  
G16  22246023.460   116903628.035        2866.329          39.000                                                                  
C09  37733723.968   196489385.310        -136.593          33.000    37733710.465   151938018.452        -105.407          42.000  
C25  23550789.670   122635152.227        1508.677          38.000                                                                  
C08  39350993.938                       -2478.468          31.000    39350981.209   158450091.525       -1917.092          33.000  
C10  40437539.335                2        937.353          26.000    40437534.044   162825196.965         725.091          36.000  
C35  25933910.333   135044698.509         239.187          38.000                                                                  
C13  38509278.113   200527880.7062      -2294.895          32.000    38509272.995                       -1774.574          31.000  
C12  26308624.147   136995917.704        2326.562          35.000    26308621.171   105933922.916        1799.135          44.000  
G25  24642367.270   129496517.230       -3920.145          37.000    24642362.296   100906340.999       -3054.722          38.000  
C07                                                                  39489938.977   159009629.779         863.574          36.000  
> 2025 10 30 06 25 43.0000000  0 23                     
G32  22208518.550   116706517.953       -3053.372          40.000    22208512.119    90940141.522       -2379.292          37.000  
G29  23115619.387   121473421.197        -792.446          43.000    23115611.138    94654584.315        -617.208          39.000  
G28  21329955.411   112089675.217       -1263.716          43.000    21329946.190    87342563.358        -984.736          47.000  
G26  20306501.893   106711388.401         510.007          46.000    20306494.840    83151713.090         397.515          44.000  
G31  20616332.105   108339551.929          63.305          45.000    20616321.086    84420389.234          49.358          43.000  
G04  24292617.976   127658553.991        3153.606          40.000    24292614.763    99474227.828        2457.378          44.000  
C33  22554683.411   117448146.205        -887.338          48.000                                                                  
C06  36582955.730   190497056.663        -148.387          39.000    36582938.976   147304337.161        -114.727          44.000  
C14  22819534.065   118827282.714       -2404.730          39.000    22819519.235    91884738.347       -1859.433          45.000  
C16  37012724.872   192734970.122        -176.370          45.000    37012712.792   149034857.196        -136.553          43.000  
C24  21899596.922   114036951.040        -937.508          48.000                                                                  
C26  24592044.036   128057223.492       -2575.688          45.000                                                                  
G03  22902766.835                        -337.093          30.000    22902763.115    93782986.556        -262.257          33.000  
G16  22246001.614   116903513.370        2866.472          39.000                                                                  
C09  37733725.007   196489390.763        -136.555          33.000    37733711.519   151938022.676        -105.563          42.000  
C25  23550778.096   122635091.880        1508.591          39.000                                                                  
C08  39351012.975                       -2478.627          31.000    39351000.219   158450168.151       -1916.250          33.000  
C10  40437532.078                2        937.340          26.000    40437526.844   162825167.962         725.135          36.000  
C35  25933908.478   135044688.925         239.412          38.000                                                                  
C13  38509295.742   200527972.4892      -2294.532          32.000    38509290.502                       -1774.389          31.000  
C12  26308606.285   136995824.645        2326.448          35.000    26308603.282   105933850.951        1799.166          44.000  
G25  24642397.103   129496674.045       -3920.231          37.000    24642392.134   100906463.171       -3054.319          38.000  
C07                                                                  39489930.408   159009595.208         864.036          36.000  
> 2025 10 30 06 25 43.0400000  0 23                     
G32  22208541.818   116706640.089       -3053.447          40.000    22208535.350    90940236.692       -2379.344          37.000  
G29  23115625.421   121473452.890        -792.371          43.000    23115617.167    94654609.008        -617.291          39.000  
G28  21329965.023   112089725.768       -1263.739          43.000    21329955.810    87342602.740        -984.609          47.000  
G26  20306498.000   106711367.997         510.045          46.000    20306490.959    83151697.184         397.627          44.000  
G31  20616331.637   108339549.394          63.349          45.000    20616320.597    84420387.264          49.279          43.000  
G04  24292593.977   127658427.853        3153.525          40.000    24292590.756    99474129.542        2457.223          44.000  
C33  22554690.242   117448181.697        -887.318          48.000                                                                  
C06  36582956.864   190497062.586        -148.117          39.000    36582940.097   147304341.746        -114.660          44.000  
C14  22819552.547   118827378.899       -2404.658          39.000    22819537.722    91884812.726       -1859.489          45.000  
C16  37012726.217   192734977.170        -176.257          45.000    37012714.155   149034862.642        -136.312          43.000  
C24  21899604.128   114036988.532        -937.376          48.000                                                                  
C26  24592063.845   128057326.508       -2575.512          45.000                                                                  
G03  22902769.428                        -336.658          29.000    22902765.681    93782997.029        -262.004          33.000  
G16  22245979.782   116903398.689        2866.895          39.000                                                                  
C09  37733726.029   196489396.205        -136.272          33.000    37733712.551   151938026.877        -105.178          42.000  
C25  23550766.500   122635031.534        1508.586          39.000                                                                  
C08  39351032.038                       -2478.737          31.000    39351019.269   158450244.832       -1916.737          33.000  
C10  40437525.011                2        937.698          26.000    40437519.638   162825138.989         724.553          36.000  
C35  25933906.637   135044679.358         239.260          38.000                                                                  
C13  38509313.456   200528064.3362      -2295.681          32.000    38509308.210                       -1774.908          31.000  
C12  26308588.430   136995731.586        2326.482          35.000    26308585.405   105933778.985        1799.183          44.000  
G25  24642426.938   129496830.849       -3920.126          37.000    24642421.984   100906585.357       -3054.386          38.000  
C07                                                                  39489921.833   159009560.667         863.828          36.000  
> 2025 10 30 06 25 43.0800000  0 23                     
G32  22208565.035   116706762.215       -3053.324          40.000    22208558.596    90940331.852       -2379.067          37.000  
G29  23115631.443   121473484.572        -792.135          43.000    23115623.175    94654633.706        -617.385          39.000  
G28  21329974.653   112089776.318       -1263.719          43.000    21329965.438    87342642.122        -984.551          47.000  
G26  20306494.102   106711347.593         510.083          46.000    20306487.091    83151681.287         397.489          44.000  
G31  20616331.142   108339546.856          63.441          45.000    20616320.100    84420385.289          49.297          43.000  
G04  24292569.974   127658301.703        3153.669          40.000    24292566.747    99474031.237        2457.482          44.000  
C33  22554697.062   117448217.185        -887.210          48.000                                                                  
C06  36582958.001   190497068.503        -147.891          39.000    36582941.238   147304346.331        -114.642          44.000  
C14  22819571.024   118827475.065       -2404.249          39.000    22819556.210    91884887.098       -1859.381          45.000  
C16  37012727.557   192734984.213        -176.136          45.000    37012715.546   149034868.082        -136.063          43.000  
C24  21899611.345   114037026.016        -937.171          48.000                                                                  
C26  24592083.643   128057429.520       -2575.354          45.000                                                                  
G03  22902771.974                        -335.645          29.000    22902768.240    93783007.483        -261.522          33.000  
G16  22245957.956   116903284.014        2866.936          39.000                                                                  
C09  37733727.063   196489401.622        -135.607          33.000    37733713.590   151938031.087        -105.170          42.000  
C25  23550754.924   122634971.168        1508.981          39.000                                                                  
C08  39351051.097                       -2479.000          31.000    39351038.292   158450321.524       -1917.233          33.000  
C10  40437517.573                2        937.841          26.000    40437512.467   162825110.010         724.357          36.000  
C35  25933904.801   135044669.778         239.334          38.000                                                                  
C13  38509331.122   200528156.1322      -2295.396          32.000    38509325.749                       -1775.067          31.000  
C12  26308570.547   136995638.487        2327.134          35.000    26308567.547   105933707.017        1799.201          44.000  
G25  24642456.774   129496987.656       -3920.055          37.000    24642451.824   100906707.556       -3054.776          38.000  
C07                                                                  39489913.233   159009526.091         864.160          36.000  
> 2025 10 30 06 25 43.1200000  0 23                     
G32  22208588.262   116706884.341       -3053.175          40.000    22208581.837    90940427.006       -2378.862          37.000  
G29  23115637.495   121473516.260        -792.105          43.000    23115629.213    94654658.411        -617.577          39.000  
G28  21329984.257   112089826.853       -1263.464          43.000    21329975.069    87342681.510        -984.628          47.000  
G26  20306490.203   106711327.174         510.369          46.000    20306483.209    83151665.387         397.446          44.000  
G31  20616330.646   108339544.308          63.643          45.000    20616319.626    84420383.318          49.241          43.000  
G04  24292545.961   127658175.558        3153.673          40.000    24292542.735    99473932.938        2457.523          44.000  
C33  22554703.897   117448252.668        -887.104          48.000                                                                  
C06  36582959.156   190497074.413        -147.666          39.000    36582942.363   147304350.911        -114.525          44.000  
C14  22819589.510   118827571.243       -2404.291          39.000    22819574.655    91884961.455       -1859.062          45.000  
C16  37012728.898   192734991.243        -175.864          45.000    37012716.878   149034873.514        -135.825          43.000  
C24  21899618.571   114037063.496        -936.996          48.000                                                                  
C26  24592103.467   128057532.529       -2575.230          45.000                                                                  
G03  22902774.525                        -335.275          29.000    22902770.799    93783017.963        -261.819          33.000  
G16  22245936.136   116903169.353        2866.667          39.000                                                                  
C09  37733728.106   196489407.078        -136.174          33.000    37733714.641   151938035.283        -104.946          42.000  
C25  23550743.324   122634910.778        1509.633          39.000                                                                  
C08  39351070.137                       -2478.757          31.000    39351057.305   158450398.177       -1916.769          33.000  
C10  40437510.548                2        937.825          26.000    40437505.257   162825080.996         724.927          36.000  
C35  25933902.963   135044660.191         239.503          38.000                                                                  
C13  38509348.538   200528247.9102      -2294.709          32.000    38509343.420                       -1775.201          31.000  
C12  26308552.636   136995545.413        2327.011          35.000    26308549.677   105933635.044        1799.306          44.000  
G25  24642486.608   129497144.491       -3920.610          37.000    24642481.691   100906829.754       -3054.932          38.000  
C07                                                                  39489904.629   159009491.537         864.037          36.000  
> 2025 10 30 06 25 43.1600000  0 23                     
G32  22208611.507   116707006.455       -3052.896          40.000    22208605.089    90940522.157       -2378.754          37.000  
G29  23115643.504   121473547.944        -792.050          43.000    23115635.228    94654683.111        -617.626          39.000  
G28  21329993.880   112089877.392       -1263.428          43.000    21329984.697    87342720.900        -984.734          47.000  
G26  20306486.307   106711306.759         510.428          46.000    20306479.340    83151649.485         397.509          44.000  
G31  20616330.145   108339541.772          63.494          45.000    20616319.144    84420381.336          49.402          43.000  
G04  24292521.952   127658049.390        3154.073          40.000    24292518.736    99473834.638        2457.544          44.000  
C33  22554710.717   117448288.154        -887.120          48.000                                                                  
C06  36582960.277   190497080.359        -148.240          39.000    36582943.500   147304355.492        -114.490          44.000  
C14  22819607.972   118827667.412       -2404.232          39.000    22819593.099    91885035.822       -1859.097          45.000  
C16  37012730.250   192734998.267        -175.586          45.000    37012718.244   149034878.945        -135.712          43.000  
C24  21899625.768   114037100.981        -937.009          48.000                                                                  
C26  24592123.255   128057635.534       -2575.106          45.000                                                                  
G03  22902777.013                        -335.648          30.000    22902773.361    93783028.478        -262.571          33.000  
G16  22245914.307   116903054.678        2866.771          39.000                                                                  
C09  37733729.154   196489412.516        -136.049          33.000    37733715.702   151938039.485        -104.963          42.000  
C25  23550731.707   122634850.399        1509.672          39.000                                                                  
C08  39351089.175                       -2477.959          31.000    39351076.363   158450474.831       -1916.395          33.000  
C10  40437503.076                2        938.114          26.000    40437498.041   162825051.983         725.231          36.000  
C35  25933901.132   135044650.615         239.407          38.000                                                                  
C13  38509366.276   200528339.6832      -2294.211          32.000    38509361.084                       -1775.254          31.000  
C12  26308534.754   136995452.346        2326.829          35.000    26308531.764   105933563.076        1799.287          44.000  
G25  24642516.450   129497301.281       -3920.077          37.000    24642511.539   100906951.937       -3054.701          38.000  
C07                                                                  39489896.048   159009456.970         864.166          36.000  
> 2025 10 30 06 25 43.2000000  0 23                     
G32  22208634.735   116707128.567       -3052.823          40.000    22208628.339    90940617.340       -2379.263          37.000  
G29  23115649.550   121473579.632        -792.133          43.000    23115641.255    94654707.784        -617.121          39.000  
G28  21330003.485   112089927.935       -1263.522          43.000    21329994.299    87342760.281        -984.626          47.000  
G26  20306482.450   106711286.350         510.321          46.000    20306475.467    83151633.577         397.646          44.000  
G31  20616329.651   108339539.232          63.469          45.000    20616318.662    84420379.352          49.518          43.000  
G04  24292497.948   127657923.247        3153.800          40.000    24292494.754    99473736.341        2457.458          44.000  
C33  22554717.535   117448323.637        -887.071          48.000                                                                  
C06  36582961.416   190497086.291        -148.366          39.000    36582944.643   147304360.070        -114.456          44.000  
C14  22819626.443   118827763.585       -2404.311          39.000    22819611.572    91885110.192       -1859.212          45.000  
C16  37012731.590   192735005.306        -175.751          45.000    37012719.584   149034884.383        -135.784          43.000  
C24  21899632.941   114037138.464        -937.026          48.000                                                                  
C26  24592143.017   128057738.551       -2575.285          45.000                                                                  
G03  22902779.599                        -336.269          30.000    22902775.924    93783038.924        -261.696          33.000  
G16  22245892.482   116902939.999        2866.878          39.000                                                                  
C09  37733730.184   196489417.945        -135.768          33.000    37733716.747   151938043.692        -105.106          42.000  
C25  23550720.148   122634790.033        1509.412          39.000                                                                  
C08  39351108.238                       -2478.823          31.000    39351095.404   158450551.470       -1916.050          33.000  
C10  40437495.694                2        937.543          26.000    40437490.830   162825022.954         725.629          36.000  
C35  25933899.288   135044641.042         239.307          38.000                                                                  
C13  38509383.647   200528431.4792      -2294.567          32.000    38509378.638                       -1774.890          31.000  
C12  26308516.870   136995359.245        2327.384          35.000    26308513.884   105933491.099        1799.379          44.000  
G25  24642546.287   129497458.081       -3920.031          37.000    24642541.390   100907074.120       -3054.658          38.000  
C07                                                                  39489887.456   159009422.422         863.861          36.000  
> 2025 10 30 06 25 43.2400000  0 23                     
G32  22208657.981   116707250.699       -3053.148          40.000    22208651.564    90940712.497       -2379.119          37.000  
G29  23115655.606   121473611.319        -792.183          43.000    23115647.280    94654732.463        -616.981          39.000  
G28  21330013.088   112089978.468       -1263.390          43.000    21330003.905    87342799.655        -984.437          47.000  
G26  20306478.556   106711265.928         510.457          46.000    20306471.589    83151617.660         397.862          44.000  
G31  20616329.172   108339536.687          63.574          45.000    20616318.183    84420377.364          49.685          43.000  
G04  24292473.923   127657797.091        3153.850          40.000    24292470.775    99473638.038        2457.498          44.000  
C33  22554724.330   117448359.122        -887.092          48.000                                                                  
C06  36582962.555   190497092.215        -148.237          39.000    36582945.808   147304364.654        -114.570          44.000  
C14  22819644.927   118827859.757       -2404.330          40.000    22819630.032    91885184.557       -1859.168          45.000  
C16  37012732.965   192735012.341        -175.818          45.000    37012720.906   149034889.835        -136.124          43.000  
C24  21899640.141   114037175.945        -937.003          48.000                                                                  
C26  24592162.831   128057841.556       -2575.187          45.000                                                                  
G03  22902782.140                        -336.104          30.000    22902778.476    93783049.380        -261.483          33.000  
G16  22245870.659   116902825.330        2866.814          39.000                                                                  
C09  37733731.226   196489423.371        -135.595          33.000    37733717.817   151938047.886        -104.974          42.000  
C25  23550708.575   122634729.666        1509.239          39.000                                                                  
C08  39351127.260                       -2477.096          31.000    39351114.411   158450628.122       -1916.155          33.000  
C10  40437488.856                2        937.389          26.000    40437483.650   162824993.945         725.392          35.000  
C35  25933897.435   135044631.433         240.001          38.000                                                                  
C13  38509401.328   200528523.2752      -2294.740          32.000    38509396.162                       -1773.327          31.000  
C12  26308498.999   136995266.162        2327.325          35.000    26308495.983   105933419.124        1799.415          44.000  
G25  24642576.118   129497614.890       -3920.117          37.000    24642571.238   100907196.284       -3054.247          38.000  
C07                                                                  39489878.862   159009387.834         864.521          36.000  
