     3.04           OBSERVATION DATA    M: Mixed            RINEX VERSION / TYPE
RTKCONV 2.4.3 b34                       20251030 063853 UTC PGM / RUN BY / DATE 
format: u-blox UBX                                          COMMENT             
log: D:\GPdata\10_30\fingure_290_10_30_2.ubx                COMMENT             
                                                            MARKER NAME         
                                                            MARKER NUMBER       
                                                            MARKER TYPE         
                                                            OBSERVER / AGENCY   
                                                            REC # / TYPE / VERS 
                                                            ANT # / TYPE        
        0.0000        0.0000        0.0000                  APPROX POSITION XYZ 
        0.0000        0.0000        0.0000                  ANTENNA: DELTA H/E/N
G    8 C1C L1C D1C S1C C2L L2L D2L S2L                      SYS / # / OBS TYPES 
C    8 C2I L2I D2I S2I C7I L7I D7I S7I                      SYS / # / OBS TYPES 
  2025    10    30    06    13   25.0800000     GPS         TIME OF FIRST OBS   
  2025    10    30    06    13   59.8000000     GPS         TIME OF LAST OBS    
G L1C                                                       SYS / PHASE SHIFT   
G L2L  0.00000                                              SYS / PHASE SHIFT   
C L2I                                                       SYS / PHASE SHIFT   
C L7I                                                       SYS / PHASE SHIFT   
  0                                                         GLONASS SLOT / FRQ #
 C1C    0.000 C1P    0.000 C2C    0.000 C2P    0.000        GLONASS COD/PHS/BIS 
                                                            END OF HEADER       
> 2025 10 30 06 13 25.0800000  0 20                     
G32  21801349.516   114566865.7461      -2740.572          46.000    21801343.983    89272854.7451      -2135.353          44.000  
G29  23037105.642   121060818.2901       -325.771          42.000    23037096.965    94333069.0261       -253.989          41.000  
G28  21164263.613   111218955.3991      -1095.675          46.000    21164253.073    86664080.1281       -853.822          46.000  
G26  20406241.108   107235516.3581        911.876          48.000    20406234.047    83560123.0431        710.453          46.000  
G31  20639553.730   108461584.7981        268.084          47.000    20639543.192    84515479.2901        208.793          45.000  
C33  22459248.063   116951194.1691       -458.093          50.000                                                                  
C06  36559949.909   190377252.7941       -175.221          45.000    36559932.515   147211696.9341       -135.630          48.000  
C14  22502884.132   117178411.4981      -2058.292          46.000    22502869.629    90609727.4721      -1591.635          51.000  
C16  36985271.386   192592009.2711       -210.316          48.000    36985259.333   148924310.5471       -162.568          48.000  
C24  21778936.788   113408641.9461       -761.555          50.000                                                                  
C26  24229255.881   126168087.6621      -2541.383          45.000                                                                  
G03  22890133.261   120288457.7481        158.336          40.000    22890126.699    93731233.4371        123.014          38.000  
G16  22666804.576   119114856.0491       3121.549          41.000                                                                  
C09  37712218.399   196377419.7971       -165.935          43.000    37712204.857   151851419.7571       -128.228          48.000  
C25  23775008.075   123802706.0111       1657.050          45.000                                                                  
C13  38189191.776   198861151.0231      -2219.522          42.000    38189185.387   153772025.9491      -1715.992          43.000  
C08  39002771.082   203097666.7491      -2432.524          37.000    39002759.028   157047930.8101      -1881.058          43.000  
G04  24739316.829   130005972.0231       3202.318          34.000    24739314.056   101303362.0561       2495.180          41.000  
G25  24093141.619   126610318.6441      -3895.414          37.000    24093134.978    98657363.5971      -3035.752          35.000  
C10                                                                  40569583.829   163356939.5361        715.726          38.000  
> 2025 10 30 06 13 25.1200000  0 20                     
G32  21801370.361   114566975.361       -2740.465          46.000    21801364.821    89272940.153       -2135.282          44.000  
G29  23037108.131   121060831.327        -325.957          42.000    23037099.436    94333079.182        -253.980          41.000  
G28  21164271.961   111218999.230       -1095.766          46.000    21164261.400    86664114.282        -853.866          46.000  
G26  20406234.168   107235479.879         911.913          48.000    20406227.108    83560094.625         710.380          46.000  
G31  20639551.702   108461574.083         267.899          47.000    20639541.140    84515470.938         208.757          45.000  
C33  22459251.559   116951212.496        -458.188          50.000                                                                  
C06  36559951.269   190377259.802        -175.199          45.000    36559933.846   147211702.348        -135.493          48.000  
C14  22502899.926   117178493.830       -2058.359          46.000    22502885.434    90609791.132       -1591.614          51.000  
C16  36985272.985   192592017.677        -210.267          48.000    36985261.013   148924317.048        -162.576          48.000  
C24  21778942.645   113408672.410        -761.613          50.000                                                                  
C26  24229275.407   126168189.320       -2541.427          45.000                                                                  
G03  22890132.064   120288451.423         158.192          40.000    22890125.497    93731228.505         123.113          38.000  
G16  22666780.798   119114731.180        3121.609          41.000                                                                  
C09  37712219.673   196377426.427        -165.887          43.000    37712206.119   151851424.882        -128.201          48.000  
C25  23774995.334   123802639.729        1657.025          45.000                                                                  
C13  38189208.842   198861239.806       -2219.558          42.000    38189202.443   153772094.604       -1716.244          43.000  
C08  39002789.755   203097764.091       -2433.316          37.000    39002777.734   157048006.061       -1881.201          43.000  
G04  24739292.446   130005843.915        3202.572          34.000    24739289.704   101303262.251        2495.099          41.000  
G25  24093171.290   126610474.436       -3895.062          37.000    24093164.638    98657485.002       -3035.416          35.000  
C10                                                                  40569576.694   163356910.912         715.560          38.000  
> 2025 10 30 06 13 25.1600000  0 20                     
G32  21801391.191   114567084.963       -2740.185          46.000    21801385.679    89273025.572       -2135.418          44.000  
G29  23037110.591   121060844.354        -325.795          42.000    23037101.898    94333089.340        -254.003          41.000  
G28  21164280.298   111219043.051       -1095.627          46.000    21164269.735    86664148.424        -853.644          46.000  
G26  20406227.239   107235443.407         911.821          48.000    20406220.188    83560066.202         710.454          46.000  
G31  20639549.670   108461563.366         267.882          47.000    20639539.100    84515462.585         208.776          45.000  
C33  22459255.126   116951230.817        -458.102          50.000                                                                  
C06  36559952.588   190377266.797        -174.967          45.000    36559935.169   147211707.760        -135.349          48.000  
C14  22502915.712   117178576.154       -2058.210          46.000    22502901.243    90609854.792       -1591.561          51.000  
C16  36985274.584   192592026.081        -210.168          48.000    36985262.629   148924323.546        -162.505          48.000  
C24  21778948.535   113408702.870        -761.558          50.000                                                                  
C26  24229294.946   126168290.968       -2541.300          45.000                                                                  
G03  22890130.855   120288445.095         158.124          40.000    22890124.311    93731223.587         122.952          38.000  
G16  22666757.058   119114606.311        3121.673          41.000                                                                  
C09  37712220.956   196377433.061        -165.898          43.000    37712207.362   151851430.013        -128.271          48.000  
C25  23774982.579   123802573.451        1656.934          45.000                                                                  
C13  38189225.886   198861328.587       -2219.532          42.000    38189219.480   153772163.251       -1716.225          43.000  
C08  39002808.442   203097861.394       -2433.116          37.000    39002796.401   157048081.302       -1881.083          43.000  
G04  24739268.067   130005715.824        3202.412          34.000    24739265.317   101303162.431        2495.299          41.000  
G25  24093200.932   126610630.247       -3895.236          37.000    24093194.286    98657606.399       -3035.104          35.000  
C10                                                                  40569569.581   163356882.292         715.403          38.000  
> 2025 10 30 06 13 25.2000000  0 20                     
G32  21801412.057   114567194.586       -2740.455          46.000    21801406.545    89273110.995       -2135.538          44.000  
G29  23037113.049   121060857.380        -325.681          42.000    23037104.379    94333099.481        -253.733          41.000  
G28  21164288.616   111219086.874       -1095.599          46.000    21164278.065    86664182.567        -853.572          46.000  
G26  20406220.292   107235406.921         912.031          48.000    20406213.230    83560037.773         710.639          46.000  
G31  20639547.614   108461552.634         268.147          47.000    20639537.050    84515454.225         208.917          45.000  
C33  22459258.666   116951249.135        -458.013          50.000                                                                  
C06  36559953.904   190377273.802        -175.070          45.000    36559936.511   147211713.171        -135.289          48.000  
C14  22502931.532   117178658.470       -2057.989          46.000    22502917.027    90609918.446       -1591.428          51.000  
C16  36985276.196   192592034.482        -210.073          48.000    36985264.255   148924330.035        -162.301          48.000  
C24  21778954.393   113408733.323        -761.422          50.000                                                                  
C26  24229314.487   126168392.623       -2541.357          45.000                                                                  
G03  22890129.642   120288438.757         158.275          40.000    22890123.099    93731218.633         123.493          38.000  
G16  22666733.302   119114481.455        3121.482          41.000                                                                  
C09  37712222.236   196377439.683        -165.668          43.000    37712208.648   151851435.141        -128.264          48.000  
C25  23774969.851   123802507.155        1657.227          45.000                                                                  
C13  38189242.942   198861417.369       -2219.525          42.000    38189236.521   153772231.897       -1716.175          43.000  
C08  39002827.132   203097958.696       -2432.785          37.000    39002815.093   157048156.542       -1881.004          43.000  
G04  24739243.709   130005587.722        3202.449          34.000    24739240.919   101303062.602        2495.584          41.000  
G25  24093230.578   126610786.040       -3894.957          37.000    24093223.919    98657727.812       -3035.189          35.000  
C10                                                                  40569562.456   163356853.647         715.805          38.000  
> 2025 10 30 06 13 25.2400000  0 20                     
G32  21801432.904   114567304.204       -2740.484          46.000    21801427.401    89273196.411       -2135.521          44.000  
G29  23037115.502   121060870.397        -325.437          42.000    23037106.893    94333109.636        -253.842          41.000  
G28  21164296.953   111219130.702       -1095.675          46.000    21164286.411    86664216.717        -853.685          46.000  
G26  20406213.353   107235370.444         911.956          48.000    20406206.292    83560009.352         710.571          46.000  
G31  20639545.575   108461541.908         268.165          47.000    20639535.021    84515445.869         208.911          45.000  
C33  22459262.183   116951267.457        -458.047          50.000                                                                  
C06  36559955.247   190377280.805        -175.062          45.000    36559937.834   147211718.585        -135.328          48.000  
C14  22502947.317   117178740.796       -2058.068          46.000    22502932.831    90609982.106       -1591.481          51.000  
C16  36985277.806   192592042.884        -210.037          48.000    36985265.887   148924336.531        -162.366          48.000  
C24  21778960.233   113408763.782        -761.424          50.000                                                                  
C26  24229334.001   126168494.276       -2541.348          45.000                                                                  
G03  22890128.436   120288432.429         158.200          40.000    22890121.891    93731213.693         123.553          38.000  
G16  22666709.548   119114356.578        3121.738          41.000                                                                  
C09  37712223.507   196377446.307        -165.622          43.000    37712209.932   151851440.259        -128.073          48.000  
C25  23774957.126   123802440.871        1657.166          45.000                                                                  
C13  38189260.010   198861506.143       -2219.401          42.000    38189253.574   153772300.560       -1716.460          43.000  
C08  39002845.799   203098055.984       -2432.399          37.000    39002833.778   157048231.778       -1880.896          43.000  
G04  24739219.324   130005459.642        3202.139          34.000    24739216.550   101302962.779        2495.613          41.000  
G25  24093260.220   126610941.833       -3894.825          37.000    24093253.556    98657849.189       -3034.680          35.000  
C10                                                                  40569555.341   163356825.017         715.785          38.000  
> 2025 10 30 06 13 25.2800000  0 20                     
G32  21801453.755   114567413.812       -2740.338          46.000    21801448.251    89273281.828       -2135.520          44.000  
G29  23037117.991   121060883.431        -325.712          42.000    23037109.375    94333119.784        -253.741          41.000  
G28  21164305.294   111219174.523       -1095.601          46.000    21164294.751    86664250.874        -853.872          46.000  
G26  20406206.421   107235333.977         911.741          48.000    20406199.349    83559980.932         710.497          46.000  
G31  20639543.540   108461531.194         267.942          47.000    20639532.994    84515437.517         208.837          45.000  
C33  22459265.662   116951285.786        -458.175          50.000                                                                  
C06  36559956.571   190377287.809        -175.073          45.000    36559939.205   147211724.009        -135.548          48.000  
C14  22502963.124   117178823.125       -2058.203          46.000    22502948.641    90610045.769       -1591.563          51.000  
C16  36985279.432   192592051.282        -209.962          48.000    36985267.476   148924343.035        -162.549          48.000  
C24  21778966.061   113408794.247        -761.569          50.000                                                                  
C26  24229353.519   126168595.925       -2541.313          45.000                                                                  
G03  22890127.236   120288426.111         157.948          40.000    22890120.694    93731208.773         123.192          38.000  
G16  22666685.792   119114231.711        3121.743          41.000                                                                  
C09  37712224.776   196377452.932        -165.585          43.000    37712211.197   151851445.382        -128.070          48.000  
C25  23774944.368   123802374.586        1657.117          45.000                                                                  
C13  38189277.054   198861594.921       -2219.453          42.000    38189270.622   153772369.212       -1716.384          43.000  
C08  39002864.479   203098153.288       -2432.436          37.000    39002852.457   157048307.028       -1881.115          43.000  
G04  24739194.937   130005331.511        3202.847          34.000    24739192.151   101302862.958        2495.613          41.000  
G25  24093289.871   126611097.645       -3895.156          37.000    24093283.214    98657970.592       -3034.824          35.000  
C10                                                                  40569548.245   163356796.374         716.019          38.000  
> 2025 10 30 06 13 25.3200000  0 20                     
G32  21801474.613   114567523.446       -2740.718          46.000    21801469.083    89273367.241       -2135.456          44.000  
G29  23037120.490   121060896.461        -325.774          42.000    23037111.867    94333129.938        -253.817          41.000  
G28  21164313.599   111219218.347       -1095.602          46.000    21164303.093    86664285.031        -853.971          46.000  
G26  20406199.483   107235297.506         911.710          48.000    20406192.397    83559952.510         710.503          46.000  
G31  20639541.495   108461520.472         267.930          47.000    20639530.948    84515429.169         208.664          45.000  
C33  22459269.188   116951304.113        -458.211          50.000                                                                  
C06  36559957.894   190377294.819        -175.193          45.000    36559940.561   147211729.425        -135.518          48.000  
C14  22502978.937   117178905.456       -2058.291          46.000    22502964.467    90610109.438       -1591.696          51.000  
C16  36985281.034   192592059.690        -210.127          48.000    36985269.079   148924349.538        -162.624          48.000  
C24  21778971.861   113408824.714        -761.697          50.000                                                                  
C26  24229373.029   126168697.573       -2541.240          45.000                                                                  
G03  22890126.039   120288419.781         158.091          40.000    22890119.505    93731203.836         123.321          38.000  
G16  22666662.043   119114106.866        3121.317          41.000                                                                  
C09  37712226.043   196377459.558        -165.626          43.000    37712212.482   151851450.506        -128.122          48.000  
C25  23774931.661   123802308.309        1656.946          45.000                                                                  
C13  38189294.086   198861683.709       -2219.646          42.000    38189287.680   153772437.857       -1716.196          43.000  
C08  39002883.160   203098250.595       -2432.535          37.000    39002871.149   157048382.278       -1881.252          43.000  
G04  24739170.561   130005203.448        3201.957          34.000    24739167.774   101302763.146        2495.433          41.000  
G25  24093319.526   126611253.449       -3895.156          37.000    24093312.868    98658091.999       -3034.957          35.000  
C10                                                                  40569541.126   163356767.740         715.892          38.000  
> 2025 10 30 06 13 25.3600000  0 20                     
G32  21801495.473   114567633.062       -2740.593          46.000    21801489.939    89273452.640       -2135.155          44.000  
G29  23037122.974   121060909.506        -326.074          42.000    23037114.350    94333140.095        -253.917          41.000  
G28  21164321.963   111219262.190       -1095.962          46.000    21164311.429    86664319.186        -853.957          46.000  
G26  20406192.543   107235261.041         911.575          48.000    20406185.442    83559924.098         710.331          46.000  
G31  20639539.473   108461509.764         267.696          47.000    20639528.915    84515420.819         208.646          45.000  
C33  22459272.732   116951322.441        -458.248          50.000                                                                  
C06  36559959.214   190377301.823        -175.171          45.000    36559941.900   147211734.841        -135.480          48.000  
C14  22502994.777   117178987.805       -2058.636          46.000    22502980.265    90610173.103       -1591.705          51.000  
C16  36985282.639   192592068.104        -210.333          48.000    36985270.696   148924356.038        -162.594          48.000  
C24  21778977.737   113408855.178        -761.687          50.000                                                                  
C26  24229392.550   126168799.230       -2541.397          45.000                                                                  
G03  22890124.843   120288413.467         157.858          40.000    22890118.294    93731198.916         123.095          38.000  
G16  22666638.295   119113982.006        3121.366          41.000                                                                  
C09  37712227.302   196377466.194        -165.836          43.000    37712213.726   151851455.642        -128.337          48.000  
C25  23774918.953   123802242.024        1656.989          45.000                                                                  
C13  38189311.114   198861772.501       -2219.850          42.000    38189304.737   153772506.513       -1716.322          43.000  
C08  39002901.864   203098347.921       -2432.990          37.000    39002889.815   157048457.532       -1881.377          43.000  
G04  24739146.163   130005075.340        3202.312          34.000    24739143.381   101302663.333        2495.303          41.000  
G25  24093349.166   126611409.238       -3894.834          37.000    24093342.506    98658213.416       -3035.251          35.000  
C10                                                                  40569534.022   163356739.116         715.677          38.000  
> 2025 10 30 06 13 25.4000000  0 20                     
G32  21801516.323   114567742.669       -2740.392          46.000    21801510.809    89273538.053       -2135.206          44.000  
G29  23037125.464   121060922.552        -326.201          42.000    23037116.844    94333150.260        -254.110          41.000  
G28  21164330.299   111219306.016       -1095.824          46.000    21164319.752    86664353.330        -853.754          46.000  
G26  20406185.620   107235224.578         911.509          48.000    20406178.475    83559895.678         710.387          46.000  
G31  20639537.427   108461499.050         267.741          47.000    20639526.864    84515412.464         208.776          45.000  
C33  22459276.255   116951340.769        -458.271          50.000                                                                  
C06  36559960.535   190377308.829        -175.162          45.000    36559943.281   147211740.257        -135.446          48.000  
C14  22503010.594   117179070.134       -2058.439          46.000    22502996.100    90610236.766       -1591.647          51.000  
C16  36985284.267   192592076.508        -210.223          48.000    36985272.310   148924362.535        -162.528          48.000  
C24  21778983.611   113408885.646        -761.738          50.000                                                                  
C26  24229412.085   126168900.890       -2541.520          45.000                                                                  
G03  22890123.648   120288407.145         157.924          40.000    22890117.075    93731193.998         122.947          38.000  
G16  22666614.529   119113857.137        3121.578          41.000                                                                  
C09  37712228.576   196377472.833        -165.997          43.000    37712214.984   151851460.770        -128.302          48.000  
C25  23774906.217   123802175.747        1656.927          45.000                                                                  
C13  38189328.153   198861861.288       -2219.804          42.000    38189321.784   153772575.161       -1716.260          43.000  
C08  39002920.540   203098445.230       -2432.898          37.000    39002908.527   157048532.773       -1881.214          43.000  
G04  24739121.798   130004947.251        3202.300          34.000    24739118.999   101302563.530        2495.072          41.000  
G25  24093378.788   126611565.047       -3895.101          37.000    24093372.160    98658334.805       -3035.018          35.000  
C10                                                                  40569526.925   163356710.478         715.806          38.000  
> 2025 10 30 06 13 25.4400000  0 20                     
G32  21801537.205   114567852.297       -2740.615          46.000    21801531.678    89273623.480       -2135.521          44.000  
G29  23037127.913   121060935.584        -326.042          42.000    23037119.315    94333160.428        -254.220          41.000  
G28  21164338.602   111219349.839       -1095.663          46.000    21164328.095    86664387.480        -853.724          46.000  
G26  20406178.684   107235188.113         911.540          48.000    20406171.544    83559867.263         710.338          46.000  
G31  20639535.394   108461488.324         267.988          47.000    20639524.827    84515404.113         208.752          45.000  
C33  22459279.724   116951359.104        -458.385          50.000                                                                  
C06  36559961.886   190377315.841        -175.248          45.000    36559944.644   147211745.677        -135.507          48.000  
C14  22503026.437   117179152.465       -2058.331          46.000    22503011.909    90610300.431       -1591.654          51.000  
C16  36985285.909   192592084.917        -210.267          48.000    36985273.925   148924369.040        -162.605          48.000  
C24  21778989.496   113408916.110        -761.690          50.000                                                                  
C26  24229431.633   126169002.544       -2541.460          45.000                                                                  
G03  22890122.445   120288400.828         157.933          40.000    22890115.871    93731189.072         122.948          38.000  
G16  22666590.756   119113732.274        3121.609          41.000                                                                  
C09  37712229.828   196377479.461        -165.840          43.000    37712216.265   151851465.900        -128.307          48.000  
C25  23774893.495   123802109.471        1656.885          45.000                                                                  
C13  38189345.201   198861950.069       -2219.628          42.000    38189338.822   153772643.815       -1716.348          43.000  
C08  39002939.240   203098542.540       -2432.794          37.000    39002927.197   157048608.012       -1881.074          43.000  
G04  24739097.432   130004819.150        3202.399          34.000    24739094.632   101302463.717        2495.146          41.000  
G25  24093408.450   126611720.858       -3895.206          37.000    24093401.824    98658456.217       -3035.242          35.000  
C10                                                                  40569519.788   163356681.858         715.513          38.000  
> 2025 10 30 06 13 25.4800000  0 20                     
G32  21801558.075   114567961.916       -2740.537          46.000    21801552.535    89273708.916       -2135.862          44.000  
G29  23037130.404   121060948.628        -326.129          42.000    23037121.799    94333170.583        -254.016          41.000  
G28  21164346.942   111219393.678       -1095.901          46.000    21164336.431    86664421.641        -853.964          46.000  
G26  20406171.732   107235151.645         911.621          48.000    20406164.584    83559838.852         710.240          46.000  
G31  20639533.354   108461477.617         267.740          47.000    20639522.806    84515395.768         208.653          45.000  
C33  22459283.234   116951377.442        -458.471          50.000                                                                  
C06  36559963.214   190377322.858        -175.424          45.000    36559946.016   147211751.098        -135.544          48.000  
C14  22503042.239   117179234.805       -2058.459          46.000    22503027.728    90610364.103       -1591.767          51.000  
C16  36985287.516   192592093.331        -210.363          48.000    36985275.534   148924375.542        -162.597          48.000  
C24  21778995.362   113408946.576        -761.680          50.000                                                                  
C26  24229451.166   126169104.201       -2541.471          45.000                                                                  
G03  22890121.245   120288394.508         157.958          40.000    22890114.671    93731184.149         123.026          38.000  
G16  22666567.018   119113607.426        3121.335          41.000                                                                  
C09  37712231.123   196377486.100        -165.935          43.000    37712217.565   151851471.026        -128.224          48.000  
C25  23774880.796   123802043.193        1656.897          45.000                                                                  
C13  38189362.250   198862038.853       -2219.597          42.000    38189355.889   153772712.476       -1716.547          43.000  
C08  39002957.912   203098639.853       -2432.844          37.000    39002945.874   157048683.262       -1881.176          43.000  
G04  24739073.045   130004691.041        3202.631          34.000    24739070.251   101302363.888        2495.487          41.000  
G25  24093438.088   126611876.655       -3895.032          37.000    24093431.452    98658577.634       -3035.455          35.000  
C10                                                                  40569512.695   163356653.258         715.036          38.000  
> 2025 10 30 06 13 25.5200000  0 20                     
G32  21801578.944   114568071.544       -2740.680          46.000    21801573.381    89273794.345       -2135.854          44.000  
G29  23037132.855   121060961.664        -326.015          42.000    23037124.280    94333180.743        -254.036          41.000  
G28  21164355.275   111219437.519       -1096.030          46.000    21164344.801    86664455.804        -854.105          46.000  
G26  20406164.789   107235115.178         911.639          48.000    20406157.657    83559810.439         710.277          46.000  
G31  20639531.304   108461466.906         267.742          47.000    20639520.769    84515387.422         208.629          45.000  
C33  22459286.763   116951395.783        -458.590          50.000                                                                  
C06  36559964.575   190377329.868        -175.356          45.000    36559947.365   147211756.518        -135.562          48.000  
C14  22503058.035   117179317.145       -2058.541          46.000    22503043.548    90610427.775       -1591.828          51.000  
C16  36985289.134   192592101.741        -210.286          48.000    36985277.149   148924382.051        -162.712          48.000  
C24  21779001.212   113408977.045        -761.745          50.000                                                                  
C26  24229470.659   126169205.866       -2541.615          45.000                                                                  
G03  22890120.036   120288388.192         157.914          40.000    22890113.487    93731179.229         123.041          38.000  
G16  22666543.267   119113482.570        3121.305          41.000                                                                  
C09  37712232.406   196377492.733        -165.877          43.000    37712218.824   151851476.160        -128.345          48.000  
C25  23774868.067   123801976.917        1656.885          45.000                                                                  
C13  38189379.264   198862127.648       -2219.772          42.000    38189372.941   153772781.136       -1716.575          43.000  
C08  39002976.590   203098737.172       -2433.022          37.000    39002964.568   157048758.523       -1881.384          43.000  
G04  24739048.674   130004562.956        3202.312          34.000    24739045.897   101302264.085        2495.214          41.000  
G25  24093467.731   126612032.471       -3895.252          37.000    24093461.098    98658699.075       -3036.052          35.000  
C10                                                                  40569505.572   163356624.619         715.520          38.000  
> 2025 10 30 06 13 25.5600000  0 20                     
G32  21801599.812   114568181.180       -2740.865          46.000    21801594.238    89273879.762       -2135.626          44.000  
G29  23037135.351   121060974.721        -326.323          42.000    23037126.759    94333190.906        -254.080          41.000  
G28  21164363.616   111219481.352       -1095.951          46.000    21164353.148    86664489.961        -854.084          46.000  
G26  20406157.868   107235078.720         911.472          48.000    20406150.729    83559782.030         710.185          46.000  
G31  20639529.240   108461456.189         267.828          47.000    20639518.719    84515379.074         208.623          45.000  
C33  22459290.303   116951414.119        -458.521          50.000                                                                  
C06  36559965.949   190377336.872        -175.232          45.000    36559948.709   147211761.936        -135.499          48.000  
C14  22503073.860   117179399.483       -2058.533          46.000    22503059.340    90610491.446       -1591.832          51.000  
C16  36985290.747   192592110.151        -210.280          48.000    36985278.760   148924388.554        -162.663          48.000  
C24  21779007.059   113409007.518        -761.848          50.000                                                                  
C26  24229490.197   126169307.527       -2541.618          45.000                                                                  
G03  22890118.827   120288381.873         157.901          40.000    22890112.278    93731174.319         122.827          38.000  
G16  22666519.537   119113357.727        3121.059          41.000                                                                  
C09  37712233.669   196377499.364        -165.833          43.000    37712220.126   151851481.284        -128.230          48.000  
C25  23774855.343   123801910.644        1656.805          45.000                                                                  
C13  38189396.310   198862216.436       -2219.766          42.000    38189390.001   153772849.789       -1716.444          43.000  
C08  39002995.302   203098834.492       -2433.064          37.000    39002983.290   157048833.772       -1881.318          43.000  
G04  24739024.282   130004434.850        3202.497          34.000    24739021.537   101302164.290        2494.917          41.000  
G25  24093497.382   126612188.295       -3895.527          37.000    24093490.738    98658820.462       -3035.323          35.000  
C10                                                                  40569498.450   163356595.988         715.690          38.000  
> 2025 10 30 06 13 25.6000000  0 20                     
G32  21801620.666   114568290.812       -2740.857          46.000    21801615.095    89273965.181       -2135.516          44.000  
G29  23037137.846   121060987.774        -326.394          42.000    23037129.224    94333201.070        -254.175          41.000  
G28  21164371.951   111219525.185       -1095.890          46.000    21164361.485    86664524.121        -854.079          46.000  
G26  20406150.953   107235042.265         911.350          48.000    20406143.796    83559753.621         710.173          46.000  
G31  20639527.214   108461445.485         267.624          47.000    20639516.672    84515370.726         208.635          45.000  
C33  22459293.869   116951432.455        -458.488          50.000                                                                  
C06  36559967.307   190377343.888        -175.381          45.000    36559950.039   147211767.358        -135.547          48.000  
C14  22503089.651   117179481.832       -2058.728          46.000    22503075.137    90610555.120       -1591.869          51.000  
C16  36985292.364   192592118.558        -210.217          48.000    36985280.391   148924395.055        -162.594          48.000  
C24  21779012.901   113409037.996        -761.968          50.000                                                                  
C26  24229509.721   126169409.189       -2541.606          45.000                                                                  
G03  22890117.634   120288375.571         157.631          40.000    22890111.071    93731169.390         123.042          38.000  
G16  22666495.762   119113232.876        3121.077          41.000                                                                  
C09  37712234.935   196377506.001        -165.923          43.000    37712221.405   151851486.418        -128.339          48.000  
C25  23774842.592   123801844.377        1656.665          45.000                                                                  
C13  38189413.365   198862305.229       -2219.865          42.000    38189407.071   153772918.450       -1716.525          43.000  
C08  39003013.970   203098931.812       -2433.099          37.000    39003001.975   157048909.022       -1881.300          43.000  
G04  24738999.927   130004306.773        3202.128          34.000    24738997.187   101302064.484        2495.000          41.000  
G25  24093527.038   126612344.103       -3895.383          37.000    24093520.370    98658941.858       -3035.095          35.000  
C10                                                                  40569491.328   163356567.359         715.706          38.000  
> 2025 10 30 06 13 25.6400000  0 20                     
G32  21801641.536   114568400.445       -2740.913          46.000    21801635.960    89274050.608       -2135.597          44.000  
G29  23037140.349   121061000.825        -326.372          42.000    23037131.722    94333211.248        -254.476          41.000  
G28  21164380.339   111219569.029       -1096.064          46.000    21164369.827    86664558.281        -854.061          46.000  
G26  20406144.001   107235005.809         911.301          48.000    20406136.861    83559725.215         710.093          46.000  
G31  20639525.185   108461434.786         267.453          47.000    20639514.642    84515362.384         208.555          45.000  
C33  22459297.398   116951450.803        -458.660          50.000                                                                  
C06  36559968.648   190377350.909        -175.555          45.000    36559951.382   147211772.785        -135.657          48.000  
C14  22503105.460   117179564.183       -2058.858          46.000    22503090.963    90610618.797       -1591.950          51.000  
C16  36985293.954   192592126.976        -210.380          48.000    36985282.043   148924401.561        -162.639          48.000  
C24  21779018.796   113409068.471        -761.957          50.000                                                                  
C26  24229529.242   126169510.845       -2541.483          45.000                                                                  
G03  22890116.440   120288369.275         157.339          40.000    22890109.889    93731164.486         122.708          38.000  
G16  22666472.028   119113108.029        3121.120          41.000                                                                  
C09  37712236.224   196377512.647        -166.085          43.000    37712222.688   151851491.559        -128.541          48.000  
C25  23774829.884   123801778.111        1656.604          45.000                                                                  
C13  38189430.396   198862394.019       -2219.826          42.000    38189424.110   153772987.109       -1716.518          43.000  
C08  39003032.653   203099029.128       -2432.956          37.000    39003020.661   157048984.277       -1881.357          43.000  
G04  24738975.562   130004178.692        3202.006          34.000    24738972.818   101301964.683        2495.000          41.000  
G25  24093556.684   126612499.903       -3895.191          37.000    24093550.022    98659063.290       -3035.581          35.000  
C10                                                                  40569484.205   163356538.738         715.590          38.000  
> 2025 10 30 06 13 25.6800000  0 20                     
G32  21801662.395   114568510.084       -2741.022          46.000    21801656.803    89274136.039       -2135.756          44.000  
G29  23037142.832   121061013.860        -326.064          42.000    23037134.211    94333221.437        -254.779          41.000  
G28  21164388.673   111219612.875       -1096.171          46.000    21164378.170    86664592.442        -854.067          46.000  
G26  20406137.040   107234969.357         911.215          48.000    20406129.936    83559696.815         709.970          46.000  
G31  20639523.124   108461424.076         267.583          47.000    20639512.619    84515354.052         208.309          45.000  
C33  22459300.940   116951469.145        -458.644          50.000                                                                  
C06  36559969.989   190377357.917        -175.419          45.000    36559952.719   147211778.213        -135.718          48.000  
C14  22503121.289   117179646.533       -2058.854          46.000    22503106.763    90610682.473       -1591.967          51.000  
C16  36985295.543   192592135.393        -210.460          48.000    36985283.672   148924408.068        -162.684          48.000  
C24  21779024.680   113409098.947        -761.959          50.000                                                                  
C26  24229548.778   126169612.507       -2541.518          45.000                                                                  
G03  22890115.245   120288362.978         157.295          40.000    22890108.706    93731159.590         122.332          38.000  
G16  22666448.257   119112983.179        3121.171          41.000                                                                  
C09  37712237.496   196377519.288        -166.096          43.000    37712223.988   151851496.694        -128.499          48.000  
C25  23774817.168   123801711.840        1656.689          45.000                                                                  
C13  38189447.456   198862482.807       -2219.758          42.000    38189441.146   153773055.770       -1716.542          43.000  
C08  39003051.350   203099126.466       -2433.340          37.000    39003039.354   157049059.525       -1881.253          43.000  
G04  24738951.190   130004050.615        3201.988          34.000    24738948.448   101301864.860        2495.372          41.000  
G25  24093586.340   126612655.720       -3895.298          37.000    24093579.671    98659184.684       -3035.194          35.000  
C10                                                                  40569477.086   163356510.118         715.442          38.000  
> 2025 10 30 06 13 25.7200000  0 20                     
G32  21801683.268   114568619.706       -2740.714          46.000    21801677.654    89274221.471       -2135.873          44.000  
G29  23037145.312   121061026.917        -326.292          42.000    23037136.682    94333231.599        -254.422          41.000  
G28  21164397.003   111219656.716       -1096.123          46.000    21164386.512    86664626.599        -854.001          46.000  
G26  20406130.107   107234932.910         911.099          48.000    20406122.996    83559668.411         709.996          46.000  
G31  20639521.084   108461413.373         267.546          47.000    20639510.578    84515345.706         208.471          45.000  
C33  22459304.443   116951487.492        -458.685          50.000                                                                  
C06  36559971.317   190377364.929        -175.343          45.000    36559954.037   147211783.639        -135.708          48.000  
C14  22503137.108   117179728.883       -2058.852          46.000    22503122.581    90610746.150       -1591.979          51.000  
C16  36985297.135   192592143.817        -210.594          48.000    36985285.303   148924414.569        -162.619          48.000  
C24  21779030.543   113409129.422        -761.931          50.000                                                                  
C26  24229568.286   126169714.178       -2541.719          45.000                                                                  
G03  22890114.050   120288356.664         157.632          40.000    22890107.513    93731154.668         122.710          38.000  
G16  22666424.498   119112858.325        3121.278          41.000                                                                  
C09  37712238.769   196377525.930        -166.107          43.000    37712225.250   151851501.831        -128.490          48.000  
C25  23774804.475   123801645.564        1656.830          45.000                                                                  
C13  38189464.520   198862571.600       -2219.820          42.000    38189458.222   153773124.441       -1716.741          43.000  
C08  39003070.023   203099223.770       -2432.928          37.000    39003058.054   157049134.782       -1881.376          43.000  
G04  24738926.816   130003922.541        3201.875          34.000    24738924.066   101301765.046        2495.417          41.000  
G25  24093615.974   126612811.530       -3895.292          37.000    24093609.310    98659306.101       -3035.373          35.000  
C10                                                                  40569469.996   163356481.508         715.291          38.000  
> 2025 10 30 06 13 25.7600000  0 20                     
G32  21801704.114   114568729.345       -2740.875          46.000    21801698.554    89274306.911       -2136.049          44.000  
G29  23037147.802   121061039.974        -326.442          42.000    23037139.165    94333241.762        -254.189          41.000  
G28  21164405.351   111219700.558       -1096.105          46.000    21164394.860    86664660.769        -854.172          46.000  
G26  20406123.186   107234896.470         910.939          48.000    20406116.071    83559640.010         709.978          46.000  
G31  20639519.064   108461402.675         267.467          47.000    20639508.557    84515337.367         208.465          45.000  
C33  22459307.944   116951505.845        -458.818          50.000                                                                  
C06  36559972.661   190377371.949        -175.448          45.000    36559955.339   147211789.062        -135.634          48.000  
C14  22503152.930   117179811.228       -2058.742          46.000    22503138.413    90610809.834       -1592.098          51.000  
C16  36985298.762   192592152.228        -210.433          48.000    36985286.913   148924421.082        -162.760          48.000  
C24  21779036.397   113409159.900        -761.956          50.000                                                                  
C26  24229587.793   126169815.854       -2541.899          45.000                                                                  
G03  22890112.841   120288350.355         157.706          40.000    22890106.329    93731149.747         122.968          38.000  
G16  22666400.757   119112733.476        3121.219          41.000                                                                  
C09  37712240.029   196377532.574        -166.105          43.000    37712226.497   151851506.968        -128.483          48.000  
C25  23774791.742   123801579.296        1656.720          45.000                                                                  
C13  38189481.552   198862660.411       -2220.181          42.000    38189475.256   153773193.106       -1716.721          43.000  
C08  39003088.718   203099321.091       -2432.979          37.000    39003076.768   157049210.041       -1881.459          43.000  
G04  24738902.433   130003794.460        3201.970          34.000    24738899.691   101301665.249        2495.047          41.000  
G25  24093645.629   126612967.359       -3895.611          37.000    24093638.956    98659427.516       -3035.467          35.000  
C10                                                                  40569462.877   163356452.891         715.352          38.000  
> 2025 10 30 06 13 25.8000000  0 20                     
G32  21801724.981   114568838.995       -2741.175          46.000    21801719.399    89274392.350       -2136.093          44.000  
G29  23037150.303   121061053.030        -326.516          42.000    23037141.631    94333251.945        -254.423          41.000  
G28  21164413.677   111219744.394       -1095.993          46.000    21164403.198    86664694.936        -854.236          46.000  
G26  20406116.218   107234860.015         911.163          48.000    20406109.117    83559611.610         709.935          46.000  
G31  20639517.013   108461391.963         267.670          47.000    20639506.526    84515329.031         208.372          45.000  
C33  22459311.469   116951524.199        -458.904          50.000                                                                  
C06  36559974.003   190377378.962        -175.400          45.000    36559956.718   147211794.488        -135.684          48.000  
C14  22503168.747   117179893.581       -2058.824          46.000    22503154.214    90610873.516       -1592.135          51.000  
C16  36985300.380   192592160.643        -210.387          48.000    36985288.521   148924427.594        -162.834          48.000  
C24  21779042.264   113409190.382        -762.054          50.000                                                                  
C26  24229607.327   126169917.519       -2541.775          45.000                                                                  
G03  22890111.628   120288344.052         157.627          40.000    22890105.141    93731144.848         122.650          38.000  
G16  22666376.983   119112608.640        3121.005          41.000                                                                  
C09  37712241.308   196377539.203        -165.850          43.000    37712227.770   151851512.106        -128.475          48.000  
C25  23774778.983   123801513.041        1656.415          45.000                                                                  
C13  38189498.656   198862749.217       -2220.258          42.000    38189492.287   153773261.768       -1716.620          43.000  
C08  39003107.426   203099418.398       -2432.739          37.000    39003095.453   157049285.297       -1881.448          43.000  
G04  24738878.045   130003666.355        3202.390          34.000    24738875.330   101301565.439        2495.113          41.000  
G25  24093675.282   126613123.168       -3895.436          37.000    24093668.623    98659548.938       -3035.570          35.000  
C10                                                                  40569455.797   163356424.252         715.751          38.000  
> 2025 10 30 06 13 25.8400000  0 20                     
G32  21801745.858   114568948.633       -2741.072          46.000    21801740.276    89274477.783       -2135.947          44.000  
G29  23037152.790   121061066.105        -326.859          42.000    23037144.120    94333262.119        -254.410          41.000  
G28  21164422.014   111219788.247       -1096.208          46.000    21164411.516    86664729.104        -854.278          46.000  
G26  20406109.273   107234823.569         911.138          48.000    20406102.175    83559583.212         709.885          46.000  
G31  20639514.993   108461381.279         267.232          47.000    20639504.519    84515320.698         208.311          45.000  
C33  22459315.029   116951542.554        -458.933          50.000                                                                  
C06  36559975.350   190377385.985        -175.531          45.000    36559958.079   147211799.915        -135.701          48.000  
C14  22503184.571   117179975.941       -2058.989          46.000    22503170.003    90610937.202       -1592.202          51.000  
C16  36985301.991   192592169.068        -210.550          48.000    36985290.161   148924434.110        -162.921          48.000  
C24  21779048.074   113409220.870        -762.194          50.000                                                                  
C26  24229626.852   126170019.199       -2541.973          45.000                                                                  
G03  22890110.461   120288337.773         157.099          40.000    22890103.947    93731139.945         122.545          38.000  
G16  22666353.234   119112483.805        3120.862          41.000                                                                  
C09  37712242.570   196377545.859        -166.254          43.000    37712229.049   151851517.246        -128.514          48.000  
C25  23774766.239   123801446.788        1656.256          45.000                                                                  
C13  38189515.739   198862838.016       -2220.131          42.000    38189509.364   153773330.435       -1716.620          43.000  
C08  39003126.120   203099515.739       -2433.295          37.000    39003114.143   157049360.566       -1881.673          43.000  
G04  24738853.700   130003538.269        3202.288          34.000    24738850.961   101301465.638        2495.054          41.000  
G25  24093704.947   126613279.010       -3895.891          37.000    24093698.263    98659670.341       -3035.284          35.000  
C10                                                                  40569448.694   163356395.636         715.543          38.000  
> 2025 10 30 06 13 25.8800000  0 20                     
G32  21801766.722   114569058.273       -2741.051          46.000    21801761.129    89274563.212       -2135.797          44.000  
G29  23037155.266   121061079.164        -326.670          42.000    23037146.588    94333272.299        -254.484          41.000  
G28  21164430.369   111219832.099       -1096.316          46.000    21164419.862    86664763.274        -854.342          46.000  
G26  20406102.320   107234787.126         911.089          48.000    20406095.224    83559554.817         709.812          46.000  
G31  20639512.987   108461370.587         267.203          47.000    20639502.465    84515312.364         208.262          45.000  
C33  22459318.562   116951560.912        -458.981          50.000                                                                  
C06  36559976.692   190377393.007        -175.551          45.000    36559959.431   147211805.349        -135.818          48.000  
C14  22503200.400   117180058.305       -2059.138          46.000    22503185.817    90611000.886       -1592.175          51.000  
C16  36985303.620   192592177.489        -210.587          48.000    36985291.741   148924440.627        -162.970          48.000  
C24  21779053.953   113409251.357        -762.240          50.000                                                                  
C26  24229646.384   126170120.867       -2541.833          45.000                                                                  
G03  22890109.250   120288331.468         157.312          40.000    22890102.747    93731135.050         122.359          38.000  
G16  22666329.474   119112358.973        3120.765          41.000                                                                  
C09  37712243.856   196377552.509        -166.300          43.000    37712230.302   151851522.377        -128.386          48.000  
C25  23774753.542   123801380.524        1656.433          45.000                                                                  
C13  38189532.782   198862926.814       -2219.988          42.000    38189526.391   153773399.098       -1716.538          43.000  
C08  39003144.823   203099613.085       -2433.634          37.000    39003132.797   157049435.827       -1881.681          43.000  
G04  24738829.327   130003410.204        3201.828          34.000    24738826.582   101301365.836        2495.039          41.000  
G25  24093734.602   126613434.837       -3895.820          37.000    24093727.919    98659791.781       -3035.684          35.000  
C10                                                                  40569441.593   163356367.025         715.334          38.000  
> 2025 10 30 06 13 25.9200000  0 20                     
G32  21801787.603   114569167.941       -2741.574          46.000    21801781.973    89274648.651       -2135.904          44.000  
G29  23037157.761   121061092.223        -326.569          42.000    23037149.065    94333282.480        -254.573          41.000  
G28  21164438.713   111219875.957       -1096.462          46.000    21164428.216    86664797.447        -854.361          46.000  
G26  20406095.403   107234750.687         910.953          48.000    20406088.297    83559526.422         709.807          46.000  
G31  20639510.942   108461359.884         267.407          47.000    20639500.412    84515304.036         208.158          45.000  
C33  22459322.109   116951579.270        -459.011          50.000                                                                  
C06  36559978.041   190377400.029        -175.568          45.000    36559960.792   147211810.777        -135.793          48.000  
C14  22503216.249   117180140.664       -2059.102          46.000    22503201.657    90611064.568       -1592.142          51.000  
C16  36985305.230   192592185.915        -210.694          48.000    36985293.361   148924447.137        -162.884          48.000  
C24  21779059.817   113409281.841        -762.224          50.000                                                                  
C26  24229665.916   126170222.534       -2541.724          45.000                                                                  
G03  22890108.052   120288325.182         157.119          40.000    22890101.559    93731130.145         122.443          37.000  
G16  22666305.727   119112234.136        3120.754          41.000                                                                  
C09  37712245.138   196377559.153        -166.202          43.000    37712231.557   151851527.514        -128.406          48.000  
C25  23774740.830   123801314.259        1656.537          45.000                                                                  
C13  38189549.843   198863015.608       -2219.858          42.000    38189543.446   153773467.766       -1716.646          43.000  
C08  39003163.512   203099710.404       -2433.324          37.000    39003151.480   157049511.077       -1881.441          43.000  
G04  24738804.959   130003282.135        3201.718          34.000    24738802.205   101301266.048        2494.777          41.000  
G25  24093764.264   126613590.660       -3895.723          37.000    24093757.565    98659913.205       -3035.663          35.000  
C10                                                                  40569434.503   163356338.417         715.199          38.000  
> 2025 10 30 06 13 25.9600000  0 20                     
G32  21801808.467   114569277.588       -2741.408          46.000    21801802.847    89274734.096       -2136.088          44.000  
G29  23037160.268   121061105.312        -327.008          42.000    23037151.560    94333292.678        -254.864          41.000  
G28  21164447.067   111219919.820       -1096.612          46.000    21164436.581    86664831.622        -854.450          46.000  
G26  20406088.483   107234714.258         910.720          48.000    20406081.366    83559498.033         709.684          46.000  
G31  20639508.914   108461349.204         267.061          47.000    20639498.371    84515295.703         208.195          45.000  
C33  22459325.583   116951597.638        -459.208          50.000                                                                  
C06  36559979.381   190377407.059        -175.747          45.000    36559962.152   147211816.214        -135.925          48.000  
C14  22503232.059   117180223.032       -2059.253          46.000    22503217.464    90611128.259       -1592.256          51.000  
C16  36985306.880   192592194.347        -210.820          48.000    36985294.950   148924453.650        -162.883          48.000  
C24  21779065.639   113409312.335        -762.351          50.000                                                                  
C26  24229685.442   126170324.214       -2541.943          45.000                                                                  
G03  22890106.851   120288318.917         156.689          40.000    22890100.371    93731125.266         122.003          38.000  
G16  22666281.965   119112109.298        3120.760          41.000                                                                  
C09  37712246.414   196377565.802        -166.246          43.000    37712232.834   151851532.662        -128.643          48.000  
C25  23774728.086   123801248.008        1656.311          45.000                                                                  
C13  38189566.900   198863104.429       -2220.320          42.000    38189560.497   153773536.443       -1716.888          43.000  
C08  39003182.217   203099807.726       -2433.185          37.000    39003170.180   157049586.342       -1881.572          43.000  
G04  24738780.580   130003154.066        3201.660          34.000    24738777.823   101301166.255        2494.713          41.000  
G25  24093793.918   126613746.464       -3895.263          37.000    24093787.215    98660034.616       -3035.435          35.000  
C10                                                                  40569427.399   163356309.810         715.102          38.000  
> 2025 10 30 06 13 26.0000000  0 20                     
G32  21801829.318   114569387.238       -2741.401          46.000    21801823.726    89274819.545       -2136.225          44.000  
G29  23037162.772   121061118.397        -327.192          42.000    23037154.067    94333302.867        -254.873          41.000  
G28  21164455.405   111219963.678       -1096.603          46.000    21164444.934    86664865.800        -854.482          46.000  
G26  20406081.546   107234677.834         910.511          48.000    20406074.438    83559469.657         709.407          46.000  
G31  20639506.883   108461338.520         266.989          47.000    20639496.348    84515287.385         207.986          45.000  
C33  22459329.109   116951616.012        -459.388          50.000                                                                  
C06  36559980.720   190377414.094        -175.919          45.000    36559963.510   147211821.651        -136.006          48.000  
C14  22503247.891   117180305.409       -2059.465          46.000    22503233.279    90611191.961       -1592.527          51.000  
C16  36985308.514   192592202.781        -210.905          48.000    36985296.582   148924460.180        -163.153          48.000  
C24  21779071.468   113409342.836        -762.555          50.000                                                                  
C26  24229704.948   126170425.905       -2542.236          45.000                                                                  
G03  22890105.650   120288312.639         156.766          40.000    22890099.171    93731120.357         122.354          38.000  
G16  22666258.230   119111984.479        3120.471          41.000                                                                  
C09  37712247.685   196377572.465        -166.531          43.000    37712234.089   151851537.818        -128.886          48.000  
C25  23774715.371   123801181.763        1656.073          45.000                                                                  
C13  38189583.948   198863193.250       -2220.560          42.000    38189577.565   153773605.121       -1717.010          43.000  
C08  39003200.937   203099905.079       -2433.710          37.000    39003188.864   157049661.612       -1881.706          43.000  
G04  24738756.202   130003025.989        3201.734          34.000    24738753.442   101301066.469        2494.540          41.000  
G25  24093823.549   126613902.295       -3895.562          37.000    24093816.873    98660156.064       -3035.899          35.000  
C10                                                                  40569420.273   163356281.196         715.212          38.000  
> 2025 10 30 06 13 26.0400000  0 20                     
G32  21801850.208   114569496.906       -2741.651          46.000    21801844.578    89274905.007       -2136.525          44.000  
G29  23037165.243   121061131.474        -327.126          42.000    23037156.547    94333313.057        -254.877          41.000  
G28  21164463.732   111220007.552       -1096.814          46.000    21164453.277    86664899.978        -854.484          46.000  
G26  20406074.585   107234641.412         910.421          48.000    20406067.497    83559441.268         709.538          46.000  
G31  20639504.865   108461327.838         266.934          47.000    20639494.292    84515279.058         208.055          45.000  
C33  22459332.661   116951634.392        -459.554          50.000                                                                  
C06  36559982.070   190377421.134        -176.046          45.000    36559964.875   147211827.093        -136.100          48.000  
C14  22503263.740   117180387.789       -2059.579          46.000    22503249.089    90611255.662       -1592.642          51.000  
C16  36985310.146   192592211.211        -210.881          48.000    36985298.215   148924466.702        -163.180          48.000  
C24  21779077.304   113409373.338        -762.645          50.000                                                                  
C26  24229724.476   126170527.590       -2542.250          45.000                                                                  
G03  22890104.449   120288306.356         156.919          40.000    22890097.995    93731115.465         122.253          38.000  
G16  22666234.485   119111859.656        3120.480          41.000                                                                  
C09  37712248.971   196377579.133        -166.708          43.000    37712235.349   151851542.966        -128.868          48.000  
C25  23774702.632   123801115.520        1655.969          45.000                                                                  
C13  38189601.002   198863282.075       -2220.719          42.000    38189594.619   153773673.802       -1717.102          43.000  
C08  39003219.654   203100002.435       -2433.926          37.000    39003207.581   157049736.899       -1882.086          43.000  
G04  24738731.854   130002897.936        3201.397          34.000    24738729.070   101300966.671        2494.760          41.000  
G25  24093853.210   126614058.125       -3895.728          37.000    24093846.532    98660277.477       -3035.520          35.000  
C10                                                                  40569413.159   163356252.592         715.125          38.000  
> 2025 10 30 06 13 26.0800000  0 20                     
G32  21801871.074   114569606.567       -2741.629          46.000    21801865.453    89274990.457       -2136.407          44.000  
G29  23037167.716   121061144.553        -327.118          42.000    23037159.024    94333323.254        -254.950          41.000  
G28  21164472.087   111220051.416       -1096.772          46.000    21164461.633    86664934.165        -854.626          46.000  
G26  20406067.636   107234604.983         910.576          48.000    20406060.570    83559412.882         709.557          46.000  
G31  20639502.863   108461317.163         266.837          47.000    20639492.260    84515270.735         208.018          45.000  
C33  22459336.190   116951652.763        -459.445          50.000                                                                  
C06  36559983.445   190377428.168        -175.983          45.000    36559966.249   147211832.535        -136.132          48.000  
C14  22503279.554   117180470.161       -2059.492          46.000    22503264.891    90611319.361       -1592.599          51.000  
C16  36985311.741   192592219.647        -210.915          48.000    36985299.845   148924473.221        -163.092          48.000  
C24  21779083.161   113409403.837        -762.613          50.000                                                                  
C26  24229743.989   126170629.272       -2542.161          45.000                                                                  
G03  22890103.233   120288300.084         156.813          40.000    22890096.800    93731110.588         121.985          38.000  
G16  22666210.731   119111734.833        3120.508          41.000                                                                  
C09  37712250.232   196377585.784        -166.481          43.000    37712236.601   151851548.115        -128.807          48.000  
C25  23774689.882   123801049.269        1656.098          45.000                                                                  
C13  38189618.058   198863370.886       -2220.516          42.000    38189611.672   153773742.489       -1717.174          43.000  
C08  39003238.362   203100099.776       -2433.734          37.000    39003226.257   157049812.171       -1882.027          43.000  
G04  24738707.467   130002769.860        3201.693          34.000    24738704.690   101300866.874        2494.829          41.000  
G25  24093882.858   126614213.976       -3896.219          37.000    24093876.188    98660398.901       -3035.509          35.000  
C10                                                                  40569406.033   163356223.982         715.189          38.000  
> 2025 10 30 06 13 26.1200000  0 20                     
G32  21801891.946   114569716.213       -2741.344          46.000    21801886.301    89275075.899       -2136.203          44.000  
G29  23037170.206   121061157.634        -327.137          42.000    23037161.507    94333333.441        -254.803          41.000  
G28  21164480.431   111220095.271       -1096.531          46.000    21164469.980    86664968.342        -854.547          46.000  
G26  20406060.683   107234568.547         910.786          48.000    20406053.655    83559384.495         709.619          46.000  
G31  20639500.832   108461306.478         266.954          47.000    20639490.229    84515262.416         207.957          45.000  
C33  22459339.719   116951671.131        -459.328          50.000                                                                  
C06  36559984.833   190377435.194        -175.784          45.000    36559967.578   147211837.969        -136.003          48.000  
C14  22503295.355   117180552.531       -2059.396          46.000    22503280.736    90611383.051       -1592.400          51.000  
C16  36985313.376   192592228.076        -210.816          48.000    36985301.467   148924479.742        -163.064          48.000  
C24  21779089.024   113409434.333        -762.518          50.000                                                                  
C26  24229763.520   126170730.951       -2542.030          45.000                                                                  
G03  22890102.034   120288293.799         157.054          40.000    22890095.607    93731105.689         122.312          37.000  
G16  22666186.988   119111610.008        3120.620          41.000                                                                  
C09  37712251.502   196377592.437        -166.381          43.000    37712237.857   151851553.254        -128.596          48.000  
C25  23774677.160   123800983.023        1656.085          45.000                                                                  
C13  38189635.127   198863459.690       -2220.262          42.000    38189628.728   153773811.167       -1717.073          43.000  
C08  39003257.051   203100197.105       -2433.348          37.000    39003244.942   157049887.430       -1881.742          43.000  
G04  24738683.083   130002641.802        3201.422          34.000    24738680.329   101300767.078        2494.859          41.000  
G25  24093912.514   126614369.799       -3895.947          37.000    24093905.859    98660520.337       -3035.744          35.000  
C10                                                                  40569398.945   163356195.364         715.348          39.000  
> 2025 10 30 06 13 26.1600000  0 20                     
G32  21801912.850   114569825.887       -2741.638          46.000    21801907.174    89275161.355       -2136.307          44.000  
G29  23037172.713   121061170.728        -327.335          42.000    23037164.006    94333343.634        -254.843          41.000  
G28  21164488.783   111220139.126       -1096.397          46.000    21164478.346    86665002.519        -854.474          46.000  
G26  20406053.759   107234532.128         910.601          48.000    20406046.733    83559356.116         709.483          46.000  
G31  20639498.796   108461295.792         267.065          47.000    20639488.190    84515254.089         208.106          45.000  
C33  22459343.221   116951689.510        -459.430          50.000                                                                  
C06  36559986.195   190377442.222        -175.721          45.000    36559968.935   147211843.409        -136.002          48.000  
C14  22503311.195   117180634.911       -2059.491          46.000    22503296.585    90611446.749       -1592.427          51.000  
C16  36985314.974   192592236.511        -210.870          48.000    36985303.078   148924486.263        -163.058          48.000  
C24  21779094.899   113409464.836        -762.582          50.000                                                                  
C26  24229783.048   126170832.640       -2542.147          45.000                                                                  
G03  22890100.848   120288287.542         156.644          40.000    22890094.415    93731100.797         122.316          37.000  
G16  22666163.209   119111485.190        3120.478          41.000                                                                  
C09  37712252.790   196377599.090        -166.344          43.000    37712239.130   151851558.407        -128.726          48.000  
C25  23774664.462   123800916.769        1656.250          45.000                                                                  
C13  38189652.173   198863548.509       -2220.413          42.000    38189645.783   153773879.835       -1716.812          43.000  
C08  39003275.759   203100294.445       -2433.379          37.000    39003263.615   157049962.696       -1881.679          43.000  
G04  24738658.707   130002513.726        3201.782          34.000    24738655.954   101300667.283        2494.831          41.000  
G25  24093942.171   126614525.643       -3896.085          37.000    24093935.518    98660641.798       -3036.390          35.000  
C10                                                                  40569391.841   163356166.764         715.112          39.000  
> 2025 10 30 06 13 26.2000000  0 20                     
G32  21801933.719   114569935.551       -2741.626          46.000    21801928.035    89275246.804       -2136.242          44.000  
G29  23037175.202   121061183.799        -327.005          42.000    23037166.484    94333353.831        -254.924          41.000  
G28  21164497.149   111220183.002       -1096.738          46.000    21164486.713    86665036.701        -854.521          46.000  
G26  20406046.833   107234495.705         910.570          48.000    20406039.814    83559327.736         709.447          46.000  
G31  20639496.763   108461285.117         266.905          47.000    20639486.143    84515245.771         208.001          45.000  
C33  22459346.745   116951707.892        -459.543          50.000                                                                  
C06  36559987.545   190377449.260        -175.876          45.000    36559970.296   147211848.843        -135.924          48.000  
C14  22503327.029   117180717.288       -2059.470          46.000    22503312.415    90611510.453       -1592.606          51.000  
C16  36985316.567   192592244.943        -210.878          48.000    36985304.715   148924492.786        -163.105          48.000  
C24  21779100.746   113409495.340        -762.620          50.000                                                                  
C26  24229802.561   126170934.325       -2542.180          45.000                                                                  
G03  22890099.658   120288281.266         156.754          40.000    22890093.206    93731095.908         122.225          37.000  
G16  22666139.465   119111360.373        3120.456          41.000                                                                  
C09  37712254.041   196377605.753        -166.536          43.000    37712240.452   151851563.553        -128.727          48.000  
C25  23774651.745   123800850.526        1656.165          45.000                                                                  
C13  38189669.238   198863637.326       -2220.475          42.000    38189662.851   153773948.514       -1716.907          43.000  
C08  39003294.462   203100391.776       -2433.252          37.000    39003282.324   157050037.957       -1881.563          43.000  
G04  24738634.374   130002385.665        3201.591          34.000    24738631.571   101300567.514        2494.383          41.000  
G25  24093971.827   126614681.491       -3896.210          37.000    24093965.183    98660763.217       -3035.992          35.000  
C10                                                                  40569384.703   163356138.159         715.022          39.000  
> 2025 10 30 06 13 26.2400000  0 20                     
G32  21801954.573   114570045.209       -2741.542          46.000    21801948.901    89275332.257       -2136.316          44.000  
G29  23037177.720   121061196.889        -327.209          42.000    23037168.967    94333364.032        -255.043          41.000  
G28  21164505.495   111220226.878       -1096.896          46.000    21164495.074    86665070.887        -854.628          46.000  
G26  20406039.916   107234459.287         910.447          48.000    20406032.869    83559299.363         709.330          46.000  
G31  20639494.760   108461274.441         266.856          47.000    20639484.088    84515237.445         208.081          45.000  
C33  22459350.308   116951726.269        -459.515          50.000                                                                  
C06  36559988.913   190377456.300        -175.972          45.000    36559971.651   147211854.290        -136.111          48.000  
C14  22503342.835   117180799.667       -2059.481          46.000    22503328.240    90611574.160       -1592.698          51.000  
C16  36985318.165   192592253.381        -210.953          48.000    36985306.288   148924499.312        -163.162          48.000  
C24  21779106.615   113409525.840        -762.578          50.000                                                                  
C26  24229822.089   126171036.007       -2542.126          45.000                                                                  
G03  22890098.456   120288274.997         156.717          40.000    22890092.021    93731091.031         121.962          37.000  
G16  22666115.719   119111235.554        3120.470          41.000                                                                  
C09  37712255.292   196377612.415        -166.617          43.000    37712241.721   151851568.707        -128.840          48.000  
C25  23774639.012   123800784.287        1656.030          45.000                                                                  
C13  38189686.265   198863726.144       -2220.486          42.000    38189679.913   153774017.198       -1717.031          43.000  
C08  39003313.174   203100489.114       -2433.383          37.000    39003301.004   157050113.236       -1881.807          43.000  
G04  24738609.995   130002257.618        3201.184          34.000    24738607.202   101300467.717        2494.641          41.000  
G25  24094001.488   126614837.325       -3895.977          37.000    24093994.836    98660884.624       -3035.489          35.000  
C10                                                                  40569377.571   163356109.571         714.761          39.000  
> 2025 10 30 06 13 26.2800000  0 20                     
G32  21801975.458   114570154.890       -2741.887          46.000    21801969.778    89275417.718       -2136.520          44.000  
G29  23037180.202   121061209.970        -327.165          42.000    23037171.441    94333374.235        -255.135          41.000  
G28  21164513.829   111220270.737       -1096.687          46.000    21164503.411    86665105.070        -854.631          46.000  
G26  20406033.014   107234422.878         910.238          48.000    20406025.928    83559270.981         709.429          46.000  
G31  20639492.717   108461263.760         266.949          47.000    20639482.074    84515229.127         207.951          45.000  
C33  22459353.892   116951744.646        -459.489          50.000                                                                  
C06  36559990.251   190377463.339        -175.985          45.000    36559972.966   147211859.735        -136.165          48.000  
C14  22503358.637   117180882.049       -2059.539          46.000    22503344.032    90611637.862       -1592.644          51.000  
C16  36985319.798   192592261.825        -211.114          48.000    36985307.885   148924505.833        -163.109          48.000  
C24  21779112.486   113409556.341        -762.551          50.000                                                                  
C26  24229841.614   126171137.695       -2542.214          45.000                                                                  
G03  22890097.263   120288268.735         156.560          40.000    22890090.826    93731086.140         122.142          37.000  
G16  22666091.948   119111110.732        3120.493          41.000                                                                  
C09  37712256.556   196377619.072        -166.538          43.000    37712243.027   151851573.856        -128.787          48.000  
C25  23774626.302   123800718.046        1655.994          45.000                                                                  
C13  38189703.332   198863814.968       -2220.636          42.000    38189696.978   153774085.887       -1717.211          43.000  
C08  39003331.876   203100586.475       -2433.807          37.000    39003319.685   157050188.512       -1881.930          43.000  
G04  24738585.620   130002129.547        3201.442          34.000    24738582.827   101300367.922        2494.799          41.000  
G25  24094031.135   126614993.156       -3895.815          37.000    24094024.479    98661006.047       -3035.453          35.000  
C10                                                                  40569370.447   163356080.952         715.212          39.000  
> 2025 10 30 06 13 26.3200000  0 20                     
G32  21801996.337   114570264.577       -2742.174          46.000    21801990.664    89275503.194       -2136.907          44.000  
G29  23037182.703   121061223.076        -327.585          42.000    23037173.913    94333384.446        -255.302          41.000  
G28  21164522.189   111220314.615       -1096.926          46.000    21164511.784    86665139.266        -854.868          46.000  
G26  20406026.093   107234386.469         910.135          48.000    20406019.015    83559242.615         709.220          46.000  
G31  20639490.730   108461253.098         266.604          47.000    20639480.058    84515220.821         207.649          45.000  
C33  22459357.387   116951763.038        -459.751          50.000                                                                  
C06  36559991.592   190377470.381        -176.104          45.000    36559974.299   147211865.180        -136.182          48.000  
C14  22503374.449   117180964.443       -2059.817          46.000    22503359.836    90611701.571       -1592.751          51.000  
C16  36985321.444   192592270.276        -211.335          48.000    36985309.484   148924512.364        -163.271          48.000  
C24  21779118.326   113409586.856        -762.786          50.000                                                                  
C26  24229861.134   126171239.400       -2542.562          45.000                                                                  
G03  22890096.048   120288262.479         156.361          40.000    22890089.649    93731081.291         121.471          37.000  
G16  22666068.199   119110985.927        3120.182          40.000                                                                  
C09  37712257.850   196377625.744        -166.733          43.000    37712244.282   151851579.009        -128.876          48.000  
C25  23774613.576   123800651.811        1655.847          45.000                                                                  
C13  38189720.401   198863903.788       -2220.666          42.000    38189714.034   153774154.574       -1717.259          43.000  
C08  39003350.573   203100683.844       -2434.189          37.000    39003338.408   157050263.811       -1882.397          43.000  
G04  24738561.254   130002001.482        3201.537          34.000    24738558.458   101300268.127        2494.847          41.000  
G25  24094060.791   126615148.983       -3895.694          37.000    24094054.137    98661127.501       -3036.069          35.000  
C10                                                                  40569363.371   163356052.344         715.226          39.000  
> 2025 10 30 06 13 26.3600000  0 20                     
G32  21802017.215   114570374.254       -2742.114          46.000    21802011.524    89275588.652       -2136.770          44.000  
G29  23037185.189   121061236.190        -327.907          42.000    23037176.404    94333394.649        -255.198          41.000  
G28  21164530.567   111220358.503       -1097.203          46.000    21164520.131    86665173.461        -854.967          46.000  
G26  20406019.147   107234350.065         910.037          48.000    20406012.096    83559214.248         709.110          46.000  
G31  20639488.699   108461242.438         266.426          47.000    20639478.028    84515212.515         207.515          45.000  
C33  22459360.883   116951781.443        -460.112          50.000                                                                  
C06  36559992.955   190377477.426        -176.178          45.000    36559975.623   147211870.626        -136.211          48.000  
C14  22503390.239   117181046.846       -2060.084          46.000    22503375.645    90611765.287       -1592.927          51.000  
C16  36985323.080   192592278.720        -211.263          48.000    36985311.076   148924518.894        -163.312          48.000  
C24  21779124.184   113409617.376        -763.002          50.000                                                                  
C26  24229880.673   126171341.099       -2542.600          45.000                                                                  
G03  22890094.861   120288256.219         156.352          40.000    22890088.462    93731076.420         121.541          37.000  
G16  22666044.475   119110861.136        3119.827          40.000                                                                  
C09  37712259.134   196377632.425        -166.989          43.000    37712245.552   151851584.174        -129.083          48.000  
C25  23774600.831   123800585.587        1655.621          45.000                                                                  
C13  38189737.474   198863992.633       -2221.062          42.000    38189731.119   153774223.265       -1717.339          43.000  
C08  39003369.260   203100781.199       -2434.133          37.000    39003357.142   157050339.089       -1882.260          43.000  
G04  24738536.891   130001873.426        3201.558          34.000    24738534.080   101300168.345        2494.668          41.000  
G25  24094090.456   126615304.844       -3896.260          37.000    24094083.803    98661248.962       -3036.500          35.000  
C10                                                                  40569356.275   163356023.772         714.511          38.000  
> 2025 10 30 06 13 26.4000000  0 20                     
G32  21802038.055   114570483.948       -2742.363          46.000    21802032.384    89275674.112       -2136.633          44.000  
G29  23037187.687   121061249.304        -327.999          42.000    23037178.902    94333404.862        -255.329          41.000  
G28  21164538.934   111220402.391       -1097.321          46.000    21164528.482    86665207.654        -854.928          46.000  
G26  20406012.236   107234313.666         909.909          48.000    20406005.169    83559185.881         709.098          46.000  
G31  20639486.653   108461231.780         266.329          47.000    20639476.003    84515204.207         207.535          45.000  
C33  22459364.418   116951799.844        -460.210          50.000                                                                  
C06  36559994.286   190377484.481        -176.355          45.000    36559976.970   147211876.074        -136.235          48.000  
C14  22503406.071   117181129.244       -2060.103          46.000    22503391.484    90611829.002       -1592.967          51.000  
C16  36985324.743   192592287.164        -211.220          48.000    36985312.679   148924525.430        -163.411          48.000  
C24  21779130.046   113409647.900        -763.141          50.000                                                                  
C26  24229900.230   126171442.796       -2542.544          45.000                                                                  
G03  22890093.685   120288249.978         156.033          40.000    22890087.266    93731071.538         121.813          37.000  
G16  22666020.722   119110736.329        3119.928          40.000                                                                  
C09  37712260.450   196377639.103        -167.041          43.000    37712246.829   151851589.338        -129.168          48.000  
C25  23774588.116   123800519.356        1655.682          45.000                                                                  
C13  38189754.562   198864081.464       -2220.990          42.000    38189748.158   153774291.951       -1717.263          43.000  
C08  39003387.968   203100878.563       -2434.181          37.000    39003375.843   157050414.365       -1882.108          43.000  
G04  24738512.529   130001745.381        3201.275          34.000    24738509.725   101300068.586        2494.199          41.000  
G25  24094120.110   126615460.710       -3896.666          37.000    24094113.460    98661370.392       -3036.109          35.000  
C10                                                                  40569349.172   163355995.170         714.763          38.000  
> 2025 10 30 06 13 26.4400000  0 20                     
G32  21802058.929   114570593.606       -2741.833          46.000    21802053.238    89275759.573       -2136.566          44.000  
G29  23037190.188   121061262.393        -327.509          42.000    23037181.401    94333415.083        -255.547          41.000  
G28  21164547.295   111220446.270       -1097.174          46.000    21164536.819    86665241.846        -854.870          46.000  
G26  20406005.292   107234277.260         910.009          48.000    20405998.257    83559157.523         708.926          46.000  
G31  20639484.633   108461221.116         266.441          47.000    20639473.961    84515195.890         207.789          45.000  
C33  22459367.960   116951818.233        -459.965          50.000                                                                  
C06  36559995.622   190377491.518        -176.108          45.000    36559978.351   147211881.523        -136.265          48.000  
C14  22503421.887   117181211.629       -2059.865          46.000    22503407.299    90611892.709       -1592.798          51.000  
C16  36985326.400   192592295.606        -211.115          48.000    36985314.287   148924531.961        -163.355          48.000  
C24  21779135.918   113409678.416        -763.054          50.000                                                                  
C26  24229919.770   126171544.494       -2542.533          45.000                                                                  
G03  22890092.488   120288243.732         155.994          40.000    22890086.079    93731066.658         121.893          38.000  
G16  22665996.966   119110611.517        3120.096          40.000                                                                  
C09  37712261.718   196377645.765        -166.750          43.000    37712248.098   151851594.495        -129.043          48.000  
C25  23774575.402   123800453.118        1655.829          45.000                                                                  
C13  38189771.608   198864170.297       -2220.944          42.000    38189765.207   153774360.642       -1717.306          43.000  
C08  39003406.627   203100975.887       -2433.524          37.000    39003394.538   157050489.636       -1881.915          43.000  
G04  24738488.169   130001617.324        3201.302          34.000    24738485.373   101299968.810        2494.223          41.000  
G25  24094149.756   126615616.552       -3896.436          37.000    24094143.105    98661491.826       -3035.907          35.000  
C10                                                                  40569342.056   163355966.564         714.987          38.000  
> 2025 10 30 06 13 26.4800000  0 20                     
G32  21802079.813   114570703.273       -2741.712          46.000    21802074.103    89275845.046       -2136.763          44.000  
G29  23037192.678   121061275.488        -327.322          42.000    23037183.902    94333425.284        -255.209          41.000  
G28  21164555.640   111220490.139       -1096.907          46.000    21164545.165    86665276.027        -854.658          46.000  
G26  20405998.368   107234240.850         910.163          48.000    20405991.330    83559129.153         709.137          46.000  
G31  20639482.579   108461210.436         266.848          47.000    20639471.934    84515187.574         207.887          45.000  
C33  22459371.500   116951836.619        -459.747          50.000                                                                  
C06  36559996.976   190377498.560        -176.057          45.000    36559979.725   147211886.964        -136.102          48.000  
C14  22503437.722   117181294.022       -2059.819          46.000    22503423.153    90611956.412       -1592.620          51.000  
C16  36985328.063   192592304.035        -210.852          48.000    36985315.937   148924538.486        -163.218          48.000  
C24  21779141.775   113409708.918        -762.732          50.000                                                                  
C26  24229939.317   126171646.186       -2542.391          45.000                                                                  
G03  22890091.315   120288237.459         156.552          40.000    22890084.905    93731061.783         121.867          38.000  
G16  22665973.203   119110486.696        3120.375          40.000                                                                  
C09  37712262.993   196377652.427        -166.575          43.000    37712249.384   151851599.641        -128.770          48.000  
C25  23774562.711   123800386.877        1655.963          45.000                                                                  
C13  38189788.687   198864259.109       -2220.489          42.000    38189782.240   153774429.321       -1717.094          43.000  
C08  39003425.347   203101073.248       -2433.786          37.000    39003413.229   157050564.906       -1881.814          43.000  
G04  24738463.790   130001489.277        3201.091          34.000    24738460.995   101299869.019        2494.521          41.000  
G25  24094179.409   126615772.414       -3896.595          37.000    24094172.760    98661613.264       -3035.885          35.000  
C10                                                                  40569334.949   163355937.947         715.374          38.000  
> 2025 10 30 06 13 26.5200000  0 20                     
G32  21802100.697   114570812.945       -2741.745          46.000    21802094.970    89275930.496       -2136.452          44.000  
G29  23037195.171   121061288.585        -327.294          42.000    23037186.384    94333435.479        -254.916          41.000  
G28  21164563.963   111220533.998       -1096.590          46.000    21164553.512    86665310.207        -854.526          46.000  
G26  20405991.438   107234204.432         910.390          48.000    20405984.389    83559100.770         709.451          46.000  
G31  20639480.560   108461199.764         266.841          47.000    20639469.910    84515179.258         207.936          45.000  
C33  22459375.067   116951855.004        -459.628          50.000                                                                  
C06  36559998.323   190377505.593        -175.898          45.000    36559981.100   147211892.404        -136.022          48.000  
C14  22503453.531   117181376.400       -2059.529          46.000    22503438.991    90612020.114       -1592.548          51.000  
C16  36985329.657   192592312.476        -210.923          48.000    36985317.585   148924545.001        -162.955          48.000  
C24  21779147.639   113409739.422        -762.602          50.000                                                                  
C26  24229958.840   126171747.870       -2542.198          45.000                                                                  
G03  22890090.143   120288231.204         156.537          40.000    22890083.723    93731056.932         121.454          38.000  
G16  22665949.453   119110361.882        3120.409          40.000                                                                  
C09  37712264.298   196377659.086        -166.446          43.000    37712250.670   151851604.790        -128.685          48.000  
C25  23774550.006   123800320.638        1655.969          45.000                                                                  
C13  38189805.768   198864347.927       -2220.399          42.000    38189799.323   153774498.003       -1717.027          43.000  
C08  39003444.028   203101170.587       -2433.582          37.000    39003431.904   157050640.179       -1881.809          43.000  
G04  24738439.421   130001361.217        3201.205          34.000    24738436.610   101299769.222        2494.770          41.000  
G25  24094209.055   126615928.240       -3896.049          37.000    24094202.405    98661734.695       -3035.821          35.000  
C10                                                                  40569327.830   163355909.353         715.060          38.000  
> 2025 10 30 06 13 26.5600000  0 20                     
G32  21802121.571   114570922.622       -2741.886          46.000    21802115.822    89276015.960       -2136.523          44.000  
G29  23037197.673   121061301.691        -327.537          42.000    23037188.890    94333445.695        -255.210          41.000  
G28  21164572.323   111220577.885       -1096.959          46.000    21164561.873    86665344.401        -854.726          46.000  
G26  20405984.500   107234168.026         910.253          48.000    20405977.470    83559072.403         709.333          46.000  
G31  20639478.553   108461189.101         266.680          47.000    20639467.888    84515170.948         207.818          45.000  
C33  22459378.545   116951873.400        -459.799          50.000                                                                  
C06  36559999.676   190377512.640        -176.078          45.000    36559982.486   147211897.853        -136.165          48.000  
C14  22503469.338   117181458.795       -2059.744          46.000    22503454.802    90612083.829       -1592.767          51.000  
C16  36985331.239   192592320.917        -211.003          48.000    36985319.224   148924551.523        -162.983          48.000  
C24  21779153.488   113409769.938        -762.779          50.000                                                                  
C26  24229978.361   126171849.563       -2542.260          45.000                                                                  
G03  22890088.957   120288224.952         156.402          40.000    22890082.536    93731052.049         121.771          38.000  
G16  22665925.718   119110237.080        3120.165          40.000                                                                  
C09  37712265.582   196377665.753        -166.558          43.000    37712251.937   151851609.951        -128.865          48.000  
C25  23774537.261   123800254.413        1655.682          45.000                                                                  
C13  38189822.826   198864436.751       -2220.514          42.000    38189816.394   153774566.689       -1717.090          43.000  
C08  39003462.727   203101267.930       -2433.622          37.000    39003450.601   157050715.467       -1882.108          43.000  
G04  24738415.071   130001233.159        3201.342          34.000    24738412.258   101299669.443        2494.566          41.000  
G25  24094238.719   126616084.083       -3896.007          37.000    24094232.060    98661856.109       -3035.431          35.000  
C10                                                                  40569320.733   163355880.771         714.681          38.000  
> 2025 10 30 06 13 26.6000000  0 20                     
G32  21802142.469   114571032.322       -2742.353          46.000    21802136.688    89276101.426       -2136.657          44.000  
G29  23037200.172   121061314.803        -327.782          42.000    23037191.378    94333455.912        -255.455          41.000  
G28  21164580.671   111220621.771       -1097.133          46.000    21164570.245    86665378.603        -854.982          46.000  
G26  20405977.582   107234131.627         910.038          48.000    20405970.527    83559044.038         709.178          46.000  
G31  20639476.526   108461178.436         266.637          47.000    20639465.862    84515162.640         207.701          45.000  
C33  22459382.081   116951891.807        -460.067          50.000                                                                  
C06  36560001.043   190377519.685        -176.140          45.000    36559983.812   147211903.306        -136.295          48.000  
C14  22503485.134   117181541.200       -2060.035          46.000    22503470.657    90612147.553       -1593.044          51.000  
C16  36985332.829   192592329.370        -211.248          48.000    36985320.858   148924558.060        -163.284          48.000  
C24  21779159.318   113409800.456        -762.929          50.000                                                                  
C26  24229997.856   126171951.269       -2542.526          45.000                                                                  
G03  22890087.769   120288218.709         156.163          40.000    22890081.362    93731047.168         121.927          38.000  
G16  22665901.966   119110112.287        3119.895          40.000                                                                  
C09  37712266.871   196377672.434        -166.849          43.000    37712253.221   151851615.110        -128.981          48.000  
C25  23774524.545   123800188.187        1655.609          45.000                                                                  
C13  38189839.921   198864525.591       -2220.843          42.000    38189833.443   153774635.377       -1717.209          43.000  
C08  39003481.400   203101365.317       -2434.458          37.000    39003469.341   157050790.763       -1882.389          43.000  
G04  24738390.698   130001105.084        3201.648          34.000    24738387.888   101299569.669        2494.358          41.000  
G25  24094268.375   126616239.926       -3896.029          37.000    24094261.736    98661977.574       -3036.171          35.000  
C10                                                                  40569313.599   163355852.164         714.948          38.000  
> 2025 10 30 06 13 26.6400000  0 20                     
G32  21802163.324   114571142.023       -2742.683          46.000    21802157.552    89276186.894       -2136.726          44.000  
G29  23037202.664   121061327.924        -328.041          42.000    23037193.885    94333466.137        -255.685          41.000  
G28  21164589.045   111220665.654       -1097.170          46.000    21164578.586    86665412.792        -854.865          46.000  
G26  20405970.654   107234095.229         909.934          48.000    20405963.608    83559015.678         709.012          46.000  
G31  20639474.511   108461167.773         266.520          47.000    20639463.833    84515154.332         207.677          45.000  
C33  22459385.641   116951910.203        -460.018          50.000                                                                  
C06  36560002.387   190377526.728        -176.130          45.000    36559985.144   147211908.746        -136.152          48.000  
C14  22503500.942   117181623.600       -2060.101          46.000    22503486.501    90612211.272       -1593.065          51.000  
C16  36985334.443   192592337.815        -211.202          48.000    36985322.456   148924564.595        -163.414          48.000  
C24  21779165.179   113409830.976        -763.028          50.000                                                                  
C26  24230017.421   126172052.961       -2542.399          45.000                                                                  
G03  22890086.578   120288212.469         155.977          40.000    22890080.180    93731042.298         121.851          38.000  
G16  22665878.212   119109987.483        3119.998          40.000                                                                  
C09  37712268.147   196377679.105        -166.886          43.000    37712254.492   151851620.264        -128.928          48.000  
C25  23774511.860   123800121.943        1655.939          45.000                                                                  
C13  38189857.000   198864614.418       -2220.766          42.000    38189850.503   153774704.064       -1717.220          43.000  
C08  39003500.086   203101462.671       -2434.222          37.000    39003488.034   157050866.039       -1882.156          43.000  
G04  24738366.346   130000977.056        3201.193          34.000    24738363.516   101299469.879        2494.574          41.000  
G25  24094298.048   126616395.776       -3896.179          37.000    24094291.384    98662098.999       -3035.980          35.000  
C10                                                                  40569306.500   163355823.558         715.085          38.000  
> 2025 10 30 06 13 26.6800000  0 20                     
G32  21802184.186   114571251.680       -2741.996          46.000    21802178.419    89276272.361       -2136.712          44.000  
G29  23037205.128   121061341.010        -327.490          42.000    23037196.367    94333476.331        -255.177          41.000  
G28  21164597.385   111220709.518       -1096.826          46.000    21164586.943    86665446.982        -854.791          46.000  
G26  20405963.702   107234058.817         910.126          48.000    20405956.704    83558987.310         709.068          46.000  
G31  20639472.479   108461157.102         266.662          47.000    20639461.791    84515146.017         207.801          45.000  
C33  22459389.217   116951928.592        -459.856          50.000                                                                  
C06  36560003.753   190377533.759        -175.863          45.000    36559986.480   147211914.189        -136.094          48.000  
C14  22503516.766   117181705.987       -2059.869          46.000    22503502.336    90612274.980       -1592.878          51.000  
C16  36985336.063   192592346.249        -211.000          48.000    36985324.061   148924571.118        -163.234          48.000  
C24  21779171.062   113409861.484        -762.800          50.000                                                                  
C26  24230036.956   126172154.650       -2542.298          45.000                                                                  
G03  22890085.386   120288206.213         156.201          40.000    22890078.995    93731037.420         121.809          38.000  
G16  22665854.456   119109862.655        3120.453          40.000                                                                  
C09  37712269.421   196377685.761        -166.571          43.000    37712255.780   151851625.417        -128.857          48.000  
C25  23774499.158   123800055.702        1656.030          45.000                                                                  
C13  38189874.062   198864703.235       -2220.529          42.000    38189867.569   153774772.745       -1717.115          43.000  
C08  39003518.767   203101559.997       -2433.534          37.000    39003506.734   157050941.303       -1881.805          43.000  
G04  24738341.961   130000849.005        3201.124          34.000    24738339.137   101299370.093        2494.583          41.000  
G25  24094327.700   126616551.606       -3895.852          37.000    24094321.046    98662220.459       -3036.406          35.000  
C10                                                                  40569299.377   163355794.961         714.982          38.000  
> 2025 10 30 06 13 26.7200000  0 20                     
G32  21802205.032   114571361.340       -2741.610          46.000    21802199.276    89276357.816       -2136.490          44.000  
G29  23037207.616   121061354.096        -327.146          42.000    23037198.870    94333486.547        -255.312          41.000  
G28  21164605.729   111220753.387       -1096.718          46.000    21164595.265    86665481.161        -854.594          46.000  
G26  20405956.802   107234022.408         910.212          48.000    20405949.767    83558958.941         709.137          46.000  
G31  20639470.460   108461146.429         266.767          47.000    20639459.748    84515137.702         207.887          45.000  
C33  22459392.739   116951946.981        -459.776          50.000                                                                  
C06  36560005.114   190377540.800        -175.942          45.000    36559987.827   147211919.624        -135.945          48.000  
C14  22503532.612   117181788.379       -2059.813          46.000    22503518.148    90612338.687       -1592.745          51.000  
C16  36985337.690   192592354.678        -210.777          48.000    36985325.640   148924577.640        -163.112          48.000  
C24  21779176.924   113409891.993        -762.738          50.000                                                                  
C26  24230056.466   126172256.325       -2541.969          45.000                                                                  
G03  22890084.174   120288199.956         156.344          40.000    22890077.805    93731032.530         122.132          38.000  
G16  22665830.699   119109737.841        3120.459          40.000                                                                  
C09  37712270.676   196377692.420        -166.460          43.000    37712257.080   151851630.560        -128.662          48.000  
C25  23774486.408   123799989.467        1655.945          45.000                                                                  
C13  38189891.119   198864792.055       -2220.443          42.000    38189884.605   153774841.415       -1716.847          43.000  
C08  39003537.454   203101657.333       -2433.301          37.000    39003525.419   157051016.573       -1881.728          43.000  
G04  24738317.583   130000720.916        3201.854          34.000    24738314.765   101299270.302        2494.707          41.000  
G25  24094357.347   126616707.447       -3895.871          37.000    24094350.691    98662341.894       -3036.141          35.000  
C10                                                                  40569292.280   163355766.364         714.911          38.000  
> 2025 10 30 06 13 26.7600000  0 20                     
G32  21802225.900   114571471.019       -2741.793          46.000    21802220.152    89276443.273       -2136.396          44.000  
G29  23037210.122   121061367.195        -327.252          42.000    23037201.369    94333496.758        -255.280          41.000  
G28  21164614.084   111220797.259       -1096.734          46.000    21164603.631    86665515.350        -854.641          46.000  
G26  20405949.875   107233986.001         910.211          48.000    20405942.829    83558930.566         709.303          46.000  
G31  20639468.438   108461135.757         266.791          47.000    20639457.714    84515129.381         208.028          45.000  
C33  22459396.264   116951965.373        -459.764          50.000                                                                  
C06  36560006.490   190377547.832        -175.835          45.000    36559989.162   147211925.066        -135.990          48.000  
C14  22503548.441   117181870.761       -2059.585          46.000    22503533.950    90612402.393       -1592.646          51.000  
C16  36985339.303   192592363.111        -210.759          48.000    36985327.233   148924584.159        -163.006          48.000  
C24  21779182.777   113409922.498        -762.632          50.000                                                                  
C26  24230075.992   126172358.016       -2542.118          45.000                                                                  
G03  22890082.988   120288193.687         156.644          40.000    22890076.605    93731027.674         121.580          38.000  
G16  22665806.970   119109613.028        3120.386          40.000                                                                  
C09  37712271.968   196377699.079        -166.446          43.000    37712258.357   151851635.709        -128.679          48.000  
C25  23774473.685   123799923.231        1655.902          45.000                                                                  
C13  38189908.192   198864880.876       -2220.438          42.000    38189901.680   153774910.109       -1717.167          43.000  
C08  39003556.157   203101754.681       -2433.362          37.000    39003544.138   157051091.840       -1881.664          43.000  
G04  24738293.230   130000592.870        3201.536          34.000    24738290.391   101299170.517        2494.636          41.000  
G25  24094386.985   126616863.283       -3895.851          37.000    24094380.349    98662463.331       -3036.014          35.000  
C10                                                                  40569285.187   163355737.764         714.925          38.000  
> 2025 10 30 06 13 26.8000000  0 20                     
G32  21802246.789   114571580.693       -2741.844          46.000    21802241.032    89276528.736       -2136.474          44.000  
G29  23037212.601   121061380.297        -327.419          42.000    23037203.872    94333506.952        -254.992          41.000  
G28  21164622.453   111220841.133       -1096.790          46.000    21164611.988    86665549.533        -854.598          46.000  
G26  20405942.948   107233949.592         910.223          48.000    20405935.879    83558902.187         709.450          46.000  
G31  20639466.412   108461125.083         266.846          47.000    20639455.691    84515121.059         208.089          45.000  
C33  22459399.777   116951983.763        -459.747          50.000                                                                  
C06  36560007.856   190377554.861        -175.735          45.000    36559990.473   147211930.509        -136.040          48.000  
C14  22503564.268   117181953.151       -2059.653          46.000    22503549.769    90612466.097       -1592.598          51.000  
C16  36985340.922   192592371.542        -210.752          48.000    36985328.859   148924590.677        -162.931          48.000  
C24  21779188.658   113409952.998        -762.506          50.000                                                                  
C26  24230095.528   126172459.703       -2542.152          45.000                                                                  
G03  22890081.780   120288187.433         156.456          40.000    22890075.416    93731022.802         121.622          38.000  
G16  22665783.204   119109488.206        3120.512          40.000                                                                  
C09  37712273.235   196377705.728        -166.277          43.000    37712259.630   151851640.862        -128.782          48.000  
C25  23774460.960   123799856.984        1656.085          45.000                                                                  
C13  38189925.223   198864969.701       -2220.552          42.000    38189918.730   153774978.786       -1717.060          43.000  
C08  39003574.843   203101852.023       -2433.381          37.000    39003562.847   157051167.112       -1881.711          43.000  
G04  24738268.857   130000464.786        3202.033          34.000    24738265.986   101299070.722        2494.766          41.000  
G25  24094416.639   126617019.124       -3896.031          37.000    24094410.001    98662584.737       -3035.452          35.000  
C10                                                                  40569278.099   163355709.151         715.159          38.000  
> 2025 10 30 06 13 26.8400000  0 20                     
G32  21802267.629   114571690.360       -2741.759          46.000    21802261.900    89276614.191       -2136.388          44.000  
G29  23037215.111   121061393.396        -327.475          42.000    23037206.344    94333517.152        -254.959          41.000  
G28  21164630.778   111220885.000       -1096.719          46.000    21164620.354    86665583.708        -854.413          46.000  
G26  20405936.035   107233913.178         910.278          48.000    20405928.949    83558873.811         709.462          46.000  
G31  20639464.360   108461114.400         267.018          47.000    20639453.652    84515112.738         208.063          45.000  
C33  22459403.332   116952002.149        -459.664          50.000                                                                  
C06  36560009.230   190377561.887        -175.626          45.000    36559991.838   147211935.939        -135.870          48.000  
C14  22503580.077   117182035.534       -2059.579          46.000    22503565.567    90612529.802       -1592.589          51.000  
C16  36985342.568   192592379.966        -210.637          48.000    36985330.442   148924597.195        -162.924          48.000  
C24  21779194.489   113409983.502        -762.531          50.000                                                                  
C26  24230115.047   126172561.393       -2542.228          45.000                                                                  
G03  22890080.582   120288181.180         156.317          40.000    22890074.239    93731017.949         121.330          38.000  
G16  22665759.474   119109363.402        3120.198          40.000                                                                  
C09  37712274.512   196377712.380        -166.243          43.000    37712260.916   151851646.004        -128.648          48.000  
C25  23774448.224   123799790.740        1656.116          45.000                                                                  
C13  38189942.278   198865058.503       -2220.166          42.000    38189935.764   153775047.458       -1716.874          43.000  
C08  39003593.553   203101949.360       -2433.335          37.000    39003581.509   157051242.385       -1881.757          43.000  
G04  24738244.485   130000336.701        3202.277          34.000    24738241.634   101298970.926        2494.902          41.000  
G25  24094446.286   126617174.952       -3895.848          37.000    24094439.660    98662706.179       -3035.747          35.000  
C10                                                                  40569270.971   163355680.529         715.434          38.000  
> 2025 10 30 06 13 26.8800000  0 20                     
G32  21802288.502   114571800.026       -2741.690          46.000    21802282.776    89276699.643       -2136.287          44.000  
G29  23037217.606   121061406.482        -327.241          42.000    23037208.830    94333527.362        -255.182          41.000  
G28  21164639.113   111220928.863       -1096.594          46.000    21164628.707    86665617.887        -854.409          46.000  
G26  20405929.071   107233876.758         910.450          48.000    20405922.021    83558845.433         709.486          46.000  
G31  20639462.314   108461103.714         267.153          47.000    20639451.624    84515104.422         207.946          45.000  
C33  22459406.862   116952020.530        -459.532          50.000                                                                  
C06  36560010.556   190377568.910        -175.514          45.000    36559993.171   147211941.368        -135.743          48.000  
C14  22503595.875   117182117.918       -2059.575          46.000    22503581.373    90612593.506       -1592.583          51.000  
C16  36985344.226   192592388.391        -210.596          48.000    36985332.073   148924603.705        -162.791          48.000  
C24  21779200.361   113410013.999        -762.451          50.000                                                                  
C26  24230134.604   126172663.061       -2541.895          45.000                                                                  
G03  22890079.407   120288174.916         156.463          40.000    22890073.054    93731013.054         122.027          38.000  
G16  22665735.715   119109238.585        3120.329          40.000                                                                  
C09  37712275.780   196377719.032        -166.239          43.000    37712262.186   151851651.144        -128.522          48.000  
C25  23774435.516   123799724.486        1656.317          45.000                                                                  
C13  38189959.327   198865147.308       -2220.069          42.000    38189952.835   153775116.133       -1716.838          43.000  
C08  39003612.250   203102046.693       -2433.252          37.000    39003600.210   157051317.646       -1881.586          43.000  
G04  24738220.092   130000208.656        3201.627          34.000    24738217.238   101298871.123        2495.059          41.000  
G25  24094475.938   126617330.786       -3895.880          37.000    24094469.308    98662827.578       -3035.234          35.000  
C10                                                                  40569263.883   163355651.913         715.460          38.000  
> 2025 10 30 06 13 26.9200000  0 20                     
G32  21802309.385   114571909.698       -2741.751          46.000    21802303.646    89276785.083       -2136.052          44.000  
G29  23037220.070   121061419.578        -327.281          42.000    23037211.310    94333537.562        -255.092          41.000  
G28  21164647.448   111220972.720       -1096.441          46.000    21164637.051    86665652.059        -854.330          46.000  
G26  20405922.122   107233840.336         910.554          48.000    20405915.097    83558817.062         709.331          46.000  
G31  20639460.290   108461093.027         267.226          47.000    20639449.582    84515096.096         208.100          45.000  
C33  22459410.431   116952038.907        -459.440          50.000                                                                  
C06  36560011.882   190377575.919        -175.265          45.000    36559994.519   147211946.789        -135.552          48.000  
C14  22503611.681   117182200.297       -2059.500          46.000    22503597.191    90612657.209       -1592.565          51.000  
C16  36985345.868   192592396.805        -210.412          48.000    36985333.710   148924610.218        -162.782          48.000  
C24  21779206.253   113410044.494        -762.362          50.000                                                                  
C26  24230154.152   126172764.726       -2541.664          45.000                                                                  
G03  22890078.201   120288168.650         156.608          40.000    22890071.844    93731008.162         122.298          38.000  
G16  22665711.966   119109113.767        3120.365          40.000                                                                  
C09  37712277.057   196377725.673        -166.036          43.000    37712263.448   151851656.280        -128.406          48.000  
C25  23774422.793   123799658.233        1656.366          45.000                                                                  
C13  38189976.362   198865236.121       -2220.215          42.000    38189969.924   153775184.799       -1716.664          43.000  
C08  39003630.938   203102144.037       -2433.435          37.000    39003618.907   157051392.906       -1881.505          43.000  
G04  24738195.692   130000080.568        3202.074          34.000    24738192.866   101298771.325        2495.033          41.000  
G25  24094505.588   126617486.586       -3895.276          37.000    24094498.956    98662948.995       -3035.315          35.000  
C10                                                                  40569256.769   163355623.293         715.540          38.000  
> 2025 10 30 06 13 26.9600000  0 20                     
G32  21802330.266   114572019.363       -2741.666          46.000    21802324.530    89276870.537       -2136.212          44.000  
G29  23037222.548   121061432.663        -327.170          42.000    23037213.789    94333547.760        -255.011          41.000  
G28  21164655.783   111221016.575       -1096.336          46.000    21164645.417    86665686.233        -854.316          46.000  
G26  20405915.228   107233803.920         910.486          48.000    20405908.183    83558788.691         709.245          46.000  
G31  20639458.269   108461082.346         267.133          47.000    20639447.527    84515087.769         208.174          45.000  
C33  22459413.923   116952057.288        -459.464          50.000                                                                  
C06  36560013.190   190377582.938        -175.332          45.000    36559995.884   147211952.212        -135.516          48.000  
C14  22503627.517   117182282.675       -2059.433          46.000    22503613.007    90612720.912       -1592.573          51.000  
C16  36985347.460   192592405.225        -210.411          48.000    36985335.333   148924616.723        -162.649          48.000  
C24  21779212.114   113410074.992        -762.374          50.000                                                                  
C26  24230173.682   126172866.399       -2541.699          45.000                                                                  
G03  22890077.005   120288162.383         156.707          40.000    22890070.636    93731003.263         122.556          38.000  
G16  22665688.217   119108988.935        3120.670          40.000                                                                  
C09  37712278.319   196377732.316        -166.018          43.000    37712264.717   151851661.415        -128.359          48.000  
C25  23774410.057   123799591.976        1656.439          45.000                                                                  
C13  38189993.410   198865324.932       -2220.234          42.000    38189986.972   153775253.471       -1716.698          43.000  
C08  39003649.625   203102241.357       -2433.228          37.000    39003637.580   157051468.167       -1881.487          43.000  
G04  24738171.327   129999952.486        3202.108          34.000    24738168.476   101298671.530        2494.965          41.000  
G25  24094535.229   126617642.395       -3895.129          37.000    24094528.597    98663070.402       -3035.212          35.000  
C10                                                                  40569249.652   163355594.676         715.473          38.000  
> 2025 10 30 06 13 27.0000000  0 20                     
G32  21802351.118   114572129.020       -2741.466          46.000    21802345.403    89276956.002       -2136.528          44.000  
G29  23037225.059   121061445.756        -327.266          42.000    23037216.279    94333557.955        -254.892          41.000  
G28  21164664.154   111221060.438       -1096.438          46.000    21164653.791    86665720.411        -854.399          46.000  
G26  20405908.295   107233767.504         910.405          48.000    20405901.262    83558760.311         709.393          46.000  
G31  20639456.244   108461071.663         267.102          47.000    20639445.488    84515079.442         208.179          45.000  
C33  22459417.387   116952075.675        -459.608          50.000                                                                  
C06  36560014.516   190377589.961        -175.475          45.000    36559997.253   147211957.648        -135.782          48.000  
C14  22503643.328   117182365.057       -2059.544          46.000    22503628.863    90612784.611       -1592.510          51.000  
C16  36985349.051   192592413.643        -210.410          48.000    36985336.968   148924623.229        -162.617          48.000  
C24  21779217.974   113410105.483        -762.313          50.000                                                                  
C26  24230193.189   126172968.070       -2541.741          45.000                                                                  
G03  22890075.806   120288156.109         156.874          40.000    22890069.460    93730998.386         122.210          38.000  
G16  22665664.460   119108864.107        3120.728          40.000                                                                  
C09  37712279.573   196377738.960        -166.117          43.000    37712266.014   151851666.558        -128.514          48.000  
C25  23774397.305   123799525.722        1656.397          45.000                                                                  
C13  38190010.461   198865413.736       -2220.166          42.000    38190004.023   153775322.137       -1716.674          43.000  
C08  39003668.345   203102338.683       -2433.173          37.000    39003656.238   157051543.436       -1881.651          43.000  
G04  24738146.980   129999824.426        3201.716          34.000    24738144.108   101298571.716        2495.237          41.000  
G25  24094564.870   126617798.238       -3895.698          37.000    24094558.267    98663191.836       -3035.555          35.000  
C10                                                                  40569242.538   163355566.048         715.616          38.000  
> 2025 10 30 06 13 27.0400000  0 20                     
G32  21802371.981   114572238.678       -2741.386          46.000    21802366.270    89277041.461       -2136.592          44.000  
G29  23037227.572   121061458.858        -327.460          42.000    23037218.755    94333568.163        -255.107          41.000  
G28  21164672.507   111221104.297       -1096.475          46.000    21164662.143    86665754.592        -854.470          46.000  
G26  20405901.351   107233731.085         910.424          48.000    20405894.343    83558731.936         709.368          46.000  
G31  20639454.229   108461060.976         267.145          47.000    20639443.446    84515071.119         208.061          45.000  
C33  22459420.893   116952094.058        -459.618          50.000                                                                  
C06  36560015.838   190377596.983        -175.504          45.000    36559998.621   147211963.082        -135.890          48.000  
C14  22503659.144   117182447.437       -2059.564          46.000    22503644.661    90612848.315       -1592.581          51.000  
C16  36985350.631   192592422.065        -210.496          48.000    36985338.602   148924629.741        -162.729          48.000  
C24  21779223.834   113410135.980        -762.374          50.000                                                                  
C26  24230212.697   126173069.745       -2541.828          45.000                                                                  
G03  22890074.620   120288149.847         156.669          40.000    22890068.284    93730993.504         122.051          37.000  
G16  22665640.712   119108739.280        3120.744          40.000                                                                  
C09  37712280.867   196377745.606        -166.161          43.000    37712267.257   151851671.689        -128.367          48.000  
C25  23774384.569   123799459.469        1656.323          45.000                                                                  
C13  38190027.535   198865502.543       -2220.173          42.000    38190021.076   153775390.808       -1716.718          43.000  
C08  39003687.025   203102436.001       -2433.004          37.000    39003674.901   157051618.690       -1881.463          43.000  
G04  24738122.619   129999696.333        3202.057          34.000    24738119.725   101298471.910        2495.236          41.000  
G25  24094594.539   126617954.073       -3895.887          37.000    24094587.912    98663313.263       -3035.750          35.000  
C10                                                                  40569235.455   163355537.431         715.546          38.000  
> 2025 10 30 06 13 27.0800000  0 20                     
G32  21802392.848   114572348.337       -2741.407          46.000    21802387.116    89277126.915       -2136.495          44.000  
G29  23037230.065   121061471.947        -327.326          42.000    23037221.245    94333578.367        -255.163          41.000  
G28  21164680.854   111221148.146       -1096.301          46.000    21164670.488    86665788.773        -854.543          46.000  
G26  20405894.410   107233694.664         910.492          48.000    20405887.408    83558703.551         709.578          46.000  
G31  20639452.171   108461050.288         267.206          47.000    20639441.427    84515062.789         208.179          45.000  
C33  22459424.452   116952112.436        -459.529          50.000                                                                  
C06  36560017.171   190377604.002        -175.498          45.000    36559999.975   147211968.513        -135.862          48.000  
C14  22503674.975   117182529.813       -2059.486          46.000    22503660.497    90612912.013       -1592.504          51.000  
C16  36985352.260   192592430.481        -210.451          48.000    36985340.216   148924636.252        -162.740          48.000  
C24  21779229.687   113410166.472        -762.329          50.000                                                                  
C26  24230232.236   126173171.417       -2541.807          45.000                                                                  
G03  22890073.438   120288143.595         156.355          40.000    22890067.106    93730988.646         121.506          37.000  
G16  22665616.974   119108614.447        3120.811          40.000                                                                  
C09  37712282.147   196377752.255        -166.229          43.000    37712268.544   151851676.822        -128.317          48.000  
C25  23774371.864   123799393.218        1656.287          45.000                                                                  
C13  38190044.605   198865591.340       -2220.018          42.000    38190038.115   153775459.482       -1716.824          43.000  
C08  39003705.723   203102533.343       -2433.388          37.000    39003693.593   157051693.958       -1881.614          43.000  
G04  24738098.250   129999568.240        3202.318          34.000    24738095.357   101298372.107        2495.146          41.000  
G25  24094624.193   126618109.876       -3895.370          37.000    24094617.590    98663434.688       -3035.688          35.000  
C10                                                                  40569228.360   163355508.810         715.545          38.000  
> 2025 10 30 06 13 27.1200000  0 20                     
G32  21802413.723   114572457.999       -2741.531          46.000    21802407.983    89277212.361       -2136.272          44.000  
G29  23037232.598   121061485.036        -327.244          42.000    23037223.744    94333588.570        -255.111          41.000  
G28  21164689.166   111221191.998       -1096.254          46.000    21164678.824    86665822.944        -854.422          46.000  
G26  20405887.456   107233658.242         910.541          48.000    20405880.476    83558675.164         709.707          46.000  
G31  20639450.137   108461039.597         267.243          47.000    20639439.385    84515054.466         208.104          45.000  
C33  22459428.012   116952130.813        -459.473          50.000                                                                  
C06  36560018.535   190377611.014        -175.372          45.000    36560001.333   147211973.930        -135.585          48.000  
C14  22503690.820   117182612.190       -2059.448          46.000    22503676.307    90612975.712       -1592.480          51.000  
C16  36985353.870   192592438.897        -210.425          48.000    36985341.840   148924642.755        -162.632          48.000  
C24  21779235.564   113410196.966        -762.344          50.000                                                                  
C26  24230251.771   126173273.088       -2541.785          45.000                                                                  
G03  22890072.260   120288137.325         156.566          40.000    22890065.910    93730983.774         121.557          37.000  
G16  22665593.216   119108489.612        3120.917          40.000                                                                  
C09  37712283.417   196377758.877        -165.798          43.000    37712269.810   151851681.958        -128.364          48.000  
C25  23774359.114   123799326.970        1656.177          45.000                                                                  
C13  38190061.644   198865680.141       -2220.013          42.000    38190055.163   153775528.152       -1716.792          43.000  
C08  39003724.405   203102630.677       -2433.409          37.000    39003712.270   157051769.214       -1881.514          43.000  
G04  24738073.859   129999440.147        3202.379          34.000    24738070.992   101298272.316        2494.886          41.000  
G25  24094653.828   126618265.684       -3895.180          37.000    24094647.253    98663556.120       -3035.781          35.000  
C10                                                                  40569221.251   163355480.207         715.215          38.000  
> 2025 10 30 06 13 27.1600000  0 20                     
G32  21802434.614   114572567.663       -2741.628          46.000    21802428.829    89277297.797       -2135.990          44.000  
G29  23037235.110   121061498.124        -327.169          42.000    23037226.217    94333598.768        -255.029          41.000  
G28  21164697.516   111221235.854       -1096.327          46.000    21164687.179    86665857.114        -854.331          46.000  
G26  20405880.546   107233621.819         910.578          48.000    20405873.536    83558646.788         709.521          46.000  
G31  20639448.121   108461028.915         267.101          47.000    20639437.343    84515046.133         208.209          45.000  
C33  22459431.505   116952149.196        -459.538          50.000                                                                  
C06  36560019.873   190377618.038        -175.543          45.000    36560002.696   147211979.345        -135.414          48.000  
C14  22503706.633   117182694.567       -2059.404          46.000    22503692.123    90613039.411       -1592.488          51.000  
C16  36985355.489   192592447.303        -210.240          48.000    36985343.429   148924649.263        -162.685          48.000  
C24  21779241.418   113410227.459        -762.336          50.000                                                                  
C26  24230271.307   126173374.757       -2541.754          45.000                                                                  
G03  22890071.067   120288131.071         156.455          40.000    22890064.707    93730978.887         121.959          37.000  
G16  22665569.476   119108364.779        3120.869          40.000                                                                  
C09  37712284.673   196377765.511        -165.804          43.000    37712271.085   151851687.093        -128.396          48.000  
C25  23774346.402   123799260.711        1656.366          45.000                                                                  
C13  38190078.679   198865768.942       -2220.020          42.000    38190072.209   153775596.823       -1716.773          43.000  
C08  39003743.073   203102728.006       -2433.344          37.000    39003730.947   157051844.471       -1881.464          43.000  
G04  24738049.487   129999312.071        3201.958          34.000    24738046.612   101298172.507        2495.068          41.000  
G25  24094683.467   126618421.520       -3895.604          37.000    24094676.905    98663677.533       -3035.515          35.000  
C10                                                                  40569214.164   163355451.585         715.431          38.000  
> 2025 10 30 06 13 27.2000000  0 20                     
G32  21802455.445   114572677.323       -2741.570          46.000    21802449.686    89277383.248       -2136.124          44.000  
G29  23037237.632   121061511.218        -327.292          42.000    23037228.693    94333608.957        -254.830          41.000  
G28  21164705.834   111221279.710       -1096.404          46.000    21164695.499    86665891.280        -854.223          46.000  
G26  20405873.611   107233585.395         910.608          48.000    20405866.615    83558618.413         709.385          46.000  
G31  20639446.088   108461018.230         267.107          47.000    20639435.316    84515037.801         208.289          45.000  
C33  22459435.039   116952167.575        -459.525          50.000                                                                  
C06  36560021.215   190377625.045        -175.322          45.000    36560004.036   147211984.768        -135.475          48.000  
C14  22503722.443   117182776.946       -2059.475          46.000    22503707.970    90613103.109       -1592.462          51.000  
C16  36985357.100   192592455.712        -210.186          48.000    36985345.013   148924655.770        -162.666          48.000  
C24  21779247.283   113410257.952        -762.331          50.000                                                                  
C26  24230290.837   126173476.422       -2541.663          45.000                                                                  
G03  22890069.874   120288124.795         156.705          40.000    22890063.535    93730973.992         122.308          37.000  
G16  22665545.708   119108239.959        3120.581          40.000                                                                  
C09  37712285.952   196377772.155        -166.010          43.000    37712272.363   151851692.226        -128.352          48.000  
C25  23774333.672   123799194.447        1656.555          45.000                                                                  
C13  38190095.729   198865857.742       -2220.008          42.000    38190089.260   153775665.494       -1716.767          43.000  
C08  39003761.754   203102825.318       -2433.008          37.000    39003749.663   157051919.714       -1881.214          43.000  
G04  24738025.097   129999183.997        3201.777          34.000    24738022.234   101298072.701        2495.119          41.000  
G25  24094713.117   126618577.331       -3895.369          37.000    24094706.546    98663798.959       -3035.578          35.000  
C10                                                                  40569207.070   163355422.952         715.734          38.000  
> 2025 10 30 06 13 27.2400000  0 20                     
G32  21802476.299   114572786.985       -2741.578          46.000    21802470.558    89277468.696       -2136.186          44.000  
G29  23037240.122   121061524.304        -327.216          42.000    23037231.197    94333619.164        -255.065          41.000  
G28  21164714.209   111221323.579       -1096.666          46.000    21164703.838    86665925.448        -854.201          46.000  
G26  20405866.694   107233548.971         910.577          48.000    20405859.672    83558590.033         709.448          46.000  
G31  20639444.024   108461007.539         267.206          47.000    20639433.277    84515029.465         208.387          45.000  
C33  22459438.575   116952185.955        -459.518          50.000                                                                  
C06  36560022.592   190377632.046        -175.096          45.000    36560005.379   147211990.193        -135.573          48.000  
C14  22503738.262   117182859.322       -2059.425          46.000    22503723.783    90613166.805       -1592.419          51.000  
C16  36985358.706   192592464.121        -210.196          48.000    36985346.615   148924662.277        -162.686          48.000  
C24  21779253.148   113410288.435        -762.190          50.000                                                                  
C26  24230310.382   126173578.084       -2541.562          45.000                                                                  
G03  22890068.695   120288118.531         156.659          40.000    22890062.338    93730969.097         122.518          37.000  
G16  22665521.957   119108115.136        3120.477          40.000                                                                  
C09  37712287.232   196377778.785        -165.882          43.000    37712273.625   151851697.357        -128.295          48.000  
C25  23774320.938   123799128.187        1656.531          45.000                                                                  
C13  38190112.788   198865946.547       -2220.127          42.000    38190106.337   153775734.149       -1716.481          43.000  
C08  39003780.451   203102922.634       -2432.885          37.000    39003768.360   157051994.966       -1881.201          43.000  
G04  24738000.711   129999055.942        3201.405          34.000    24737997.867   101297972.898        2495.131          41.000  
G25  24094742.764   126618733.148       -3895.338          37.000    24094736.195    98663920.344       -3034.923          35.000  
C10                                                                  40569199.978   163355394.307         716.031          38.000  
> 2025 10 30 06 13 27.2800000  0 20                     
G32  21802497.184   114572896.646       -2741.570          46.000    21802491.449    89277554.145       -2136.252          44.000  
G29  23037242.598   121061537.384        -327.137          42.000    23037233.691    94333629.369        -255.184          41.000  
G28  21164722.553   111221367.432       -1096.502          46.000    21164712.199    86665959.626        -854.357          46.000  
G26  20405859.794   107233512.565         910.231          48.000    20405852.725    83558561.652         709.491          46.000  
G31  20639441.989   108460996.849         267.212          47.000    20639431.258    84515021.137         208.232          45.000  
C33  22459442.104   116952204.337        -459.570          50.000                                                                  
C06  36560023.958   190377639.060        -175.225          45.000    36560006.727   147211995.615        -135.583          48.000  
C14  22503754.102   117182941.702       -2059.495          46.000    22503739.568    90613230.507       -1592.515          51.000  
C16  36985360.304   192592472.535        -210.295          48.000    36985348.187   148924668.776        -162.551          48.000  
C24  21779258.956   113410318.926        -762.227          50.000                                                                  
C26  24230329.896   126173679.745       -2541.541          45.000                                                                  
G03  22890067.506   120288112.271         156.526          40.000    22890061.150    93730964.233         121.920          37.000  
G16  22665498.200   119107990.314        3120.469          40.000                                                                  
C09  37712288.511   196377785.423        -165.933          43.000    37712274.908   151851702.487        -128.270          48.000  
C25  23774308.234   123799061.935        1656.372          45.000                                                                  
C13  38190129.864   198866035.349       -2220.126          42.000    38190123.385   153775802.806       -1716.402          43.000  
C08  39003799.153   203103019.972       -2433.203          37.000    39003787.035   157052070.226       -1881.365          43.000  
G04  24737976.331   129998927.870        3201.516          34.000    24737973.485   101297873.090        2495.181          41.000  
G25  24094772.413   126618888.960       -3895.292          37.000    24094765.852    98664041.743       -3034.797          35.000  
C10                                                                  40569192.860   163355365.676         715.883          38.000  
> 2025 10 30 06 13 27.3200000  0 20                     
G32  21802518.038   114573006.301       -2741.432          46.000    21802512.312    89277639.602       -2136.398          44.000  
G29  23037245.084   121061550.475        -327.212          42.000    23037236.177    94333639.567        -255.075          41.000  
G28  21164730.887   111221411.274       -1096.210          46.000    21164720.546    86665993.798        -854.333          46.000  
G26  20405852.881   107233476.149         910.270          48.000    20405845.824    83558533.274         709.441          46.000  
G31  20639439.959   108460986.162         267.193          47.000    20639429.208    84515012.821         207.937          45.000  
C33  22459445.647   116952222.718        -459.575          50.000                                                                  
C06  36560025.322   190377646.077        -175.358          45.000    36560008.029   147212001.039        -135.621          48.000  
C14  22503769.935   117183024.081       -2059.506          46.000    22503755.411    90613294.212       -1592.603          51.000  
C16  36985361.946   192592480.951        -210.364          48.000    36985349.806   148924675.282        -162.612          48.000  
C24  21779264.804   113410349.422        -762.344          50.000                                                                  
C26  24230349.395   126173781.422       -2541.777          45.000                                                                  
G03  22890066.324   120288106.016         156.415          40.000    22890059.959    93730959.363         121.710          37.000  
G16  22665474.449   119107865.491        3120.478          40.000                                                                  
C09  37712289.785   196377792.064        -166.048          43.000    37712276.211   151851707.622        -128.329          48.000  
C25  23774295.508   123798995.680        1656.329          45.000                                                                  
C13  38190146.946   198866124.148       -2220.038          42.000    38190140.433   153775871.473       -1716.534          43.000  
C08  39003817.848   203103117.294       -2433.097          37.000    39003805.734   157052145.502       -1881.763          43.000  
G04  24737951.949   129998799.773        3202.084          34.000    24737949.112   101297773.284        2495.173          41.000  
G25  24094802.061   126619044.787       -3895.615          37.000    24094795.489    98664163.139       -3034.771          35.000  
C10                                                                  40569185.760   163355337.066         715.373          38.000  
> 2025 10 30 06 13 27.3600000  0 20                     
G32  21802538.893   114573115.957       -2741.383          46.000    21802533.188    89277725.042       -2136.130          44.000  
G29  23037247.569   121061563.568        -327.324          42.000    23037238.679    94333649.764        -254.980          41.000  
G28  21164739.250   111221455.120       -1096.120          46.000    21164728.882    86666027.967        -854.264          46.000  
G26  20405845.957   107233439.720         910.560          48.000    20405838.905    83558504.893         709.484          46.000  
G31  20639437.927   108460975.464         267.378          47.000    20639427.162    84515004.490         208.111          45.000  
C33  22459449.165   116952241.099        -459.561          50.000                                                                  
C06  36560026.656   190377653.076        -175.104          45.000    36560009.336   147212006.456        -135.515          48.000  
C14  22503785.759   117183106.454       -2059.379          46.000    22503771.239    90613357.911       -1592.557          51.000  
C16  36985363.601   192592489.361        -210.298          48.000    36985351.421   148924681.781        -162.521          48.000  
C24  21779270.662   113410379.913        -762.315          50.000                                                                  
C26  24230368.945   126173883.077       -2541.546          45.000                                                                  
G03  22890065.129   120288099.759         156.308          40.000    22890058.777    93730954.498         121.564          37.000  
G16  22665450.682   119107740.656        3120.719          40.000                                                                  
C09  37712291.081   196377798.700        -166.002          43.000    37712277.494   151851712.754        -128.336          48.000  
C25  23774282.803   123798929.420        1656.409          45.000                                                                  
C13  38190163.977   198866212.935       -2219.764          42.000    38190157.481   153775940.148       -1716.784          43.000  
C08  39003836.532   203103214.584       -2432.408          37.000    39003824.445   157052220.756       -1881.570          43.000  
G04  24737927.580   129998671.643        3203.007          34.000    24737924.738   101297673.473        2495.298          41.000  
G25  24094831.699   126619200.601       -3895.498          37.000    24094825.170    98664284.598       -3035.918          35.000  
C10                                                                  40569178.668   163355308.454         715.189          38.000  
> 2025 10 30 06 13 27.4000000  0 20                     
G32  21802559.744   114573225.616       -2741.432          46.000    21802554.054    89277810.496       -2136.239          44.000  
G29  23037250.091   121061576.667        -327.506          42.000    23037241.168    94333659.955        -254.857          41.000  
G28  21164747.590   111221498.976       -1096.261          46.000    21164737.232    86666062.132        -854.152          46.000  
G26  20405839.006   107233403.287         910.787          48.000    20405831.983    83558476.507         709.626          46.000  
G31  20639435.886   108460964.770         267.358          47.000    20639425.108    84514996.159         208.191          45.000  
C33  22459452.694   116952259.473        -459.420          50.000                                                                  
C06  36560028.027   190377660.082        -175.095          45.000    36560010.657   147212011.868        -135.352          48.000  
C14  22503801.585   117183188.830       -2059.361          46.000    22503787.088    90613421.602       -1592.373          51.000  
C16  36985365.227   192592497.757        -210.007          48.000    36985353.023   148924688.277        -162.427          48.000  
C24  21779276.535   113410410.394        -762.106          50.000                                                                  
C26  24230388.456   126173984.742       -2541.568          45.000                                                                  
G03  22890063.926   120288093.483         156.682          40.000    22890057.563    93730949.603         122.025          37.000  
G16  22665426.925   119107615.810        3121.033          40.000                                                                  
C09  37712292.362   196377805.322        -165.690          43.000    37712278.756   151851717.882        -128.267          48.000  
C25  23774270.094   123798863.151        1656.635          45.000                                                                  
C13  38190181.033   198866301.725       -2219.686          42.000    38190174.563   153776008.807       -1716.602          43.000  
C08  39003855.199   203103311.901       -2432.615          37.000    39003843.112   157052296.001       -1881.268          43.000  
G04  24737903.205   129998543.517        3203.369          34.000    24737900.358   101297573.647        2495.563          41.000  
G25  24094861.358   126619356.391       -3895.029          37.000    24094854.813    98664406.003       -3035.641          35.000  
C10                                                                  40569171.575   163355279.826         715.425          39.000  
> 2025 10 30 06 13 27.4400000  0 20                     
G32  21802580.625   114573335.275       -2741.478          46.000    21802574.930    89277895.944       -2136.185          44.000  
G29  23037252.583   121061589.754        -327.340          42.000    23037243.663    94333670.153        -254.921          41.000  
G28  21164755.943   111221542.817       -1096.125          46.000    21164745.562    86666096.298        -854.125          46.000  
G26  20405832.065   107233366.862         910.725          48.000    20405825.054    83558448.131         709.496          46.000  
G31  20639433.880   108460954.075         267.358          47.000    20639423.070    84514987.815         208.511          45.000  
C33  22459456.249   116952277.847        -459.365          50.000                                                                  
C06  36560029.352   190377667.083        -175.035          45.000    36560011.989   147212017.280        -135.265          48.000  
C14  22503817.423   117183271.199       -2059.268          46.000    22503802.911    90613485.297       -1592.363          51.000  
C16  36985366.856   192592506.155        -209.912          48.000    36985354.631   148924694.775        -162.417          48.000  
C24  21779282.391   113410440.874        -762.008          50.000                                                                  
C26  24230407.973   126174086.392       -2541.319          45.000                                                                  
G03  22890062.725   120288087.214         156.774          40.000    22890056.374    93730944.709         122.267          37.000  
G16  22665403.178   119107490.968        3121.115          40.000                                                                  
C09  37712293.625   196377811.943        -165.536          43.000    37712280.023   151851723.000        -128.032          48.000  
C25  23774257.368   123798796.885        1656.689          45.000                                                                  
C13  38190198.082   198866390.524       -2219.894          42.000    38190191.622   153776077.465       -1716.465          43.000  
C08  39003873.893   203103409.230       -2432.998          37.000    39003861.788   157052371.250       -1881.191          43.000  
G04  24737878.834   129998415.443        3202.535          34.000    24737875.981   101297473.832        2495.441          41.000  
G25  24094890.994   126619512.199       -3895.133          37.000    24094884.476    98664527.424       -3035.671          35.000  
C10                                                                  40569164.457   163355251.175         716.074          39.000  
> 2025 10 30 06 13 27.4800000  0 20                     
G32  21802601.492   114573444.930       -2741.440          46.000    21802595.780    89277981.379       -2135.981          44.000  
G29  23037255.081   121061602.836        -327.139          42.000    23037246.164    94333680.353        -255.035          41.000  
G28  21164764.295   111221586.663       -1096.129          46.000    21164753.914    86666130.469        -854.244          46.000  
G26  20405825.156   107233330.442         910.551          48.000    20405818.105    83558419.746         709.564          46.000  
G31  20639431.850   108460943.379         267.370          47.000    20639421.035    84514979.480         208.473          45.000  
C33  22459459.784   116952296.218        -459.297          50.000                                                                  
C06  36560030.676   190377674.088        -175.094          45.000    36560013.365   147212022.696        -135.325          48.000  
C14  22503833.255   117183353.572       -2059.309          46.000    22503818.740    90613548.996       -1592.427          51.000  
C16  36985368.455   192592514.556        -209.931          48.000    36985356.260   148924701.265        -162.285          48.000  
C24  21779288.194   113410471.355        -761.987          50.000                                                                  
C26  24230427.483   126174188.043       -2541.250          45.000                                                                  
G03  22890061.531   120288080.947         156.707          40.000    22890055.184    93730939.815         122.350          37.000  
G16  22665379.427   119107366.132        3121.030          40.000                                                                  
C09  37712294.903   196377818.561        -165.427          43.000    37712281.279   151851728.116        -127.916          48.000  
C25  23774244.654   123798730.617        1656.708          45.000                                                                  
C13  38190215.131   198866479.316       -2219.849          42.000    38190208.663   153776146.107       -1716.162          43.000  
C08  39003892.589   203103506.559       -2433.233          37.000    39003880.473   157052446.489       -1881.030          43.000  
G04  24737854.461   129998287.375        3201.857          34.000    24737851.618   101297374.030        2495.166          41.000  
G25  24094920.652   126619668.005       -3895.137          37.000    24094914.127    98664648.818       -3035.138          35.000  
C10                                                                  40569157.359   163355222.527         716.266          39.000  
> 2025 10 30 06 13 27.5200000  0 20                     
G32  21802622.342   114573554.586       -2741.414          46.000    21802616.639    89278066.823       -2136.021          44.000  
G29  23037257.580   121061615.917        -327.041          42.000    23037248.655    94333690.556        -255.090          41.000  
G28  21164772.642   111221630.506       -1096.070          46.000    21164762.244    86666164.632        -854.158          46.000  
G26  20405818.231   107233294.018         910.558          48.000    20405811.157    83558391.363         709.570          46.000  
G31  20639429.800   108460932.676         267.493          47.000    20639419.011    84514971.140         208.540          45.000  
C33  22459463.289   116952314.602        -459.493          50.000                                                                  
C06  36560032.001   190377681.094        -175.140          45.000    36560014.714   147212028.115        -135.433          48.000  
C14  22503849.084   117183435.943       -2059.303          46.000    22503834.553    90613612.693       -1592.446          51.000  
C16  36985370.037   192592522.960        -210.051          48.000    36985357.893   148924707.758        -162.295          48.000  
C24  21779294.026   113410501.835        -761.978          50.000                                                                  
C26  24230447.010   126174289.700       -2541.320          45.000                                                                  
G03  22890060.350   120288074.683         156.593          40.000    22890053.997    93730934.921         122.424          37.000  
G16  22665355.671   119107241.298        3120.900          41.000                                                                  
C09  37712296.176   196377825.186        -165.566          43.000    37712282.564   151851733.234        -127.882          48.000  
C25  23774231.936   123798664.348        1656.714          45.000                                                                  
C13  38190232.182   198866568.096       -2219.620          42.000    38190225.725   153776214.763       -1716.246          43.000  
C08  39003911.294   203103603.883       -2433.240          37.000    39003899.194   157052521.734       -1881.060          43.000  
G04  24737830.087   129998159.280        3202.038          34.000    24737827.256   101297274.222        2495.120          41.000  
G25  24094950.302   126619823.811       -3895.188          37.000    24094943.747    98664770.206       -3034.807          35.000  
C10                                                                  40569150.236   163355193.894         715.996          39.000  
> 2025 10 30 06 13 27.5600000  0 20                     
G32  21802643.201   114573664.238       -2741.336          46.000    21802637.514    89278152.270       -2136.107          44.000  
G29  23037260.078   121061628.998        -327.012          42.000    23037251.134    94333700.752        -255.007          41.000  
G28  21164780.987   111221674.360       -1096.230          46.000    21164770.568    86666198.794        -854.094          46.000  
G26  20405811.295   107233257.595         910.533          48.000    20405804.233    83558362.980         709.583          46.000  
G31  20639427.769   108460921.979         267.456          47.000    20639416.962    84514962.803         208.484          45.000  
C33  22459466.831   116952332.980        -459.490          50.000                                                                  
C06  36560033.331   190377688.088        -174.956          45.000    36560016.082   147212033.529        -135.399          48.000  
C14  22503864.957   117183518.312       -2059.246          46.000    22503850.356    90613676.388       -1592.415          51.000  
C16  36985371.636   192592531.361        -210.043          48.000    36985359.507   148924714.255        -162.369          48.000  
C24  21779299.832   113410532.323        -762.130          50.000                                                                  
C26  24230466.523   126174391.365       -2541.533          45.000                                                                  
G03  22890059.136   120288068.405         156.801          40.000    22890052.824    93730930.058         121.934          37.000  
G16  22665331.907   119107116.469        3120.763          41.000                                                                  
C09  37712297.449   196377831.818        -165.764          43.000    37712283.802   151851738.362        -128.101          48.000  
C25  23774219.213   123798598.085        1656.574          45.000                                                                  
C13  38190249.238   198866656.889       -2219.734          42.000    38190242.781   153776283.425       -1716.471          43.000  
C08  39003929.997   203103701.188       -2432.823          37.000    39003917.883   157052596.989       -1881.285          43.000  
G04  24737805.725   129998031.185        3202.274          34.000    24737802.883   101297174.414        2495.104          41.000  
G25  24094979.947   126619979.611       -3895.080          38.000    24094973.384    98664891.618       -3035.049          35.000  
C10                                                                  40569143.103   163355165.271         715.659          39.000  
> 2025 10 30 06 13 27.6000000  0 20                     
G32  21802664.055   114573773.895       -2741.371          46.000    21802658.394    89278237.717       -2136.149          44.000  
G29  23037262.548   121061642.083        -327.135          42.000    23037253.622    94333710.953        -255.051          41.000  
G28  21164789.348   111221718.213       -1096.308          46.000    21164778.910    86666232.967        -854.263          46.000  
G26  20405804.350   107233221.167         910.632          48.000    20405797.311    83558334.596         709.588          46.000  
G31  20639425.736   108460911.288         267.295          47.000    20639414.944    84514954.473         208.323          45.000  
C33  22459470.367   116952351.354        -459.432          50.000                                                                  
C06  36560034.671   190377695.083        -174.902          45.000    36560017.454   147212038.937        -135.294          48.000  
C14  22503880.764   117183600.688       -2059.368          46.000    22503866.154    90613740.084       -1592.415          51.000  
C16  36985373.245   192592539.763        -210.069          48.000    36985361.122   148924720.755        -162.488          48.000  
C24  21779305.642   113410562.808        -762.167          50.000                                                                  
C26  24230486.064   126174493.025       -2541.539          45.000                                                                  
G03  22890057.949   120288062.138         156.719          40.000    22890051.627    93730925.168         122.107          37.000  
G16  22665308.153   119106991.629        3120.865          41.000                                                                  
C09  37712298.707   196377838.439        -165.653          43.000    37712285.066   151851743.489        -128.174          48.000  
C25  23774206.484   123798531.821        1656.555          45.000                                                                  
C13  38190266.269   198866745.670       -2219.622          42.000    38190259.847   153776352.092       -1716.669          43.000  
C08  39003948.654   203103798.490       -2432.566          37.000    39003936.575   157052672.251       -1881.469          43.000  
G04  24737781.354   129997903.094        3202.342          34.000    24737778.496   101297074.588        2495.420          41.000  
G25  24095009.603   126620135.440       -3895.531          37.000    24095003.027    98665013.024       -3035.063          35.000  
C10                                                                  40569136.027   163355136.650         715.468          38.000  
> 2025 10 30 06 13 27.6400000  0 20                     
G32  21802684.932   114573883.549       -2741.379          46.000    21802679.257    89278323.175       -2136.385          44.000  
G29  23037265.050   121061655.171        -327.229          42.000    23037256.096    94333721.151        -255.078          41.000  
G28  21164797.679   111221762.052       -1096.113          46.000    21164787.243    86666267.133        -854.226          46.000  
G26  20405797.423   107233184.741         910.657          48.000    20405790.370    83558306.213         709.564          46.000  
G31  20639423.712   108460900.595         267.246          47.000    20639412.907    84514946.145         208.188          45.000  
C33  22459473.886   116952369.732        -459.471          50.000                                                                  
C06  36560036.012   190377702.088        -175.051          45.000    36560018.802   147212044.343        -135.186          48.000  
C14  22503896.577   117183683.062       -2059.359          46.000    22503881.955    90613803.779       -1592.397          51.000  
C16  36985374.886   192592548.158        -209.945          48.000    36985362.726   148924727.249        -162.432          48.000  
C24  21779311.522   113410593.291        -762.140          50.000                                                                  
C26  24230505.578   126174594.676       -2541.399          45.000                                                                  
G03  22890056.741   120288055.873         156.675          40.000    22890050.434    93730920.291         121.942          37.000  
G16  22665284.391   119106866.796        3120.854          41.000                                                                  
C09  37712299.971   196377845.065        -165.678          43.000    37712286.331   151851748.614        -128.166          48.000  
C25  23774193.773   123798465.557        1656.549          45.000                                                                  
C13  38190283.350   198866834.458       -2219.666          42.000    38190276.903   153776420.755       -1716.692          43.000  
C08  39003967.315   203103895.775       -2432.141          37.000    39003955.256   157052747.502       -1881.386          43.000  
G04  24737756.989   129997774.987        3202.615          34.000    24737754.118   101296974.764        2495.591          41.000  
G25  24095039.272   126620291.243       -3895.248          38.000    24095032.679    98665134.426       -3035.052          35.000  
C10                                                                  40569128.925   163355108.026         715.528          38.000  
> 2025 10 30 06 13 27.6800000  0 20                     
G32  21802705.833   114573993.210       -2741.504          46.000    21802700.127    89278408.614       -2136.213          44.000  
G29  23037267.530   121061668.257        -327.207          42.000    23037258.597    94333731.334        -254.737          41.000  
G28  21164806.003   111221805.888       -1095.928          46.000    21164795.598    86666301.293        -854.093          46.000  
G26  20405790.498   107233148.321         910.527          48.000    20405783.452    83558277.828         709.613          46.000  
G31  20639421.688   108460889.902         267.260          47.000    20639410.873    84514937.800         208.467          45.000  
C33  22459477.412   116952388.109        -459.458          50.000                                                                  
C06  36560037.372   190377709.084        -174.956          45.000    36560020.173   147212049.758        -135.316          48.000  
C14  22503912.384   117183765.435       -2059.346          46.000    22503897.771    90613867.471       -1592.339          51.000  
C16  36985376.514   192592556.551        -209.845          48.000    36985364.337   148924733.738        -162.302          48.000  
C24  21779317.401   113410623.770        -762.034          50.000                                                                  
C26  24230525.109   126174696.323       -2541.256          45.000                                                                  
G03  22890055.525   120288049.611         156.511          40.000    22890049.240    93730915.411         121.892          37.000  
G16  22665260.635   119106741.960        3120.866          41.000                                                                  
C09  37712301.260   196377851.691        -165.690          43.000    37712287.586   151851753.732        -128.078          48.000  
C25  23774181.079   123798399.284        1656.720          45.000                                                                  
C13  38190300.388   198866923.255       -2219.885          42.000    38190293.975   153776489.402       -1716.380          43.000  
C08  39003986.002   203103993.121       -2433.018          37.000    39003973.924   157052822.745       -1881.220          43.000  
G04  24737732.630   129997646.915        3202.260          34.000    24737729.738   101296874.942        2495.581          41.000  
G25  24095068.926   126620447.043       -3895.083          38.000    24095062.349    98665255.853       -3035.451          35.000  
C10                                                                  40569121.805   163355079.392         715.791          38.000  
> 2025 10 30 06 13 27.7200000  0 20                     
G32  21802726.687   114574102.861       -2741.389          46.000    21802720.993    89278494.062       -2136.245          44.000  
G29  23037270.020   121061681.343        -327.167          42.000    23037261.069    94333741.532        -254.827          41.000  
G28  21164814.349   111221849.728       -1095.938          46.000    21164803.941    86666335.451        -853.973          46.000  
G26  20405783.579   107233111.893         910.632          48.000    20405776.502    83558249.444         709.606          46.000  
G31  20639419.642   108460879.198         267.506          47.000    20639408.838    84514929.464         208.460          45.000  
C33  22459480.942   116952406.488        -459.469          50.000                                                                  
C06  36560038.722   190377716.083        -174.957          45.000    36560021.521   147212055.168        -135.282          48.000  
C14  22503928.211   117183847.802       -2059.265          46.000    22503913.602    90613931.168       -1592.403          51.000  
C16  36985378.159   192592564.943        -209.778          48.000    36985365.941   148924740.230        -162.298          48.000  
C24  21779323.271   113410654.246        -761.938          50.000                                                                  
C26  24230544.625   126174797.979       -2541.313          45.000                                                                  
G03  22890054.357   120288043.346         156.571          40.000    22890048.034    93730910.511         122.303          37.000  
G16  22665236.886   119106617.126        3120.873          41.000                                                                  
C09  37712302.563   196377858.309        -165.563          43.000    37712288.854   151851758.841        -127.830          48.000  
C25  23774168.333   123798333.013        1656.744          45.000                                                                  
C13  38190317.430   198867012.038       -2219.696          42.000    38190311.035   153776558.053       -1716.288          43.000  
C08  39004004.680   203104090.418       -2432.716          37.000    39003992.596   157052897.987       -1881.108          43.000  
G04  24737708.220   129997518.834        3201.969          34.000    24737705.368   101296775.144        2495.140          41.000  
G25  24095098.566   126620602.835       -3894.833          38.000    24095091.989    98665377.265       -3035.486          35.000  
C10                                                                  40569114.693   163355050.742         716.214          38.000  
> 2025 10 30 06 13 27.7600000  0 20                     
G32  21802747.531   114574212.519       -2741.478          46.000    21802741.859    89278579.507       -2136.226          44.000  
G29  23037272.516   121061694.435        -327.314          42.000    23037263.573    94333751.737        -255.029          41.000  
G28  21164822.710   111221893.576       -1096.095          46.000    21164812.303    86666369.619        -854.086          46.000  
G26  20405776.646   107233075.466         910.663          48.000    20405769.571    83558221.061         709.582          46.000  
G31  20639417.584   108460868.495         267.592          47.000    20639406.819    84514921.130         208.411          45.000  
C33  22459484.441   116952424.865        -459.450          50.000                                                                  
C06  36560040.070   190377723.079        -174.926          45.000    36560022.830   147212060.578        -135.295          48.000  
C14  22503944.035   117183930.180       -2059.406          46.000    22503929.398    90613994.862       -1592.377          51.000  
C16  36985379.772   192592573.336        -209.808          48.000    36985367.536   148924746.719        -162.268          48.000  
C24  21779329.104   113410684.724        -761.922          50.000                                                                  
C26  24230564.127   126174899.627       -2541.230          45.000                                                                  
G03  22890053.168   120288037.070         156.785          40.000    22890046.853    93730905.651         121.779          37.000  
G16  22665213.129   119106492.288        3120.931          41.000                                                                  
C09  37712303.815   196377864.926        -165.470          43.000    37712290.114   151851763.962        -127.923          48.000  
C25  23774155.621   123798266.745        1656.726          45.000                                                                  
C13  38190334.461   198867100.824       -2219.646          42.000    38190328.109   153776626.698       -1716.159          43.000  
C08  39004023.360   203104187.731       -2432.804          37.000    39004011.273   157052973.227       -1881.027          43.000  
G04  24737683.826   129997390.686        3203.042          34.000    24737680.986   101296675.331        2495.190          41.000  
G25  24095128.225   126620758.639       -3894.989          38.000    24095121.635    98665498.648       -3034.960          35.000  
C10                                                                  40569107.554   163355022.099         716.237          38.000  
> 2025 10 30 06 13 27.8000000  0 20                     
G32  21802768.379   114574322.175       -2741.469          46.000    21802762.739    89278664.955       -2136.251          44.000  
G29  23037275.008   121061707.525        -327.344          42.000    23037266.083    94333761.944        -255.203          41.000  
G28  21164831.074   111221937.423       -1096.172          46.000    21164820.630    86666403.777        -854.000          46.000  
G26  20405769.711   107233039.043         910.583          48.000    20405762.619    83558192.677         709.594          46.000  
G31  20639415.558   108460857.789         267.671          47.000    20639404.776    84514912.793         208.423          45.000  
C33  22459487.992   116952443.239        -459.379          50.000                                                                  
C06  36560041.476   190377730.065        -174.711          45.000    36560024.153   147212065.985        -135.201          48.000  
C14  22503959.862   117184012.550       -2059.315          46.000    22503945.222    90614058.557       -1592.364          51.000  
C16  36985381.391   192592581.732        -209.902          48.000    36985369.119   148924753.209        -162.256          48.000  
C24  21779334.938   113410715.213        -762.114          50.000                                                                  
C26  24230583.616   126175001.284       -2541.354          45.000                                                                  
G03  22890051.986   120288030.818         156.469          40.000    22890045.658    93730900.769         121.941          37.000  
G16  22665189.357   119106367.439        3121.151          41.000                                                                  
C09  37712305.076   196377871.537        -165.339          43.000    37712291.368   151851769.088        -128.095          48.000  
C25  23774142.883   123798200.474        1656.720          45.000                                                                  
C13  38190351.529   198867189.605       -2219.541          42.000    38190345.150   153776695.369       -1716.609          43.000  
C08  39004042.046   203104285.046       -2432.895          37.000    39004029.981   157053048.484       -1881.285          43.000  
G04  24737659.433   129997262.586        3202.843          34.000    24737656.594   101296575.508        2495.415          41.000  
G25  24095157.895   126620914.448       -3895.134          38.000    24095151.271    98665620.056       -3035.074          35.000  
C10                                                                  40569100.437   163354993.457         716.180          38.000  
> 2025 10 30 06 13 27.8400000  0 20                     
G32  21802789.207   114574431.821       -2741.272          46.000    21802783.588    89278750.396       -2136.113          44.000  
G29  23037277.497   121061720.608        -327.198          42.000    23037268.582    94333772.137        -255.012          41.000  
G28  21164839.402   111221981.257       -1095.964          46.000    21164828.965    86666437.938        -854.001          46.000  
G26  20405762.810   107233002.625         910.472          48.000    20405755.688    83558164.301         709.459          46.000  
G31  20639413.522   108460847.090         267.535          47.000    20639402.719    84514904.449         208.539          45.000  
C33  22459491.514   116952461.616        -459.413          50.000                                                                  
C06  36560042.834   190377737.048        -174.608          45.000    36560025.488   147212071.388        -135.120          48.000  
C14  22503975.681   117184094.917       -2059.221          46.000    22503961.057    90614122.250       -1592.333          51.000  
C16  36985383.005   192592590.130        -209.991          48.000    36985370.746   148924759.700        -162.256          48.000  
C24  21779340.834   113410745.691        -762.038          50.000                                                                  
C26  24230603.155   126175102.938       -2541.371          45.000                                                                  
G03  22890050.796   120288024.564         156.321          40.000    22890044.479    93730895.892         121.922          37.000  
G16  22665165.610   119106242.605        3120.995          41.000                                                                  
C09  37712306.322   196377878.159        -165.463          43.000    37712292.631   151851774.208        -128.022          48.000  
C25  23774130.156   123798134.209        1656.628          45.000                                                                  
C13  38190368.555   198867278.386       -2219.531          42.000    38190362.234   153776764.021       -1716.457          43.000  
C08  39004060.726   203104382.341       -2432.602          37.000    39004048.681   157053123.719       -1881.105          43.000  
G04  24737635.071   129997134.495        3202.566          34.000    24737632.211   101296475.674        2495.758          41.000  
G25  24095187.541   126621070.237       -3894.814          38.000    24095180.924    98665741.466       -3035.169          35.000  
C10                                                                  40569093.338   163354964.822         715.940          38.000  
> 2025 10 30 06 13 27.8800000  0 20                     
G32  21802810.072   114574541.464       -2741.114          46.000    21802804.464    89278835.830       -2135.961          44.000  
G29  23037279.961   121061733.692        -327.110          42.000    23037271.077    94333782.319        -254.718          41.000  
G28  21164847.770   111222025.098       -1096.002          46.000    21164837.302    86666472.108        -854.184          46.000  
G26  20405755.871   107232966.191         910.706          48.000    20405748.736    83558135.915         709.595          46.000  
G31  20639411.508   108460836.394         267.393          47.000    20639400.693    84514896.114         208.409          45.000  
C33  22459495.045   116952479.987        -459.324          50.000                                                                  
C06  36560044.165   190377744.040        -174.701          45.000    36560026.808   147212076.790        -135.037          48.000  
C14  22503991.491   117184177.291       -2059.324          46.000    22503976.876    90614185.944       -1592.360          51.000  
C16  36985384.633   192592598.516        -209.788          48.000    36985372.381   148924766.188        -162.232          48.000  
C24  21779346.665   113410776.166        -761.949          50.000                                                                  
C26  24230622.689   126175204.583       -2541.196          45.000                                                                  
G03  22890049.595   120288018.299         156.473          40.000    22890043.287    93730891.016         121.904          37.000  
G16  22665141.864   119106117.766        3120.936          41.000                                                                  
C09  37712307.586   196377884.779        -165.533          43.000    37712293.904   151851779.319        -127.858          48.000  
C25  23774117.426   123798067.936        1656.744          45.000                                                                  
C13  38190385.592   198867367.168       -2219.506          42.000    38190379.267   153776832.670       -1716.282          43.000  
C08  39004079.385   203104479.668       -2432.987          37.000    39004067.332   157053198.955       -1880.966          43.000  
G04  24737610.696   129997006.386        3202.622          34.000    24737607.826   101296375.852        2495.687          41.000  
G25  24095217.175   126621226.016       -3894.424          38.000    24095210.581    98665862.858       -3034.937          35.000  
C10                                                                  40569086.195   163354936.184         715.879          39.000  
> 2025 10 30 06 13 27.9200000  0 20                     
G32  21802830.954   114574651.124       -2741.327          46.000    21802825.327    89278921.274       -2136.037          44.000  
G29  23037282.446   121061746.787        -327.300          42.000    23037273.547    94333792.513        -254.752          41.000  
G28  21164856.104   111222068.943       -1096.084          46.000    21164845.651    86666506.268        -854.094          46.000  
G26  20405748.928   107232929.760         910.773          48.000    20405741.799    83558107.540         709.459          46.000  
G31  20639409.452   108460825.686         267.566          47.000    20639398.653    84514887.773         208.459          45.000  
C33  22459498.546   116952498.368        -459.454          50.000                                                                  
C06  36560045.497   190377751.035        -174.834          45.000    36560028.121   147212082.197        -135.120          48.000  
C14  22504007.305   117184259.661       -2059.271          46.000    22503992.679    90614249.640       -1592.405          51.000  
C16  36985386.241   192592606.895        -209.578          48.000    36985374.012   148924772.673        -162.148          48.000  
C24  21779352.523   113410806.639        -761.888          50.000                                                                  
C26  24230642.205   126175306.227       -2541.094          45.000                                                                  
G03  22890048.398   120288012.021         156.800          40.000    22890042.058    93730886.108         122.456          37.000  
G16  22665118.127   119105992.923        3120.961          41.000                                                                  
C09  37712308.817   196377891.388        -165.328          43.000    37712295.185   151851784.433        -127.810          48.000  
C25  23774104.693   123798001.656        1656.891          45.000                                                                  
C13  38190402.635   198867455.952       -2219.588          42.000    38190396.282   153776901.312       -1716.116          43.000  
C08  39004098.082   203104576.974       -2432.781          37.000    39004086.014   157053274.197       -1881.020          43.000  
G04  24737586.333   129996878.277        3202.694          34.000    24737583.463   101296276.040        2495.457          41.000  
G25  24095246.854   126621381.850       -3895.273          38.000    24095240.235    98665984.248       -3034.726          35.000  
C10                                                                  40569079.088   163354907.545         715.854          38.000  
> 2025 10 30 06 13 27.9600000  0 20                     
G32  21802851.829   114574760.771       -2741.242          46.000    21802846.205    89279006.712       -2135.973          44.000  
G29  23037284.939   121061759.854        -326.916          42.000    23037276.043    94333802.709        -254.867          41.000  
G28  21164864.434   111222112.778       -1095.969          46.000    21164853.986    86666540.424        -853.976          46.000  
G26  20405742.023   107232893.335         910.674          48.000    20405734.859    83558079.152         709.601          46.000  
G31  20639407.424   108460814.987         267.486          47.000    20639396.625    84514879.436         208.453          45.000  
C33  22459502.079   116952516.744        -459.447          50.000                                                                  
C06  36560046.822   190377758.024        -174.799          45.000    36560029.469   147212087.604        -135.154          48.000  
C14  22504023.143   117184342.023       -2059.106          46.000    22504008.476    90614313.331       -1592.347          51.000  
C16  36985387.813   192592615.287        -209.699          48.000    36985375.646   148924779.160        -162.170          48.000  
C24  21779358.367   113410837.115        -761.869          50.000                                                                  
C26  24230661.717   126175407.876       -2541.161          45.000                                                                  
G03  22890047.193   120288005.743         156.934          40.000    22890040.859    93730881.223         122.298          37.000  
G16  22665094.356   119105868.070        3121.242          41.000                                                                  
C09  37712310.093   196377898.005        -165.330          43.000    37712296.476   151851789.542        -127.742          48.000  
C25  23774091.967   123797935.375        1657.025          45.000                                                                  
C13  38190419.693   198867544.730       -2219.475          42.000    38190413.316   153776969.964       -1716.224          43.000  
C08  39004116.770   203104674.268       -2432.551          37.000    39004104.686   157053349.444       -1881.125          43.000  
G04  24737561.957   129996750.160        3202.819          34.000    24737559.065   101296176.219        2495.479          41.000  
G25  24095276.509   126621537.632       -3894.892          38.000    24095269.897    98666105.660       -3035.110          35.000  
C10                                                                  40569071.984   163354878.893         716.143          39.000  
> 2025 10 30 06 13 28.0000000  0 20                     
G32  21802872.708   114574870.431       -2741.418          46.000    21802867.068    89279092.161       -2136.198          44.000  
G29  23037287.446   121061772.933        -326.907          42.000    23037278.542    94333812.920        -255.167          41.000  
G28  21164872.754   111222156.612       -1095.916          46.000    21164862.342    86666574.587        -854.045          46.000  
G26  20405735.095   107232856.910         910.625          48.000    20405727.921    83558050.764         709.668          46.000  
G31  20639405.385   108460804.282         267.578          47.000    20639394.603    84514871.098         208.459          45.000  
C33  22459505.604   116952535.118        -459.402          50.000                                                                  
C06  36560048.144   190377765.014        -174.763          45.000    36560030.852   147212093.011        -135.187          48.000  
C14  22504038.958   117184424.393       -2059.180          46.000    22504024.298    90614377.025       -1592.361          51.000  
C16  36985389.416   192592623.677        -209.767          48.000    36985377.293   148924785.648        -162.192          48.000  
C24  21779364.191   113410867.590        -761.899          50.000                                                                  
C26  24230681.241   126175509.521       -2541.150          45.000                                                                  
G03  22890045.995   120287999.474         156.812          40.000    22890039.682    93730876.326         122.377          37.000  
G16  22665070.619   119105743.236        3120.971          41.000                                                                  
C09  37712311.351   196377904.603        -165.046          43.000    37712297.752   151851794.656        -127.796          48.000  
C25  23774079.221   123797869.107        1656.781          45.000                                                                  
C13  38190436.763   198867633.513       -2219.544          42.000    38190430.392   153777038.609       -1716.162          43.000  
C08  39004135.471   203104771.574       -2432.589          37.000    39004123.359   157053424.692       -1881.180          43.000  
G04  24737537.587   129996622.065        3202.535          34.000    24737534.679   101296076.402        2495.399          41.000  
G25  24095306.127   126621693.414       -3894.595          37.000    24095299.548    98666227.053       -3034.914          35.000  
C10                                                                  40569064.854   163354850.254         716.078          39.000  
> 2025 10 30 06 13 28.0400000  0 20                     
G32  21802893.584   114574980.097       -2741.602          46.000    21802887.949    89279177.611       -2136.312          44.000  
G29  23037289.940   121061786.038        -327.438          42.000    23037281.041    94333823.122        -255.171          41.000  
G28  21164881.096   111222200.459       -1096.076          46.000    21164870.682    86666608.747        -854.031          46.000  
G26  20405728.165   107232820.487         910.558          48.000    20405720.987    83558022.383         709.569          46.000  
G31  20639403.319   108460793.580         267.559          47.000    20639392.559    84514862.759         208.465          45.000  
C33  22459509.100   116952553.500        -459.530          50.000                                                                  
C06  36560049.492   190377772.008        -174.823          45.000    36560032.204   147212098.422        -135.299          48.000  
C14  22504054.792   117184506.764       -2059.257          46.000    22504040.145    90614440.722       -1592.430          51.000  
C16  36985391.030   192592632.065        -209.753          48.000    36985378.915   148924792.136        -162.245          48.000  
C24  21779370.018   113410898.075        -762.056          50.000                                                                  
C26  24230700.778   126175611.163       -2541.086          45.000                                                                  
G03  22890044.828   120287993.221         156.466          40.000    22890038.507    93730871.463         121.844          37.000  
G16  22665046.875   119105618.405        3120.770          40.000                                                                  
C09  37712312.628   196377911.219        -165.202          43.000    37712299.041   151851799.775        -127.936          48.000  
C25  23774066.502   123797802.837        1656.726          45.000                                                                  
C13  38190453.790   198867722.299       -2219.657          42.000    38190447.433   153777107.259       -1716.224          43.000  
C08  39004154.181   203104868.896       -2432.888          37.000    39004142.035   157053499.939       -1881.197          43.000  
G04  24737513.199   129996493.961        3202.542          34.000    24737510.284   101295976.567        2495.695          41.000  
G25  24095335.782   126621849.194       -3894.455          38.000    24095329.193    98666348.451       -3034.932          35.000  
C10                                                                  40569057.743   163354821.632         715.696          39.000  
> 2025 10 30 06 13 28.0800000  0 20                     
G32  21802914.446   114575089.747       -2741.427          46.000    21802908.817    89279263.052       -2136.187          44.000  
G29  23037292.452   121061799.129        -327.470          42.000    23037283.545    94333833.318        -255.005          41.000  
G28  21164889.455   111222244.307       -1096.213          46.000    21164879.009    86666642.912        -854.090          46.000  
G26  20405721.235   107232784.065         910.515          48.000    20405714.056    83557993.999         709.545          46.000  
G31  20639401.297   108460782.876         267.578          47.000    20639390.521    84514854.425         208.397          45.000  
C33  22459512.615   116952571.882        -459.585          50.000                                                                  
C06  36560050.828   190377778.999        -174.817          45.000    36560033.535   147212103.827        -135.232          48.000  
C14  22504070.598   117184589.140       -2059.363          46.000    22504055.963    90614504.418       -1592.436          51.000  
C16  36985392.661   192592640.454        -209.758          48.000    36985380.502   148924798.621        -162.218          48.000  
C24  21779375.901   113410928.557        -762.125          50.000                                                                  
C26  24230720.289   126175712.816       -2541.257          45.000                                                                  
G03  22890043.652   120287986.961         156.380          40.000    22890037.335    93730866.596         121.661          37.000  
G16  22665023.115   119105493.570        3120.813          40.000                                                                  
C09  37712313.904   196377917.836        -165.316          43.000    37712300.296   151851804.893        -127.972          48.000  
C25  23774053.766   123797736.572        1656.586          45.000                                                                  
C13  38190470.846   198867811.075       -2219.475          42.000    38190464.512   153777175.902       -1716.125          43.000  
C08  39004172.860   203104966.185       -2432.440          37.000    39004160.745   157053575.179       -1881.068          43.000  
G04  24737488.844   129996365.872        3202.282          34.000    24737485.920   101295876.740        2495.687          41.000  
G25  24095365.437   126622005.007       -3894.919          38.000    24095358.836    98666469.850       -3034.979          35.000  
C10                                                                  40569050.629   163354792.998         715.720          39.000  
> 2025 10 30 06 13 28.1200000  0 20                     
G32  21802935.295   114575199.398       -2741.308          46.000    21802929.673    89279348.493       -2136.046          44.000  
G29  23037294.923   121061812.229        -327.516          42.000    23037286.042    94333843.520        -255.043          41.000  
G28  21164897.798   111222288.145       -1096.131          46.000    21164887.355    86666677.073        -854.083          46.000  
G26  20405714.317   107232747.650         910.367          48.000    20405707.128    83557965.619         709.465          46.000  
G31  20639399.277   108460772.180         267.436          47.000    20639388.474    84514846.078         208.595          45.000  
C33  22459516.158   116952590.262        -459.570          50.000                                                                  
C06  36560052.183   190377785.991        -174.843          45.000    36560034.902   147212109.226        -135.093          48.000  
C14  22504086.421   117184671.520       -2059.501          46.000    22504071.774    90614568.113       -1592.423          51.000  
C16  36985394.272   192592648.843        -209.752          48.000    36985382.086   148924805.109        -162.225          48.000  
C24  21779381.781   113410959.034        -762.057          50.000                                                                  
C26  24230739.796   126175814.461       -2541.221          45.000                                                                  
G03  22890042.473   120287980.702         156.358          40.000    22890036.126    93730861.710         121.929          37.000  
G16  22664999.382   119105368.739        3120.705          41.000                                                                  
C09  37712315.192   196377924.448        -165.336          43.000    37712301.572   151851810.004        -127.875          48.000  
C25  23774041.071   123797670.303        1656.622          45.000                                                                  
C13  38190487.873   198867899.868       -2219.680          42.000    38190481.564   153777244.564       -1716.475          43.000  
C08  39004191.548   203105063.472       -2432.185          37.000    39004179.427   157053650.422       -1881.034          43.000  
G04  24737464.507   129996237.794        3201.930          34.000    24737461.549   101295776.921        2495.514          41.000  
G25  24095395.101   126622160.845       -3895.639          38.000    24095388.479    98666591.246       -3035.034          35.000  
C10                                                                  40569043.516   163354764.339         716.184          38.000  
> 2025 10 30 06 13 28.1600000  0 20                     
G32  21802956.174   114575309.064       -2741.562          46.000    21802950.562    89279433.949       -2136.322          44.000  
G29  23037297.403   121061825.332        -327.639          42.000    23037288.541    94333853.732        -255.243          41.000  
G28  21164906.152   111222331.998       -1096.308          46.000    21164895.707    86666711.238        -854.137          46.000  
G26  20405707.376   107232711.233         910.331          48.000    20405700.232    83557937.248         709.262          46.000  
G31  20639397.259   108460761.494         267.146          47.000    20639386.446    84514837.750         208.311          45.000  
C33  22459519.666   116952608.651        -459.722          50.000                                                                  
C06  36560053.548   190377792.980        -174.775          45.000    36560036.279   147212114.639        -135.247          48.000  
C14  22504102.225   117184753.907       -2059.694          46.000    22504087.589    90614631.819       -1592.638          51.000  
C16  36985395.864   192592657.242        -209.952          48.000    36985383.710   148924811.604        -162.380          48.000  
C24  21779387.595   113410989.521        -762.179          50.000                                                                  
C26  24230759.307   126175916.130       -2541.618          45.000                                                                  
G03  22890041.274   120287974.453         156.127          40.000    22890034.964    93730856.850         121.602          37.000  
G16  22664975.642   119105243.901        3120.796          41.000                                                                  
C09  37712316.450   196377931.078        -165.684          43.000    37712302.850   151851815.128        -128.054          48.000  
C25  23774028.371   123797604.037        1656.580          45.000                                                                  
C13  38190504.923   198867988.662       -2219.886          42.000    38190498.622   153777313.237       -1716.833          43.000  
C08  39004210.227   203105160.794       -2432.787          37.000    39004198.120   157053725.663       -1881.021          43.000  
G04  24737440.110   129996109.689        3202.214          34.000    24737437.193   101295677.122        2495.073          41.000  
G25  24095424.742   126622316.646       -3895.412          37.000    24095418.129    98666712.671       -3035.521          35.000  
C10                                                                  40569036.384   163354735.701         716.025          38.000  
> 2025 10 30 06 13 28.2000000  0 20                     
G32  21802977.049   114575418.733       -2741.728          46.000    21802971.435    89279519.410       -2136.524          44.000  
G29  23037299.869   121061838.446        -327.876          42.000    23037291.034    94333863.957        -255.593          41.000  
G28  21164914.506   111222375.858       -1096.546          46.000    21164904.073    86666745.420        -854.480          46.000  
G26  20405700.472   107232674.832         910.011          48.000    20405693.317    83557908.887         708.998          46.000  
G31  20639395.239   108460750.823         266.766          47.000    20639384.426    84514829.429         208.015          45.000  
C33  22459523.163   116952627.054        -460.052          50.000                                                                  
C06  36560054.867   190377799.994        -175.211          45.000    36560037.659   147212120.056        -135.400          48.000  
C14  22504118.051   117184836.305       -2059.949          46.000    22504103.400    90614695.535       -1592.921          51.000  
C16  36985397.479   192592665.647        -210.162          48.000    36985385.325   148924818.104        -162.529          48.000  
C24  21779393.419   113411020.022        -762.493          50.000                                                                  
C26  24230778.819   126176017.798       -2541.810          45.000                                                                  
G03  22890040.090   120287968.219         155.798          40.000    22890033.777    93730851.997         121.278          37.000  
G16  22664951.892   119105119.088        3120.403          40.000                                                                  
C09  37712317.712   196377937.715        -165.970          43.000    37712304.100   151851820.264        -128.356          48.000  
C25  23774015.608   123797537.783        1656.360          45.000                                                                  
C13  38190521.981   198868077.458       -2219.970          42.000    38190515.675   153777381.907       -1716.909          43.000  
C08  39004228.916   203105258.127       -2433.217          37.000    39004216.839   157053800.930       -1881.482          43.000  
G04  24737415.736   129995981.558        3203.042          34.000    24737412.831   101295577.305        2495.206          41.000  
G25  24095454.385   126622472.458       -3895.438          37.000    24095447.778    98666834.090       -3035.662          35.000  
C10                                                                  40569029.259   163354707.083         715.555          38.000  
> 2025 10 30 06 13 28.2400000  0 20                     
G32  21802997.945   114575528.412       -2742.016          46.000    21802992.294    89279604.871       -2136.594          44.000  
G29  23037302.362   121061851.548        -327.713          42.000    23037293.508    94333874.165        -255.380          41.000  
G28  21164922.850   111222419.722       -1096.679          46.000    21164912.429    86666779.601        -854.615          46.000  
G26  20405693.540   107232638.428         909.976          48.000    20405686.371    83557880.517         709.086          46.000  
G31  20639393.192   108460740.135         266.978          47.000    20639382.407    84514821.114         207.814          45.000  
C33  22459526.658   116952645.458        -460.203          50.000                                                                  
C06  36560056.225   190377807.002        -175.292          45.000    36560039.025   147212125.482        -135.637          48.000  
C14  22504133.888   117184918.689       -2059.809          46.000    22504119.226    90614759.249       -1592.990          51.000  
C16  36985399.098   192592674.059        -210.374          48.000    36985386.920   148924824.604        -162.575          48.000  
C24  21779399.280   113411050.523        -762.615          50.000                                                                  
C26  24230798.317   126176119.466       -2541.839          45.000                                                                  
G03  22890038.897   120287961.983         155.736          40.000    22890032.583    93730847.126         121.484          37.000  
G16  22664928.154   119104994.263        3120.461          41.000                                                                  
C09  37712318.978   196377944.345        -165.936          43.000    37712305.355   151851825.393        -128.350          48.000  
C25  23774002.893   123797471.530        1656.268          45.000                                                                  
C13  38190539.036   198868166.275       -2220.329          42.000    38190532.725   153777450.567       -1716.726          43.000  
C08  39004247.598   203105355.458       -2433.430          37.000    39004235.573   157053876.179       -1881.416          43.000  
G04  24737391.382   129995853.452        3202.915          34.000    24737388.461   101295477.496        2495.177          41.000  
G25  24095484.025   126622628.257       -3895.215          37.000    24095477.435    98666955.517       -3035.796          35.000  
C10                                                                  40569022.147   163354678.465         715.287          38.000  
> 2025 10 30 06 13 28.2800000  0 20                     
G32  21803018.827   114575638.093       -2742.180          46.000    21803013.174    89279690.337       -2136.688          44.000  
G29  23037304.858   121061864.656        -327.731          42.000    23037295.997    94333884.384        -255.479          41.000  
G28  21164931.192   111222463.574       -1096.527          46.000    21164920.776    86666813.771        -854.484          46.000  
G26  20405686.599   107232602.020         910.088          48.000    20405679.436    83557852.154         709.019          46.000  
G31  20639391.139   108460729.439         267.262          47.000    20639380.359    84514812.790         207.908          45.000  
C33  22459530.201   116952663.850        -460.002          50.000                                                                  
C06  36560057.578   190377814.007        -175.261          45.000    36560040.381   147212130.896        -135.515          48.000  
C14  22504149.723   117185001.079       -2059.807          46.000    22504135.059    90614822.959       -1592.909          51.000  
C16  36985400.731   192592682.465        -210.345          48.000    36985388.538   148924831.100        -162.500          48.000  
C24  21779405.145   113411081.011        -762.427          50.000                                                                  
C26  24230817.852   126176221.121       -2541.589          45.000                                                                  
G03  22890037.710   120287955.736         155.948          40.000    22890031.400    93730842.252         121.660          37.000  
G16  22664904.392   119104869.436        3120.573          40.000                                                                  
C09  37712320.292   196377950.976        -165.894          43.000    37712306.602   151851830.514        -128.155          48.000  
C25  23773990.173   123797405.278        1656.244          45.000                                                                  
C13  38190556.113   198868255.067       -2220.064          42.000    38190549.791   153777519.228       -1716.601          43.000  
C08  39004266.287   203105452.775       -2433.266          37.000    39004254.232   157053951.434       -1881.458          43.000  
G04  24737367.024   129995725.382        3202.233          34.000    24737364.067   101295377.689        2495.075          41.000  
G25  24095513.681   126622784.078       -3895.422          37.000    24095507.077    98667076.914       -3035.291          35.000  
C10                                                                  40569015.052   163354649.855         715.068          38.000  
> 2025 10 30 06 13 28.3200000  0 20                     
G32  21803039.689   114575747.763       -2741.985          46.000    21803034.034    89279775.793       -2136.519          44.000  
G29  23037307.358   121061877.754        -327.478          42.000    23037298.496    94333894.592        -255.322          41.000  
G28  21164939.537   111222507.433       -1096.516          46.000    21164929.116    86666847.949        -854.506          46.000  
G26  20405679.653   107232565.609         910.193          48.000    20405672.492    83557823.778         709.241          46.000  
G31  20639389.126   108460718.750         267.249          47.000    20639378.313    84514804.451         208.284          45.000  
C33  22459533.746   116952682.242        -459.873          50.000                                                                  
C06  36560058.914   190377820.999        -174.994          45.000    36560041.725   147212136.303        -135.302          48.000  
C14  22504165.563   117185083.461       -2059.648          46.000    22504150.865    90614886.665       -1592.767          51.000  
C16  36985402.333   192592690.864        -210.165          48.000    36985390.167   148924837.598        -162.505          48.000  
C24  21779411.021   113411111.504        -762.361          50.000                                                                  
C26  24230837.347   126176322.780       -2541.518          45.000                                                                  
G03  22890036.493   120287949.480         156.262          40.000    22890030.198    93730837.380         121.741          37.000  
G16  22664880.632   119104744.625        3120.319          41.000                                                                  
C09  37712321.601   196377957.598        -165.650          43.000    37712307.915   151851835.628        -127.934          48.000  
C25  23773977.448   123797339.015        1656.439          45.000                                                                  
C13  38190573.141   198868343.847       -2219.678          42.000    38190566.865   153777587.892       -1716.627          43.000  
C08  39004284.996   203105550.085       -2433.017          37.000    39004272.923   157054026.677       -1881.240          43.000  
G04  24737342.668   129995597.311        3201.782          34.000    24737339.698   101295277.874        2495.244          41.000  
G25  24095543.346   126622939.896       -3895.504          37.000    24095536.728    98667198.346       -3035.606          35.000  
C10                                                                  40569007.942   163354621.229         715.376          38.000  
> 2025 10 30 06 13 28.3600000  0 20                     
G32  21803060.547   114575857.425       -2741.695          46.000    21803054.893    89279861.238       -2136.253          44.000  
G29  23037309.864   121061890.853        -327.424          42.000    23037300.990    94333904.808        -255.334          41.000  
G28  21164947.890   111222551.277       -1096.221          46.000    21164937.464    86666882.116        -854.302          46.000  
G26  20405672.728   107232529.195         910.285          48.000    20405665.557    83557795.405         709.302          46.000  
G31  20639387.099   108460708.056         267.353          47.000    20639376.265    84514796.121         208.283          45.000  
C33  22459537.274   116952700.634        -459.799          50.000                                                                  
C06  36560060.262   190377827.987        -174.761          45.000    36560043.059   147212141.708        -135.161          48.000  
C14  22504181.398   117185165.840       -2059.530          46.000    22504166.706    90614950.363       -1592.547          51.000  
C16  36985403.961   192592699.253        -209.855          48.000    36985391.813   148924844.085        -162.284          48.000  
C24  21779416.919   113411141.987        -762.173          50.000                                                                  
C26  24230856.871   126176424.434       -2541.417          45.000                                                                  
G03  22890035.291   120287943.227         156.379          40.000    22890029.000    93730832.510         121.696          37.000  
G16  22664856.873   119104619.779        3120.842          40.000                                                                  
C09  37712322.864   196377964.208        -165.336          43.000    37712309.188   151851840.742        -127.843          48.000  
C25  23773964.750   123797272.750        1656.580          45.000                                                                  
C13  38190590.157   198868432.630       -2219.576          42.000    38190583.945   153777656.547       -1716.466          43.000  
C08  39004303.698   203105647.409       -2433.134          37.000    39004291.604   157054101.913       -1880.978          43.000  
G04  24737318.309   129995469.210        3202.118          34.000    24737315.320   101295178.064        2495.258          41.000  
G25  24095572.993   126623095.671       -3894.762          37.000    24095566.372    98667319.745       -3035.209          35.000  
C10                                                                  40569000.812   163354592.579         715.999          38.000  
> 2025 10 30 06 13 28.4000000  0 20                     
G32  21803081.442   114575967.100       -2741.797          46.000    21803075.750    89279946.694       -2136.313          44.000  
G29  23037312.336   121061903.953        -327.458          42.000    23037303.480    94333915.025        -255.436          41.000  
G28  21164956.225   111222595.110       -1095.907          46.000    21164945.799    86666916.278        -854.137          46.000  
G26  20405665.784   107232492.797         910.032          48.000    20405658.630    83557767.037         709.259          46.000  
G31  20639385.086   108460697.368         267.254          47.000    20639374.229    84514787.792         208.233          45.000  
C33  22459540.786   116952719.035        -459.954          50.000                                                                  
C06  36560061.624   190377834.992        -174.974          45.000    36560044.397   147212147.116        -135.161          48.000  
C14  22504197.203   117185248.231       -2059.697          46.000    22504182.554    90615014.068       -1592.583          51.000  
C16  36985405.528   192592707.647        -209.797          48.000    36985393.461   148924850.569        -162.147          48.000  
C24  21779422.765   113411172.477        -762.212          50.000                                                                  
C26  24230876.393   126176526.086       -2541.317          45.000                                                                  
G03  22890034.098   120287936.984         156.206          40.000    22890027.821    93730827.656         121.362          37.000  
G16  22664833.117   119104494.963        3120.571          41.000                                                                  
C09  37712324.158   196377970.833        -165.450          43.000    37712310.443   151851845.864        -127.955          48.000  
C25  23773952.021   123797206.491        1656.494          45.000                                                                  
C13  38190607.203   198868521.425       -2219.784          42.000    38190601.007   153777725.208       -1716.517          43.000  
C08  39004322.387   203105744.699       -2432.588          37.000    39004310.285   157054177.165       -1881.160          43.000  
G04  24737293.919   129995341.115        3202.259          34.000    24737290.923   101295078.247        2495.352          41.000  
G25  24095602.629   126623251.479       -3894.982          37.000    24095596.001    98667441.106       -3034.427          35.000  
C10                                                                  40568993.693   163354563.934         716.179          38.000  
> 2025 10 30 06 13 28.4400000  0 20                     
G32  21803102.308   114576076.759       -2741.543          46.000    21803096.645    89280032.161       -2136.564          44.000  
G29  23037314.827   121061917.083        -328.005          42.000    23037305.969    94333925.244        -255.485          41.000  
G28  21164964.581   111222638.970       -1096.263          46.000    21164954.161    86666950.454        -854.292          46.000  
G26  20405658.859   107232456.396         909.971          48.000    20405651.709    83557738.676         709.055          46.000  
G31  20639383.086   108460686.698         266.885          47.000    20639372.216    84514779.465         208.184          45.000  
C33  22459544.280   116952737.438        -460.089          50.000                                                                  
C06  36560062.952   190377841.999        -175.153          45.000    36560045.707   147212152.531        -135.270          48.000  
C14  22504213.026   117185330.629       -2059.924          46.000    22504198.364    90615077.782       -1592.775          51.000  
C16  36985407.109   192592716.045        -209.881          48.000    36985395.104   148924857.067        -162.321          48.000  
C24  21779428.611   113411202.974        -762.356          50.000                                                                  
C26  24230895.904   126176627.746       -2541.429          45.000                                                                  
G03  22890032.913   120287930.736         156.213          40.000    22890026.636    93730822.795         121.365          37.000  
G16  22664809.375   119104370.142        3120.495          41.000                                                                  
C09  37712325.402   196377977.472        -165.820          43.000    37712311.742   151851850.994        -128.171          48.000  
C25  23773939.302   123797140.228        1656.543          45.000                                                                  
C13  38190624.237   198868610.236       -2220.169          42.000    38190618.062   153777793.873       -1716.617          43.000  
C08  39004341.064   203105842.000       -2432.462          37.000    39004329.001   157054252.424       -1881.394          43.000  
G04  24737269.554   129995213.023        3202.241          34.000    24737266.541   101294978.448        2495.066          41.000  
G25  24095632.279   126623407.286       -3895.041          37.000    24095625.653    98667562.550       -3035.555          35.000  
C10                                                                  40568986.608   163354535.292         716.211          38.000  
> 2025 10 30 06 13 28.4800000  0 20                     
G32  21803123.160   114576186.418       -2741.494          46.000    21803117.503    89280117.612       -2136.436          44.000  
G29  23037317.288   121061930.197        -328.013          42.000    23037308.468    94333935.444        -255.151          41.000  
G28  21164972.920   111222682.824       -1096.331          46.000    21164962.516    86666984.625        -854.302          46.000  
G26  20405651.912   107232419.994         909.959          48.000    20405644.773    83557710.308         709.093          46.000  
G31  20639381.048   108460676.010         267.040          47.000    20639370.185    84514771.135         208.240          45.000  
C33  22459547.830   116952755.833        -460.009          50.000                                                                  
C06  36560064.306   190377849.004        -175.186          45.000    36560047.015   147212157.948        -135.408          48.000  
C14  22504228.846   117185413.022       -2059.888          46.000    22504214.194    90615141.488       -1592.728          51.000  
C16  36985408.692   192592724.444        -209.941          48.000    36985396.747   148924863.562        -162.366          48.000  
C24  21779434.464   113411233.471        -762.439          50.000                                                                  
C26  24230915.451   126176729.405       -2541.455          45.000                                                                  
G03  22890031.733   120287924.500         155.988          40.000    22890025.424    93730817.916         121.693          37.000  
G16  22664785.596   119104245.307        3120.758          41.000                                                                  
C09  37712326.679   196377984.095        -165.748          43.000    37712313.025   151851856.119        -128.194          48.000  
C25  23773926.553   123797073.976        1656.372          45.000                                                                  
C13  38190641.282   198868699.041       -2220.240          42.000    38190635.111   153777862.534       -1716.584          43.000  
C08  39004359.734   203105939.313       -2432.661          37.000    39004347.715   157054327.686       -1881.573          43.000  
G04  24737245.167   129995084.925        3202.401          34.000    24737242.165   101294878.606        2495.650          41.000  
G25  24095661.923   126623563.109       -3895.407          37.000    24095655.318    98667683.970       -3035.719          35.000  
C10                                                                  40568979.518   163354506.645         716.303          38.000  
> 2025 10 30 06 13 28.5200000  0 20                     
G32  21803144.031   114576296.097       -2741.807          46.000    21803138.357    89280203.069       -2136.456          44.000  
G29  23037319.772   121061943.302        -327.827          42.000    23037310.971    94333945.659        -255.286          41.000  
G28  21164981.253   111222726.680       -1096.430          46.000    21164970.867    86667018.785        -854.088          46.000  
G26  20405644.985   107232383.579         910.237          48.000    20405637.814    83557681.932         709.266          46.000  
G31  20639378.998   108460665.312         267.305          47.000    20639368.159    84514762.803         208.276          45.000  
C33  22459551.378   116952774.227        -459.906          50.000                                                                  
C06  36560065.650   190377855.988        -174.819          45.000    36560048.326   147212163.362        -135.397          48.000  
C14  22504244.682   117185495.402       -2059.625          46.000    22504230.029    90615205.197       -1592.727          51.000  
C16  36985410.316   192592732.840        -209.954          48.000    36985398.352   148924870.052        -162.313          48.000  
C24  21779440.329   113411263.955        -762.232          50.000                                                                  
C26  24230934.960   126176831.056       -2541.347          45.000                                                                  
G03  22890030.539   120287918.262         155.914          40.000    22890024.240    93730813.058         121.484          37.000  
G16  22664761.833   119104120.474        3120.837          41.000                                                                  
C09  37712327.977   196377990.706        -165.455          43.000    37712314.319   151851861.237        -128.065          48.000  
C25  23773913.847   123797007.715        1656.427          45.000                                                                  
C13  38190658.327   198868787.834       -2220.040          42.000    38190652.133   153777931.190       -1716.441          43.000  
C08  39004378.432   203106036.633       -2432.878          37.000    39004366.394   157054402.934       -1881.397          42.000  
G04  24737220.771   129994956.836        3202.263          34.000    24737217.774   101294778.778        2495.710          41.000  
G25  24095691.568   126623718.915       -3895.284          37.000    24095684.955    98667805.372       -3035.427          35.000  
C10                                                                  40568972.443   163354478.020         715.852          36.000  
> 2025 10 30 06 13 28.5600000  0 20                     
G32  21803164.904   114576405.767       -2741.834          46.000    21803159.242    89280288.528       -2136.473          44.000  
G29  23037322.270   121061956.409        -327.740          42.000    23037313.468    94333955.879        -255.463          41.000  
G28  21164989.622   111222770.542       -1096.542          46.000    21164979.208    86667052.964        -854.341          46.000  
G26  20405638.050   107232347.174         910.187          48.000    20405630.883    83557653.566         709.191          46.000  
G31  20639376.977   108460654.628         267.168          47.000    20639366.131    84514754.481         208.110          45.000  
C33  22459554.921   116952792.623        -459.908          50.000                                                                  
C06  36560066.972   190377862.978        -174.729          45.000    36560049.675   147212168.767        -135.256          48.000  
C14  22504260.503   117185577.789       -2059.622          46.000    22504245.859    90615268.906       -1592.752          51.000  
C16  36985411.917   192592741.235        -209.922          48.000    36985399.947   148924876.543        -162.293          48.000  
C24  21779446.179   113411294.444        -762.217          50.000                                                                  
C26  24230954.484   126176932.710       -2541.338          45.000                                                                  
G03  22890029.356   120287912.016         156.067          40.000    22890023.053    93730808.207         121.247          37.000  
G16  22664738.075   119103995.653        3120.611          41.000                                                                  
C09  37712329.255   196377997.325        -165.432          43.000    37712315.608   151851866.351        -127.926          48.000  
C25  23773901.140   123796941.455        1656.470          45.000                                                                  
C13  38190675.377   198868876.614       -2219.653          42.000    38190669.217   153777999.855       -1716.573          43.000  
C08  39004397.114   203106133.967       -2433.223          37.000    39004385.077   157054478.172       -1881.089          42.000  
G04  24737196.409   129994828.730        3202.541          34.000    24737193.402   101294678.972        2495.357          41.000  
G25  24095721.185   126623874.720       -3895.204          37.000    24095714.590    98667926.772       -3035.144          35.000  
C10                                                                  40568965.361   163354449.375         715.916          36.000  
> 2025 10 30 06 13 28.6000000  0 20                     
G32  21803185.778   114576515.451       -2742.044          46.000    21803180.127    89280373.985       -2136.460          44.000  
G29  23037324.769   121061969.526        -327.827          42.000    23037315.974    94333966.102        -255.560          41.000  
G28  21164997.947   111222814.393       -1096.438          46.000    21164987.553    86667087.146        -854.552          46.000  
G26  20405631.134   107232310.777         909.983          48.000    20405623.960    83557625.206         709.025          46.000  
G31  20639374.901   108460643.935         267.267          47.000    20639364.080    84514746.156         208.086          45.000  
C33  22459558.445   116952811.022        -459.972          50.000                                                                  
C06  36560068.298   190377869.986        -175.006          45.000    36560051.009   147212174.175        -135.194          48.000  
C14  22504276.307   117185660.184       -2059.750          46.000    22504261.703    90615332.619       -1592.847          51.000  
C16  36985413.541   192592749.634        -209.979          48.000    36985401.553   148924883.039        -162.358          48.000  
C24  21779452.031   113411324.939        -762.310          50.000                                                                  
C26  24230974.004   126177034.376       -2541.552          45.000                                                                  
G03  22890028.188   120287905.784         155.852          40.000    22890021.855    93730803.350         121.282          37.000  
G16  22664714.319   119103870.824        3120.645          41.000                                                                  
C09  37712330.518   196378003.949        -165.555          43.000    37712316.902   151851871.463        -127.808          48.000  
C25  23773888.417   123796875.192        1656.537          45.000                                                                  
C13  38190692.400   198868965.395       -2219.514          42.000    38190686.231   153778068.524       -1716.697          43.000  
C08  39004415.805   203106231.269       -2432.808          37.000    39004403.760   157054553.427       -1881.209          42.000  
G04  24737172.040   129994700.651        3202.182          34.000    24737169.043   101294579.173        2495.009          41.000  
G25  24095750.838   126624030.525       -3895.187          37.000    24095744.248    98668048.175       -3035.006          35.000  
C10                                                                  40568958.280   163354420.760         715.521          36.000  
> 2025 10 30 06 13 28.6400000  0 20                     
G32  21803206.625   114576625.128       -2742.043          46.000    21803201.003    89280459.455       -2136.688          44.000  
G29  23037327.260   121061982.635        -327.752          42.000    23037318.487    94333976.320        -255.527          41.000  
G28  21165006.322   111222858.251       -1096.498          46.000    21164995.888    86667121.313        -854.371          46.000  
G26  20405624.178   107232274.375         909.965          48.000    20405617.053    83557596.843         709.019          46.000  
G31  20639372.872   108460633.257         267.008          47.000    20639362.051    84514737.833         208.037          45.000  
C33  22459561.949   116952829.431        -460.188          50.000                                                                  
C06  36560069.639   190377876.985        -175.038          45.000    36560052.344   147212179.592        -135.348          48.000  
C14  22504292.107   117185742.581       -2059.896          46.000    22504277.548    90615396.330       -1592.833          51.000  
C16  36985415.190   192592758.030        -209.939          48.000    36985403.158   148924889.535        -162.416          48.000  
C24  21779457.893   113411355.430        -762.303          50.000                                                                  
C26  24230993.526   126177136.041       -2541.645          45.000                                                                  
G03  22890027.010   120287899.561         155.623          40.000    22890020.663    93730798.484         121.485          37.000  
G16  22664690.570   119103746.011        3120.410          41.000                                                                  
C09  37712331.805   196378010.580        -165.725          43.000    37712318.165   151851876.589        -128.046          48.000  
C25  23773875.689   123796808.943        1656.317          45.000                                                                  
C13  38190709.465   198869054.190       -2219.683          42.000    38190703.291   153778137.180       -1716.534          43.000  
C08  39004434.487   203106328.574       -2432.662          37.000    39004422.456   157054628.667       -1881.061          42.000  
G04  24737147.645   129994572.557        3202.218          34.000    24737144.654   101294479.352        2495.255          41.000  
G25  24095780.482   126624186.332       -3895.173          37.000    24095773.881    98668169.592       -3035.307          35.000  
C10                                                                  40568951.170   163354392.143         715.337          36.000  
> 2025 10 30 06 13 28.6800000  0 20                     
G32  21803227.465   114576734.804       -2742.001          46.000    21803221.891    89280544.918       -2136.676          44.000  
G29  23037329.756   121061995.755        -327.942          42.000    23037320.985    94333986.538        -255.495          41.000  
G28  21165014.681   111222902.102       -1096.397          46.000    21165004.228    86667155.489        -854.396          46.000  
G26  20405617.255   107232237.979         909.885          48.000    20405610.127    83557568.478         709.063          46.000  
G31  20639370.860   108460622.582         266.836          47.000    20639360.031    84514729.514         207.957          45.000  
C33  22459565.466   116952847.841        -460.299          50.000                                                                  
C06  36560070.958   190377883.992        -175.179          45.000    36560053.716   147212185.006        -135.378          48.000  
C14  22504307.917   117185824.982       -2060.020          46.000    22504293.370    90615460.046       -1592.888          51.000  
C16  36985416.818   192592766.433        -210.036          48.000    36985404.749   148924896.032        -162.459          48.000  
C24  21779463.713   113411385.931        -762.486          50.000                                                                  
C26  24231013.072   126177237.700       -2541.579          45.000                                                                  
G03  22890025.832   120287893.327         155.702          40.000    22890019.472    93730793.614         121.659          37.000  
G16  22664666.815   119103621.201        3120.178          41.000                                                                  
C09  37712333.084   196378017.203        -165.686          43.000    37712319.430   151851881.709        -128.051          48.000  
C25  23773862.994   123796742.688        1656.317          45.000                                                                  
C13  38190726.523   198869142.989       -2219.883          42.000    38190720.328   153778205.834       -1716.385          43.000  
C08  39004453.165   203106425.894       -2432.841          37.000    39004441.140   157054703.925       -1881.284          42.000  
G04  24737123.284   129994444.448        3202.568          34.000    24737120.278   101294379.555        2494.943          41.000  
G25  24095810.134   126624342.148       -3895.347          37.000    24095803.541    98668291.027       -3035.791          35.000  
C10                                                                  40568944.060   163354363.500         715.749          36.000  
> 2025 10 30 06 13 28.7200000  0 20                     
G32  21803248.339   114576844.480       -2742.001          46.000    21803242.762    89280630.380       -2136.641          44.000  
G29  23037332.253   121062008.882        -328.160          42.000    23037323.486    94333996.756        -255.469          41.000  
G28  21165023.023   111222945.970       -1096.679          46.000    21165012.572    86667189.666        -854.439          46.000  
G26  20405610.329   107232201.580         909.929          48.000    20405603.209    83557540.117         709.026          46.000  
G31  20639368.806   108460611.899         266.923          47.000    20639357.990    84514721.185         208.105          45.000  
C33  22459569.001   116952866.244        -460.210          50.000                                                                  
C06  36560072.300   190377890.993        -175.140          45.000    36560055.093   147212190.418        -135.372          48.000  
C14  22504323.747   117185907.382       -2060.107          46.000    22504309.211    90615523.757       -1592.843          51.000  
C16  36985418.473   192592774.823        -209.901          48.000    36985406.346   148924902.524        -162.393          48.000  
C24  21779469.564   113411416.428        -762.485          50.000                                                                  
C26  24231032.601   126177339.359       -2541.540          45.000                                                                  
G03  22890024.633   120287887.074         156.118          40.000    22890018.258    93730788.740         121.813          37.000  
G16  22664643.048   119103496.373        3120.438          41.000                                                                  
C09  37712334.355   196378023.826        -165.640          43.000    37712320.720   151851886.824        -127.961          48.000  
C25  23773850.280   123796676.425        1656.482          45.000                                                                  
C13  38190743.588   198869231.790       -2220.031          42.000    38190737.365   153778274.494       -1716.443          43.000  
C08  39004471.883   203106523.232       -2433.242          37.000    39004459.820   157054779.182       -1881.371          42.000  
G04  24737098.911   129994316.346        3202.612          34.000    24737095.890   101294279.735        2495.245          41.000  
G25  24095839.789   126624497.961       -3895.367          37.000    24095833.194    98668412.418       -3035.242          35.000  
C10                                                                  40568936.961   163354334.837         716.302          36.000  
> 2025 10 30 06 13 28.7600000  0 20                     
G32  21803269.221   114576954.157       -2741.987          46.000    21803263.615    89280715.848       -2136.662          44.000  
G29  23037334.748   121062021.991        -327.937          42.000    23037325.983    94334006.987        -255.715          41.000  
G28  21165031.360   111222989.828       -1096.559          46.000    21165020.925    86667223.838        -854.402          46.000  
G26  20405603.395   107232165.176         910.034          48.000    20405596.267    83557511.756         708.977          46.000  
G31  20639366.775   108460601.218         266.973          47.000    20639355.959    84514712.860         208.105          45.000  
C33  22459572.535   116952884.645        -460.107          50.000                                                                  
C06  36560073.657   190377897.991        -175.051          45.000    36560056.483   147212195.830        -135.344          48.000  
C14  22504339.550   117185989.776       -2059.996          46.000    22504325.060    90615587.468       -1592.804          51.000  
C16  36985420.078   192592783.221        -209.934          48.000    36985407.946   148924909.015        -162.322          48.000  
C24  21779475.447   113411446.923        -762.430          50.000                                                                  
C26  24231052.129   126177441.013       -2541.427          45.000                                                                  
G03  22890023.437   120287880.835         156.076          40.000    22890017.047    93730783.884         121.579          37.000  
G16  22664619.298   119103371.543        3120.641          41.000                                                                  
C09  37712335.622   196378030.446        -165.565          43.000    37712321.965   151851891.947        -128.063          48.000  
C25  23773837.574   123796610.165        1656.519          45.000                                                                  
C13  38190760.630   198869320.593       -2220.142          42.000    38190754.423   153778343.158       -1716.587          43.000  
C08  39004490.568   203106620.554       -2433.189          37.000    39004478.517   157054854.432       -1881.315          42.000  
G04  24737074.558   129994188.274        3202.015          34.000    24737071.514   101294179.924        2495.242          41.000  
G25  24095869.422   126624653.771       -3895.338          37.000    24095862.838    98668533.788       -3034.558          35.000  
C10                                                                  40568929.845   163354306.187         716.357          36.000  
> 2025 10 30 06 13 28.8000000  0 20                     
G32  21803290.087   114577063.831       -2741.935          46.000    21803284.476    89280801.307       -2136.572          44.000  
G29  23037337.229   121062035.099        -327.767          42.000    23037328.463    94334017.201        -255.537          41.000  
G28  21165039.699   111223033.683       -1096.460          46.000    21165029.284    86667258.014        -854.423          46.000  
G26  20405596.453   107232128.778         909.979          48.000    20405589.335    83557483.392         709.039          46.000  
G31  20639364.723   108460590.531         267.103          47.000    20639353.920    84514704.535         208.111          45.000  
C33  22459576.072   116952903.050        -460.122          50.000                                                                  
C06  36560075.026   190377904.986        -174.934          45.000    36560057.838   147212201.240        -135.298          48.000  
C14  22504355.373   117186072.169       -2059.906          46.000    22504340.918    90615651.181       -1592.830          51.000  
C16  36985421.706   192592791.619        -209.959          48.000    36985409.566   148924915.507        -162.304          48.000  
C24  21779481.287   113411477.417        -762.385          50.000                                                                  
C26  24231071.632   126177542.680       -2541.596          45.000                                                                  
G03  22890022.265   120287874.609         155.792          40.000    22890015.861    93730779.048         121.092          37.000  
G16  22664595.545   119103246.721        3120.613          41.000                                                                  
C09  37712336.916   196378037.059        -165.394          43.000    37712323.233   151851897.074        -128.176          48.000  
C25  23773824.852   123796543.906        1656.476          45.000                                                                  
C13  38190777.710   198869409.377       -2219.823          42.000    38190771.457   153778411.832       -1716.803          43.000  
C08  39004509.245   203106717.864       -2432.970          37.000    39004497.210   157054929.692       -1881.441          42.000  
G04  24737050.195   129994060.177        3202.254          34.000    24737047.130   101294080.105        2495.371          41.000  
G25  24095899.061   126624809.575       -3895.191          37.000    24095892.492    98668655.222       -3035.312          35.000  
C10                                                                  40568922.733   163354277.565         715.859          36.000  
> 2025 10 30 06 13 28.8400000  0 20                     
G32  21803310.966   114577173.515       -2742.003          46.000    21803305.345    89280886.765       -2136.456          44.000  
G29  23037339.711   121062048.223        -328.002          42.000    23037330.945    94334027.428        -255.656          41.000  
G28  21165048.021   111223077.536       -1096.362          46.000    21165037.628    86667292.182        -854.293          46.000  
G26  20405589.521   107232092.385         909.849          48.000    20405582.426    83557455.027         709.051          46.000  
G31  20639362.688   108460579.841         267.182          47.000    20639351.870    84514696.204         208.222          45.000  
C33  22459579.630   116952921.453        -460.110          50.000                                                                  
C06  36560076.386   190377911.974        -174.769          45.000    36560059.170   147212206.649        -135.273          48.000  
C14  22504371.197   117186154.558       -2059.780          46.000    22504356.756    90615714.895       -1592.855          51.000  
C16  36985423.330   192592800.013        -209.893          48.000    36985411.194   148924921.998        -162.259          48.000  
C24  21779487.181   113411507.904        -762.236          50.000                                                                  
C26  24231091.175   126177644.341       -2541.581          45.000                                                                  
G03  22890021.102   120287868.375         155.801          40.000    22890014.670    93730774.199         121.065          37.000  
G16  22664571.812   119103121.909        3120.416          40.000                                                                  
C09  37712338.219   196378043.673        -165.314          43.000    37712324.497   151851902.200        -128.198          48.000  
C25  23773812.109   123796477.650        1656.378          45.000                                                                  
C13  38190794.762   198869498.169       -2219.767          42.000    38190788.499   153778480.488       -1716.551          43.000  
C08  39004527.954   203106815.177       -2432.888          37.000    39004515.890   157055004.935       -1881.245          42.000  
G04  24737025.817   129993932.084        3202.266          34.000    24737022.760   101293980.296        2495.297          41.000  
G25  24095928.705   126624965.377       -3895.074          37.000    24095922.123    98668776.653       -3035.712          35.000  
C10                                                                  40568915.621   163354248.930         715.864          36.000  
> 2025 10 30 06 13 28.8800000  0 20                     
G32  21803331.834   114577283.187       -2741.878          46.000    21803326.210    89280972.226       -2136.498          44.000  
G29  23037342.206   121062061.335        -327.894          42.000    23037333.440    94334037.647        -255.587          41.000  
G28  21165056.344   111223121.383       -1096.227          46.000    21165045.956    86667326.357        -854.386          46.000  
G26  20405582.618   107232055.996         909.702          48.000    20405575.506    83557426.669         708.946          46.000  
G31  20639360.650   108460569.159         267.095          47.000    20639349.823    84514687.879         208.129          45.000  
C33  22459583.159   116952939.854        -460.059          50.000                                                                  
C06  36560077.748   190377918.971        -174.855          45.000    36560060.520   147212212.061        -135.294          48.000  
C14  22504386.991   117186236.949       -2059.770          46.000    22504372.561    90615778.609       -1592.888          51.000  
C16  36985424.941   192592808.410        -209.907          48.000    36985412.812   148924928.488        -162.255          48.000  
C24  21779493.022   113411538.399        -762.318          50.000                                                                  
C26  24231110.699   126177745.991       -2541.380          45.000                                                                  
G03  22890019.916   120287862.146         155.694          40.000    22890013.470    93730769.348         121.118          37.000  
G16  22664548.055   119102997.087        3120.528          40.000                                                                  
C09  37712339.488   196378050.301        -165.531          43.000    37712325.759   151851907.317        -127.999          48.000  
C25  23773799.372   123796411.394        1656.342          45.000                                                                  
C13  38190811.813   198869586.956       -2219.656          42.000    38190805.549   153778549.147       -1716.490          43.000  
C08  39004546.642   203106912.490       -2432.832          37.000    39004534.594   157055080.193       -1881.361          42.000  
G04  24737001.413   129993803.980        3202.497          34.000    24736998.364   101293880.480        2495.383          41.000  
G25  24095958.343   126625121.179       -3895.007          37.000    24095951.789    98668898.069       -3035.599          35.000  
C10                                                                  40568908.491   163354220.266         716.340          36.000  
> 2025 10 30 06 13 28.9200000  0 20                     
G32  21803352.722   114577392.868       -2741.980          46.000    21803347.062    89281057.685       -2136.468          44.000  
G29  23037344.693   121062074.453        -327.977          42.000    23037335.924    94334047.876        -255.732          41.000  
G28  21165064.699   111223165.236       -1096.268          46.000    21165054.303    86667360.529        -854.345          46.000  
G26  20405575.707   107232019.599         909.814          48.000    20405568.587    83557398.309         708.934          46.000  
G31  20639358.593   108460558.472         267.107          47.000    20639347.793    84514679.554         208.092          45.000  
C33  22459586.663   116952958.266        -460.246          50.000                                                                  
C06  36560079.099   190377925.963        -174.830          45.000    36560061.835   147212217.472        -135.302          48.000  
C14  22504402.839   117186319.356       -2060.024          46.000    22504388.370    90615842.328       -1592.976          51.000  
C16  36985426.529   192592816.813        -210.044          48.000    36985414.462   148924934.981        -162.274          48.000  
C24  21779498.860   113411568.898        -762.424          50.000                                                                  
C26  24231130.227   126177847.649       -2541.453          45.000                                                                  
G03  22890018.727   120287855.921         155.602          40.000    22890012.284    93730764.490         121.334          37.000  
G16  22664524.303   119102872.264        3120.479          40.000                                                                  
C09  37712340.750   196378056.929        -165.664          43.000    37712327.009   151851912.431        -127.888          48.000  
C25  23773786.660   123796345.143        1656.232          45.000                                                                  
C13  38190828.857   198869675.757       -2219.901          42.000    38190822.584   153778617.800       -1716.342          43.000  
C08  39004565.339   203107009.810       -2432.928          37.000    39004553.270   157055155.438       -1881.243          42.000  
G04  24736977.046   129993675.895        3202.274          34.000    24736973.981   101293780.656        2495.529          41.000  
G25  24095988.005   126625277.002       -3895.385          37.000    24095981.445    98669019.454       -3034.859          35.000  
C10                                                                  40568901.390   163354191.633         716.116          36.000  
> 2025 10 30 06 13 28.9600000  0 20                     
G32  21803373.602   114577502.542       -2741.894          46.000    21803367.938    89281143.147       -2136.487          44.000  
G29  23037347.210   121062087.596        -328.452          42.000    23037338.413    94334058.112        -255.893          41.000  
G28  21165073.080   111223209.108       -1096.628          46.000    21165062.654    86667394.708        -854.492          46.000  
G26  20405568.777   107231983.201         909.900          48.000    20405561.666    83557369.952         708.872          46.000  
G31  20639356.563   108460547.806         266.744          47.000    20639345.775    84514671.233         207.981          45.000  
C33  22459590.165   116952976.684        -460.447          50.000                                                                  
C06  36560080.434   190377932.971        -175.087          45.000    36560063.178   147212222.885        -135.333          48.000  
C14  22504418.641   117186401.761       -2060.148          46.000    22504404.210    90615906.047       -1593.044          51.000  
C16  36985428.177   192592825.209        -209.970          48.000    36985416.094   148924941.474        -162.300          48.000  
C24  21779504.707   113411599.400        -762.565          50.000                                                                  
C26  24231149.750   126177949.316       -2541.628          45.000                                                                  
G03  22890017.535   120287849.694         155.611          40.000    22890011.088    93730759.643         121.180          37.000  
G16  22664500.570   119102747.447        3120.423          40.000                                                                  
C09  37712342.017   196378063.558        -165.782          43.000    37712328.304   151851917.555        -128.038          48.000  
C25  23773773.934   123796278.892        1656.177          45.000                                                                  
C13  38190845.902   198869764.547       -2219.850          42.000    38190839.637   153778686.461       -1716.462          43.000  
C08  39004584.002   203107107.099       -2432.456          37.000    39004572.012   157055230.679       -1881.085          42.000  
G04  24736952.664   129993547.803        3202.242          34.000    24736949.628   101293680.845        2495.375          41.000  
G25  24096017.663   126625432.804       -3895.183          37.000    24096011.074    98669140.834       -3034.399          35.000  
C10                                                                  40568894.304   163354162.995         716.033          36.000  
> 2025 10 30 06 13 29.0000000  0 20                     
G32  21803394.493   114577612.238       -2742.274          46.000    21803388.799    89281228.618       -2136.719          44.000  
G29  23037349.699   121062100.720        -328.263          42.000    23037340.897    94334068.333        -255.688          41.000  
G28  21165081.431   111223252.977       -1096.755          46.000    21165070.980    86667428.881        -854.421          46.000  
G26  20405561.861   107231946.809         909.807          48.000    20405554.734    83557341.599         708.793          46.000  
G31  20639354.516   108460537.134         266.715          47.000    20639343.738    84514662.920         207.784          45.000  
C33  22459593.736   116952995.096        -460.436          50.000                                                                  
C06  36560081.801   190377939.974        -175.139          45.000    36560064.538   147212228.303        -135.438          48.000  
C14  22504434.501   117186484.168       -2060.228          46.000    22504420.046    90615969.763       -1592.998          51.000  
C16  36985429.797   192592833.610        -210.029          48.000    36985417.678   148924947.966        -162.307          48.000  
C24  21779510.582   113411629.905        -762.643          50.000                                                                  
C26  24231169.246   126178050.980       -2541.668          45.000                                                                  
G03  22890016.340   120287843.476         155.449          40.000    22890009.901    93730754.775         121.514          38.000  
G16  22664476.794   119102622.637        3120.208          40.000                                                                  
C09  37712343.292   196378070.181        -165.717          43.000    37712329.562   151851922.682        -128.184          48.000  
C25  23773761.212   123796212.639        1656.226          45.000                                                                  
C13  38190862.962   198869853.346       -2219.937          42.000    38190856.728   153778755.124       -1716.574          43.000  
C08  39004602.708   203107204.433       -2433.068          37.000    39004590.697   157055305.930       -1881.207          42.000  
G04  24736928.258   129993419.709        3202.166          34.000    24736925.250   101293581.040        2495.187          41.000  
G25  24096047.327   126625588.619       -3895.283          37.000    24096040.715    98669262.244       -3034.796          35.000  
C10                                                                  40568887.204   163354134.364         715.816          36.000  
> 2025 10 30 06 13 29.0400000  0 20                     
G32  21803415.381   114577721.929       -2742.363          46.000    21803409.675    89281314.102       -2137.065          43.000  
G29  23037352.163   121062113.841        -328.130          42.000    23037343.393    94334078.559        -255.729          41.000  
G28  21165089.786   111223296.845       -1096.808          46.000    21165079.344    86667463.064        -854.544          46.000  
G26  20405554.952   107231910.423         909.653          48.000    20405547.807    83557313.241         708.867          46.000  
G31  20639352.483   108460526.446         267.011          47.000    20639341.712    84514654.596         207.933          45.000  
C33  22459597.295   116953013.514        -460.497          50.000                                                                  
C06  36560083.136   190377946.976        -175.148          45.000    36560065.863   147212233.716        -135.396          48.000  
C14  22504450.355   117186566.574       -2060.263          46.000    22504435.879    90616033.491       -1593.168          51.000  
C16  36985431.393   192592842.012        -210.079          48.000    36985419.294   148924954.467        -162.468          48.000  
C24  21779516.446   113411660.407        -762.633          50.000                                                                  
C26  24231188.778   126178152.642       -2541.636          45.000                                                                  
G03  22890015.145   120287837.243         155.665          40.000    22890008.725    93730749.912         121.618          37.000  
G16  22664453.054   119102497.835        3120.029          40.000                                                                  
C09  37712344.569   196378076.810        -165.792          43.000    37712330.843   151851927.805        -128.155          48.000  
C25  23773748.488   123796146.389        1656.214          45.000                                                                  
C13  38190880.007   198869942.154       -2220.167          42.000    38190873.794   153778823.801       -1716.904          43.000  
C08  39004621.436   203107301.754       -2433.135          37.000    39004609.382   157055381.204       -1881.683          42.000  
G04  24736903.911   129993291.617        3202.241          34.000    24736900.874   101293481.242        2494.956          41.000  
G25  24096076.969   126625744.431       -3895.294          37.000    24096070.373    98669383.663       -3035.297          35.000  
C10                                                                  40568880.093   163354105.720         715.992          36.000  
> 2025 10 30 06 13 29.0800000  0 20                     
G32  21803436.249   114577831.604       -2742.123          46.000    21803430.542    89281399.562       -2136.814          43.000  
G29  23037354.651   121062126.968        -328.111          42.000    23037345.891    94334088.783        -255.671          41.000  
G28  21165098.138   111223340.697       -1096.537          46.000    21165087.688    86667497.248        -854.650          46.000  
G26  20405548.053   107231874.040         909.550          48.000    20405540.899    83557284.886         708.843          46.000  
G31  20639350.455   108460515.767         267.005          47.000    20639339.685    84514646.281         207.866          45.000  
C33  22459600.890   116953031.930        -460.487          50.000                                                                  
C06  36560084.473   190377953.979        -175.138          45.000    36560067.186   147212239.123        -135.264          48.000  
C14  22504466.157   117186648.976       -2060.165          46.000    22504451.711    90616097.210       -1593.115          51.000  
C16  36985433.061   192592850.403        -209.896          48.000    36985420.883   148924960.971        -162.621          48.000  
C24  21779522.325   113411690.908        -762.597          50.000                                                                  
C26  24231208.304   126178254.297       -2541.482          45.000                                                                  
G03  22890013.958   120287831.009         155.828          40.000    22890007.518    93730745.076         121.080          37.000  
G16  22664429.294   119102373.011        3120.384          40.000                                                                  
C09  37712345.834   196378083.436        -165.740          43.000    37712332.114   151851932.930        -128.159          48.000  
C25  23773735.785   123796080.142        1656.177          45.000                                                                  
C13  38190897.055   198870030.945       -2219.972          42.000    38190890.838   153778892.467       -1716.838          43.000  
C08  39004640.109   203107399.096       -2433.495          37.000    39004628.051   157055456.451       -1881.480          42.000  
G04  24736879.538   129993163.548        3201.835          34.000    24736876.490   101293381.433        2495.065          41.000  
G25  24096106.618   126625900.256       -3895.524          37.000    24096100.041    98669505.103       -3035.984          35.000  
C10                                                                  40568872.968   163354077.105         715.529          36.000  
> 2025 10 30 06 13 29.1200000  0 20                     
G32  21803457.096   114577941.280       -2741.973          46.000    21803451.417    89281485.026       -2136.700          43.000  
G29  23037357.135   121062140.081        -327.906          42.000    23037348.385    94334099.024        -255.928          41.000  
G28  21165106.481   111223384.555       -1096.504          46.000    21165096.030    86667531.422        -854.518          46.000  
G26  20405541.105   107231837.648         909.649          48.000    20405533.978    83557256.532         708.806          46.000  
G31  20639348.427   108460505.081         267.122          47.000    20639337.655    84514637.962         207.947          45.000  
C33  22459604.419   116953050.343        -460.415          50.000                                                                  
C06  36560085.827   190377960.971        -174.939          45.000    36560068.522   147212244.531        -135.239          48.000  
C14  22504481.978   117186731.380       -2060.153          46.000    22504467.549    90616160.927       -1593.013          51.000  
C16  36985434.672   192592858.803        -209.951          48.000    36985422.479   148924967.468        -162.550          48.000  
C24  21779528.212   113411721.399        -762.388          50.000                                                                  
C26  24231227.840   126178355.952       -2541.398          45.000                                                                  
G03  22890012.778   120287824.782         155.769          40.000    22890006.336    93730740.250         120.619          37.000  
G16  22664405.546   119102248.200        3120.304          40.000                                                                  
C09  37712347.090   196378090.064        -165.739          43.000    37712333.386   151851938.046        -127.981          48.000  
C25  23773723.071   123796013.890        1656.256          45.000                                                                  
C13  38190914.116   198870119.732       -2219.754          42.000    38190907.883   153778961.133       -1716.737          43.000  
C08  39004658.778   203107496.406       -2433.115          37.000    39004646.709   157055531.703       -1881.417          42.000  
G04  24736855.169   129993035.448        3202.228          34.000    24736852.119   101293281.618        2495.306          41.000  
G25  24096136.243   126626056.047       -3895.081          37.000    24096129.686    98669626.516       -3035.813          35.000  
C10                                                                  40568865.874   163354048.490         715.325          36.000  
> 2025 10 30 06 13 29.1600000  0 20                     
G32  21803477.971   114578050.966       -2742.089          46.000    21803472.293    89281570.499       -2136.807          43.000  
G29  23037359.629   121062153.219        -328.305          42.000    23037350.864    94334109.245        -255.668          41.000  
G28  21165114.802   111223428.400       -1096.233          46.000    21165104.369    86667565.593        -854.380          46.000  
G26  20405534.154   107231801.258         909.698          48.000    20405527.057    83557228.179         708.788          46.000  
G31  20639346.406   108460494.402         267.034          47.000    20639335.593    84514629.639         208.070          45.000  
C33  22459607.957   116953068.757        -460.357          50.000                                                                  
C06  36560087.159   190377967.963        -174.818          45.000    36560069.851   147212249.937        -135.171          48.000  
C14  22504497.819   117186813.781       -2060.103          46.000    22504483.365    90616224.646       -1593.007          51.000  
C16  36985436.309   192592867.199        -209.952          48.000    36985424.064   148924973.958        -162.361          48.000  
C24  21779534.060   113411751.894        -762.361          50.000                                                                  
C26  24231247.362   126178457.609       -2541.397          45.000                                                                  
G03  22890011.588   120287818.561         155.611          40.000    22890005.148    93730735.398         120.960          37.000  
G16  22664381.799   119102123.382        3120.374          40.000                                                                  
C09  37712348.358   196378096.677        -165.458          43.000    37712334.667   151851943.167        -128.002          48.000  
C25  23773710.362   123795947.640        1656.256          45.000                                                                  
C13  38190931.156   198870208.536       -2219.955          42.000    38190924.913   153779029.793       -1716.600          43.000  
C08  39004677.470   203107593.725       -2433.037          37.000    39004665.401   157055606.953       -1881.337          41.000  
G04  24736830.799   129992907.349        3202.299          34.000    24736827.747   101293181.804        2495.392          41.000  
G25  24096165.914   126626211.879       -3895.534          37.000    24096159.335    98669747.945       -3035.898          35.000  
C10                                                                  40568858.760   163354019.839         715.863          38.000  
> 2025 10 30 06 13 29.2000000  0 20                     
G32  21803498.847   114578160.649       -2742.094          46.000    21803493.182    89281655.961       -2136.676          43.000  
G29  23037362.109   121062166.354        -328.389          42.000    23037353.346    94334119.473        -255.669          41.000  
G28  21165123.149   111223472.270       -1096.540          46.000    21165112.692    86667599.770        -854.425          46.000  
G26  20405527.225   107231764.864         909.821          48.000    20405520.139    83557199.820         708.911          46.000  
G31  20639344.382   108460483.733         266.813          47.000    20639333.557    84514621.304         208.316          45.000  
C33  22459611.505   116953087.163        -460.211          50.000                                                                  
C06  36560088.472   190377974.955        -174.786          45.000    36560071.218   147212255.352        -135.298          48.000  
C14  22504513.653   117186896.184       -2060.103          46.000    22504499.207    90616288.367       -1593.020          51.000  
C16  36985437.935   192592875.590        -209.830          48.000    36985425.652   148924980.446        -162.236          48.000  
C24  21779539.919   113411782.391        -762.397          50.000                                                                  
C26  24231266.854   126178559.269       -2541.468          45.000                                                                  
G03  22890010.394   120287812.329         155.700          40.000    22890003.940    93730730.538         121.242          37.000  
G16  22664358.053   119101998.555        3120.627          40.000                                                                  
C09  37712349.658   196378103.290        -165.310          43.000    37712335.947   151851948.288        -128.022          48.000  
C25  23773697.646   123795881.380        1656.464          45.000                                                                  
C13  38190948.225   198870297.331       -2219.904          42.000    38190941.973   153779098.446       -1716.396          43.000  
C08  39004696.156   203107691.050       -2433.135          37.000    39004684.060   157055682.202       -1881.267          41.000  
G04  24736806.370   129992779.228        3202.749          34.000    24736803.380   101293081.992        2495.345          41.000  
G25  24096195.566   126626367.697       -3895.604          37.000    24096188.989    98669869.372       -3035.763          35.000  
C10                                                                  40568851.640   163353991.199         715.973          38.000  
> 2025 10 30 06 13 29.2400000  0 20                     
G32  21803519.723   114578270.325       -2741.977          46.000    21803514.048    89281741.426       -2136.646          43.000  
G29  23037364.617   121062179.479        -328.223          42.000    23037355.856    94334129.701        -255.676          41.000  
G28  21165131.491   111223516.125       -1096.436          46.000    21165121.028    86667633.946        -854.446          46.000  
G26  20405520.304   107231728.474         909.753          48.000    20405513.222    83557171.463         708.923          46.000  
G31  20639342.318   108460473.048         266.986          47.000    20639331.515    84514612.982         208.160          45.000  
C33  22459615.025   116953105.576        -460.279          50.000                                                                  
C06  36560089.806   190377981.960        -175.027          45.000    36560072.567   147212260.768        -135.410          48.000  
C14  22504529.463   117186978.592       -2060.193          46.000    22504515.034    90616352.089       -1593.059          51.000  
C16  36985439.542   192592883.990        -209.955          48.000    36985427.255   148924986.935        -162.209          48.000  
C24  21779545.777   113411812.890        -762.499          50.000                                                                  
C26  24231286.385   126178660.928       -2541.514          45.000                                                                  
G03  22890009.224   120287806.131         155.122          40.000    22890002.766    93730725.684         121.283          37.000  
G16  22664334.296   119101873.747        3120.362          40.000                                                                  
C09  37712350.926   196378109.899        -165.188          43.000    37712337.235   151851953.408        -128.023          48.000  
C25  23773684.927   123795815.120        1656.525          45.000                                                                  
C13  38190965.292   198870386.119       -2219.774          42.000    38190959.048   153779167.107       -1716.429          43.000  
C08  39004714.823   203107788.345       -2432.665          37.000    39004702.737   157055757.461       -1881.423          41.000  
G04  24736781.988   129992651.150        3202.245          34.000    24736779.011   101292982.174        2495.399          41.000  
G25  24096225.213   126626523.495       -3895.237          37.000    24096218.630    98669990.745       -3034.825          35.000  
C10                                                                  40568844.527   163353962.582         715.615          38.000  
> 2025 10 30 06 13 29.2800000  0 20                     
G32  21803540.614   114578380.017       -2742.215          46.000    21803534.921    89281826.899       -2136.812          43.000  
G29  23037367.122   121062192.618        -328.393          42.000    23037358.325    94334139.933        -255.784          41.000  
G28  21165139.829   111223559.990       -1096.563          46.000    21165129.393    86667668.134        -854.657          46.000  
G26  20405513.394   107231692.094         909.531          48.000    20405506.305    83557143.121         708.665          46.000  
G31  20639340.292   108460462.378         266.801          47.000    20639329.539    84514604.670         207.901          45.000  
C33  22459618.534   116953124.002        -460.562          50.000                                                                  
C06  36560091.122   190377988.970        -175.219          45.000    36560073.918   147212266.181        -135.425          48.000  
C14  22504545.299   117187061.007       -2060.369          46.000    22504530.844    90616415.818       -1593.223          51.000  
C16  36985441.133   192592892.399        -210.193          48.000    36985428.902   148924993.429        -162.336          48.000  
C24  21779551.586   113411843.411        -762.898          50.000                                                                  
C26  24231305.885   126178762.600       -2541.738          45.000                                                                  
G03  22890008.026   120287799.930         154.927          40.000    22890001.587    93730720.846         121.011          38.000  
G16  22664310.534   119101748.939        3120.132          40.000                                                                  
C09  37712352.209   196378116.538        -165.740          43.000    37712338.483   151851958.528        -128.023          48.000  
C25  23773672.186   123795748.872        1656.287          45.000                                                                  
C13  38190982.340   198870474.920       -2219.886          42.000    38190976.083   153779235.781       -1716.704          43.000  
C08  39004733.519   203107885.666       -2432.900          37.000    39004721.426   157055832.706       -1881.262          41.000  
G04  24736757.597   129992523.062        3202.162          34.000    24736754.643   101292882.362        2495.277          41.000  
G25  24096254.883   126626679.302       -3895.184          37.000    24096248.281    98670112.154       -3035.004          35.000  
C10                                                                  40568837.410   163353933.959         715.522          38.000  
> 2025 10 30 06 13 29.3200000  0 20                     
G32  21803561.517   114578489.720       -2742.530          46.000    21803555.808    89281912.391       -2137.239          43.000  
G29  23037369.631   121062205.757        -328.517          42.000    23037360.826    94334150.167        -255.903          41.000  
G28  21165148.198   111223603.861       -1096.753          46.000    21165137.746    86667702.320        -854.708          46.000  
G26  20405506.498   107231655.719         909.347          48.000    20405499.387    83557114.772         708.628          46.000  
G31  20639338.255   108460451.709         266.703          47.000    20639327.515    84514596.356         207.816          45.000  
C33  22459622.043   116953142.429        -460.743          50.000                                                                  
C06  36560092.461   190377995.971        -175.165          45.000    36560075.271   147212271.601        -135.513          48.000  
C14  22504561.112   117187143.416       -2060.353          46.000    22504546.663    90616479.549       -1593.328          51.000  
C16  36985442.734   192592900.802        -210.167          48.000    36985430.513   148924999.923        -162.394          48.000  
C24  21779557.470   113411873.919        -762.867          50.000                                                                  
C26  24231325.433   126178864.270       -2541.814          45.000                                                                  
G03  22890006.855   120287793.715         155.148          40.000    22890000.411    93730716.001         121.021          38.000  
G16  22664286.782   119101624.140        3119.895          40.000                                                                  
C09  37712353.459   196378123.172        -165.944          43.000    37712339.742   151851963.661        -128.251          48.000  
C25  23773659.471   123795682.618        1656.299          45.000                                                                  
C13  38190999.378   198870563.728       -2220.122          42.000    38190993.132   153779304.451       -1716.821          43.000  
C08  39004752.211   203107983.016       -2433.552          37.000    39004740.101   157055907.945       -1881.085          41.000  
G04  24736733.229   129992395.008        3201.573          34.000    24736730.283   101292782.566        2494.969          41.000  
G25  24096284.532   126626835.116       -3895.317          37.000    24096277.934    98670233.550       -3034.887          35.000  
C10                                                                  40568830.298   163353905.331         715.577          38.000  
> 2025 10 30 06 13 29.3600000  0 20                     
G32  21803582.394   114578599.420       -2742.603          46.000    21803576.688    89281997.864       -2137.061          43.000  
G29  23037372.139   121062218.894        -328.509          42.000    23037363.336    94334160.415        -256.151          41.000  
G28  21165156.559   111223647.744       -1097.028          46.000    21165146.104    86667736.505        -854.694          46.000  
G26  20405499.586   107231619.340         909.379          48.000    20405492.478    83557086.422         708.647          46.000  
G31  20639336.237   108460441.045         266.580          47.000    20639325.474    84514588.048         207.675          45.000  
C33  22459625.604   116953160.862        -460.884          50.000                                                                  
C06  36560093.816   190378002.975        -175.168          45.000    36560076.623   147212277.022        -135.560          48.000  
C14  22504576.964   117187225.830       -2060.382          46.000    22504562.467    90616543.282       -1593.394          51.000  
C16  36985444.329   192592909.207        -210.171          48.000    36985432.159   148925006.429        -162.617          48.000  
C24  21779563.355   113411904.425        -762.784          50.000                                                                  
C26  24231344.961   126178965.934       -2541.733          45.000                                                                  
G03  22890005.668   120287787.499         155.312          40.000    22889999.222    93730711.160         120.966          38.000  
G16  22664263.017   119101499.342        3119.795          40.000                                                                  
C09  37712354.721   196378129.811        -166.082          43.000    37712341.022   151851968.781        -128.128          48.000  
C25  23773646.746   123795616.362        1656.336          45.000                                                                  
C13  38191016.443   198870652.524       -2220.002          42.000    38191010.195   153779373.123       -1716.869          43.000  
C08  39004770.901   203108080.342       -2433.421          37.000    39004758.802   157055983.221       -1881.644          41.000  
G04  24736708.851   129992266.917        3201.880          34.000    24736705.911   101292682.762        2494.958          41.000  
G25  24096314.186   126626990.933       -3895.449          37.000    24096307.595    98670354.987       -3035.646          35.000  
C10                                                                  40568823.190   163353876.708         715.600          39.000  
> 2025 10 30 06 13 29.4000000  0 20                     
G32  21803603.267   114578709.108       -2742.378          46.000    21803597.556    89282083.337       -2136.932          43.000  
G29  23037374.630   121062232.031        -328.501          42.000    23037365.821    94334170.658        -256.204          41.000  
G28  21165164.906   111223691.617       -1096.982          46.000    21165154.453    86667770.680        -854.490          46.000  
G26  20405492.643   107231582.953         909.540          48.000    20405485.562    83557058.075         708.610          46.000  
G31  20639334.205   108460430.368         266.779          47.000    20639323.442    84514579.738         207.620          45.000  
C33  22459629.148   116953179.290        -460.825          50.000                                                                  
C06  36560095.189   190378009.968        -174.971          45.000    36560077.954   147212282.435        -135.417          48.000  
C14  22504592.789   117187308.241       -2060.330          46.000    22504578.261    90616607.016       -1593.423          51.000  
C16  36985445.949   192592917.604        -210.025          48.000    36985433.788   148925012.935        -162.714          48.000  
C24  21779569.244   113411934.921        -762.561          50.000                                                                  
C26  24231364.478   126179067.599       -2541.663          45.000                                                                  
G03  22890004.477   120287781.275         155.556          40.000    22889998.029    93730706.305         121.199          38.000  
G16  22664239.272   119101374.535        3119.990          40.000                                                                  
C09  37712356.009   196378136.432        -165.771          43.000    37712342.278   151851973.904        -128.109          48.000  
C25  23773634.014   123795550.121        1656.073          45.000                                                                  
C13  38191033.490   198870741.332       -2220.151          42.000    38191027.250   153779441.794       -1716.867          43.000  
C08  39004789.592   203108177.637       -2432.820          37.000    39004777.496   157056058.462       -1881.304          41.000  
G04  24736684.477   129992138.823        3202.119          34.000    24736681.532   101292582.949        2495.181          41.000  
G25  24096343.841   126627146.764       -3895.727          37.000    24096337.253    98670476.398       -3035.481          35.000  
C10                                                                  40568816.059   163353848.057         716.107          39.000  
> 2025 10 30 06 13 29.4400000  0 20                     
G32  21803624.119   114578818.800       -2742.327          46.000    21803618.421    89282168.819       -2137.026          44.000  
G29  23037377.119   121062245.171        -328.577          42.000    23037368.310    94334180.900        -256.164          41.000  
G28  21165173.240   111223735.475       -1096.656          46.000    21165162.770    86667804.857        -854.437          46.000  
G26  20405485.698   107231546.571         909.558          48.000    20405478.663    83557029.727         708.660          46.000  
G31  20639332.143   108460419.688         266.964          47.000    20639321.416    84514571.421         207.782          45.000  
C33  22459632.700   116953197.712        -460.683          50.000                                                                  
C06  36560096.531   190378016.971        -174.991          45.000    36560079.302   147212287.840        -135.210          48.000  
C14  22504608.606   117187390.657       -2060.419          46.000    22504594.076    90616670.735       -1593.154          51.000  
C16  36985447.560   192592925.997        -209.880          48.000    36985435.448   148925019.424        -162.436          48.000  
C24  21779575.073   113411965.426        -762.578          50.000                                                                  
C26  24231384.002   126179169.269       -2541.717          45.000                                                                  
G03  22890003.305   120287775.046         155.754          40.000    22889996.843    93730701.483         120.662          38.000  
G16  22664215.525   119101249.737        3119.875          39.000                                                                  
C09  37712357.298   196378143.047        -165.455          43.000    37712343.549   151851979.026        -128.090          48.000  
C25  23773621.290   123795483.877        1655.981          45.000                                                                  
C13  38191050.531   198870830.135       -2220.163          42.000    38191044.303   153779510.467       -1716.866          43.000  
C08  39004808.290   203108274.989       -2433.515          37.000    39004796.156   157056133.718       -1881.372          41.000  
G04  24736660.081   129992010.690        3203.061          34.000    24736657.143   101292483.126        2495.472          41.000  
G25  24096373.483   126627302.552       -3895.090          37.000    24096366.917    98670597.798       -3035.152          35.000  
C10                                                                  40568808.933   163353819.434         715.826          39.000  
