     3.04           OBSERVATION DATA    M: Mixed            RINEX VERSION / TYPE
RTKCONV 2.4.3 b34                       20251030 064140 UTC PGM / RUN BY / DATE 
format: u-blox UBX                                          COMMENT             
log: D:\GPdata\10_30\fingure_290_phone_10_30_2.ubx          COMMENT             
                                                            MARKER NAME         
                                                            MARKER NUMBER       
                                                            MARKER TYPE         
                                                            OBSERVER / AGENCY   
                                                            REC # / TYPE / VERS 
                                                            ANT # / TYPE        
        0.0000        0.0000        0.0000                  APPROX POSITION XYZ 
        0.0000        0.0000        0.0000                  ANTENNA: DELTA H/E/N
G    8 C1C L1C D1C S1C C2L L2L D2L S2L                      SYS / # / OBS TYPES 
C    8 C2I L2I D2I S2I C7I L7I D7I S7I                      SYS / # / OBS TYPES 
  2025    10    30    06    21   54.5200000     GPS         TIME OF FIRST OBS   
  2025    10    30    06    22   18.0400000     GPS         TIME OF LAST OBS    
G L1C                                                       SYS / PHASE SHIFT   
G L2L  0.00000                                              SYS / PHASE SHIFT   
C L2I                                                       SYS / PHASE SHIFT   
C L7I                                                       SYS / PHASE SHIFT   
  0                                                         GLONASS SLOT / FRQ #
 C1C    0.000 C1P    0.000 C2C    0.000 C2P    0.000        GLONASS COD/PHS/BIS 
                                                            END OF HEADER       
> 2025 10 30 06 21 54.5200000  0 23                     
G32  22077782.679   116019526.6351      -2959.527          45.000    22077776.698    90404790.2761      -2306.144          43.000  
G29  23084305.246   121308854.5661       -647.898          42.000    23084296.443    94526350.0681       -504.834          40.000  
G28  21276133.776   111806838.9941      -1211.866          45.000    21276123.707    87122171.4001       -944.233          47.000  
G26  20331360.173   106842019.5331        633.900          48.000    20331353.069    83253503.1751        493.928          46.000  
G31  20620453.115   108361209.6721        126.564          47.000    20620442.158    84437265.2691         98.765          45.000  
G04  24430161.300   128381340.1741       3172.657          35.000    24430157.131   100037436.2921       2472.596          39.000  
C33  22518638.652   117260456.3571       -755.105          50.000                                                                  
C06  36576247.121   190462118.7921       -157.145          45.000    36576230.163   147277320.9701       -121.412          48.000  
C14  22716278.751   118289608.5491      -2301.104          46.000    22716263.988    91468974.8611      -1779.231          50.000  
C16  37004746.107   192693422.4621       -186.991          48.000    37004734.597   149002729.8801       -144.757          48.000  
C24  21859598.316   113828668.3411       -885.239          50.000                                                                  
C26  24479217.168   127469703.9641      -2566.588          44.000                                                                  
G03  22891442.546   120295333.9711       -184.230          40.000    22891438.117    93736617.3661       -143.843          41.000  
G16  22372431.871   117567997.0631       2949.357          41.000                                                                  
C09  37727525.201   196457126.6381       -146.024          43.000    37727511.359   151913054.6601       -113.026          48.000  
C25  23617969.286   122984973.7811       1554.195          45.000                                                                  
C07  39538995.610   205889931.3911       1118.866          37.000    39538985.137   159207109.4371        865.328          40.000  
C08  39242510.129   204346024.0051      -2466.404          36.000    39242498.423   158013284.0261      -1907.330          42.000  
C10  40478588.104   210782664.9991        934.120          31.000    40478588.894   162990505.5321        722.533          36.000  
C35  25946718.268   135111384.9961        344.689          38.000                                                                  
C13  38409056.291   200006040.6461      -2273.283          41.000    38409049.992   154657317.0131      -1757.907          43.000  
C12  26410423.940   137526022.8231       2313.832          36.000    26410422.261   106343838.6371       1789.078          46.000  
G25  24471998.045                       -3916.533          31.000    24471992.816   100208708.9331      -3052.189          36.000  
> 2025 10 30 06 21 54.5600000  0 23                     
G32  22077805.185   116019645.013       -2959.551          45.000    22077799.239    90404882.523       -2306.232          43.000  
G29  23084310.184   121308880.480        -648.001          42.000    23084301.366    94526370.239        -504.515          40.000  
G28  21276142.987   111806887.461       -1211.853          45.000    21276132.900    87122209.161        -944.183          47.000  
G26  20331355.309   106841994.170         633.964          48.000    20331348.222    83253483.410         494.004          46.000  
G31  20620452.157   108361204.608         126.492          47.000    20620441.199    84437261.321          98.667          45.000  
G04  24430137.155   128381213.217        3173.369          35.000    24430132.987   100037337.372        2472.853          39.000  
C33  22518644.427   117260486.565        -755.245          50.000                                                                  
C06  36576248.342   190462125.064        -156.989          45.000    36576231.377   147277325.828        -121.472          48.000  
C14  22716296.450   118289700.585       -2301.047          46.000    22716281.658    91469046.031       -1779.354          50.000  
C16  37004747.556   192693429.943        -187.065          48.000    37004736.040   149002735.660        -144.642          48.000  
C24  21859605.119   113828703.741        -885.164          50.000                                                                  
C26  24479236.879   127469806.628       -2566.642          44.000                                                                  
G03  22891443.941   120295341.333        -184.219          40.000    22891439.519    93736623.096        -143.579          41.000  
G16  22372409.436   117567879.098        2949.132          41.000                                                                  
C09  37727526.344   196457132.465        -145.866          43.000    37727512.451   151913059.173        -112.938          48.000  
C25  23617957.338   122984911.609        1554.197          45.000                                                                  
C07  39538987.025   205889886.627        1118.942          37.000    39538976.546   159207074.831         865.133          40.000  
C08  39242529.089   204346122.681       -2466.787          36.000    39242517.362   158013360.304       -1907.170          42.000  
C10  40478580.917   210782627.603         934.515          32.000    40478581.736   162990476.627         722.553          36.000  
C35  25946715.632   135111371.219         344.363          38.000                                                                  
C13  38409073.767   200006131.590       -2273.608          41.000    38409067.451   154657387.310       -1757.610          43.000  
C12  26410406.166   137525930.276        2313.599          36.000    26410404.504   106343767.071        1789.066          46.000  
G25  24472027.868                       -3916.584          31.000    24472022.614   100208831.034       -3052.546          36.000  
> 2025 10 30 06 21 54.6000000  0 23                     
G32  22077827.713   116019763.400       -2959.697          45.000    22077821.776    90404974.761       -2306.094          43.000  
G29  23084315.107   121308906.395        -647.998          42.000    23084306.296    94526390.427        -504.679          40.000  
G28  21276152.198   111806935.916       -1211.603          45.000    21276142.103    87122246.920        -944.106          47.000  
G26  20331350.482   106841968.809         633.945          48.000    20331343.387    83253463.646         494.054          46.000  
G31  20620451.147   108361199.539         126.573          47.000    20620440.215    84437257.373          98.649          45.000  
G04  24430113.001   128381086.275        3173.522          35.000    24430108.830   100037238.472        2472.714          39.000  
C33  22518650.235   117260516.765        -755.164          50.000                                                                  
C06  36576249.555   190462131.341        -156.983          45.000    36576232.556   147277330.688        -121.562          48.000  
C14  22716314.125   118289792.618       -2300.922          46.000    22716299.351    91469117.202       -1779.414          50.000  
C16  37004749.012   192693437.417        -186.954          48.000    37004737.433   149002741.440        -144.570          48.000  
C24  21859611.929   113828739.141        -885.102          50.000                                                                  
C26  24479256.595   127469909.294       -2566.682          44.000                                                                  
G03  22891445.343   120295348.695        -184.185          40.000    22891440.931    93736628.833        -143.547          41.000  
G16  22372386.975   117567761.121        2949.220          41.000                                                                  
C09  37727527.450   196457138.305        -145.992          43.000    37727513.563   151913063.682        -112.811          48.000  
C25  23617945.399   122984849.441        1554.124          45.000                                                                  
C07  39538978.399   205889841.846        1119.351          35.000    39538967.957   159207040.216         865.201          40.000  
C08  39242548.021   204346221.308       -2466.115          36.000    39242536.312   158013436.580       -1906.995          42.000  
C10  40478573.773   210782590.189         935.096          32.000    40478574.543   162990447.733         722.331          36.000  
C35  25946712.971   135111357.449         344.097          38.000                                                                  
C13  38409091.235   200006222.519       -2273.433          41.000    38409084.909   154657457.624       -1757.783          43.000  
C12  26410388.405   137525837.761        2312.892          36.000    26410386.735   106343695.493        1789.295          45.000  
G25  24472057.661                       -3917.329          31.000    24472052.428   100208953.127       -3052.537          36.000  
> 2025 10 30 06 21 54.6400000  0 23                     
G32  22077850.246   116019881.798       -2959.970          45.000    22077844.337    90405067.022       -2306.465          43.000  
G29  23084320.039   121308932.310        -647.984          42.000    23084311.235    94526410.640        -505.226          40.000  
G28  21276161.439   111806984.389       -1211.805          45.000    21276151.341    87122284.696        -944.380          47.000  
G26  20331345.671   106841943.470         633.534          48.000    20331338.609    83253443.902         493.693          46.000  
G31  20620450.150   108361194.478         126.493          47.000    20620439.253    84437253.438          98.372          45.000  
G04  24430088.841   128380959.372        3172.860          35.000    24430084.695   100037139.579        2472.462          39.000  
C33  22518656.017   117260546.978        -755.334          50.000                                                                  
C06  36576250.769   190462137.638        -157.335          45.000    36576233.731   147277335.550        -121.629          48.000  
C14  22716331.781   118289884.675       -2301.310          46.000    22716317.038    91469188.385       -1779.625          50.000  
C16  37004750.444   192693444.912        -187.317          48.000    37004738.872   149002747.236        -144.835          48.000  
C24  21859618.688   113828774.561        -885.436          50.000                                                                  
C26  24479276.317   127470011.962       -2566.753          44.000                                                                  
G03  22891446.751   120295356.080        -184.560          40.000    22891442.327    93736634.583        -143.708          41.000  
G16  22372364.535   117567643.163        2948.961          41.000                                                                  
C09  37727528.562   196457144.163        -146.376          43.000    37727514.658   151913068.201        -112.985          48.000  
C25  23617933.450   122984787.286        1553.878          45.000                                                                  
C07  39538969.812   205889797.102        1118.732          35.000    39538959.344   159207005.609         865.139          40.000  
C08  39242566.984   204346319.985       -2466.557          36.000    39242555.274   158013512.874       -1907.223          41.000  
C10  40478566.614   210782552.841         934.307          32.000    40478567.400   162990418.831         722.327          36.000  
C35  25946710.332   135111343.687         343.844          38.000                                                                  
C13  38409108.701   200006313.460       -2273.525          41.000    38409102.377   154657527.948       -1758.092          43.000  
C12  26410370.610   137525745.219        2313.112          36.000    26410368.953   106343623.937        1789.005          45.000  
G25  24472087.453   128601692.979       -3917.396          31.000    24472082.243   100209075.224       -3052.542          36.000  
> 2025 10 30 06 21 54.6800000  0 23                     
G32  22077872.786   116020000.233       -2960.796          45.000    22077866.872    90405159.324       -2307.367          43.000  
G29  23084324.986   121308958.266        -648.755          42.000    23084316.178    94526430.878        -505.905          40.000  
G28  21276170.664   111807032.902       -1212.634          45.000    21276160.576    87122322.500        -944.995          47.000  
G26  20331340.863   106841918.163         632.703          48.000    20331333.796    83253424.190         492.886          46.000  
G31  20620449.203   108361189.463         125.532          47.000    20620438.315    84437249.530          97.745          45.000  
G04  24430064.721   128380832.483        3172.303          35.000    24430060.545   100037040.712        2471.785          39.000  
C33  22518661.810   117260577.231        -756.176          50.000                                                                  
C06  36576252.003   190462143.968        -158.149          45.000    36576234.916   147277340.444        -122.212          48.000  
C14  22716349.473   118289976.760       -2302.054          46.000    22716334.722    91469259.595       -1780.217          51.000  
C16  37004751.897   192693452.443        -188.143          48.000    37004740.269   149002753.062        -145.516          48.000  
C24  21859625.478   113828810.018        -886.274          50.000                                                                  
C26  24479296.025   127470114.676       -2567.605          44.000                                                                  
G03  22891448.180   120295363.496        -185.322          40.000    22891443.716    93736640.358        -144.343          41.000  
G16  22372342.092   117567525.252        2947.921          41.000                                                                  
C09  37727529.662   196457150.055        -147.194          43.000    37727515.787   151913072.757        -113.745          48.000  
C25  23617921.522   122984725.164        1553.115          45.000                                                                  
C07  39538961.217   205889752.375        1118.114          35.000    39538950.748   159206971.028         864.594          40.000  
C08  39242585.947   204346418.678       -2467.250          36.000    39242574.206   158013589.200       -1907.968          41.000  
C10  40478559.497   210782515.504         933.536          32.000    40478560.220   162990389.950         721.993          36.000  
C35  25946707.712   135111329.940         343.486          38.000                                                                  
C13  38409126.170   200006404.440       -2274.388          41.000    38409119.849   154657598.307       -1758.898          43.000  
C12  26410352.834   137525652.706        2312.725          36.000    26410351.157   106343552.415        1788.210          45.000  
G25  24472117.300   128601849.627       -3916.606          31.000    24472112.067   100209197.341       -3052.898          36.000  
> 2025 10 30 06 21 54.7200000  0 23                     
G32  22077895.352   116020118.706       -2961.811          45.000    22077889.414    90405251.635       -2307.984          43.000  
G29  23084329.929   121308984.259        -649.768          42.000    23084321.114    94526451.118        -506.220          40.000  
G28  21276179.928   111807081.458       -1213.776          45.000    21276169.827    87122360.323        -945.597          47.000  
G26  20331336.067   106841892.890         631.773          48.000    20331328.999    83253404.497         492.204          46.000  
G31  20620448.246   108361184.469         124.778          47.000    20620437.370    84437245.638          97.194          45.000  
G04  24430040.575   128380705.690        3170.393          35.000    24430036.421   100036941.889        2470.725          39.000  
C33  22518667.590   117260607.518        -757.168          50.000                                                                  
C06  36576253.237   190462150.332        -159.065          45.000    36576236.122   147277345.365        -122.989          48.000  
C14  22716367.138   118290068.882       -2303.048          46.000    22716352.456    91469330.825       -1780.832          51.000  
C16  37004753.353   192693460.004        -189.043          48.000    37004741.720   149002758.905        -146.136          48.000  
C24  21859632.273   113828845.503        -887.151          50.000                                                                  
C26  24479315.737   127470217.424       -2568.594          44.000                                                                  
G03  22891449.597   120295370.937        -186.063          40.000    22891445.136    93736646.168        -145.199          41.000  
G16  22372319.662   117567407.359        2947.191          41.000                                                                  
C09  37727530.798   196457155.973        -147.961          43.000    37727516.904   151913077.337        -114.504          48.000  
C25  23617909.593   122984663.063        1552.441          45.000                                                                  
C07  39538952.628   205889707.688        1117.131          35.000    39538942.167   159206936.489         863.657          40.000  
C08  39242604.885   204346517.401       -2468.031          36.000    39242593.161   158013665.547       -1908.681          41.000  
C10  40478552.326   210782478.209         932.494          32.000    40478553.054   162990361.106         721.189          36.000  
C35  25946705.086   135111316.242         342.549          38.000                                                                  
C13  38409143.638   200006495.450       -2275.290          41.000    38409137.310   154657668.678       -1759.442          43.000  
C12  26410335.066   137525560.219        2312.142          36.000    26410333.420   106343480.903        1787.653          45.000  
G25  24472147.126   128602006.407       -3918.500          31.000    24472141.893   100209319.490       -3053.556          36.000  
> 2025 10 30 06 21 54.7600000  0 23                     
G32  22077917.909   116020237.165       -2961.958          45.000    22077911.966    90405343.944       -2308.121          43.000  
G29  23084334.873   121309010.249        -650.092          42.000    23084326.069    94526471.357        -506.288          40.000  
G28  21276189.157   111807130.002       -1214.023          45.000    21276179.091    87122398.153        -945.950          47.000  
G26  20331331.244   106841867.610         631.568          48.000    20331324.189    83253384.797         492.108          46.000  
G31  20620447.289   108361179.474         124.512          47.000    20620436.417    84437241.747          96.988          45.000  
G04  24430016.463   128380578.856        3170.120          35.000    24430012.287   100036843.044        2470.669          39.000  
C33  22518673.437   117260637.797        -757.409          50.000                                                                  
C06  36576254.457   190462156.682        -159.179          45.000    36576237.340   147277350.275        -123.107          48.000  
C14  22716384.838   118290160.995       -2303.258          46.000    22716370.196    91469402.054       -1781.030          51.000  
C16  37004754.821   192693467.556        -189.227          48.000    37004743.160   149002764.750        -146.381          48.000  
C24  21859639.117   113828880.981        -887.345          50.000                                                                  
C26  24479335.497   127470320.166       -2568.922          44.000                                                                  
G03  22891451.010   120295378.365        -186.085          40.000    22891446.550    93736651.970        -145.398          41.000  
G16  22372297.219   117567289.459        2947.034          41.000                                                                  
C09  37727531.931   196457161.878        -148.048          43.000    37727518.041   151913081.903        -114.542          48.000  
C25  23617897.674   122984600.962        1552.230          45.000                                                                  
C07  39538944.069   205889663.015        1116.511          34.000    39538933.563   159206901.935         863.535          40.000  
C08  39242623.848   204346616.114       -2468.172          36.000    39242612.133   158013741.888       -1908.868          41.000  
C10  40478545.169   210782440.899         932.310          32.000    40478545.893   162990332.249         721.080          36.000  
C35  25946702.442   135111302.530         342.389          38.000                                                                  
C13  38409161.113   200006586.444       -2275.333          41.000    38409154.779   154657739.043       -1759.424          43.000  
C12  26410317.299   137525467.748        2311.672          36.000    26410315.642   106343409.388        1787.615          45.000  
G25  24472176.917   128602163.210       -3920.084          31.000    24472171.756   100209441.629       -3053.671          36.000  
> 2025 10 30 06 21 54.8000000  0 23                     
G32  22077940.457   116020355.587       -2961.195          45.000    22077934.515    90405436.226       -2307.542          43.000  
G29  23084339.823   121309036.208        -649.515          42.000    23084331.027    94526491.598        -506.220          40.000  
G28  21276198.400   111807178.522       -1213.578          45.000    21276188.309    87122435.959        -945.596          47.000  
G26  20331326.414   106841842.304         632.138          48.000    20331319.369    83253365.078         492.570          46.000  
G31  20620446.340   108361174.453         125.047          47.000    20620435.460    84437237.836          97.398          45.000  
G04  24429992.323   128380451.984        3170.905          35.000    24429988.133   100036744.180        2471.135          39.000  
C33  22518679.250   117260668.052        -756.914          50.000                                                                  
C06  36576255.685   190462163.002        -158.563          45.000    36576238.549   147277355.168        -122.737          48.000  
C14  22716402.523   118290253.087       -2302.807          46.000    22716387.881    91469473.262       -1780.629          51.000  
C16  37004756.262   192693475.081        -188.684          48.000    37004744.603   149002770.567        -145.887          48.000  
C24  21859645.899   113828916.432        -886.811          50.000                                                                  
C26  24479355.228   127470422.885       -2568.569          44.000                                                                  
G03  22891452.409   120295385.787        -185.907          40.000    22891447.957    93736657.752        -144.983          41.000  
G16  22372274.772   117567171.542        2947.467          41.000                                                                  
C09  37727533.056   196457167.754        -147.399          43.000    37727519.175   151913086.453        -114.155          48.000  
C25  23617885.730   122984538.834        1552.764          45.000                                                                  
C07  39538935.511   205889618.323        1116.730          35.000    39538924.995   159206867.355         864.003          40.000  
C08  39242642.820   204346714.824       -2468.143          36.000    39242631.113   158013818.204       -1908.365          41.000  
C10  40478538.010   210782403.576         932.665          32.000    40478538.739   162990303.377         721.382          36.000  
C35  25946699.825   135111288.813         342.493          38.000                                                                  
C13  38409178.567   200006677.422       -2274.855          41.000    38409172.272   154657809.398       -1759.138          43.000  
C12  26410299.518   137525375.218        2312.712          36.000    26410297.892   106343337.859        1787.932          45.000  
G25  24472206.777                       -3918.798          31.000    24472201.580   100209563.739       -3053.201          36.000  
> 2025 10 30 06 21 54.8400000  0 23                     
G32  22077962.974   116020474.002       -2960.587          45.000    22077957.050    90405528.489       -2306.890          43.000  
G29  23084344.751   121309062.151        -648.829          42.000    23084335.962    94526511.810        -505.564          40.000  
G28  21276207.640   111807227.008       -1212.672          45.000    21276197.542    87122473.746        -945.017          47.000  
G26  20331321.564   106841816.981         632.766          48.000    20331314.549    83253345.342         493.193          46.000  
G31  20620445.366   108361169.412         125.769          47.000    20620434.492    84437233.900          98.089          45.000  
G04  24429968.161   128380325.043        3172.600          35.000    24429963.983   100036645.282        2472.105          39.000  
C33  22518685.025   117260698.282        -756.132          50.000                                                                  
C06  36576256.855   190462169.302        -157.825          45.000    36576239.787   147277360.036        -122.023          48.000  
C14  22716420.167   118290345.152       -2301.998          46.000    22716405.534    91469544.452       -1780.018          51.000  
C16  37004757.712   192693482.582        -187.885          48.000    37004746.057   149002776.361        -145.189          48.000  
C24  21859652.686   113828951.859        -886.065          50.000                                                                  
C26  24479374.925   127470525.562       -2567.517          44.000                                                                  
G03  22891453.812   120295393.191        -185.446          40.000    22891449.345    93736663.509        -144.253          41.000  
G16  22372252.336   117567053.592        2948.360          41.000                                                                  
C09  37727534.188   196457173.608        -146.653          43.000    37727520.300   151913090.981        -113.507          48.000  
C25  23617873.823   122984476.685        1553.498          45.000                                                                  
C07  39538926.905   205889573.557        1118.265          35.000    39538916.427   159206832.754         864.705          40.000  
C08  39242661.773   204346813.485       -2467.105          36.000    39242650.051   158013894.503       -1907.774          41.000  
C10  40478530.831   210782366.218         933.532          32.000    40478531.558   162990274.510         721.571          36.000  
C35  25946697.194   135111275.037         343.885          38.000                                                                  
C13  38409196.011   200006768.376       -2274.121          41.000    38409189.743   154657879.726       -1758.448          43.000  
C12  26410281.737   137525282.691        2313.228          36.000    26410280.123   106343266.308        1788.524          45.000  
G25  24472236.602                       -3917.937          31.000    24472231.403   100209685.850       -3052.929          36.000  
> 2025 10 30 06 21 54.8800000  0 23                     
G32  22077985.498   116020592.415       -2960.253          45.000    22077979.579    90405620.751       -2306.503          43.000  
G29  23084349.694   121309088.088        -648.398          42.000    23084340.898    94526532.012        -505.089          40.000  
G28  21276216.864   111807275.484       -1212.025          45.000    21276206.759    87122511.525        -944.587          47.000  
G26  20331316.752   106841791.646         633.297          48.000    20331309.720    83253325.602         493.530          46.000  
G31  20620444.389   108361164.360         126.302          47.000    20620433.515    84437229.963          98.475          45.000  
G04  24429944.009   128380198.106        3173.544          35.000    24429939.821   100036546.389        2472.453          39.000  
C33  22518690.868   117260728.510        -755.717          50.000                                                                  
C06  36576258.052   190462175.601        -157.427          45.000    36576241.023   147277364.906        -121.706          48.000  
C14  22716437.861   118290437.216       -2301.577          46.000    22716423.213    91469615.645       -1779.759          51.000  
C16  37004759.142   192693490.079        -187.391          48.000    37004747.493   149002782.155        -144.816          48.000  
C24  21859659.487   113828987.286        -885.637          50.000                                                                  
C26  24479394.637   127470628.239       -2566.981          44.000                                                                  
G03  22891455.199   120295400.570        -184.733          40.000    22891450.763    93736669.264        -143.923          41.000  
G16  22372229.888   117566935.638        2948.831          41.000                                                                  
C09  37727535.323   196457179.469        -146.405          43.000    37727521.411   151913095.506        -113.116          48.000  
C25  23617861.875   122984414.539        1553.747          45.000                                                                  
C07  39538918.287   205889528.797        1119.017          35.000    39538907.868   159206798.154         865.011          40.000  
C08  39242680.719   204346912.135       -2466.306          36.000    39242668.984   158013970.788       -1907.201          41.000  
C10  40478523.653   210782328.848         934.220          32.000    40478524.401   162990245.626         722.041          36.000  
C35  25946694.519   135111261.285         344.053          38.000                                                                  
C13  38409213.488   200006859.324       -2273.705          41.000    38409207.221   154657950.061       -1758.253          43.000  
C12  26410263.985   137525190.165        2313.416          36.000    26410262.346   106343194.762        1788.719          45.000  
G25  24472266.402                       -3917.435          31.000    24472261.219   100209807.947       -3052.534          36.000  
> 2025 10 30 06 21 54.9200000  0 23                     
G32  22078008.040   116020710.836       -2960.329          45.000    22078002.126    90405713.023       -2306.565          43.000  
G29  23084354.629   121309114.020        -648.163          42.000    23084345.848    94526552.229        -505.188          40.000  
G28  21276226.108   111807323.974       -1211.979          45.000    21276215.987    87122549.309        -944.448          47.000  
G26  20331311.945   106841766.321         633.309          48.000    20331304.893    83253305.867         493.550          46.000  
G31  20620443.445   108361159.320         126.256          47.000    20620432.558    84437226.034          98.435          45.000  
G04  24429919.885   128380071.203        3173.347          35.000    24429915.675   100036447.526        2471.995          39.000  
C33  22518696.625   117260758.743        -755.634          50.000                                                                  
C06  36576259.228   190462181.905        -157.375          45.000    36576242.231   147277369.782        -121.717          48.000  
C14  22716455.535   118290529.284       -2301.500          46.000    22716440.881    91469686.842       -1779.775          51.000  
C16  37004760.580   192693497.581        -187.343          48.000    37004748.927   149002787.964        -144.975          48.000  
C24  21859666.290   113829022.721        -885.662          50.000                                                                  
C26  24479414.332   127470730.940       -2567.167          44.000                                                                  
G03  22891456.637   120295407.981        -184.988          40.000    22891452.163    93736675.035        -144.082          41.000  
G16  22372207.443   117566817.705        2948.674          41.000                                                                  
C09  37727536.444   196457185.333        -146.436          43.000    37727522.573   151913100.036        -113.063          48.000  
C25  23617849.936   122984352.400        1553.689          45.000                                                                  
C07  39538909.696   205889484.059        1118.905          35.000    39538899.233   159206763.559         865.051          40.000  
C08  39242699.686   204347010.812       -2466.461          36.000    39242687.905   158014047.083       -1907.167          41.000  
C10  40478516.468   210782291.471         934.535          32.000    40478517.226   162990216.739         722.215          36.000  
C35  25946691.875   135111247.544         343.784          37.000                                                                  
C13  38409230.951   200006950.290       -2273.893          41.000    38409224.683   154658020.396       -1758.224          43.000  
C12  26410246.210   137525097.642        2313.277          36.000    26410244.575   106343123.220        1788.698          45.000  
G25  24472296.224   128602790.023       -3917.434          31.000    24472291.047   100209930.067       -3052.795          36.000  
> 2025 10 30 06 21 54.9600000  0 23                     
G32  22078030.587   116020829.257       -2960.407          45.000    22078024.667    90405805.301       -2306.762          43.000  
G29  23084359.569   121309139.979        -648.654          42.000    23084350.794    94526572.456        -505.503          40.000  
G28  21276235.357   111807372.483       -1212.382          45.000    21276225.221    87122587.104        -944.666          47.000  
G26  20331307.128   106841741.002         633.162          48.000    20331300.074    83253286.143         493.291          46.000  
G31  20620442.506   108361154.291         125.964          47.000    20620431.608    84437222.123          98.008          45.000  
G04  24429895.752   128379944.340        3172.274          35.000    24429891.529   100036348.665        2471.649          39.000  
C33  22518702.411   117260788.986        -755.883          50.000                                                                  
C06  36576260.434   190462188.214        -157.514          45.000    36576243.448   147277374.668        -121.964          48.000  
C14  22716473.230   118290621.365       -2301.781          46.000    22716458.548    91469758.041       -1779.882          51.000  
C16  37004761.991   192693505.088        -187.479          48.000    37004750.383   149002793.774        -145.124          48.000  
C24  21859673.065   113829058.156        -885.739          50.000                                                                  
C26  24479434.059   127470833.640       -2567.330          44.000                                                                  
G03  22891458.069   120295415.383        -185.028          40.000    22891453.556    93736680.806        -144.198          41.000  
G16  22372185.019   117566699.775        2948.429          41.000                                                                  
C09  37727537.536   196457191.207        -146.650          43.000    37727523.689   151913104.576        -113.292          48.000  
C25  23617837.997   122984290.276        1553.312          45.000                                                                  
C07  39538901.119   205889439.328        1118.635          35.000    39538890.595   159206728.975         864.862          40.000  
C08  39242718.648   204347109.507       -2466.986          36.000    39242706.864   158014123.394       -1907.505          41.000  
C10  40478509.318   210782254.091         934.759          32.000    40478510.062   162990187.841         722.460          36.000  
C35  25946689.241   135111233.812         343.397          37.000                                                                  
C13  38409248.422   200007041.269       -2274.252          41.000    38409242.155   154658090.735       -1758.337          43.000  
C12  26410228.414   137525005.116        2313.208          36.000    26410226.800   106343051.681        1788.568          45.000  
G25  24472326.057   128602946.711       -3917.268          31.000    24472320.851   100210052.172       -3052.650          36.000  
> 2025 10 30 06 21 55.0000000  0 23                     
G32  22078053.118   116020947.693       -2960.753          45.000    22078047.214    90405897.589       -2307.080          43.000  
G29  23084364.507   121309165.944        -649.052          42.000    23084355.756    94526592.688        -505.763          40.000  
G28  21276244.616   111807420.998       -1212.760          45.000    21276234.458    87122624.903        -944.854          47.000  
G26  20331302.295   106841715.697         632.800          48.000    20331295.276    83253266.423         493.048          46.000  
G31  20620441.574   108361149.271         125.601          47.000    20620430.655    84437218.212          97.781          45.000  
G04  24429871.622   128379817.457        3172.131          35.000    24429867.371   100036249.784        2471.825          39.000  
C33  22518708.211   117260819.241        -756.240          50.000                                                                  
C06  36576261.638   190462194.543        -157.969          45.000    36576244.638   147277379.557        -122.153          48.000  
C14  22716490.915   118290713.452       -2302.056          46.000    22716476.207    91469829.248       -1780.093          51.000  
C16  37004763.423   192693512.614        -187.922          48.000    37004751.845   149002799.594        -145.416          48.000  
C24  21859679.861   113829093.605        -886.070          50.000                                                                  
C26  24479453.778   127470936.351       -2567.621          44.000                                                                  
G03  22891459.489   120295422.797        -185.215          40.000    22891454.993    93736686.584        -144.398          41.000  
G16  22372162.574   117566581.850        2948.198          41.000                                                                  
C09  37727538.656   196457197.095        -147.102          43.000    37727524.814   151913109.123        -113.572          48.000  
C25  23617826.068   122984228.147        1553.140          45.000                                                                  
C07  39538892.536   205889394.632        1117.850          35.000    39538882.019   159206694.409         864.379          40.000  
C08  39242737.610   204347208.199       -2467.272          36.000    39242725.820   158014199.729       -1908.099          41.000  
C10  40478502.180   210782216.769         933.841          32.000    40478502.919   162990158.958         722.320          36.000  
C35  25946686.622   135111220.095         342.975          37.000                                                                  
C13  38409265.883   200007132.241       -2274.368          41.000    38409259.661   154658161.091       -1758.769          43.000  
C12  26410210.658   137524912.612        2312.758          36.000    26410209.035   106342980.147        1788.370          45.000  
G25  24472355.895                       -3918.119          31.000    24472350.682   100210174.298       -3052.951          36.000  
> 2025 10 30 06 21 55.0400000  0 23                     
G32  22078075.667   116021066.127       -2960.918          45.000    22078069.733    90405989.875       -2307.210          42.000  
G29  23084369.434   121309191.904        -649.160          42.000    23084360.685    94526612.912        -505.748          40.000  
G28  21276253.841   111807469.515       -1212.988          45.000    21276243.678    87122662.707        -945.072          47.000  
G26  20331297.488   106841690.393         632.559          48.000    20331290.446    83253246.707         492.825          46.000  
G31  20620440.617   108361144.245         125.559          47.000    20620429.692    84437214.295          97.788          45.000  
G04  24429847.485   128379690.608        3171.372          35.000    24429843.236   100036150.922        2471.603          39.000  
C33  22518714.003   117260849.506        -756.635          50.000                                                                  
C06  36576262.841   190462200.871        -158.222          45.000    36576245.864   147277384.444        -122.253          48.000  
C14  22716508.561   118290805.548       -2302.395          46.000    22716493.861    91469900.461       -1780.325          51.000  
C16  37004764.844   192693520.144        -188.266          48.000    37004753.292   149002805.407        -145.450          48.000  
C24  21859686.655   113829129.063        -886.398          50.000                                                                  
C26  24479473.493   127471039.064       -2567.847          44.000                                                                  
G03  22891460.896   120295430.228        -185.628          40.000    22891456.414    93736692.360        -144.491          41.000  
G16  22372140.151   117566463.938        2947.851          41.000                                                                  
C09  37727539.781   196457202.975        -147.166          43.000    37727525.922   151913113.671        -113.714          48.000  
C25  23617814.138   122984166.020        1553.092          45.000                                                                  
C07  39538883.964   205889349.919        1117.667          35.000    39538873.434   159206659.817         864.589          40.000  
C08  39242756.579   204347306.904       -2467.603          36.000    39242744.752   158014276.024       -1907.716          41.000  
C10  40478495.009   210782179.440         933.357          32.000    40478495.755   162990130.097         721.733          36.000  
C35  25946684.007   135111206.357         343.234          37.000                                                                  
C13  38409283.349   200007223.215       -2274.460          41.000    38409277.125   154658231.443       -1758.897          43.000  
C12  26410192.890   137524820.109        2312.538          36.000    26410191.274   106342908.616        1788.236          45.000  
G25  24472385.731                       -3919.132          31.000    24472380.510   100210296.414       -3053.052          36.000  
> 2025 10 30 06 21 55.0800000  0 23                     
G32  22078098.200   116021184.573       -2961.194          45.000    22078092.279    90406082.172       -2307.482          43.000  
G29  23084374.368   121309217.868        -649.226          42.000    23084365.633    94526633.141        -505.803          40.000  
G28  21276263.066   111807518.040       -1213.207          45.000    21276252.915    87122700.517        -945.268          47.000  
G26  20331292.679   106841665.104         632.201          48.000    20331285.657    83253226.997         492.667          46.000  
G31  20620439.679   108361139.229         125.356          47.000    20620428.732    84437210.386          97.684          45.000  
G04  24429823.339   128379563.725        3171.581          35.000    24429819.088   100036052.064        2471.455          39.000  
C33  22518719.829   117260879.772        -756.810          50.000                                                                  
C06  36576264.048   190462207.206        -158.452          45.000    36576247.081   147277389.346        -122.549          48.000  
C14  22716526.239   118290897.648       -2302.622          46.000    22716511.535    91469971.681       -1780.535          51.000  
C16  37004766.295   192693527.675        -188.429          48.000    37004754.739   149002811.233        -145.651          48.000  
C24  21859693.448   113829164.523        -886.582          50.000                                                                  
C26  24479493.226   127471141.776       -2567.950          44.000                                                                  
G03  22891462.322   120295437.647        -185.584          40.000    22891457.826    93736698.147        -144.722          41.000  
G16  22372117.717   117566346.021        2947.736          41.000                                                                  
C09  37727540.908   196457208.856        -147.140          43.000    37727527.022   151913118.224        -113.881          48.000  
C25  23617802.209   122984103.898        1553.000          45.000                                                                  
C07  39538875.391   205889305.214        1117.513          35.000    39538864.866   159206625.250         864.294          40.000  
C08  39242775.525   204347405.596       -2467.518          36.000    39242763.701   158014352.342       -1907.898          41.000  
C10  40478487.843   210782142.115         933.049          32.000    40478488.610   162990101.233         721.466          36.000  
C35  25946681.380   135111192.620         343.335          37.000                                                                  
C13  38409300.821   200007314.200       -2274.675          41.000    38409294.591   154658301.804       -1759.130          43.000  
C12  26410175.117   137524727.604        2312.515          36.000    26410173.495   106342837.092        1788.052          45.000  
G25  24472415.588                       -3918.971          31.000    24472410.336   100210418.546       -3053.278          36.000  
> 2025 10 30 06 21 55.1200000  0 23                     
G32  22078120.744   116021303.024       -2961.371          45.000    22078114.824    90406174.473       -2307.655          43.000  
G29  23084379.319   121309243.842        -649.385          42.000    23084370.571    94526653.380        -505.988          40.000  
G28  21276272.287   111807566.558       -1213.162          45.000    21276262.163    87122738.327        -945.348          47.000  
G26  20331287.863   106841639.808         632.194          48.000    20331280.827    83253207.291         492.545          46.000  
G31  20620438.715   108361134.213         125.296          47.000    20620427.776    84437206.484          97.488          45.000  
G04  24429799.196   128379436.856        3171.641          35.000    24429794.969   100035953.211        2471.349          39.000  
C33  22518725.654   117260910.040        -756.859          50.000                                                                  
C06  36576265.258   190462213.525        -158.237          45.000    36576248.279   147277394.238        -122.499          48.000  
C14  22716543.962   118290989.750       -2302.690          46.000    22716529.205    91470042.901       -1780.604          51.000  
C16  37004767.730   192693535.207        -188.462          48.000    37004756.158   149002817.054        -145.644          48.000  
C24  21859700.287   113829199.987        -886.719          50.000                                                                  
C26  24479512.975   127471244.497       -2568.092          44.000                                                                  
G03  22891463.748   120295445.081        -185.807          40.000    22891459.226    93736703.943        -144.968          41.000  
G16  22372095.289   117566228.114        2947.598          41.000                                                                  
C09  37727542.047   196457214.741        -147.220          43.000    37727528.178   151913122.780        -113.984          48.000  
C25  23617790.291   122984041.781        1552.847          45.000                                                                  
C07  39538866.810   205889260.489        1117.802          35.000    39538856.278   159206590.673         864.315          40.000  
C08  39242794.475   204347504.288       -2467.358          36.000    39242782.667   158014428.656       -1907.955          41.000  
C10  40478480.677   210782104.769         933.278          32.000    40478481.450   162990072.386         721.081          36.000  
C35  25946678.737   135111178.910         342.875          37.000                                                                  
C13  38409318.289   200007405.177       -2274.600          41.000    38409312.084   154658372.149       -1758.875          43.000  
C12  26410157.345   137524635.096        2312.559          36.000    26410155.742   106342765.564        1788.065          45.000  
G25  24472445.441                       -3918.420          31.000    24472440.137   100210540.660       -3053.049          36.000  
> 2025 10 30 06 21 55.1600000  0 23                     
G32  22078143.287   116021421.475       -2961.409          45.000    22078137.358    90406266.767       -2307.545          43.000  
G29  23084384.246   121309269.820        -649.532          42.000    23084375.503    94526673.628        -506.222          40.000  
G28  21276281.484   111807615.067       -1212.920          45.000    21276271.380    87122776.143        -945.465          47.000  
G26  20331283.022   106841614.514         632.209          48.000    20331276.015    83253187.582         492.579          46.000  
G31  20620437.758   108361129.202         125.198          47.000    20620426.814    84437202.580          97.489          45.000  
G04  24429775.054   128379309.985        3171.711          35.000    24429770.814   100035854.335        2471.720          39.000  
C33  22518731.515   117260940.305        -756.790          50.000                                                                  
C06  36576266.485   190462219.857        -158.347          45.000    36576249.494   147277399.131        -122.455          48.000  
C14  22716561.650   118291081.845       -2302.563          46.000    22716546.909    91470114.120       -1780.593          51.000  
C16  37004769.187   192693542.736        -188.391          48.000    37004757.594   149002822.881        -145.710          48.000  
C24  21859707.121   113829235.450        -886.708          50.000                                                                  
C26  24479532.739   127471347.221       -2568.241          44.000                                                                  
G03  22891465.155   120295452.501        -185.620          40.000    22891460.642    93736709.728        -144.817          41.000  
G16  22372072.847   117566110.200        2947.669          41.000                                                                  
C09  37727543.177   196457220.618        -147.039          43.000    37727529.305   151913127.334        -113.968          48.000  
C25  23617778.379   122983979.666        1552.762          45.000                                                                  
C07  39538858.203   205889215.749        1118.300          35.000    39538847.658   159206556.105         864.147          40.000  
C08  39242813.429   204347602.983       -2467.424          36.000    39242801.641   158014504.985       -1908.199          41.000  
C10  40478473.465   210782067.416         933.663          32.000    40478474.289   162990043.527         721.161          36.000  
C35  25946676.105   135111165.188         342.854          37.000                                                                  
C13  38409335.770   200007496.173       -2274.889          41.000    38409329.563   154658442.502       -1758.869          43.000  
C12  26410139.590   137524542.586        2312.658          36.000    26410137.992   106342694.041        1788.017          45.000  
G25  24472475.304                       -3918.359          31.000    24472469.962   100210662.780       -3053.079          36.000  
> 2025 10 30 06 21 55.2000000  0 23                     
G32  22078165.837   116021539.922       -2961.319          45.000    22078159.895    90406359.054       -2307.355          43.000  
G29  23084389.193   121309295.796        -649.548          42.000    23084380.458    94526693.872        -506.180          40.000  
G28  21276290.713   111807663.591       -1213.041          45.000    21276280.583    87122813.946        -945.304          47.000  
G26  20331278.208   106841589.226         632.149          48.000    20331271.202    83253167.862         492.830          46.000  
G31  20620436.818   108361124.198         125.045          47.000    20620425.874    84437198.670          97.601          45.000  
G04  24429750.893   128379183.098        3171.992          36.000    24429746.676   100035755.469        2471.754          39.000  
C33  22518737.333   117260970.567        -756.679          50.000                                                                  
C06  36576267.685   190462226.184        -158.277          45.000    36576250.705   147277404.025        -122.438          48.000  
C14  22716579.352   118291173.947       -2302.600          46.000    22716564.597    91470185.334       -1780.457          51.000  
C16  37004770.684   192693550.263        -188.291          48.000    37004759.037   149002828.700        -145.603          48.000  
C24  21859713.960   113829270.906        -886.572          50.000                                                                  
C26  24479552.460   127471449.920       -2567.795          44.000                                                                  
G03  22891466.566   120295459.940        -185.872          40.000    22891462.048    93736715.518        -144.771          41.000  
G16  22372050.423   117565992.296        2947.531          41.000                                                                  
C09  37727544.283   196457226.511        -147.249          43.000    37727530.441   151913131.882        -113.832          48.000  
C25  23617766.479   122983917.546        1552.892          45.000                                                                  
C07  39538849.610   205889171.075        1117.350          35.000    39538839.090   159206521.535         864.158          40.000  
C08  39242832.375   204347701.693       -2467.644          36.000    39242820.585   158014581.312       -1908.275          41.000  
C10  40478466.326   210782030.101         933.101          31.000    40478467.117   162990014.646         721.754          36.000  
C35  25946673.494   135111151.466         342.953          37.000                                                                  
C13  38409353.247   200007587.163       -2274.912          41.000    38409347.058   154658512.863       -1758.980          43.000  
C12  26410121.825   137524450.090        2312.480          36.000    26410120.213   106342622.508        1788.196          45.000  
G25  24472505.111                       -3917.855          31.000    24472499.792   100210784.918       -3053.374          36.000  
> 2025 10 30 06 21 55.2400000  0 23                     
G32  22078188.361   116021658.364       -2961.161          45.000    22078182.447    90406451.352       -2307.442          43.000  
G29  23084394.123   121309321.773        -649.534          42.000    23084385.383    94526714.104        -505.911          40.000  
G28  21276299.941   111807712.110       -1213.017          45.000    21276289.828    87122851.752        -945.250          47.000  
G26  20331273.401   106841563.935         632.175          48.000    20331266.408    83253148.156         492.717          46.000  
G31  20620435.868   108361119.189         125.108          47.000    20620424.898    84437194.765          97.594          45.000  
G04  24429726.736   128379056.220        3171.927          36.000    24429722.534   100035656.614        2471.544          39.000  
C33  22518743.128   117261000.836        -756.730          50.000                                                                  
C06  36576268.909   190462232.520        -158.380          45.000    36576251.891   147277408.918        -122.378          48.000  
C14  22716597.021   118291266.045       -2302.509          46.000    22716582.291    91470256.548       -1780.395          51.000  
C16  37004772.165   192693557.788        -188.194          48.000    37004760.479   149002834.525        -145.643          48.000  
C24  21859720.804   113829306.362        -886.481          50.000                                                                  
C26  24479572.210   127471552.634       -2567.780          44.000                                                                  
G03  22891468.002   120295467.368        -185.826          40.000    22891463.459    93736721.314        -144.845          41.000  
G16  22372027.992   117565874.390        2947.595          41.000                                                                  
C09  37727545.403   196457232.405        -147.395          43.000    37727531.556   151913136.432        -113.768          48.000  
C25  23617754.553   122983855.428        1552.905          45.000                                                                  
C07  39538841.045   205889126.338        1118.005          35.000    39538830.489   159206486.964         864.202          40.000  
C08  39242851.322   204347800.393       -2467.625          35.000    39242839.535   158014657.638       -1908.273          41.000  
C10  40478459.168   210781992.769         933.224          31.000    40478459.964   162989985.770         721.904          36.000  
C35  25946670.848   135111137.742         343.048          37.000                                                                  
C13  38409370.740   200007678.141       -2274.627          41.000    38409364.523   154658583.213       -1758.862          43.000  
C12  26410104.043   137524357.593        2312.375          36.000    26410102.439   106342550.979        1788.227          45.000  
G25  24472534.920                       -3918.138          31.000    24472529.610   100210907.053       -3053.491          36.000  
> 2025 10 30 06 21 55.2800000  0 23                     
G32  22078210.892   116021776.802       -2961.009          45.000    22078204.988    90406543.641       -2307.366          43.000  
G29  23084399.066   121309347.745        -649.421          42.000    23084390.318    94526734.358        -506.167          40.000  
G28  21276309.168   111807760.636       -1213.124          45.000    21276299.076    87122889.563        -945.262          47.000  
G26  20331268.554   106841538.636         632.381          48.000    20331261.589    83253128.451         492.636          46.000  
G31  20620434.904   108361114.176         125.213          47.000    20620423.954    84437190.862          97.532          45.000  
G04  24429702.598   128378929.357        3171.705          36.000    24429698.378   100035557.751        2471.519          39.000  
C33  22518748.987   117261031.101        -756.679          50.000                                                                  
C06  36576270.142   190462238.842        -158.201          45.000    36576253.109   147277413.817        -122.463          48.000  
C14  22716614.702   118291358.147       -2302.548          46.000    22716599.956    91470327.769       -1780.472          51.000  
C16  37004773.620   192693565.316        -188.196          48.000    37004761.941   149002840.334        -145.356          48.000  
C24  21859727.630   113829341.815        -886.384          50.000                                                                  
C26  24479591.934   127471655.342       -2567.703          44.000                                                                  
G03  22891469.393   120295474.794        -185.757          40.000    22891464.869    93736727.100        -144.745          41.000  
G16  22372005.537   117565756.476        2947.737          41.000                                                                  
C09  37727546.547   196457238.287        -147.246          43.000    37727532.689   151913140.981        -113.744          48.000  
C25  23617742.633   122983793.306        1552.991          45.000                                                                  
C07  39538832.462   205889081.632        1117.764          35.000    39538821.878   159206452.382         864.412          40.000  
C08  39242870.290   204347899.098       -2467.716          35.000    39242858.472   158014733.936       -1907.763          41.000  
C10  40478452.007   210781955.433         933.293          31.000    40478452.815   162989956.896         721.925          36.000  
C35  25946668.208   135111124.024         342.998          37.000                                                                  
C13  38409388.192   200007769.123       -2274.585          41.000    38409381.983   154658653.568       -1758.894          43.000  
C12  26410086.277   137524265.089        2312.450          36.000    26410084.701   106342479.446        1788.325          46.000  
G25  24472564.774                       -3917.926          31.000    24472559.453   100211029.167       -3053.141          36.000  
> 2025 10 30 06 21 55.3200000  0 23                     
G32  22078233.422   116021895.243       -2960.987          45.000    22078227.544    90406635.946       -2307.558          43.000  
G29  23084404.009   121309373.723        -649.452          42.000    23084395.253    94526754.588        -505.874          40.000  
G28  21276318.416   111807809.163       -1213.208          45.000    21276308.300    87122927.374        -945.310          47.000  
G26  20331263.744   106841513.345         632.318          48.000    20331256.784    83253108.751         492.469          46.000  
G31  20620433.923   108361109.159         125.386          47.000    20620423.006    84437186.953          97.662          45.000  
G04  24429678.425   128378802.490        3171.625          36.000    24429674.208   100035458.879        2471.642          39.000  
C33  22518754.762   117261061.374        -756.801          50.000                                                                  
C06  36576271.335   190462245.176        -158.330          45.000    36576254.307   147277418.710        -122.383          48.000  
C14  22716632.392   118291450.251       -2302.625          46.000    22716617.636    91470398.989       -1780.522          51.000  
C16  37004775.065   192693572.851        -188.318          48.000    37004763.399   149002846.160        -145.537          48.000  
C24  21859734.410   113829377.276        -886.474          50.000                                                                  
C26  24479611.681   127471758.062       -2567.900          44.000                                                                  
G03  22891470.822   120295482.216        -185.670          40.000    22891466.268    93736732.898        -144.941          41.000  
G16  22371983.098   117565638.558        2947.895          41.000                                                                  
C09  37727547.687   196457244.173        -147.200          43.000    37727533.813   151913145.535        -113.809          48.000  
C25  23617730.718   122983731.183        1553.064          45.000                                                                  
C07  39538823.889   205889036.911        1118.046          35.000    39538813.283   159206417.797         864.598          40.000  
C08  39242889.253   204347997.773       -2467.132          36.000    39242877.462   158014810.253       -1907.778          41.000  
C10  40478444.830   210781918.114         932.920          31.000    40478445.651   162989928.035         721.681          36.000  
C35  25946665.581   135111110.311         342.841          37.000                                                                  
C13  38409405.635   200007860.112       -2274.708          41.000    38409399.463   154658723.930       -1759.054          43.000  
C12  26410068.519   137524172.593        2312.370          36.000    26410066.940   106342407.912        1788.336          46.000  
G25  24472594.601                       -3918.092          31.000    24472589.267   100211151.272       -3052.719          36.000  
> 2025 10 30 06 21 55.3600000  0 23                     
G32  22078255.958   116022013.697       -2961.249          45.000    22078250.077    90406728.239       -2307.477          43.000  
G29  23084408.932   121309399.701        -649.471          42.000    23084400.205    94526774.841        -506.118          40.000  
G28  21276327.647   111807857.691       -1213.254          45.000    21276317.529    87122965.183        -945.296          47.000  
G26  20331258.959   106841488.059         632.212          48.000    20331251.960    83253089.039         492.657          46.000  
G31  20620432.963   108361104.149         125.292          47.000    20620422.055    84437183.051          97.576          45.000  
G04  24429654.307   128378675.616        3171.721          36.000    24429650.083   100035360.030        2471.372          39.000  
C33  22518760.556   117261091.645        -756.843          50.000                                                                  
C06  36576272.540   190462251.509        -158.380          45.000    36576255.535   147277423.607        -122.430          48.000  
C14  22716650.060   118291542.351       -2302.552          46.000    22716635.329    91470470.209       -1780.507          51.000  
C16  37004776.510   192693580.382        -188.297          48.000    37004764.882   149002851.987        -145.672          48.000  
C24  21859741.185   113829412.742        -886.611          50.000                                                                  
C26  24479631.427   127471860.779       -2567.985          44.000                                                                  
G03  22891472.248   120295489.667        -186.116          40.000    22891467.674    93736738.696        -144.982          41.000  
G16  22371960.677   117565520.644        2947.906          41.000                                                                  
C09  37727548.805   196457250.068        -147.340          43.000    37727535.001   151913150.092        -113.910          48.000  
C25  23617718.789   122983669.084        1552.614          45.000                                                                  
C07  39538815.314   205888992.193        1118.058          34.000    39538804.697   159206383.230         864.311          40.000  
C08  39242908.197   204348096.488       -2467.487          36.000    39242896.429   158014886.577       -1907.958          41.000  
C10  40478437.643   210781880.762         933.448          31.000    40478438.443   162989899.167         721.578          36.000  
C35  25946662.950   135111096.587         342.987          38.000                                                                  
C13  38409423.096   200007951.081       -2274.338          41.000    38409416.934   154658794.285       -1758.985          43.000  
C12  26410050.766   137524080.096        2312.345          36.000    26410049.171   106342336.391        1788.139          46.000  
G25  24472624.424                       -3918.265          31.000    24472619.100   100211273.413       -3053.215          37.000  
> 2025 10 30 06 21 55.4000000  0 23                     
G32  22078278.484   116022132.144       -2961.240          45.000    22078272.612    90406820.529       -2307.320          43.000  
G29  23084413.879   121309425.670        -649.328          42.000    23084405.156    94526795.083        -506.080          40.000  
G28  21276336.847   111807906.206       -1212.987          45.000    21276326.769    87123002.987        -945.197          47.000  
G26  20331254.148   106841462.767         632.244          48.000    20331247.139    83253069.329         492.732          46.000  
G31  20620432.005   108361099.134         125.348          47.000    20620421.088    84437179.146          97.601          45.000  
G04  24429630.163   128378548.750        3171.637          36.000    24429625.940   100035261.168        2471.423          39.000  
C33  22518766.391   117261121.912        -756.771          50.000                                                                  
C06  36576273.751   190462257.827        -158.109          45.000    36576256.726   147277428.495        -122.273          48.000  
C14  22716667.753   118291634.447       -2302.458          46.000    22716653.023    91470541.425       -1780.450          51.000  
C16  37004777.965   192693587.898        -188.039          48.000    37004766.364   149002857.806        -145.585          48.000  
C24  21859747.989   113829448.204        -886.611          50.000                                                                  
C26  24479651.154   127471963.495       -2567.994          44.000                                                                  
G03  22891473.644   120295497.074        -185.553          40.000    22891469.078    93736744.474        -144.662          41.000  
G16  22371938.247   117565402.726        2947.993          41.000                                                                  
C09  37727549.916   196457255.939        -146.984          43.000    37727536.138   151913154.637        -113.730          48.000  
C25  23617706.851   122983606.970        1552.702          45.000                                                                  
C07  39538806.733   205888947.467        1118.239          35.000    39538796.092   159206348.649         864.436          40.000  
C08  39242927.156   204348195.178       -2467.302          36.000    39242915.381   158014962.890       -1907.862          41.000  
C10  40478430.442   210781843.417         933.722          31.000    40478431.308   162989870.305         721.511          36.000  
C35  25946660.316   135111082.862         343.035          38.000                                                                  
C13  38409440.578   200008042.068       -2274.512          41.000    38409434.373   154658864.637       -1758.899          43.000  
C12  26410033.014   137523987.593        2312.438          36.000    26410031.440   106342264.849        1788.411          46.000  
G25  24472654.247                       -3918.230          31.000    24472648.919   100211395.558       -3053.536          36.000  
> 2025 10 30 06 21 55.4400000  0 23                     
G32  22078301.043   116022250.582       -2961.055          45.000    22078295.146    90406912.811       -2307.089          43.000  
G29  23084418.830   121309451.643        -649.303          42.000    23084410.091    94526815.310        -505.743          40.000  
G28  21276346.042   111807954.711       -1212.696          45.000    21276335.991    87123040.789        -945.112          47.000  
G26  20331249.303   106841437.460         632.542          48.000    20331242.313    83253049.608         492.987          46.000  
G31  20620431.033   108361094.107         125.582          47.000    20620420.133    84437175.237          97.699          45.000  
G04  24429605.994   128378421.857        3172.057          36.000    24429601.793   100035162.296        2471.593          39.000  
C33  22518772.224   117261152.172        -756.587          50.000                                                                  
C06  36576274.938   190462264.139        -157.846          45.000    36576257.957   147277433.374        -122.049          48.000  
C14  22716685.443   118291726.540       -2302.340          46.000    22716670.706    91470612.633       -1780.254          51.000  
C16  37004779.395   192693595.415        -187.916          48.000    37004767.819   149002863.620        -145.429          48.000  
C24  21859754.789   113829483.650        -886.290          50.000                                                                  
C26  24479670.865   127472066.208       -2567.888          44.000                                                                  
G03  22891475.050   120295504.506        -185.598          40.000    22891470.495    93736750.260        -144.594          41.000  
G16  22371915.832   117565284.820        2947.791          41.000                                                                  
C09  37727551.053   196457261.809        -146.752          43.000    37727537.256   151913159.187        -113.739          48.000  
C25  23617694.943   122983544.847        1552.937          45.000                                                                  
C07  39538798.144   205888902.770        1117.820          35.000    39538787.512   159206314.073         864.493          40.000  
C08  39242946.090   204348293.848       -2466.836          36.000    39242934.337   158015039.202       -1907.764          41.000  
C10  40478423.268   210781806.086         933.294          31.000    40478424.130   162989841.421         721.889          36.000  
C35  25946657.701   135111069.140         343.080          38.000                                                                  
C13  38409458.045   200008133.050       -2274.549          41.000    38409451.857   154658934.987       -1758.795          43.000  
C12  26410015.243   137523895.079        2312.721          36.000    26410013.697   106342193.307        1788.570          46.000  
G25  24472684.064                       -3918.425          31.000    24472678.745   100211517.649       -3052.758          37.000  
> 2025 10 30 06 21 55.4800000  0 23                     
G32  22078323.557   116022369.012       -2960.792          45.000    22078317.677    90407005.098       -2307.090          43.000  
G29  23084423.757   121309477.612        -649.229          42.000    23084415.030    94526835.540        -505.678          40.000  
G28  21276355.293   111808003.223       -1212.690          45.000    21276345.214    87123078.590        -945.051          47.000  
G26  20331244.490   106841412.159         632.565          48.000    20331237.527    83253029.895         492.915          46.000  
G31  20620430.112   108361089.085         125.581          47.000    20620419.163    84437171.322          97.785          45.000  
G04  24429581.842   128378294.974        3172.092          36.000    24429577.631   100035063.417        2471.891          39.000  
C33  22518777.999   117261182.433        -756.533          50.000                                                                  
C06  36576276.135   190462270.456        -157.817          45.000    36576259.157   147277438.256        -122.018          48.000  
C14  22716703.133   118291818.632       -2302.311          46.000    22716688.397    91470683.845       -1780.258          51.000  
C16  37004780.804   192693602.928        -187.820          48.000    37004769.255   149002869.425        -145.186          48.000  
C24  21859761.632   113829519.092        -886.069          50.000                                                                  
C26  24479690.609   127472168.911       -2567.646          44.000                                                                  
G03  22891476.466   120295511.939        -185.751          40.000    22891471.899    93736756.043        -144.539          41.000  
G16  22371893.387   117565166.907        2947.787          41.000                                                                  
C09  37727552.171   196457267.682        -146.779          43.000    37727538.359   151913163.723        -113.473          48.000  
C25  23617683.019   122983482.715        1553.232          45.000                                                                  
C07  39538789.566   205888858.038        1118.115          35.000    39538778.924   159206279.485         864.674          40.000  
C08  39242965.029   204348392.550       -2467.221          36.000    39242953.301   158015115.514       -1907.792          41.000  
C10  40478416.094                         932.869          31.000    40478416.965   162989812.540         721.938          36.000  
C35  25946655.063   135111055.430         342.820          38.000                                                                  
C13  38409475.516   200008224.004       -2274.050          41.000    38409469.321   154659005.333       -1758.666          43.000  
C12  26409997.477   137523802.550        2313.096          36.000    26409995.948   106342121.762        1788.643          46.000  
G25  24472713.901   128604984.142       -3918.083          31.000    24472708.573   100211639.758       -3052.670          37.000  
> 2025 10 30 06 21 55.5200000  0 23                     
G32  22078346.117   116022487.460       -2961.013          45.000    22078340.218    90407097.385       -2307.113          43.000  
G29  23084428.713   121309503.586        -649.286          42.000    23084419.992    94526855.780        -505.866          40.000  
G28  21276364.528   111808051.739       -1212.775          45.000    21276354.454    87123116.391        -945.037          47.000  
G26  20331239.717   106841386.871         632.321          48.000    20331232.717    83253010.187         492.733          46.000  
G31  20620429.173   108361084.074         125.358          47.000    20620418.233    84437167.409          97.784          45.000  
G04  24429557.681   128378168.089        3172.126          36.000    24429553.476   100034964.569        2471.466          39.000  
C33  22518783.820   117261212.696        -756.555          50.000                                                                  
C06  36576277.334   190462276.774        -157.883          45.000    36576260.374   147277443.146        -122.175          48.000  
C14  22716720.807   118291910.735       -2302.490          46.000    22716706.084    91470755.064       -1780.413          51.000  
C16  37004782.223   192693610.448        -187.896          48.000    37004770.687   149002875.239        -145.225          48.000  
C24  21859768.425   113829554.549        -886.254          50.000                                                                  
C26  24479710.332   127472271.621       -2567.682          44.000                                                                  
G03  22891477.917   120295519.382        -186.008          40.000    22891473.297    93736761.833        -144.641          41.000  
G16  22371870.948   117565048.987        2947.935          41.000                                                                  
C09  37727553.292   196457273.555        -146.782          43.000    37727539.459   151913168.267        -113.522          48.000  
C25  23617671.065   122983420.593        1553.150          45.000                                                                  
C07  39538780.972   205888813.323        1117.933          34.000    39538770.322   159206244.888         864.906          40.000  
C08  39242983.992   204348491.225       -2467.010          36.000    39242972.250   158015191.831       -1907.888          41.000  
C10  40478408.858                         934.160          31.000    40478409.809   162989783.668         721.775          36.000  
C35  25946652.415   135111041.683         343.401          38.000                                                                  
C13  38409492.949   200008314.987       -2274.373          41.000    38409486.790   154659075.675       -1758.537          43.000  
C12  26409979.711   137523710.035        2313.014          36.000    26409978.183   106342050.222        1788.556          46.000  
G25  24472743.732   128605140.827       -3917.335          31.000    24472738.411   100211761.889       -3053.051          37.000  
> 2025 10 30 06 21 55.5600000  0 23                     
G32  22078368.649   116022605.906       -2961.130          45.000    22078362.767    90407189.687       -2307.428          43.000  
G29  23084433.657   121309529.567        -649.492          42.000    23084424.952    94526876.036        -506.302          40.000  
G28  21276373.774   111808100.260       -1212.932          45.000    21276363.676    87123154.205        -945.287          47.000  
G26  20331234.901   106841361.583         632.122          48.000    20331227.940    83252990.487         492.504          46.000  
G31  20620428.224   108361079.058         125.340          47.000    20620417.273    84437163.501          97.735          45.000  
G04  24429533.519   128378041.222        3171.855          36.000    24429529.321   100034865.695        2471.683          39.000  
C33  22518789.606   117261242.966        -756.721          50.000                                                                  
C06  36576278.524   190462283.103        -158.156          45.000    36576261.609   147277448.038        -122.285          48.000  
C14  22716738.498   118292002.837       -2302.591          46.000    22716723.760    91470826.286       -1780.571          51.000  
C16  37004783.632   192693617.973        -188.086          48.000    37004772.109   149002881.054        -145.307          48.000  
C24  21859775.208   113829590.009        -886.460          50.000                                                                  
C26  24479730.042   127472374.309       -2567.368          44.000                                                                  
G03  22891479.336   120295526.818        -186.031          40.000    22891474.711    93736767.629        -144.824          41.000  
G16  22371848.516   117564931.063        2948.032          41.000                                                                  
C09  37727554.394   196457279.431        -146.865          43.000    37727540.585   151913172.812        -113.582          48.000  
C25  23617659.134   122983358.477        1552.958          45.000                                                                  
C07  39538772.377   205888768.606        1117.882          34.000    39538761.724   159206210.312         864.540          40.000  
C08  39243002.938   204348589.927       -2467.365          36.000    39242991.238   158015268.150       -1907.970          41.000  
C10  40478401.690                         932.176          31.000    40478402.639   162989754.804         721.567          36.000  
C35  25946649.780   135111027.952         343.357          38.000                                                                  
C13  38409510.424   200008405.967       -2274.521          41.000    38409504.276   154659146.025       -1758.655          43.000  
C12  26409961.952   137523617.509        2313.168          36.000    26409960.407   106341978.687        1788.420          46.000  
G25  24472773.582   128605297.569       -3918.033          31.000    24472768.236   100211884.000       -3052.878          36.000  
> 2025 10 30 06 21 55.6000000  0 23                     
G32  22078391.204   116022724.360       -2961.333          45.000    22078385.313    90407281.988       -2307.569          43.000  
G29  23084438.607   121309555.556        -649.727          42.000    23084429.910    94526896.289        -506.429          40.000  
G28  21276383.018   111808148.795       -1213.325          45.000    21276372.903    87123192.016        -945.341          47.000  
G26  20331230.085   106841336.297         632.049          48.000    20331223.114    83252970.783         492.487          46.000  
G31  20620427.284   108361074.048         125.236          47.000    20620416.322    84437159.598          97.599          45.000  
G04  24429509.386   128377914.349        3171.793          36.000    24429505.182   100034766.824        2471.787          39.000  
C33  22518795.375   117261273.247        -757.005          50.000                                                                  
C06  36576279.735   190462289.437        -158.379          45.000    36576262.833   147277452.938        -122.510          48.000  
C14  22716756.189   118292094.941       -2302.645          46.000    22716741.441    91470897.513       -1780.720          51.000  
C16  37004785.073   192693625.503        -188.251          48.000    37004773.540   149002886.878        -145.528          48.000  
C24  21859781.992   113829625.475        -886.686          50.000                                                                  
C26  24479749.771   127472477.033       -2567.860          44.000                                                                  
G03  22891480.749   120295534.254        -186.049          40.000    22891476.137    93736773.436        -145.130          41.000  
G16  22371826.070   117564813.151        2947.903          41.000                                                                  
C09  37727555.543   196457285.327        -147.278          43.000    37727541.747   151913177.368        -113.843          48.000  
C25  23617647.205   122983296.364        1552.805          45.000                                                                  
C07  39538763.794   205888723.893        1117.744          34.000    39538753.133   159206175.748         864.235          40.000  
C08  39243021.891   204348688.644       -2467.827          36.000    39243010.171   158015344.467       -1907.961          41.000  
C10  40478394.542                         932.743          30.000    40478395.499   162989725.925         721.775          36.000  
C35  25946647.143   135111014.246         342.781          38.000                                                                  
C13  38409527.908   200008496.946       -2274.557          41.000    38409521.758   154659216.381       -1758.884          43.000  
C12  26409944.201   137523525.019        2312.550          36.000    26409942.646   106341907.164        1788.118          46.000  
G25  24472803.420   128605454.327       -3918.817          31.000    24472798.059   100212006.133       -3053.254          36.000  
> 2025 10 30 06 21 55.6400000  0 23                     
G32  22078413.742   116022842.811       -2961.366          45.000    22078407.849    90407374.294       -2307.705          43.000  
G29  23084443.523   121309581.541        -649.736          42.000    23084434.857    94526916.535        -506.314          40.000  
G28  21276392.252   111808197.315       -1213.223          45.000    21276382.133    87123229.826        -945.346          47.000  
G26  20331225.267   106841311.016         631.977          48.000    20331218.300    83252951.076         492.576          46.000  
G31  20620426.338   108361069.038         125.168          47.000    20620415.380    84437155.701          97.415          45.000  
G04  24429485.243   128377787.463        3172.052          36.000    24429481.043   100034667.957        2471.725          39.000  
C33  22518801.190   117261303.521        -756.993          50.000                                                                  
C06  36576280.971   190462295.768        -158.378          45.000    36576264.078   147277457.827        -122.377          48.000  
C14  22716773.878   118292187.046       -2302.674          46.000    22716759.139    91470968.735       -1780.665          50.000  
C16  37004786.534   192693633.026        -188.206          48.000    37004774.983   149002892.701        -145.641          48.000  
C24  21859788.794   113829660.939        -886.715          50.000                                                                  
C26  24479769.470   127472579.764       -2568.226          44.000                                                                  
G03  22891482.158   120295541.693        -186.052          40.000    22891477.557    93736779.252        -145.400          41.000  
G16  22371803.646   117564695.250        2947.622          41.000                                                                  
C09  37727556.670   196457291.218        -147.366          43.000    37727542.876   151913181.919        -113.877          48.000  
C25  23617635.288   122983234.245        1552.861          45.000                                                                  
C07  39538755.186   205888679.159        1118.173          34.000    39538744.546   159206141.183         864.045          40.000  
C08  39243040.865   204348787.348       -2467.783          36.000    39243029.127   158015420.793       -1908.132          41.000  
C10  40478387.340                         933.290          30.000    40478388.299   162989697.059         721.641          36.000  
C35  25946644.525   135111000.525         342.838          38.000                                                                  
C13  38409545.366   200008587.928       -2274.587          41.000    38409539.217   154659286.744       -1759.105          43.000  
C12  26409926.448   137523432.550        2311.794          36.000    26409924.888   106341835.635        1788.108          46.000  
G25  24472833.228   128605611.068       -3918.934          31.000    24472827.900   100212128.246       -3053.096          36.000  
> 2025 10 30 06 21 55.6800000  0 23                     
G32  22078436.288   116022961.264       -2961.429          45.000    22078430.390    90407466.600       -2307.708          43.000  
G29  23084448.473   121309607.527        -649.729          42.000    23084439.800    94526936.789        -506.407          40.000  
G28  21276401.475   111808245.831       -1213.042          45.000    21276391.361    87123267.639        -945.383          47.000  
G26  20331220.475   106841285.730         632.022          48.000    20331213.494    83252931.379         492.440          46.000  
G31  20620425.395   108361064.037         124.984          47.000    20620414.424    84437151.802          97.391          45.000  
G04  24429461.124   128377660.602        3171.710          36.000    24429456.895   100034569.114        2471.233          39.000  
C33  22518807.056   117261333.795        -756.958          50.000                                                                  
C06  36576282.195   190462302.087        -158.124          45.000    36576265.291   147277462.715        -122.290          48.000  
C14  22716791.567   118292279.157       -2302.773          46.000    22716776.811    91471039.956       -1780.612          50.000  
C16  37004787.996   192693640.557        -188.293          48.000    37004776.404   149002898.527        -145.706          48.000  
C24  21859795.635   113829696.403        -886.687          50.000                                                                  
C26  24479789.192   127472682.482       -2568.171          43.000                                                                  
G03  22891483.573   120295549.145        -186.284          40.000    22891478.983    93736785.050        -145.208          41.000  
G16  22371781.214   117564577.347        2947.512          41.000                                                                  
C09  37727557.799   196457297.103        -147.285          43.000    37727544.015   151913186.471        -113.887          48.000  
C25  23617623.380   122983172.122        1552.972          45.000                                                                  
C07  39538746.615   205888634.478        1117.333          34.000    39538735.947   159206106.609         864.228          40.000  
C08  39243059.824   204348886.043       -2467.551          36.000    39243048.093   158015497.117       -1908.210          41.000  
C10  40478380.149                         933.312          30.000    40478381.108   162989668.188         721.688          36.000  
C35  25946641.899   135110986.836         342.365          38.000                                                                  
C13  38409562.838   200008678.921       -2274.790          41.000    38409556.669   154659357.094       -1758.943          43.000  
C12  26409908.692   137523340.031        2312.407          36.000    26409907.116   106341764.096        1788.330          46.000  
G25  24472863.091   128605767.773       -3918.203          31.000    24472857.727   100212250.375       -3053.202          37.000  
> 2025 10 30 06 21 55.7200000  0 23                     
G32  22078458.798   116023079.712       -2961.354          45.000    22078452.916    90407558.888       -2307.389          43.000  
G29  23084453.409   121309633.511        -649.672          42.000    23084444.737    94526957.036        -506.301          40.000  
G28  21276410.727   111808294.361       -1213.170          45.000    21276400.583    87123305.455        -945.424          47.000  
G26  20331215.670   106841260.446         632.054          48.000    20331208.683    83252911.680         492.422          46.000  
G31  20620424.431   108361059.025         125.133          47.000    20620413.457    84437147.898          97.478          45.000  
G04  24429436.965   128377533.710        3172.036          36.000    24429432.762   100034470.249        2471.411          39.000  
C33  22518812.888   117261364.070        -756.931          50.000                                                                  
C06  36576283.418   190462308.403        -157.945          45.000    36576266.535   147277467.599        -122.155          48.000  
C14  22716809.266   118292371.263       -2302.733          46.000    22716794.503    91471111.173       -1780.504          50.000  
C16  37004789.510   192693648.079        -188.174          48.000    37004777.826   149002904.342        -145.534          48.000  
C24  21859802.443   113829731.860        -886.528          50.000                                                                  
C26  24479808.933   127472785.181       -2567.734          43.000                                                                  
G03  22891484.990   120295556.578        -186.029          40.000    22891480.381    93736790.836        -144.849          41.000  
G16  22371758.791   117564459.439        2947.629          41.000                                                                  
C09  37727558.933   196457302.981        -147.094          43.000    37727545.160   151913191.019        -113.790          48.000  
C25  23617611.445   122983110.015        1552.744          45.000                                                                  
C07  39538738.044   205888589.761        1117.634          34.000    39538727.365   159206072.019         864.535          40.000  
C08  39243078.778   204348984.755       -2467.714          36.000    39243067.048   158015573.438       -1908.159          42.000  
C10  40478372.970                         933.140          30.000    40478373.937   162989639.316         721.746          35.000  
C35  25946639.275   135110973.117         342.679          38.000                                                                  
C13  38409580.283   200008769.900       -2274.585          41.000    38409574.139   154659427.449       -1758.949          43.000  
C12  26409890.940   137523247.500        2313.111          36.000    26409889.340   106341692.559        1788.453          46.000  
G25  24472892.920   128605924.466       -3917.407          31.000    24472887.555   100212372.500       -3053.176          36.000  
> 2025 10 30 06 21 55.7600000  0 23                     
G32  22078481.318   116023198.158       -2961.250          45.000    22078475.439    90407651.189       -2307.458          43.000  
G29  23084458.336   121309659.493        -649.591          42.000    23084449.688    94526977.281        -506.182          40.000  
G28  21276419.952   111808342.876       -1213.009          45.000    21276409.793    87123343.253        -945.115          47.000  
G26  20331210.844   106841235.159         632.091          48.000    20331203.851    83252891.972         492.578          46.000  
G31  20620423.475   108361054.014         125.226          47.000    20620412.503    84437143.990          97.620          45.000  
G04  24429412.814   128377406.825        3172.173          35.000    24429408.614   100034371.384        2471.498          39.000  
C33  22518818.726   117261394.343        -756.881          50.000                                                                  
C06  36576284.621   190462314.723        -157.953          45.000    36576267.759   147277472.490        -122.225          48.000  
C14  22716826.975   118292463.364       -2302.599          46.000    22716812.180    91471182.395       -1780.524          50.000  
C16  37004790.960   192693655.605        -188.188          48.000    37004779.245   149002910.158        -145.466          48.000  
C24  21859809.232   113829767.317        -886.471          50.000                                                                  
C26  24479828.656   127472887.889       -2567.699          44.000                                                                  
G03  22891486.399   120295564.011        -185.885          40.000    22891481.786    93736796.618        -144.562          41.000  
G16  22371736.343   117564341.529        2947.733          41.000                                                                  
C09  37727560.043   196457308.859        -146.981          43.000    37727546.280   151913195.564        -113.676          48.000  
C25  23617599.523   122983047.898        1552.813          45.000                                                                  
C07  39538729.476   205888545.014        1118.363          34.000    39538718.787   159206037.441         864.492          40.000  
C08  39243097.743   204349083.427       -2467.178          36.000    39243085.979   158015649.744       -1907.846          43.000  
C10  40478365.773                         933.056          30.000    40478366.763   162989610.437         721.937          35.000  
C35  25946636.650   135110959.413         342.624          38.000                                                                  
C13  38409597.764   200008860.869       -2274.277          41.000    38409591.612   154659497.802       -1758.887          43.000  
C12  26409873.184   137523154.979        2313.151          36.000    26409871.573   106341621.025        1788.404          46.000  
G25  24472922.741   128606081.169       -3917.195          31.000    24472917.397   100212494.612       -3052.843          36.000  
> 2025 10 30 06 21 55.8000000  0 23                     
G32  22078503.855   116023316.604       -2961.200          45.000    22078497.963    90407743.482       -2307.348          43.000  
G29  23084463.240   121309685.469        -649.429          42.000    23084454.619    94526997.521        -506.129          40.000  
G28  21276429.191   111808391.399       -1213.073          45.000    21276419.016    87123381.058        -945.097          47.000  
G26  20331206.026   106841209.864         632.302          48.000    20331199.035    83252872.261         492.727          46.000  
G31  20620422.505   108361048.998         125.349          47.000    20620411.540    84437140.084          97.632          45.000  
G04  24429388.683   128377279.961        3171.746          35.000    24429384.477   100034272.520        2471.537          39.000  
C33  22518824.564   117261424.617        -756.875          50.000                                                                  
C06  36576285.852   190462321.050        -158.094          45.000    36576268.973   147277477.382        -122.299          48.000  
C14  22716844.651   118292555.468       -2302.600          46.000    22716829.882    91471253.618       -1780.550          50.000  
C16  37004792.417   192693663.127        -188.082          48.000    37004780.683   149002915.969        -145.351          48.000  
C24  21859816.041   113829802.774        -886.422          50.000                                                                  
C26  24479848.374   127472990.598       -2567.668          44.000                                                                  
G03  22891487.822   120295571.459        -186.102          40.000    22891483.206    93736802.409        -144.611          41.000  
G16  22371713.894   117564223.611        2947.930          41.000                                                                  
C09  37727561.192   196457314.732        -146.837          43.000    37727547.407   151913200.108        -113.608          48.000  
C25  23617587.588   122982985.779        1552.911          45.000                                                                  
C07  39538720.902   205888500.270        1118.772          35.000    39538710.219   159206002.840         864.877          40.000  
C08  39243116.677   204349182.120       -2467.206          36.000    39243104.921   158015726.058       -1907.792          43.000  
C10  40478358.593                         933.622          30.000    40478359.598   162989581.544         722.277          35.000  
C35  25946634.031   135110945.691         342.927          38.000                                                                  
C13  38409615.230   200008951.849       -2274.377          41.000    38409609.057   154659568.149       -1758.740          43.000  
C12  26409855.415   137523062.464        2313.000          36.000    26409853.788   106341549.486        1788.477          46.000  
G25  24472952.578   128606237.899       -3917.720          31.000    24472947.217   100212616.745       -3053.104          36.000  
> 2025 10 30 06 21 55.8400000  0 23                     
G32  22078526.384   116023435.052       -2961.208          45.000    22078520.521    90407835.784       -2307.483          43.000  
G29  23084468.187   121309711.457        -649.631          42.000    23084459.577    94527017.769        -506.229          40.000  
G28  21276438.394   111808439.913       -1212.942          45.000    21276428.279    87123418.864        -945.129          47.000  
G26  20331201.242   106841184.573         632.307          48.000    20331194.229    83252852.562         492.539          46.000  
G31  20620421.553   108361043.984         125.392          47.000    20620410.581    84437136.176          97.681          45.000  
G04  24429364.536   128377153.064        3172.113          35.000    24429360.319   100034173.644        2471.764          39.000  
C33  22518830.387   117261454.892        -756.907          50.000                                                                  
C06  36576287.069   190462327.367        -157.981          45.000    36576270.187   147277482.273        -122.316          48.000  
C14  22716862.310   118292647.580       -2302.747          46.000    22716847.580    91471324.840       -1780.576          50.000  
C16  37004793.896   192693670.641        -187.884          48.000    37004782.114   149002921.781        -145.309          48.000  
C24  21859822.857   113829838.228        -886.374          50.000                                                                  
C26  24479868.091   127473093.310       -2567.751          43.000                                                                  
G03  22891489.228   120295578.903        -186.151          40.000    22891484.618    93736808.197        -144.639          41.000  
G16  22371691.468   117564105.702        2947.855          41.000                                                                  
C09  37727562.319   196457320.615        -147.001          43.000    37727548.561   151913204.652        -113.591          48.000  
C25  23617575.647   122982923.658        1552.985          45.000                                                                  
C07  39538712.318   205888455.567        1118.169          35.000    39538701.660   159205968.268         864.585          40.000  
C08  39243135.632   204349280.807       -2467.143          36.000    39243123.888   158015802.387       -1908.051          43.000  
C10  40478351.405                         933.328          30.000    40478352.427   162989552.674         721.957          35.000  
C35  25946631.381   135110931.952         343.395          38.000                                                                  
C13  38409632.696   200009042.819       -2274.285          41.000    38409626.551   154659638.499       -1758.715          43.000  
C12  26409837.655   137522969.945        2312.951          36.000    26409836.037   106341477.953        1788.353          46.000  
G25  24472982.398   128606394.653       -3918.548          31.000    24472977.030   100212738.870       -3053.131          36.000  
> 2025 10 30 06 21 55.8800000  0 23                     
G32  22078548.922   116023553.504       -2961.273          45.000    22078543.062    90407928.076       -2307.391          43.000  
G29  23084473.124   121309737.438        -649.593          42.000    23084464.530    94527038.015        -506.190          40.000  
G28  21276447.639   111808488.435       -1213.020          45.000    21276437.510    87123456.672        -945.178          47.000  
G26  20331196.446   106841159.285         632.225          48.000    20331189.431    83252832.862         492.452          46.000  
G31  20620420.590   108361038.971         125.373          47.000    20620409.646    84437132.269          97.674          45.000  
G04  24429340.417   128377026.202        3171.855          35.000    24429336.171   100034074.776        2471.703          39.000  
C33  22518836.167   117261485.169        -756.931          50.000                                                                  
C06  36576288.289   190462333.688        -157.967          45.000    36576271.396   147277487.159        -122.210          48.000  
C14  22716879.998   118292739.684       -2302.701          46.000    22716865.261    91471396.064       -1780.607          50.000  
C16  37004795.336   192693678.158        -187.864          48.000    37004783.582   149002927.601        -145.442          48.000  
C24  21859829.630   113829873.691        -886.492          50.000                                                                  
C26  24479887.828   127473196.020       -2567.780          43.000                                                                  
G03  22891490.632   120295586.339        -186.069          40.000    22891486.051    93736813.999        -144.916          41.000  
G16  22371669.032   117563987.792        2947.823          41.000                                                                  
C09  37727563.427   196457326.486        -146.881          43.000    37727549.678   151913209.193        -113.568          48.000  
C25  23617563.710   122982861.536        1553.040          45.000                                                                  
C07  39538703.725   205888410.860        1117.876          35.000    39538693.056   159205933.696         864.402          40.000  
C08  39243154.609   204349379.536       -2467.801          36.000    39243142.847   158015878.689       -1907.757          43.000  
C10  40478344.240                         933.360          30.000    40478345.257   162989523.811         721.765          35.000  
C35  25946628.759   135110918.227         343.344          38.000                                                                  
C13  38409650.154   200009133.797       -2274.446          41.000    38409644.001   154659708.847       -1758.697          43.000  
C12  26409819.903   137522877.449        2312.495          36.000    26409818.285   106341406.419        1788.348          46.000  
G25  24473012.224                       -3918.486          31.000    24473006.860   100212860.981       -3052.921          36.000  
> 2025 10 30 06 21 55.9200000  0 23                     
G32  22078571.471   116023671.963       -2961.433          45.000    22078565.621    90408020.380       -2307.574          43.000  
G29  23084478.067   121309763.428        -649.729          42.000    23084469.486    94527058.276        -506.458          40.000  
G28  21276456.892   111808536.958       -1213.086          45.000    21276446.726    87123494.476        -945.122          47.000  
G26  20331191.623   106841134.004         632.063          48.000    20331184.620    83252813.157         492.515          46.000  
G31  20620419.655   108361033.959         125.323          47.000    20620408.707    84437128.372          97.489          45.000  
G04  24429316.259   128376899.329        3171.796          35.000    24429312.021   100033975.911        2471.633          39.000  
C33  22518841.991   117261515.443        -756.893          50.000                                                                  
C06  36576289.470   190462340.015        -158.094          45.000    36576272.582   147277492.040        -122.094          48.000  
C14  22716897.679   118292831.791       -2302.720          46.000    22716882.962    91471467.284       -1780.554          50.000  
C16  37004796.721   192693685.680        -187.959          48.000    37004785.066   149002933.419        -145.486          48.000  
C24  21859836.412   113829909.152        -886.523          50.000                                                                  
C26  24479907.539   127473298.733       -2567.817          43.000                                                                  
G03  22891492.059   120295593.773        -185.924          40.000    22891487.474    93736819.813        -145.272          41.000  
G16  22371646.595   117563869.881        2947.810          41.000                                                                  
C09  37727564.568   196457332.357        -146.812          43.000    37727550.819   151913213.738        -113.620          48.000  
C25  23617551.774   122982799.416        1552.990          45.000                                                                  
C07  39538695.128   205888366.150        1117.767          35.000    39538684.486   159205899.123         864.286          40.000  
C08  39243173.555   204349478.214       -2467.353          36.000    39243161.809   158015955.013       -1907.961          43.000  
C10  40478337.093                         933.604          30.000    40478338.109   162989494.950         721.710          35.000  
C35  25946626.165   135110904.515         343.078          38.000                                                                  
C13  38409667.627   200009224.784       -2274.656          41.000    38409661.471   154659779.199       -1758.765          43.000  
C12  26409802.164   137522784.951        2312.417          36.000    26409800.524   106341334.880        1788.465          46.000  
G25  24473042.046                       -3917.812          31.000    24473036.684   100212983.099       -3052.927          37.000  
> 2025 10 30 06 21 55.9600000  0 23                     
G32  22078594.014   116023790.403       -2961.225          46.000    22078588.152    90408112.682       -2307.597          43.000  
G29  23084483.008   121309789.415        -649.722          42.000    23084474.425    94527078.519        -506.213          40.000  
G28  21276466.101   111808585.474       -1212.997          45.000    21276455.959    87123532.291        -945.332          47.000  
G26  20331186.826   106841108.722         632.003          48.000    20331179.821    83252793.448         492.671          46.000  
G31  20620418.715   108361028.948         125.242          47.000    20620407.738    84437124.462          97.613          45.000  
G04  24429292.109   128376772.442        3172.045          35.000    24429287.867   100033877.051        2471.513          39.000  
C33  22518847.807   117261545.720        -756.937          50.000                                                                  
C06  36576290.675   190462346.330        -157.956          45.000    36576273.783   147277496.922        -122.047          48.000  
C14  22716915.368   118292923.895       -2302.683          46.000    22716900.663    91471538.507       -1780.561          50.000  
C16  37004798.134   192693693.204        -188.057          48.000    37004786.528   149002939.229        -145.367          48.000  
C24  21859843.205   113829944.608        -886.456          50.000                                                                  
C26  24479927.260   127473401.442       -2567.798          43.000                                                                  
G03  22891493.476   120295601.225        -186.195          40.000    22891488.890    93736825.622        -145.342          41.000  
G16  22371624.141   117563751.971        2947.770          41.000                                                                  
C09  37727565.695   196457338.246        -147.086          43.000    37727551.960   151913218.286        -113.696          48.000  
C25  23617539.831   122982737.299        1552.916          45.000                                                                  
C07  39538686.541   205888321.426        1117.980          35.000    39538675.921   159205864.526         864.686          40.000  
C08  39243192.506   204349576.913       -2467.422          36.000    39243180.758   158016031.332       -1907.972          43.000  
C10  40478329.907                         933.752          30.000    40478330.943   162989466.039         722.548          35.000  
C35  25946623.517   135110890.798         343.004          38.000                                                                  
C13  38409685.092   200009315.758       -2274.475          41.000    38409678.980   154659849.547       -1758.747          43.000  
C12  26409784.389   137522692.420        2312.917          36.000    26409782.750   106341263.342        1788.477          46.000  
G25  24473071.907   128606864.804       -3918.123          31.000    24473066.504   100213105.221       -3052.994          37.000  
> 2025 10 30 06 21 56.0000000  0 23                     
G32  22078616.537   116023908.845       -2961.103          46.000    22078610.682    90408204.971       -2307.457          43.000  
G29  23084487.961   121309815.404        -649.740          42.000    23084479.356    94527098.760        -506.083          40.000  
G28  21276475.326   111808633.991       -1212.965          45.000    21276465.207    87123570.095        -945.213          47.000  
G26  20331182.004   106841083.438         632.029          48.000    20331175.022    83252773.749         492.520          46.000  
G31  20620417.771   108361023.936         125.237          47.000    20620406.773    84437120.552          97.724          45.000  
G04  24429267.973   128376645.578        3171.719          35.000    24429263.722   100033778.184        2471.603          39.000  
C33  22518853.627   117261575.991        -756.842          50.000                                                                  
C06  36576291.908   190462352.641        -157.828          45.000    36576274.960   147277501.810        -122.142          48.000  
C14  22716933.067   118293015.995       -2302.581          46.000    22716918.366    91471609.725       -1780.493          50.000  
C16  37004799.537   192693700.726        -188.060          48.000    37004787.991   149002945.038        -145.252          48.000  
C24  21859850.032   113829980.067        -886.465          50.000                                                                  
C26  24479946.982   127473504.149       -2567.759          43.000                                                                  
G03  22891494.882   120295608.672        -186.288          40.000    22891490.326    93736831.420        -145.150          41.000  
G16  22371601.698   117563634.071        2947.591          41.000                                                                  
C09  37727566.797   196457344.131        -147.197          43.000    37727553.080   151913222.830        -113.656          48.000  
C25  23617527.895   122982675.176        1553.003          45.000                                                                  
C07  39538677.950   205888276.688        1118.361          35.000    39538667.370   159205829.943         864.633          40.000  
C08  39243211.460   204349675.612       -2467.470          36.000    39243199.711   158016107.642       -1907.809          43.000  
C10  40478322.750                         933.582          30.000    40478323.780   162989437.146         722.487          35.000  
C35  25946620.891   135110877.105         342.488          38.000                                                                  
C13  38409702.564   200009406.745       -2274.605          41.000    38409696.454   154659919.888       -1758.605          43.000  
C12  26409766.618   137522599.896        2313.107          36.000    26409764.968   106341191.807        1788.409          46.000  
G25  24473101.743   128607021.514       -3917.855          31.000    24473096.322   100213227.347       -3053.091          37.000  
> 2025 10 30 06 21 56.0400000  0 23                     
G32  22078639.073   116024027.290       -2961.100          45.000    22078633.233    90408297.263       -2307.318          43.000  
G29  23084492.874   121309841.374        -649.390          42.000    23084484.305    94527119.003        -506.073          40.000  
G28  21276484.557   111808682.501       -1212.813          45.000    21276474.416    87123607.889        -944.967          47.000  
G26  20331177.182   106841058.145         632.222          48.000    20331170.186    83252754.039         492.639          46.000  
G31  20620416.815   108361018.918         125.373          47.000    20620405.816    84437116.639          97.810          45.000  
G04  24429243.820   128376518.682        3172.119          35.000    24429239.560   100033679.304        2471.866          39.000  
C33  22518859.477   117261606.263        -756.804          50.000                                                                  
C06  36576293.137   190462358.944        -157.638          45.000    36576276.183   147277506.684        -121.940          48.000  
C14  22716950.749   118293108.090       -2302.436          46.000    22716936.046    91471680.940       -1780.392          50.000  
C16  37004800.975   192693708.225        -187.666          48.000    37004789.423   149002950.843        -145.118          48.000  
C24  21859856.861   113830015.519        -886.354          50.000                                                                  
C26  24479966.700   127473606.846       -2567.538          43.000                                                                  
G03  22891496.303   120295616.102        -185.934          40.000    22891491.762    93736837.213        -144.943          41.000  
G16  22371579.261   117563516.150        2947.850          41.000                                                                  
C09  37727567.926   196457349.990        -146.711          43.000    37727554.219   151913227.363        -113.435          48.000  
C25  23617515.991   122982613.048        1553.157          45.000                                                                  
C07  39538669.361   205888231.955        1118.481          35.000    39538658.768   159205795.345         864.861          40.000  
C08  39243230.411   204349774.296       -2467.325          36.000    39243218.634   158016183.957       -1907.849          43.000  
C10  40478315.592                         933.794          30.000    40478316.594   162989408.287         721.782          35.000  
C35  25946618.250   135110863.379         342.873          38.000                                                                  
C13  38409720.058   200009497.698       -2274.031          41.000    38409713.934   154659990.231       -1758.550          43.000  
C12  26409748.835   137522507.368        2313.266          36.000    26409747.199   106341120.267        1788.439          46.000  
G25  24473131.588   128607178.269       -3918.554          31.000    24473126.143   100213349.445       -3052.640          36.000  
> 2025 10 30 06 21 56.0800000  0 23                     
G32  22078661.627   116024145.731       -2961.058          46.000    22078655.775    90408389.552       -2307.218          43.000  
G29  23084497.793   121309867.343        -649.244          42.000    23084489.239    94527139.243        -506.055          40.000  
G28  21276493.787   111808731.001       -1212.574          45.000    21276483.648    87123645.688        -944.951          47.000  
G26  20331172.344   106841032.845         632.451          48.000    20331165.358    83252734.328         492.745          46.000  
G31  20620415.830   108361013.890         125.613          47.000    20620404.880    84437112.724          97.908          45.000  
G04  24429219.687   128376391.787        3172.385          35.000    24429215.404   100033580.424        2472.017          39.000  
C33  22518865.316   117261636.528        -756.686          50.000                                                                  
C06  36576294.339   190462365.256        -157.712          45.000    36576277.405   147277511.557        -121.834          48.000  
C14  22716968.418   118293200.188       -2302.414          46.000    22716953.729    91471752.157       -1780.394          50.000  
C16  37004802.374   192693715.728        -187.552          48.000    37004790.888   149002956.650        -145.138          48.000  
C24  21859863.681   113830050.962        -886.163          50.000                                                                  
C26  24479986.416   127473709.543       -2567.445          43.000                                                                  
G03  22891497.709   120295623.525        -185.679          40.000    22891493.171    93736842.991        -144.549          41.000  
G16  22371556.829   117563398.225        2948.064          41.000                                                                  
C09  37727569.064   196457355.861        -146.691          43.000    37727555.368   151913231.896        -113.330          48.000  
C25  23617504.083   122982550.915        1553.322          45.000                                                                  
C07  39538660.750   205888187.218        1118.425          35.000    39538650.177   159205760.765         864.654          40.000  
C08  39243249.361   204349872.961       -2466.828          36.000    39243237.572   158016260.262       -1907.714          43.000  
C10  40478308.433                         933.874          30.000    40478309.427   162989379.425         721.478          35.000  
C35  25946615.622   135110849.671         342.694          38.000                                                                  
C13  38409737.519   200009588.667       -2274.039          41.000    38409731.429   154660060.571       -1758.464          43.000  
C12  26409731.051   137522414.842        2313.202          36.000    26409729.451   106341048.718        1788.649          46.000  
G25  24473161.351   128607334.951       -3917.590          31.000    24473155.945   100213471.538       -3052.288          36.000  
> 2025 10 30 06 21 56.1200000  0 23                     
G32  22078684.163   116024264.165       -2960.905          46.000    22078678.308    90408481.838       -2307.167          43.000  
G29  23084502.751   121309893.326        -649.465          42.000    23084494.191    94527159.482        -505.974          40.000  
G28  21276503.041   111808779.510       -1212.634          45.000    21276492.862    87123683.485        -944.909          47.000  
G26  20331167.529   106841007.544         632.598          48.000    20331160.521    83252714.608         492.961          46.000  
G31  20620414.870   108361008.863         125.729          47.000    20620403.888    84437108.799          98.104          45.000  
G04  24429195.528   128376264.889        3172.467          35.000    24429191.262   100033481.558        2471.796          39.000  
C33  22518871.120   117261666.794        -756.651          50.000                                                                  
C06  36576295.534   190462371.567        -157.740          45.000    36576278.644   147277516.436        -121.906          48.000  
C14  22716986.117   118293292.286       -2302.423          46.000    22716971.398    91471823.366       -1780.282          50.000  
C16  37004803.798   192693723.235        -187.579          48.000    37004792.338   149002962.452        -145.062          48.000  
C24  21859870.505   113830086.405        -886.052          50.000                                                                  
C26  24480006.151   127473812.233       -2567.251          43.000                                                                  
G03  22891499.123   120295630.962        -185.828          40.000    22891494.580    93736848.773        -144.506          41.000  
G16  22371534.417   117563280.306        2948.033          41.000                                                                  
C09  37727570.184   196457361.724        -146.594          43.000    37727556.490   151913236.427        -113.258          48.000  
C25  23617492.144   122982488.775        1553.481          45.000                                                                  
C07  39538652.163   205888142.485        1118.269          35.000    39538641.610   159205726.160         864.957          40.000  
C08  39243268.298   204349971.654       -2467.074          37.000    39243256.520   158016336.561       -1907.505          43.000  
C10  40478301.262                         934.284          30.000    40478302.240   162989350.544         721.628          35.000  
C35  25946612.991   135110835.925         343.342          38.000                                                                  
C13  38409754.977   200009679.630       -2273.978          41.000    38409748.894   154660130.909       -1758.403          43.000  
C12  26409713.302   137522322.328        2313.005          36.000    26409711.664   106340977.163        1788.833          46.000  
G25  24473191.181   128607491.625       -3916.997          31.000    24473185.766   100213593.656       -3052.650          37.000  
> 2025 10 30 06 21 56.1600000  0 23                     
G32  22078706.703   116024382.602       -2960.917          46.000    22078700.858    90408574.127       -2307.223          43.000  
G29  23084507.700   121309919.307        -649.565          42.000    23084499.122    94527179.721        -505.950          40.000  
G28  21276512.257   111808828.012       -1212.573          45.000    21276502.099    87123721.285        -944.975          47.000  
G26  20331162.744   106840982.246         632.540          48.000    20331155.731    83252694.892         492.946          46.000  
G31  20620413.911   108361003.833         125.814          47.000    20620402.952    84437104.885          97.961          45.000  
G04  24429171.395   128376137.992        3172.469          35.000    24429167.104   100033382.676        2471.934          39.000  
C33  22518876.963   117261697.056        -756.590          50.000                                                                  
C06  36576296.755   190462377.876        -157.728          45.000    36576279.879   147277521.315        -121.953          48.000  
C14  22717003.813   118293384.371       -2302.221          46.000    22716989.081    91471894.577       -1780.266          50.000  
C16  37004805.233   192693730.736        -187.526          48.000    37004793.754   149002968.252        -145.008          48.000  
C24  21859877.276   113830121.850        -886.087          50.000                                                                  
C26  24480025.867   127473914.931       -2567.349          43.000                                                                  
G03  22891500.542   120295638.398        -185.937          40.000    22891496.003    93736854.560        -144.559          41.000  
G16  22371511.990   117563162.384        2948.061          41.000                                                                  
C09  37727571.302   196457367.590        -146.611          43.000    37727557.584   151913240.965        -113.382          48.000  
C25  23617480.223   122982426.649        1553.252          45.000                                                                  
C07  39538643.577   205888097.757        1118.184          35.000    39538633.025   159205691.570         864.843          40.000  
C08  39243287.262   204350070.341       -2467.093          37.000    39243275.457   158016412.868       -1907.619          43.000  
C10  40478294.043                         933.937          30.000    40478295.076   162989321.661         721.828          35.000  
C35  25946610.353   135110822.192         343.385          38.000                                                                  
C13  38409772.452   200009770.593       -2273.986          41.000    38409766.337   154660201.242       -1758.330          43.000  
C12  26409695.509   137522229.791        2313.252          36.000    26409693.917   106340905.618        1788.721          46.000  
G25  24473221.016                       -3917.176          31.000    24473215.592   100213715.784       -3053.060          37.000  
> 2025 10 30 06 21 56.2000000  0 23                     
G32  22078729.243   116024501.060       -2961.293          46.000    22078723.404    90408666.430       -2307.495          43.000  
G29  23084512.671   121309945.296        -649.744          42.000    23084504.061    94527199.974        -506.257          40.000  
G28  21276521.478   111808876.534       -1212.903          45.000    21276511.344    87123759.088        -945.069          47.000  
G26  20331157.951   106840956.974         631.997          48.000    20331150.933    83252675.200         492.472          46.000  
G31  20620412.961   108360998.820         125.474          47.000    20620402.022    84437100.988          97.548          45.000  
G04  24429147.238   128376011.115        3172.024          35.000    24429142.981   100033283.800        2471.968          39.000  
C33  22518882.764   117261727.339        -756.934          50.000                                                                  
C06  36576297.964   190462384.185        -157.771          45.000    36576281.095   147277526.194        -121.992          48.000  
C14  22717021.492   118293476.475       -2302.473          46.000    22717006.747    91471965.799       -1780.477          50.000  
C16  37004806.686   192693738.256        -187.872          48.000    37004795.165   149002974.068        -145.291          48.000  
C24  21859884.038   113830157.309        -886.378          50.000                                                                  
C26  24480045.567   127474017.636       -2567.557          43.000                                                                  
G03  22891501.959   120295645.837        -186.005          40.000    22891497.420    93736860.373        -145.165          41.000  
G16  22371489.567   117563044.479        2947.719          41.000                                                                  
C09  37727572.417   196457373.452        -146.541          43.000    37727558.701   151913245.513        -113.668          48.000  
C25  23617468.294   122982364.525        1553.098          45.000                                                                  
C07  39538634.979   205888053.028        1118.192          35.000    39538624.429   159205656.983         864.688          40.000  
C08  39243306.231   204350169.046       -2467.482          37.000    39243294.418   158016489.179       -1907.739          43.000  
C10  40478286.876                         934.004          30.000    40478287.854   162989292.738         722.815          34.000  
C35  25946607.750   135110808.476         343.112          38.000                                                                  
C13  38409789.922   200009861.578       -2274.424          41.000    38409783.820   154660271.593       -1758.633          43.000  
C12  26409677.732   137522137.273        2313.066          36.000    26409676.141   106340834.079        1788.529          46.000  
G25  24473250.794                       -3917.013          31.000    24473245.419   100213837.891       -3052.935          37.000  
> 2025 10 30 06 21 56.2400000  0 23                     
G32  22078751.764   116024619.511       -2961.370          46.000    22078745.953    90408758.731       -2307.558          43.000  
G29  23084517.605   121309971.276        -649.630          42.000    23084508.994    94527220.224        -506.361          40.000  
G28  21276530.696   111808925.052       -1213.002          45.000    21276520.585    87123796.896        -945.199          47.000  
G26  20331153.136   106840931.695         631.870          48.000    20331146.133    83252655.508         492.251          46.000  
G31  20620412.021   108360993.811         125.247          47.000    20620401.081    84437097.087          97.433          45.000  
G04  24429123.099   128375884.265        3171.316          35.000    24429118.837   100033184.934        2471.759          39.000  
C33  22518888.583   117261757.622        -757.107          50.000                                                                  
C06  36576299.173   190462390.506        -157.971          45.000    36576282.348   147277531.083        -122.187          48.000  
C14  22717039.172   118293568.582       -2302.694          46.000    22717024.386    91472037.025       -1780.671          50.000  
C16  37004808.103   192693745.780        -188.105          48.000    37004796.595   149002979.879        -145.364          48.000  
C24  21859890.876   113830192.770        -886.540          50.000                                                                  
C26  24480065.298   127474120.343       -2567.677          43.000                                                                  
G03  22891503.378   120295653.282        -186.161          40.000    22891498.857    93736866.178        -145.240          41.000  
G16  22371467.145   117562926.578        2947.446          41.000                                                                  
C09  37727573.546   196457379.328        -146.779          44.000    37727559.830   151913250.054        -113.637          48.000  
C25  23617456.333   122982302.413        1552.797          45.000                                                                  
C07  39538626.396   205888008.297        1118.234          35.000    39538615.846   159205622.408         864.380          40.000  
C08  39243325.161   204350267.727       -2467.289          37.000    39243313.386   158016565.490       -1907.760          43.000  
C10  40478279.711                         932.792          30.000    40478280.664   162989263.846         722.608          34.000  
C35  25946605.100   135110794.764         342.868          38.000                                                                  
C13  38409807.402   200009952.549       -2274.416          41.000    38409801.281   154660341.945       -1758.792          43.000  
C12  26409659.945   137522044.744        2313.153          36.000    26409658.383   106340762.544        1788.364          46.000  
G25  24473280.615                       -3917.844          31.000    24473275.260   100213960.014       -3053.179          37.000  
> 2025 10 30 06 21 56.2800000  0 23                     
G32  22078774.318   116024737.958       -2961.294          46.000    22078768.484    90408851.035       -2307.664          43.000  
G29  23084522.566   121309997.273        -649.865          42.000    23084513.951    94527240.471        -506.347          40.000  
G28  21276539.934   111808973.575       -1213.128          45.000    21276529.803    87123834.702        -945.231          47.000  
G26  20331148.328   106840906.418         631.836          48.000    20331141.314    83252635.817         492.187          46.000  
G31  20620411.068   108360988.800         125.199          47.000    20620400.121    84437093.183          97.489          45.000  
G04  24429098.935   128375757.389        3171.511          35.000    24429094.701   100033086.081        2471.479          39.000  
C33  22518894.413   117261787.899        -757.057          50.000                                                                  
C06  36576300.395   190462396.818        -157.897          45.000    36576283.573   147277535.972        -122.286          48.000  
C14  22717056.869   118293660.696       -2302.898          46.000    22717042.090    91472108.248       -1780.679          50.000  
C16  37004809.571   192693753.293        -187.992          48.000    37004798.037   149002985.692        -145.371          48.000  
C24  21859897.713   113830228.225        -886.493          50.000                                                                  
C26  24480085.039   127474223.046       -2567.664          43.000                                                                  
G03  22891504.795   120295660.738        -186.434          40.000    22891500.292    93736871.994        -145.481          41.000  
G16  22371444.703   117562808.662        2947.635          41.000                                                                  
C09  37727574.653   196457385.197        -146.821          43.000    37727560.953   151913254.603        -113.748          48.000  
C25  23617444.423   122982240.295        1552.805          45.000                                                                  
C07  39538617.795   205887963.550        1118.621          35.000    39538607.273   159205587.817         864.543          40.000  
C08  39243344.102   204350366.397       -2466.987          37.000    39243332.336   158016641.798       -1907.709          43.000  
C10  40478272.546                         933.157          30.000    40478273.516   162989235.014         721.293          34.000  
C35  25946602.476   135110781.061         342.615          38.000                                                                  
C13  38409824.891   200010043.518       -2274.261          41.000    38409818.746   154660412.291       -1758.754          43.000  
C12  26409642.174   137521952.213        2313.258          36.000    26409640.609   106340691.001        1788.457          46.000  
G25  24473310.408                       -3919.156          31.000    24473305.071   100214082.128       -3053.105          37.000  
> 2025 10 30 06 21 56.3200000  0 23                     
G32  22078796.850   116024856.395       -2961.079          46.000    22078791.045    90408943.328       -2307.511          43.000  
G29  23084527.505   121310023.256        -649.721          42.000    23084518.893    94527260.709        -506.064          40.000  
G28  21276549.132   111809022.083       -1212.913          45.000    21276539.029    87123872.503        -945.140          47.000  
G26  20331143.534   106840881.119         632.236          48.000    20331136.493    83252616.102         492.599          46.000  
G31  20620410.109   108360983.782         125.360          47.000    20620399.159    84437089.265          97.773          45.000  
G04  24429074.772   128375630.483        3172.206          35.000    24429070.563   100032987.203        2471.730          39.000  
C33  22518900.239   117261818.168        -756.858          50.000                                                                  
C06  36576301.625   190462403.120        -157.664          45.000    36576284.787   147277540.841        -121.946          48.000  
C14  22717074.562   118293752.796       -2302.695          46.000    22717059.812    91472179.461       -1780.461          50.000  
C16  37004811.021   192693760.790        -187.621          48.000    37004799.488   149002991.491        -145.121          48.000  
C24  21859904.513   113830263.671        -886.287          50.000                                                                  
C26  24480104.794   127474325.743       -2567.521          43.000                                                                  
G03  22891506.195   120295668.172        -186.102          40.000    22891501.720    93736877.792        -145.218          41.000  
G16  22371422.257   117562690.743        2947.862          41.000                                                                  
C09  37727575.783   196457391.057        -146.623          43.000    37727562.091   151913259.133        -113.428          48.000  
C25  23617432.498   122982178.161        1553.126          45.000                                                                  
C07  39538609.217   205887918.845        1118.016          35.000    39538598.684   159205553.223         864.703          40.000  
C08  39243363.074   204350465.081       -2467.098          37.000    39243351.246   158016718.111       -1907.792          43.000  
C10  40478265.376                         933.556          30.000    40478266.337   162989206.143         721.301          34.000  
C35  25946599.838   135110767.345         342.712          38.000                                                                  
C13  38409842.349   200010134.488       -2274.249          41.000    38409836.216   154660482.621       -1758.421          43.000  
C12  26409624.408   137521859.677        2313.405          36.000    26409622.845   106340619.457        1788.556          46.000  
G25  24473340.182                       -3917.897          31.000    24473334.900   100214204.239       -3052.932          37.000  
> 2025 10 30 06 21 56.3600000  0 23                     
G32  22078819.356   116024974.840       -2961.096          46.000    22078813.568    90409035.619       -2307.356          43.000  
G29  23084532.449   121310049.232        -649.490          42.000    23084523.843    94527280.966        -506.346          40.000  
G28  21276558.359   111809070.592       -1212.795          45.000    21276548.253    87123910.299        -944.981          47.000  
G26  20331138.722   106840855.830         632.252          48.000    20331131.695    83252596.392         492.728          46.000  
G31  20620409.143   108360978.764         125.403          47.000    20620398.209    84437085.351          97.865          45.000  
G04  24429050.621   128375503.571        3172.693          35.000    24429046.408   100032888.323        2471.946          39.000  
C33  22518906.056   117261848.434        -756.709          50.000                                                                  
C06  36576302.879   190462409.424        -157.611          45.000    36576285.995   147277545.716        -121.887          48.000  
C14  22717092.243   118293844.897       -2302.573          46.000    22717077.457    91472250.678       -1780.438          50.000  
C16  37004812.476   192693768.291        -187.498          48.000    37004800.915   149002997.296        -145.094          48.000  
C24  21859911.323   113830299.117        -886.188          50.000                                                                  
C26  24480124.523   127474428.442       -2567.513          43.000                                                                  
G03  22891507.606   120295675.622        -186.184          40.000    22891503.146    93736883.578        -144.815          41.000  
G16  22371399.813   117562572.825        2947.941          41.000                                                                  
C09  37727576.909   196457396.922        -146.618          44.000    37727563.200   151913263.662        -113.241          48.000  
C25  23617420.568   122982116.036        1553.144          45.000                                                                  
C07  39538600.652   205887874.105        1118.323          35.000    39538590.096   159205518.638         864.677          40.000  
C08  39243382.027   204350563.761       -2467.116          37.000    39243370.176   158016794.405       -1907.547          43.000  
C10  40478258.185                         933.940          30.000    40478259.174   162989177.288         721.206          34.000  
C35  25946597.207   135110753.630         342.732          38.000                                                                  
C13  38409859.827   200010225.450       -2274.071          41.000    38409853.686   154660552.963       -1758.484          43.000  
C12  26409606.630   137521767.151        2313.213          36.000    26409605.069   106340547.912        1788.617          46.000  
G25  24473370.032                       -3918.262          31.000    24473364.711   100214326.360       -3052.982          37.000  
> 2025 10 30 06 21 56.4000000  0 23                     
G32  22078841.908   116025093.290       -2961.207          46.000    22078836.119    90409127.920       -2307.469          43.000  
G29  23084537.387   121310075.214        -649.530          42.000    23084528.804    94527301.226        -506.519          40.000  
G28  21276567.587   111809119.106       -1212.825          45.000    21276557.482    87123948.108        -945.139          47.000  
G26  20331133.929   106840830.547         632.095          48.000    20331126.883    83252576.697         492.489          46.000  
G31  20620408.182   108360973.749         125.390          47.000    20620397.270    84437081.444          97.766          45.000  
G04  24429026.461   128375376.684        3172.397          35.000    24429022.260   100032789.445        2471.940          39.000  
C33  22518911.861   117261878.718        -756.972          50.000                                                                  
C06  36576304.109   190462415.739        -157.798          45.000    36576287.192   147277550.594        -121.917          48.000  
C14  22717109.926   118293937.001       -2302.594          46.000    22717095.138    91472321.904       -1780.597          50.000  
C16  37004813.900   192693775.807        -187.724          48.000    37004802.390   149003003.109        -145.254          48.000  
C24  21859918.092   113830334.576        -886.366          50.000                                                                  
C26  24480144.241   127474531.137       -2567.463          43.000                                                                  
G03  22891509.021   120295683.060        -186.046          40.000    22891504.553    93736889.381        -144.939          41.000  
G16  22371377.366   117562454.910        2947.914          41.000                                                                  
C09  37727578.022   196457402.802        -146.904          43.000    37727564.348   151913268.200        -113.348          48.000  
C25  23617408.653   122982053.902        1553.303          45.000                                                                  
C07  39538592.079   205887829.372        1118.368          35.000    39538581.506   159205484.056         864.606          40.000  
C08  39243400.989   204350662.449       -2467.313          37.000    39243389.142   158016870.726       -1907.871          43.000  
C10  40478251.012                         932.888          30.000    40478252.002   162989148.376         722.247          34.000  
C35  25946594.551   135110739.897         343.051          38.000                                                                  
C13  38409877.306   200010316.426       -2274.287          41.000    38409871.172   154660623.317       -1758.774          43.000  
C12  26409588.860   137521674.618        2313.287          36.000    26409587.290   106340476.363        1788.709          46.000  
G25  24473399.815                       -3918.067          31.000    24473394.536   100214448.454       -3052.527          37.000  
> 2025 10 30 06 21 56.4400000  0 23                     
G32  22078864.456   116025211.753       -2961.516          46.000    22078858.649    90409220.228       -2307.663          43.000  
G29  23084542.338   121310101.226        -650.096          42.000    23084533.770    94527321.501        -506.846          40.000  
G28  21276576.844   111809167.639       -1213.221          45.000    21276566.714    87123985.926        -945.425          47.000  
G26  20331129.143   106840805.284         631.647          48.000    20331122.068    83252557.013         492.116          46.000  
G31  20620407.251   108360968.751         125.008          47.000    20620396.328    84437077.546          97.500          45.000  
G04  24429002.338   128375249.815        3171.848          35.000    24428998.124   100032690.600        2471.328          39.000  
C33  22518917.676   117261909.015        -757.396          50.000                                                                  
C06  36576305.313   190462422.069        -158.154          45.000    36576288.402   147277555.492        -122.311          48.000  
C14  22717127.604   118294029.123       -2302.970          46.000    22717112.813    91472393.138       -1780.844          50.000  
C16  37004815.322   192693783.334        -188.093          48.000    37004803.868   149003008.928        -145.451          48.000  
C24  21859924.900   113830370.048        -886.725          50.000                                                                  
C26  24480163.955   127474633.851       -2567.755          44.000                                                                  
G03  22891510.450   120295690.515        -186.299          40.000    22891505.979    93736895.203        -145.367          41.000  
G16  22371354.932   117562337.011        2947.584          41.000                                                                  
C09  37727579.133   196457408.684        -147.111          44.000    37727565.481   151913272.750        -113.673          48.000  
C25  23617396.733   122981991.797        1552.797          45.000                                                                  
C07  39538583.493   205887784.656        1118.018          35.000    39538572.915   159205449.473         864.540          40.000  
C08  39243419.944   204350761.142       -2467.428          37.000    39243408.102   158016947.053       -1908.143          43.000  
C10  40478243.846                         934.216          30.000    40478244.813   162989119.505         722.040          34.000  
C35  25946591.922   135110726.201         342.578          38.000                                                                  
C13  38409894.772   200010407.412       -2274.589          41.000    38409888.661   154660693.688       -1759.248          43.000  
C12  26409571.099   137521582.113        2312.856          36.000    26409569.525   106340404.834        1788.351          46.000  
G25  24473429.647                       -3917.941          31.000    24473424.356   100214570.588       -3053.020          37.000  
> 2025 10 30 06 21 56.4800000  0 23                     
G32  22078887.003   116025330.277       -2962.768          45.000    22078881.208    90409312.583       -2308.656          43.000  
G29  23084547.299   121310127.293        -651.449          42.000    23084538.727    94527341.786        -507.229          40.000  
G28  21276586.086   111809216.223       -1214.324          45.000    21276575.967    87124023.776        -946.140          47.000  
G26  20331124.343   106840780.068         630.543          48.000    20331117.245    83252537.361         491.342          46.000  
G31  20620406.315   108360963.805         123.844          47.000    20620395.383    84437073.692          96.565          45.000  
G04  24428978.200   128375123.008        3170.416          35.000    24428973.986   100032591.778        2470.628          39.000  
C33  22518923.526   117261939.362        -758.524          50.000                                                                  
C06  36576306.537   190462428.443        -159.171          45.000    36576289.617   147277560.422        -123.090          48.000  
C14  22717145.289   118294121.292       -2304.031          46.000    22717130.521    91472464.411       -1781.696          50.000  
C16  37004816.734   192693790.912        -189.216          48.000    37004805.315   149003014.779        -146.165          48.000  
C24  21859931.694   113830405.567        -887.780          50.000                                                                  
C26  24480183.669   127474736.618       -2568.861          44.000                                                                  
G03  22891511.837   120295698.031        -187.566          40.000    22891507.400    93736901.046        -145.984          41.000  
G16  22371332.502   117562219.174        2946.251          41.000                                                                  
C09  37727580.273   196457414.608        -147.961          43.000    37727566.629   151913277.336        -114.494          48.000  
C25  23617384.846   122981929.740        1551.659          45.000                                                                  
C07  39538574.928   205887739.984        1117.130          35.000    39538564.335   159205414.943         863.538          40.000  
C08  39243438.912   204350859.901       -2468.705          37.000    39243427.061   158017023.421       -1909.015          43.000  
C10  40478236.683                         932.922          30.000    40478237.631   162989090.659         721.350          34.000  
C35  25946589.318   135110712.559         341.229          38.000                                                                  
C13  38409912.267   200010498.462       -2275.937          41.000    38409906.148   154660764.079       -1759.818          43.000  
C12  26409553.368   137521489.683        2311.132          36.000    26409551.761   106340333.343        1787.384          46.000  
G25  24473459.488                       -3918.233          31.000    24473454.181   100214692.739       -3053.614          37.000  
> 2025 10 30 06 21 56.5200000  0 23                     
G32  22078909.556   116025448.798       -2963.268          45.000    22078903.760    90409404.934       -2308.970          43.000  
G29  23084552.272   121310153.357        -651.965          42.000    23084543.691    94527362.091        -507.734          40.000  
G28  21276595.338   111809264.803       -1214.735          45.000    21276585.211    87124061.638        -946.630          47.000  
G26  20331119.554   106840754.850         630.157          48.000    20331112.439    83252517.709         491.064          46.000  
G31  20620405.388   108360958.851         123.530          47.000    20620394.422    84437069.837          96.194          45.000  
G04  24428954.087   128374996.195        3169.911          35.000    24428949.865   100032492.967        2470.133          39.000  
C33  22518929.337   117261969.705        -758.868          50.000                                                                  
C06  36576307.812   190462434.816        -159.542          45.000    36576290.836   147277565.354        -123.460          48.000  
C14  22717162.992   118294213.463       -2304.498          46.000    22717148.231    91472535.679       -1781.952          50.000  
C16  37004818.189   192693798.493        -189.725          48.000    37004806.777   149003020.631        -146.481          48.000  
C24  21859938.526   113830441.085        -888.186          50.000                                                                  
C26  24480203.416   127474839.387       -2569.384          44.000                                                                  
G03  22891513.281   120295705.544        -188.071          40.000    22891508.832    93736906.903        -146.470          41.000  
G16  22371310.084   117562101.348        2945.475          41.000                                                                  
C09  37727581.405   196457420.545        -148.566          43.000    37727567.773   151913281.925        -114.915          48.000  
C25  23617372.951   122981867.683        1551.183          45.000                                                                  
C07  39538566.371   205887695.360        1115.839          35.000    39538555.779   159205380.404         863.221          40.000  
C08  39243457.886   204350958.661       -2469.226          37.000    39243446.034   158017099.778       -1909.202          43.000  
C10  40478229.528                         932.065          30.000    40478230.476   162989061.839         720.607          34.000  
C35  25946586.719   135110698.921         340.665          38.000                                                                  
C13  38409929.745   200010589.486       -2275.986          41.000    38409923.602   154660834.461       -1759.802          43.000  
C12  26409535.613   137521397.207        2311.368          36.000    26409533.971   106340261.849        1787.112          46.000  
G25  24473489.345                       -3918.501          31.000    24473484.015   100214814.892       -3053.936          37.000  
> 2025 10 30 06 21 56.5600000  0 23                     
G32  22078932.097   116025567.266       -2962.417          45.000    22078926.299    90409497.252       -2308.435          43.000  
G29  23084557.205   121310179.353        -650.721          42.000    23084548.643    94527382.357        -507.123          40.000  
G28  21276604.576   111809313.331       -1213.879          45.000    21276594.457    87124099.452        -945.935          47.000  
G26  20331114.755   106840729.589         630.907          48.000    20331107.620    83252498.023         491.656          46.000  
G31  20620404.439   108360953.849         124.447          47.000    20620393.461    84437065.942          96.901          45.000  
G04  24428929.958   128374869.326        3170.894          35.000    24428925.718   100032394.095        2471.099          39.000  
C33  22518935.165   117261999.999        -758.005          50.000                                                                  
C06  36576309.025   190462441.146        -158.834          45.000    36576291.993   147277570.240        -122.710          48.000  
C14  22717180.653   118294305.587       -2303.724          46.000    22717165.937    91472606.917       -1781.417          50.000  
C16  37004819.624   192693806.017        -188.822          48.000    37004808.234   149003026.453        -145.961          48.000  
C24  21859945.339   113830476.556        -887.428          50.000                                                                  
C26  24480223.153   127474942.113       -2568.773          44.000                                                                  
G03  22891514.739   120295713.006        -187.213          40.000    22891510.239    93736912.724        -145.936          41.000  
G16  22371287.654   117561983.442        2946.718          41.000                                                                  
C09  37727582.496   196457426.430        -147.780          43.000    37727568.878   151913286.471        -114.194          48.000  
C25  23617361.019   122981805.577        1552.046          45.000                                                                  
C07  39538557.808   205887650.622        1117.334          35.000    39538547.177   159205345.841         863.629          40.000  
C08  39243476.829   204351057.341       -2467.948          37.000    39243464.999   158017176.079       -1908.172          43.000  
C10  40478222.378                         932.965          30.000    40478223.318   162989032.996         720.724          35.000  
C35  25946584.103   135110685.208         341.984          38.000                                                                  
C13  38409947.222   200010680.486       -2275.409          41.000    38409941.043   154660904.815       -1759.171          43.000  
C12  26409517.824   137521304.691        2312.389          36.000    26409516.197   106340190.313        1787.867          46.000  
G25  24473519.163                       -3918.960          31.000    24473513.860   100214937.028       -3053.585          37.000  
> 2025 10 30 06 21 56.6000000  0 23                     
G32  22078954.633   116025685.681       -2960.904          45.000    22078948.822    90409589.520       -2307.193          43.000  
G29  23084562.149   121310205.315        -649.385          42.000    23084553.577    94527402.598        -506.264          40.000  
G28  21276613.811   111809361.825       -1212.761          45.000    21276603.663    87124137.233        -944.962          47.000  
G26  20331109.939   106840704.276         632.332          48.000    20331102.804    83252478.304         492.664          46.000  
G31  20620403.490   108360948.810         125.690          47.000    20620392.497    84437062.013          97.941          45.000  
G04  24428905.814   128374742.404        3172.363          35.000    24428901.556   100032295.208        2471.934          39.000  
C33  22518940.942   117262030.255        -756.782          50.000                                                                  
C06  36576310.218   190462447.432        -157.635          45.000    36576293.187   147277575.102        -121.833          48.000  
C14  22717198.331   118294397.671       -2302.526          46.000    22717183.628    91472678.120       -1780.447          50.000  
C16  37004821.047   192693813.495        -187.454          48.000    37004809.671   149003032.238        -145.013          48.000  
C24  21859952.127   113830511.980        -886.098          50.000                                                                  
C26  24480242.848   127475044.783       -2567.380          44.000                                                                  
G03  22891516.162   120295720.433        -185.967          40.000    22891511.673    93736918.509        -144.995          41.000  
G16  22371265.221   117561865.503        2948.073          41.000                                                                  
C09  37727583.616   196457432.283        -146.655          43.000    37727569.985   151913290.992        -113.309          48.000  
C25  23617349.054   122981743.410        1553.709          45.000                                                                  
C07  39538549.199   205887605.874        1118.431          35.000    39538538.564   159205311.235         864.633          40.000  
C08  39243495.780   204351156.014       -2467.062          37.000    39243483.922   158017252.377       -1907.572          43.000  
C10  40478215.207                         933.722          30.000    40478216.143   162989004.073         722.402          35.000  
C35  25946581.448   135110671.465         343.248          38.000                                                                  
C13  38409964.691   200010771.425       -2273.955          41.000    38409958.522   154660975.136       -1758.192          43.000  
C12  26409500.038   137521212.145        2313.428          36.000    26409498.376   106340118.745        1788.945          46.000  
G25  24473548.962                       -3918.986          31.000    24473543.682   100215059.129       -3052.792          37.000  
> 2025 10 30 06 21 56.6400000  0 23                     
G32  22078977.162   116025804.084       -2959.996          45.000    22078971.367    90409681.784       -2306.532          43.000  
G29  23084567.091   121310231.270        -648.708          42.000    23084558.510    94527422.827        -505.687          40.000  
G28  21276623.029   111809410.306       -1212.011          45.000    21276612.876    87124175.008        -944.330          47.000  
G26  20331105.111   106840678.955         633.167          48.000    20331097.978    83252458.573         493.340          46.000  
G31  20620402.527   108360943.759         126.412          47.000    20620391.537    84437058.075          98.559          45.000  
G04  24428881.653   128374615.487        3173.094          35.000    24428877.389   100032196.307        2472.567          39.000  
C33  22518946.754   117262060.498        -755.979          50.000                                                                  
C06  36576311.415   190462453.689        -156.528          45.000    36576294.378   147277579.948        -121.135          48.000  
C14  22717216.013   118294489.739       -2301.650          46.000    22717201.317    91472749.314       -1779.802          50.000  
C16  37004822.456   192693820.961        -186.556          48.000    37004811.089   149003038.021        -144.506          48.000  
C24  21859958.940   113830547.394        -885.286          50.000                                                                  
C26  24480262.561   127475147.437       -2566.365          44.000                                                                  
G03  22891517.558   120295727.838        -185.021          40.000    22891513.066    93736924.261        -143.944          41.000  
G16  22371242.775   117561747.556        2948.810          41.000                                                                  
C09  37727584.732   196457438.099        -145.469          43.000    37727571.093   151913295.501        -112.709          48.000  
C25  23617337.119   122981681.252        1554.288          45.000                                                                  
C07  39538540.599   205887561.090        1119.575          35.000    39538529.946   159205276.597         865.731          40.000  
C08  39243514.724   204351254.657       -2466.147          37.000    39243502.883   158017328.649       -1906.796          43.000  
C10  40478208.058                         933.471          30.000    40478208.954   162988975.140         723.375          35.000  
C35  25946578.812   135110657.699         344.235          38.000                                                                  
C13  38409982.153   200010862.357       -2273.141          41.000    38409976.002   154661045.455       -1757.778          43.000  
C12  26409482.242   137521119.583        2314.125          35.000    26409480.594   106340047.168        1789.545          46.000  
G25  24473578.819                       -3918.652          31.000    24473573.491   100215181.208       -3052.019          37.000  
> 2025 10 30 06 21 56.6800000  0 23                     
G32  22078999.702   116025922.506       -2959.999          45.000    22078993.912    90409774.063       -2306.562          43.000  
G29  23084572.017   121310257.230        -648.627          42.000    23084563.439    94527443.051        -505.422          40.000  
G28  21276632.266   111809458.788       -1211.723          45.000    21276622.099    87124212.788        -944.198          47.000  
G26  20331100.305   106840653.648         633.135          48.000    20331093.172    83252438.851         493.367          46.000  
G31  20620401.584   108360938.718         126.424          47.000    20620390.579    84437054.143          98.622          45.000  
G04  24428857.492   128374488.558        3173.496          35.000    24428853.223   100032097.408        2472.709          39.000  
C33  22518952.543   117262090.751        -755.908          50.000                                                                  
C06  36576312.601   190462459.967        -156.452          45.000    36576295.575   147277584.799        -120.954          48.000  
C14  22717233.657   118294581.815       -2301.491          46.000    22717219.000    91472820.513       -1779.675          50.000  
C16  37004823.866   192693828.441        -186.498          48.000    37004812.498   149003043.806        -144.354          48.000  
C24  21859965.727   113830582.823        -885.257          50.000                                                                  
C26  24480282.272   127475250.123       -2566.577          44.000                                                                  
G03  22891518.975   120295735.265        -185.169          40.000    22891514.461    93736930.056        -144.276          41.000  
G16  22371220.343   117561629.625        2948.733          41.000                                                                  
C09  37727585.842   196457443.928        -145.283          44.000    37727572.206   151913300.014        -112.549          48.000  
C25  23617325.170   122981619.111        1554.059          45.000                                                                  
C07  39538532.001   205887516.349        1119.188          35.000    39538521.327   159205241.974         865.968          40.000  
C08  39243533.678   204351353.310       -2465.926          37.000    39243521.817   158017404.951       -1907.083          43.000  
C10  40478200.885                         934.388          30.000    40478201.786   162988946.263         722.682          35.000  
C35  25946576.166   135110643.967         343.931          38.000                                                                  
C13  38409999.616   200010953.302       -2273.185          41.000    38409993.469   154661115.775       -1757.727          43.000  
C12  26409464.498   137521027.020        2314.415          35.000    26409462.807   106339975.603        1789.521          46.000  
G25  24473608.641                       -3917.949          31.000    24473603.282   100215303.287       -3051.739          37.000  
> 2025 10 30 06 21 56.7200000  0 23                     
G32  22079022.241   116026040.954       -2960.657          45.000    22079016.444    90409866.362       -2307.073          43.000  
G29  23084576.952   121310283.227        -649.388          42.000    23084568.381    94527463.300        -505.878          40.000  
G28  21276641.493   111809507.283       -1211.943          45.000    21276631.327    87124250.583        -944.489          47.000  
G26  20331095.486   106840628.353         632.779          48.000    20331088.364    83252419.142         493.025          46.000  
G31  20620400.635   108360933.689         126.075          47.000    20620389.609    84437050.227          98.249          45.000  
G04  24428833.345   128374361.655        3173.071          35.000    24428829.097   100031998.519        2472.504          39.000  
C33  22518958.349   117262121.027        -756.412          50.000                                                                  
C06  36576313.776   190462466.273        -157.083          45.000    36576296.767   147277589.668        -121.306          48.000  
C14  22717251.343   118294673.914       -2301.971          46.000    22717236.690    91472891.725       -1779.967          50.000  
C16  37004825.319   192693835.935        -186.867          48.000    37004813.910   149003049.598        -144.509          48.000  
C24  21859972.508   113830618.268        -885.656          50.000                                                                  
C26  24480301.987   127475352.809       -2566.815          44.000                                                                  
G03  22891520.402   120295742.711        -185.693          40.000    22891515.900    93736935.868        -144.932          41.000  
G16  22371197.891   117561511.697        2948.531          41.000                                                                  
C09  37727586.982   196457449.789        -145.931          43.000    37727573.319   151913304.538        -112.803          48.000  
C25  23617313.223   122981556.972        1553.767          45.000                                                                  
C07  39538523.404   205887471.591        1119.141          35.000    39538512.699   159205207.385         865.303          40.000  
C08  39243552.605   204351451.988       -2466.462          37.000    39243540.777   158017481.263       -1907.463          43.000  
C10  40478193.730                         934.751          30.000    40478194.633   162988917.389         722.177          35.000  
C35  25946573.535   135110630.267         343.023          38.000                                                                  
C13  38410017.057   200011044.252       -2273.435          41.000    38410010.938   154661186.110       -1758.075          43.000  
C12  26409446.738   137520934.468        2314.263          35.000    26409445.048   106339904.052        1789.068          46.000  
G25  24473638.462                       -3917.222          31.000    24473633.106   100215425.406       -3052.524          37.000  
> 2025 10 30 06 21 56.7600000  0 23                     
G32  22079044.782   116026159.401       -2961.067          45.000    22079039.002    90409958.663       -2307.440          43.000  
G29  23084581.905   121310309.214        -649.660          42.000    23084573.328    94527483.546        -506.052          40.000  
G28  21276650.751   111809555.799       -1212.546          45.000    21276640.557    87124288.385        -944.865          47.000  
G26  20331090.674   106840603.072         632.249          48.000    20331083.541    83252399.444         492.607          46.000  
G31  20620399.676   108360928.675         125.557          47.000    20620388.677    84437046.322          97.805          45.000  
G04  24428809.189   128374234.771        3172.446          35.000    24428804.955   100031899.657        2471.864          39.000  
C33  22518964.167   117262151.312        -756.934          50.000                                                                  
C06  36576314.966   190462472.583        -157.569          45.000    36576298.005   147277594.546        -121.723          48.000  
C14  22717269.033   118294766.016       -2302.388          46.000    22717254.384    91472962.950       -1780.421          50.000  
C16  37004826.787   192693843.440        -187.366          48.000    37004815.322   149003055.401        -144.867          48.000  
C24  21859979.311   113830653.719        -886.047          50.000                                                                  
C26  24480321.701   127475455.515       -2567.384          44.000                                                                  
G03  22891521.840   120295750.164        -186.165          40.000    22891517.317    93736941.667        -145.080          41.000  
G16  22371175.457   117561393.798        2947.793          41.000                                                                  
C09  37727588.123   196457455.656        -146.440          44.000    37727574.426   151913309.067        -113.067          48.000  
C25  23617301.295   122981494.846        1553.310          45.000                                                                  
C07  39538514.821   205887426.886        1118.158          36.000    39538504.108   159205172.819         864.414          40.000  
C08  39243571.579   204351550.657       -2466.645          37.000    39243559.699   158017557.570       -1907.629          42.000  
C10  40478186.569                         934.362          30.000    40478187.470   162988888.477         722.552          35.000  
C35  25946570.920   135110616.546         342.926          38.000                                                                  
C13  38410034.521   200011135.227       -2274.096          41.000    38410028.425   154661256.449       -1758.352          43.000  
C12  26409429.000   137520841.960        2313.163          35.000    26409427.265   106339832.496        1788.895          46.000  
G25  24473668.243                       -3917.060          31.000    24473662.925   100215547.504       -3052.637          37.000  
> 2025 10 30 06 21 56.8000000  0 23                     
G32  22079067.343   116026277.851       -2961.276          45.000    22079061.537    90410050.957       -2307.442          43.000  
G29  23084586.816   121310335.203        -649.839          42.000    23084578.291    94527503.809        -506.487          40.000  
G28  21276659.975   111809604.320       -1212.976          45.000    21276649.803    87124326.191        -945.115          47.000  
G26  20331085.876   106840577.795         631.884          48.000    20331078.734    83252379.754         492.230          46.000  
G31  20620398.747   108360923.662         125.269          47.000    20620387.721    84437042.416          97.584          45.000  
G04  24428785.047   128374107.892        3172.010          35.000    24428780.827   100031800.792        2471.573          39.000  
C33  22518969.970   117262181.597        -757.200          50.000                                                                  
C06  36576316.165   190462478.882        -157.638          45.000    36576299.230   147277599.428        -122.023          48.000  
C14  22717286.717   118294858.125       -2302.726          46.000    22717272.071    91473034.177       -1780.689          50.000  
C16  37004828.221   192693850.948        -187.689          48.000    37004816.763   149003061.204        -145.069          48.000  
C24  21859986.100   113830689.175        -886.367          50.000                                                                  
C26  24480341.413   127475558.206       -2567.413          44.000                                                                  
G03  22891523.249   120295757.606        -186.178          40.000    22891518.744    93736947.469        -145.139          41.000  
G16  22371153.002   117561275.883        2947.720          41.000                                                                  
C09  37727589.228   196457461.513        -146.523          44.000    37727575.545   151913313.603        -113.338          48.000  
C25  23617289.386   122981432.717        1553.151          45.000                                                                  
C07  39538506.233   205887382.136        1118.359          36.000    39538495.540   159205138.216         864.635          40.000  
C08  39243590.533   204351649.342       -2467.056          37.000    39243578.642   158017633.876       -1907.703          42.000  
C10  40478179.387                         933.875          30.000    40478180.273   162988859.583         722.441          35.000  
C35  25946568.298   135110602.819         342.986          38.000                                                                  
C13  38410051.990   200011226.197       -2274.341          41.000    38410045.888   154661326.795       -1758.635          43.000  
C12  26409411.228   137520749.424        2313.117          35.000    26409409.502   106339760.954        1788.600          45.000  
G25  24473698.089                       -3916.806          31.000    24473692.738   100215669.632       -3053.212          37.000  
> 2025 10 30 06 21 56.8400000  0 23                     
G32  22079089.898   116026396.299       -2961.351          45.000    22079084.076    90410143.252       -2307.416          43.000  
G29  23084591.755   121310361.191        -649.829          42.000    23084583.231    94527524.061        -506.489          40.000  
G28  21276669.213   111809652.833       -1213.007          45.000    21276659.048    87124364.001        -945.278          47.000  
G26  20331081.058   106840552.518         631.746          48.000    20331073.912    83252360.053         492.303          46.000  
G31  20620397.798   108360918.643         125.296          47.000    20620386.759    84437038.511          97.506          45.000  
G04  24428760.905   128373980.996        3172.165          36.000    24428756.667   100031701.916        2471.654          39.000  
C33  22518975.820   117262211.880        -757.230          50.000                                                                  
C06  36576317.357   190462485.193        -157.817          45.000    36576300.471   147277604.303        -122.031          48.000  
C14  22717304.414   118294950.237       -2302.896          46.000    22717289.775    91473105.398       -1780.688          50.000  
C16  37004829.707   192693858.454        -187.782          48.000    37004818.214   149003067.006        -145.134          48.000  
C24  21859992.924   113830724.624        -886.402          50.000                                                                  
C26  24480361.186   127475660.893       -2567.333          44.000                                                                  
G03  22891524.678   120295765.058        -186.365          40.000    22891520.186    93736953.287        -145.450          41.000  
G16  22371130.575   117561157.966        2947.767          41.000                                                                  
C09  37727590.379   196457467.376        -146.657          44.000    37727576.695   151913318.141        -113.504          48.000  
C25  23617277.476   122981370.590        1553.048          45.000                                                                  
C07  39538497.628   205887337.384        1118.583          36.000    39538486.938   159205103.622         864.697          40.000  
C08  39243609.508   204351748.012       -2466.967          37.000    39243597.571   158017710.162       -1907.382          42.000  
C10  40478172.174                         934.319          30.000    40478173.123   162988830.707         722.022          35.000  
C35  25946565.691   135110589.103         342.856          38.000                                                                  
C13  38410069.491   200011317.170       -2274.480          41.000    38410063.334   154661397.132       -1758.584          43.000  
C12  26409393.477   137520656.895        2313.113          35.000    26409391.729   106339689.405        1788.577          45.000  
G25  24473727.941                       -3917.185          31.000    24473722.570   100215791.730       -3052.927          37.000  
> 2025 10 30 06 21 56.8800000  0 23                     
G32  22079112.453   116026514.740       -2961.201          45.000    22079106.603    90410235.535       -2307.209          43.000  
G29  23084596.688   121310387.181        -649.852          42.000    23084588.160    94527544.320        -506.523          40.000  
G28  21276678.450   111809701.336       -1212.786          45.000    21276668.258    87124401.801        -945.168          47.000  
G26  20331076.245   106840527.236         631.868          48.000    20331069.090    83252340.346         492.530          46.000  
G31  20620396.809   108360913.619         125.469          47.000    20620385.789    84437034.599          97.649          45.000  
G04  24428736.771   128373854.088        3172.504          36.000    24428732.509   100031603.023        2472.095          39.000  
C33  22518981.609   117262242.154        -757.034          50.000                                                                  
C06  36576318.555   190462491.488        -157.618          45.000    36576301.722   147277609.169        -121.814          48.000  
C14  22717322.105   118295042.339       -2302.767          46.000    22717307.466    91473176.620       -1780.653          50.000  
C16  37004831.160   192693865.955        -187.695          48.000    37004819.636   149003072.802        -145.038          48.000  
C24  21859999.756   113830760.069        -886.289          50.000                                                                  
C26  24480380.912   127475763.587       -2567.371          44.000                                                                  
G03  22891526.115   120295772.511        -186.475          40.000    22891521.611    93736959.089        -145.281          41.000  
G16  22371108.131   117561040.052        2947.789          41.000                                                                  
C09  37727591.526   196457473.231        -146.531          44.000    37727577.808   151913322.672        -113.397          48.000  
C25  23617265.546   122981308.464        1553.031          45.000                                                                  
C07  39538489.037   205887292.655        1118.219          36.000    39538478.359   159205069.017         865.005          40.000  
C08  39243628.468   204351846.673       -2466.706          37.000    39243616.515   158017786.464       -1907.495          42.000  
C10  40478165.002                         933.838          30.000    40478165.960   162988801.829         721.857          35.000  
C35  25946563.052   135110575.394         342.760          38.000                                                                  
C13  38410086.944   200011408.128       -2274.232          41.000    38410080.814   154661467.476       -1758.645          43.000  
C12  26409375.705   137520564.344        2313.577          35.000    26409373.939   106339617.854        1788.658          45.000  
G25  24473757.770                       -3917.727          31.000    24473752.393   100215913.841       -3052.933          36.000  
> 2025 10 30 06 21 56.9200000  0 23                     
G32  22079134.955   116026633.182       -2961.129          45.000    22079129.148    90410327.827       -2307.271          43.000  
G29  23084601.650   121310413.162        -649.657          42.000    23084593.094    94527564.567        -506.266          40.000  
G28  21276687.679   111809749.838       -1212.641          45.000    21276677.494    87124439.597        -945.012          47.000  
G26  20331071.415   106840501.936         632.293          48.000    20331064.262    83252320.633         492.759          46.000  
G31  20620395.853   108360908.588         125.691          47.000    20620384.824    84437030.667          98.118          45.000  
G04  24428712.637   128373727.192        3172.455          36.000    24428708.349   100031504.113        2472.577          39.000  
C33  22518987.428   117262272.421        -756.800          50.000                                                                  
C06  36576319.805   190462497.771        -157.244          45.000    36576302.960   147277614.029        -121.593          48.000  
C14  22717339.774   118295134.432       -2302.498          46.000    22717325.154    91473247.833       -1780.448          50.000  
C16  37004832.606   192693873.435        -187.219          48.000    37004821.102   149003078.594        -144.861          48.000  
C24  21860006.586   113830795.506        -886.045          50.000                                                                  
C26  24480400.645   127475866.270       -2567.181          44.000                                                                  
G03  22891527.535   120295779.937        -186.007          40.000    22891522.994    93736964.876        -144.832          41.000  
G16  22371085.684   117560922.126        2948.029          41.000                                                                  
C09  37727592.661   196457479.078        -146.303          44.000    37727578.926   151913327.189        -113.085          48.000  
C25  23617253.608   122981246.321        1553.395          45.000                                                                  
C07  39538480.449   205887247.905        1118.531          36.000    39538469.740   159205034.411         865.118          40.000  
C08  39243647.424   204351945.357       -2466.955          37.000    39243635.478   158017862.758       -1907.394          42.000  
C10  40478157.807                         933.954          30.000    40478158.773   162988772.925         722.228          35.000  
C35  25946560.426   135110561.647         343.365          38.000                                                                  
C13  38410104.425   200011499.075       -2273.844          41.000    38410098.278   154661537.799       -1758.268          43.000  
C12  26409357.951   137520471.788        2313.871          35.000    26409356.189   106339546.289        1788.954          45.000  
G25  24473787.570                       -3917.278          31.000    24473782.212   100216035.924       -3052.393          36.000  
> 2025 10 30 06 21 56.9600000  0 23                     
G32  22079157.488   116026751.617       -2960.969          45.000    22079151.701    90410420.112       -2307.215          43.000  
G29  23084606.582   121310439.142        -649.534          42.000    23084598.030    94527584.806        -506.012          40.000  
G28  21276696.899   111809798.329       -1212.380          45.000    21276686.726    87124477.375        -944.611          47.000  
G26  20331066.583   106840476.645         632.352          48.000    20331059.449    83252300.918         492.837          46.000  
G31  20620394.893   108360903.557         125.783          47.000    20620383.854    84437026.744          98.146          45.000  
G04  24428688.490   128373600.280        3172.624          35.000    24428684.195   100031405.235        2472.241          39.000  
C33  22518993.274   117262302.687        -756.677          50.000                                                                  
C06  36576321.005   190462504.057        -157.109          45.000    36576304.143   147277618.890        -121.524          48.000  
C14  22717357.458   118295226.517       -2302.204          46.000    22717342.861    91473319.045       -1780.336          50.000  
C16  37004834.029   192693880.919        -187.059          48.000    37004822.572   149003084.378        -144.666          48.000  
C24  21860013.400   113830830.940        -885.887          50.000                                                                  
C26  24480420.360   127475968.946       -2566.963          44.000                                                                  
G03  22891528.945   120295787.375        -185.966          40.000    22891524.405    93736970.682        -145.007          41.000  
G16  22371063.253   117560804.208        2947.966          41.000                                                                  
C09  37727593.770   196457484.917        -146.073          44.000    37727580.019   151913331.700        -112.822          48.000  
C25  23617241.697   122981184.179        1553.536          45.000                                                                  
C07  39538471.858   205887203.161        1118.582          36.000    39538461.184   159204999.821         864.824          40.000  
C08  39243666.373   204352044.037       -2466.992          37.000    39243654.415   158017939.042       -1907.163          42.000  
C10  40478150.605                         934.063          30.000    40478151.617   162988744.044         722.049          35.000  
C35  25946557.781   135110547.930         343.101          38.000                                                                  
C13  38410121.896   200011590.035       -2273.888          41.000    38410115.764   154661608.124       -1758.109          43.000  
C12  26409340.188   137520379.264        2313.469          35.000    26409338.407   106339474.725        1789.126          45.000  
G25  24473817.416                       -3917.589          31.000    24473812.030   100216158.020       -3052.347          36.000  
> 2025 10 30 06 21 57.0000000  0 23                     
G32  22079180.039   116026870.056       -2960.966          45.000    22079174.253    90410512.400       -2307.230          43.000  
G29  23084611.528   121310465.128        -649.559          42.000    23084602.973    94527605.058        -506.171          40.000  
G28  21276706.155   111809846.827       -1212.384          45.000    21276695.940    87124515.162        -944.578          47.000  
G26  20331061.761   106840451.350         632.394          48.000    20331054.649    83252281.205         492.867          46.000  
G31  20620393.934   108360898.524         125.844          47.000    20620382.897    84437022.820          98.158          45.000  
G04  24428664.377   128373473.382        3172.458          35.000    24428660.047   100031306.364        2471.910          39.000  
C33  22518999.080   117262332.963        -756.813          50.000                                                                  
C06  36576322.192   190462510.346        -157.119          45.000    36576305.309   147277623.750        -121.464          48.000  
C14  22717375.148   118295318.617       -2302.355          46.000    22717360.544    91473390.256       -1780.275          50.000  
C16  37004835.443   192693888.404        -187.031          48.000    37004824.026   149003090.166        -144.619          48.000  
C24  21860020.190   113830866.380        -885.914          50.000                                                                  
C26  24480440.083   127476071.625       -2566.946          44.000                                                                  
G03  22891530.382   120295794.829        -186.218          40.000    22891525.812    93736976.469        -144.770          41.000  
G16  22371040.807   117560686.276        2948.228          41.000                                                                  
C09  37727594.895   196457490.752        -145.887          44.000    37727581.105   151913336.226        -113.000          48.000  
C25  23617229.751   122981122.038        1553.584          45.000                                                                  
C07  39538463.276   205887158.428        1118.417          36.000    39538452.577   159204965.215         864.974          40.000  
C08  39243685.290   204352142.705       -2466.865          37.000    39243673.385   158018015.346       -1907.383          42.000  
C10  40478143.431                         933.553          30.000    40478144.449   162988715.145         722.378          35.000  
C35  25946555.158   135110534.205         343.114          38.000                                                                  
C13  38410139.375   200011680.968       -2273.445          41.000    38410133.220   154661678.453       -1758.154          43.000  
C12  26409322.420   137520286.722        2313.494          35.000    26409320.646   106339403.154        1789.260          45.000  
G25  24473847.225   128610939.263       -3917.355          31.000    24473841.843   100216280.130       -3052.618          36.000  
> 2025 10 30 06 21 57.0400000  0 23                     
G32  22079202.587   116026988.487       -2960.820          45.000    22079196.787    90410604.683       -2307.126          43.000  
G29  23084616.465   121310491.113        -649.610          42.000    23084607.934    94527625.296        -506.042          40.000  
G28  21276715.414   111809895.335       -1212.557          45.000    21276705.169    87124552.958        -944.775          47.000  
G26  20331056.953   106840426.058         632.330          48.000    20331049.850    83252261.497         492.753          46.000  
G31  20620392.990   108360893.494         125.787          47.000    20620381.932    84437018.910          97.892          45.000  
G04  24428640.249   128373346.483        3172.395          35.000    24428635.909   100031207.476        2472.058          39.000  
C33  22519004.855   117262363.238        -756.871          50.000                                                                  
C06  36576323.415   190462516.627        -157.041          45.000    36576306.536   147277628.616        -121.586          48.000  
C14  22717392.847   118295410.711       -2302.336          46.000    22717378.208    91473461.472       -1780.341          50.000  
C16  37004836.859   192693895.892        -187.140          48.000    37004825.470   149003095.961        -144.759          48.000  
C24  21860026.951   113830901.821        -885.996          50.000                                                                  
C26  24480459.799   127476174.304       -2566.946          44.000                                                                  
G03  22891531.788   120295802.264        -186.002          40.000    22891527.232    93736982.275        -145.025          41.000  
G16  22371018.342   117560568.348        2948.256          41.000                                                                  
C09  37727596.026   196457496.592        -145.919          44.000    37727582.241   151913340.750        -113.090          48.000  
C25  23617217.800   122981059.894        1553.596          45.000                                                                  
C07  39538454.667   205887113.657        1118.882          36.000    39538443.995   159204930.615         864.980          40.000  
C08  39243704.245   204352241.360       -2466.522          37.000    39243692.354   158018091.644       -1907.456          42.000  
C10  40478136.262                         933.810          30.000    40478137.276   162988686.244         722.572          35.000  
C35  25946552.527   135110520.491         342.901          38.000                                                                  
C13  38410156.832   200011771.919       -2273.601          41.000    38410150.706   154661748.780       -1758.167          43.000  
C12  26409304.671   137520194.186        2313.389          35.000    26409302.875   106339331.592        1789.135          45.000  
G25  24473877.023   128611095.940       -3917.078          31.000    24473871.666   100216402.219       -3052.336          36.000  
> 2025 10 30 06 21 57.0800000  0 23                     
G32  22079225.116   116027106.925       -2960.903          45.000    22079219.312    90410696.976       -2307.272          43.000  
G29  23084621.423   121310517.101        -649.704          42.000    23084612.870    94527645.556        -506.404          40.000  
G28  21276724.676   111809943.845       -1212.734          45.000    21276714.410    87124590.761        -945.006          47.000  
G26  20331052.155   106840400.776         632.093          48.000    20331045.035    83252241.805         492.399          46.000  
G31  20620392.072   108360888.473         125.590          47.000    20620380.974    84437014.996          97.813          45.000  
G04  24428616.120   128373219.588        3172.129          35.000    24428611.755   100031108.584        2472.239          39.000  
C33  22519010.675   117262393.514        -756.940          50.000                                                                  
C06  36576324.639   190462522.927        -157.360          45.000    36576307.730   147277633.482        -121.652          48.000  
C14  22717410.512   118295502.817       -2302.580          46.000    22717395.877    91473532.689       -1780.391          50.000  
C16  37004838.276   192693903.388        -187.336          48.000    37004826.915   149003101.752        -144.779          48.000  
C24  21860033.766   113830937.262        -886.043          50.000                                                                  
C26  24480479.509   127476276.991       -2567.128          44.000                                                                  
G03  22891533.211   120295809.701        -185.922          40.000    22891528.648    93736988.089        -145.351          41.000  
G16  22370995.887   117560450.427        2948.097          41.000                                                                  
C09  37727597.141   196457502.452        -146.307          44.000    37727583.382   151913345.276        -113.146          48.000  
C25  23617205.862   122980997.764        1553.342          45.000                                                                  
C07  39538446.072   205887068.904        1118.816          36.000    39538435.398   159204896.025         864.789          40.000  
C08  39243723.179   204352340.008       -2466.236          36.000    39243711.295   158018167.955       -1907.764          42.000  
C10  40478129.056                         934.038          30.000    40478130.089   162988657.348         722.508          35.000  
C35  25946549.860   135110506.771         342.909          38.000                                                                  
C13  38410174.296   200011862.891       -2274.089          41.000    38410168.170   154661819.103       -1758.136          43.000  
C12  26409286.875   137520101.647        2313.402          35.000    26409285.112   106339260.046        1788.747          45.000  
G25  24473906.819   128611252.623       -3916.942          31.000    24473901.492   100216524.324       -3052.522          36.000  
> 2025 10 30 06 21 57.1200000  0 23                     
G32  22079247.657   116027225.382       -2961.325          45.000    22079241.852    90410789.281       -2307.594          43.000  
G29  23084626.391   121310543.116        -650.225          42.000    23084617.811    94527665.812        -506.507          40.000  
G28  21276733.909   111809992.363       -1212.948          45.000    21276723.642    87124628.565        -945.159          47.000  
G26  20331047.358   106840375.518         631.509          48.000    20331040.236    83252222.119         492.078          46.000  
G31  20620391.103   108360883.469         125.184          47.000    20620380.023    84437011.095          97.542          45.000  
G04  24428591.986   128373092.722        3171.572          35.000    24428587.602   100031009.711        2471.942          39.000  
C33  22519016.471   117262423.811        -757.364          50.000                                                                  
C06  36576325.850   190462529.237        -157.708          45.000    36576308.918   147277638.357        -121.872          48.000  
C14  22717428.188   118295594.939       -2303.021          46.000    22717413.586    91473603.918       -1780.658          50.000  
C16  37004839.657   192693910.895        -187.642          48.000    37004828.374   149003107.558        -145.104          48.000  
C24  21860040.566   113830972.719        -886.362          50.000                                                                  
C26  24480499.245   127476379.704       -2567.678          44.000                                                                  
G03  22891534.643   120295817.173        -186.572          40.000    22891530.071    93736993.910        -145.553          41.000  
G16  22370973.471   117560332.524        2947.708          41.000                                                                  
C09  37727598.258   196457508.322        -146.722          44.000    37727584.518   151913349.806        -113.266          48.000  
C25  23617193.908   122980935.646        1552.936          45.000                                                                  
C07  39538437.460   205887024.197        1117.937          36.000    39538426.797   159204861.444         864.523          40.000  
C08  39243742.147   204352438.710       -2467.038          36.000    39243730.267   158018244.264       -1907.867          42.000  
C10  40478121.882                         933.876          30.000    40478122.943   162988628.494         721.714          35.000  
C35  25946547.265   135110493.055         342.840          38.000                                                                  
C13  38410191.764   200011953.874       -2274.581          41.000    38410185.651   154661889.463       -1758.790          43.000  
C12  26409269.119   137520009.114        2313.354          35.000    26409267.365   106339188.505        1788.434          45.000  
G25  24473936.651   128611409.347       -3917.754          31.000    24473931.314   100216646.421       -3052.480          37.000  
> 2025 10 30 06 21 57.1600000  0 23                     
G32  22079270.197   116027343.859       -2961.842          45.000    22079264.385    90410881.589       -2307.752          43.000  
G29  23084631.352   121310569.131        -650.463          42.000    23084622.775    94527686.080        -506.709          40.000  
G28  21276743.171   111810040.890       -1213.203          45.000    21276732.869    87124666.380        -945.395          47.000  
G26  20331042.562   106840350.257         631.372          48.000    20331035.451    83252202.440         491.884          46.000  
G31  20620390.140   108360878.471         124.884          47.000    20620379.092    84437007.200          97.328          45.000  
G04  24428567.838   128372965.831        3171.803          35.000    24428563.473   100030910.865        2471.316          39.000  
C33  22519022.271   117262454.110        -757.559          50.000                                                                  
C06  36576327.073   190462535.559        -158.072          45.000    36576310.122   147277643.254        -122.341          48.000  
C14  22717445.879   118295687.060       -2303.157          46.000    22717431.262    91473675.157       -1780.958          50.000  
C16  37004841.103   192693918.411        -187.902          48.000    37004829.818   149003113.373        -145.386          48.000  
C24  21860047.328   113831008.187        -886.697          50.000                                                                  
C26  24480518.981   127476482.417       -2567.921          44.000                                                                  
G03  22891536.046   120295824.655        -187.061          40.000    22891531.506    93736999.726        -145.509          41.000  
G16  22370951.057   117560214.642        2947.140          41.000                                                                  
C09  37727599.388   196457514.209        -147.189          44.000    37727585.666   151913354.343        -113.441          48.000  
C25  23617181.957   122980873.539        1552.599          45.000                                                                  
C07  39538428.890   205886979.475        1117.761          36.000    39538418.209   159204826.878         864.082          39.000  
C08  39243761.102   204352537.408       -2467.421          36.000    39243749.208   158018320.589       -1908.137          41.000  
C10  40478114.725                         934.041          30.000    40478115.768   162988599.597         722.071          35.000  
C35  25946544.627   135110479.353         342.598          38.000                                                                  
C13  38410209.240   200012044.834       -2274.325          41.000    38410203.143   154661959.805       -1758.756          43.000  
C12  26409251.349   137519916.590        2313.138          35.000    26409249.609   106339116.963        1788.393          45.000  
G25  24473966.492   128611566.068       -3918.064          31.000    24473961.158   100216768.570       -3053.319          37.000  
> 2025 10 30 06 21 57.2000000  0 23                     
G32  22079292.743   116027462.301       -2961.438          45.000    22079286.925    90410973.890       -2307.678          43.000  
G29  23084636.325   121310595.125        -650.091          42.000    23084627.709    94527706.347        -506.737          40.000  
G28  21276752.399   111810089.399       -1212.972          45.000    21276742.093    87124704.201        -945.565          47.000  
G26  20331037.747   106840324.977         631.681          48.000    20331030.638    83252182.742         492.199          46.000  
G31  20620389.172   108360873.452         125.200          47.000    20620378.148    84437003.293          97.502          45.000  
G04  24428543.703   128372838.899        3172.748          35.000    24428539.337   100030811.993        2471.570          39.000  
C33  22519028.105   117262484.395        -757.354          50.000                                                                  
C06  36576328.300   190462541.861        -157.886          45.000    36576311.283   147277648.129        -122.161          48.000  
C14  22717463.541   118295779.171       -2302.991          46.000    22717448.951    91473746.383       -1780.842          50.000  
C16  37004842.561   192693925.912        -187.727          48.000    37004831.235   149003119.178        -145.311          48.000  
C24  21860054.164   113831043.643        -886.611          50.000                                                                  
C26  24480538.692   127476585.103       -2567.506          44.000                                                                  
G03  22891537.467   120295832.113        -186.820          40.000    22891532.887    93737005.537        -145.367          41.000  
G16  22370928.633   117560096.737        2947.316          41.000                                                                  
C09  37727600.509   196457520.057        -146.597          44.000    37727586.797   151913358.872        -113.367          48.000  
C25  23617170.026   122980811.412        1552.873          45.000                                                                  
C07  39538420.287   205886934.756        1117.803          36.000    39538409.638   159204792.286         864.406          38.000  
C08  39243780.055   204352636.059       -2466.749          36.000    39243768.160   158018396.900       -1908.025          41.000  
C10  40478107.588                         933.585          30.000    40478108.617   162988570.754         721.393          35.000  
C35  25946541.991   135110465.650         342.520          38.000                                                                  
C13  38410226.733   200012135.782       -2273.905          41.000    38410220.637   154662030.143       -1758.613          43.000  
C12  26409233.601   137519824.056        2313.344          35.000    26409231.817   106339045.410        1788.641          45.000  
G25  24473996.337   128611722.784       -3918.118          31.000    24473990.981   100216890.651       -3052.602          36.000  
> 2025 10 30 06 21 57.2400000  0 23                     
G32  22079315.262   116027580.747       -2961.255          45.000    22079309.454    90411066.193       -2307.641          43.000  
G29  23084641.274   121310621.105        -649.606          41.000    23084632.658    94527726.613        -506.723          40.000  
G28  21276761.636   111810137.906       -1212.794          45.000    21276751.301    87124741.993        -945.118          47.000  
G26  20331032.940   106840299.676         632.291          48.000    20331025.823    83252163.026         492.721          46.000  
G31  20620388.189   108360868.425         125.502          47.000    20620377.190    84436999.370          97.910          45.000  
G04  24428519.548   128372711.960        3173.407          35.000    24428515.175   100030713.116        2471.747          39.000  
C33  22519033.952   117262514.666        -756.953          50.000                                                                  
C06  36576329.508   190462548.142        -157.347          45.000    36576312.473   147277652.993        -121.824          48.000  
C14  22717481.227   118295871.264       -2302.546          46.000    22717466.636    91473817.601       -1780.613          50.000  
C16  37004844.002   192693933.404        -187.447          48.000    37004832.666   149003124.966        -144.949          48.000  
C24  21860061.003   113831079.086        -886.306          50.000                                                                  
C26  24480558.407   127476687.773       -2566.968          44.000                                                                  
G03  22891538.890   120295839.557        -186.339          40.000    22891534.301    93737011.328        -144.896          41.000  
G16  22370906.170   117559978.811        2947.834          41.000                                                                  
C09  37727601.637   196457525.896        -146.097          44.000    37727587.928   151913363.391        -113.111          48.000  
C25  23617158.089   122980749.270        1553.335          45.000                                                                  
C07  39538411.701   205886890.009        1118.384          36.000    39538401.058   159204757.698         864.598          38.000  
C08  39243799.020   204352734.732       -2466.781          36.000    39243787.076   158018473.195       -1907.604          41.000  
C10  40478100.410                         933.345          30.000    40478101.411   162988541.839         722.433          35.000  
C35  25946539.367   135110451.910         343.215          38.000                                                                  
C13  38410244.199   200012226.726       -2273.542          41.000    38410238.129   154662100.485       -1758.632          43.000  
C12  26409215.849   137519731.526        2313.294          35.000    26409214.039   106338973.851        1788.856          44.000  
G25  24474026.139   128611879.500       -3918.154          31.000    24474020.801   100217012.722       -3051.996          36.000  
> 2025 10 30 06 21 57.2800000  0 23                     
G32  22079337.802   116027699.193       -2961.148          44.000    22079332.022    90411158.490       -2307.517          43.000  
G29  23084646.226   121310647.092        -649.580          41.000    23084637.595    94527746.844        -506.057          40.000  
G28  21276770.840   111810186.412       -1212.671          45.000    21276760.536    87124779.778        -944.762          47.000  
G26  20331028.120   106840274.383         632.417          48.000    20331021.003    83252143.310         492.941          46.000  
G31  20620387.215   108360863.394         125.741          47.000    20620376.214    84436995.446          98.124          45.000  
G04  24428495.424   128372585.068        3172.800          35.000    24428491.012   100030614.222        2472.102          39.000  
C33  22519039.775   117262544.935        -756.718          50.000                                                                  
C06  36576330.710   190462554.425        -157.076          45.000    36576313.695   147277657.842        -121.361          48.000  
C14  22717498.911   118295963.366       -2302.495          46.000    22717484.342    91473888.822       -1780.551          50.000  
C16  37004845.469   192693940.893        -187.240          48.000    37004834.082   149003130.748        -144.599          48.000  
C24  21860067.861   113831114.529        -886.133          50.000                                                                  
C26  24480578.112   127476790.444       -2566.742          44.000                                                                  
G03  22891540.286   120295846.997        -186.029          40.000    22891535.716    93737017.128        -144.871          41.000  
G16  22370883.728   117559860.878        2948.290          41.000                                                                  
C09  37727602.771   196457531.736        -145.904          44.000    37727589.047   151913367.907        -112.938          48.000  
C25  23617146.176   122980687.131        1553.513          45.000                                                                  
C07  39538403.094   205886845.260        1118.638          36.000    39538392.497   159204723.097         864.918          38.000  
C08  39243817.958   204352833.426       -2467.118          36.000    39243806.004   158018549.516       -1907.860          40.000  
C10  40478093.256                         933.349          30.000    40478094.241   162988512.967         722.190          35.000  
C35  25946536.750   135110438.177         343.416          38.000                                                                  
C13  38410261.649   200012317.696       -2273.989          41.000    38410255.572   154662170.810       -1758.293          43.000  
C12  26409198.066   137519638.999        2313.126          34.000    26409196.264   106338902.299        1788.862          44.000  
G25  24474055.969   128612036.146       -3916.785          31.000    24474050.616   100217134.815       -3052.127          36.000  
> 2025 10 30 06 21 57.3200000  0 23                     
G32  22079360.345   116027817.647       -2961.249          44.000    22079354.559    90411250.790       -2307.452          43.000  
G29  23084651.155   121310673.095        -649.887          41.000    23084642.542    94527767.090        -505.974          40.000  
G28  21276780.086   111810234.918       -1212.604          45.000    21276769.770    87124817.560        -944.538          47.000  
G26  20331023.336   106840249.094         632.370          48.000    20331016.199    83252123.603         492.850          46.000  
G31  20620386.279   108360858.373         125.660          47.000    20620375.248    84436991.510          98.399          45.000  
G04  24428471.280   128372458.206        3171.877          35.000    24428466.864   100030515.344        2472.039          39.000  
C33  22519045.565   117262575.211        -756.769          50.000                                                                  
C06  36576331.894   190462560.711        -157.050          45.000    36576314.910   147277662.687        -121.089          48.000  
C14  22717516.601   118296055.478       -2302.677          46.000    22717502.031    91473960.053       -1780.699          49.000  
C16  37004846.925   192693948.375        -187.026          48.000    37004835.527   149003136.525        -144.370          48.000  
C24  21860074.726   113831149.962        -885.852          50.000                                                                  
C26  24480597.837   127476893.146       -2567.170          44.000                                                                  
G03  22891541.722   120295854.445        -186.098          40.000    22891537.161    93737022.938        -145.082          41.000  
G16  22370861.287   117559742.967        2947.986          40.000                                                                  
C09  37727603.899   196457537.573        -145.804          44.000    37727590.155   151913372.418        -112.790          48.000  
C25  23617134.256   122980624.990        1553.585          45.000                                                                  
C07  39538394.498   205886800.505        1118.879          35.000    39538383.914   159204688.532         864.369          38.000  
C08  39243836.915   204352932.127       -2467.438          36.000    39243824.952   158018625.819       -1907.690          40.000  
C10  40478086.101                         933.439          30.000    40478087.069   162988484.076         722.332          35.000  
C35  25946534.121   135110424.459         343.209          38.000                                                                  
C13  38410279.122   200012408.654       -2274.031          41.000    38410273.061   154662241.148       -1758.368          42.000  
C12  26409180.333   137519546.483        2313.030          34.000    26409178.495   106338830.748        1788.831          42.000  
G25  24474085.756   128612192.812       -3916.415          31.000    24474080.448   100217256.951       -3053.040          36.000  
> 2025 10 30 06 21 57.3600000  0 23                     
G32  22079382.875   116027936.107       -2961.445          44.000    22079377.110    90411343.095       -2307.579          43.000  
G29  23084656.093   121310699.082        -649.781          41.000    23084647.494    94527787.342        -506.139          40.000  
G28  21276789.319   111810283.409       -1212.340          46.000    21276778.979    87124855.334        -944.323          47.000  
G26  20331018.528   106840223.815         632.095          47.000    20331011.397    83252103.907         492.525          45.000  
G31  20620385.331   108360853.336         125.875          48.000    20620374.305    84436987.588          98.212          45.000  
G04  24428447.129   128372331.338        3171.515          35.000    24428442.717   100030416.455        2472.194          40.000  
C33  22519051.369   117262605.492        -756.951          50.000                                                                  
C06  36576333.091   190462566.991        -156.941          45.000    36576316.096   147277667.544        -121.222          48.000  
C14  22717534.247   118296147.601       -2302.994          46.000    22717519.728    91474031.289       -1780.902          49.000  
C16  37004848.398   192693955.848        -186.791          48.000    37004836.950   149003142.300        -144.292          48.000  
C24  21860081.533   113831185.388        -885.629          50.000                                                                  
C26  24480617.539   127476995.854       -2567.569          44.000                                                                  
G03  22891543.160   120295861.902        -186.288          40.000    22891538.568    93737028.746        -145.189          42.000  
G16  22370838.852   117559625.070        2947.542          38.000                                                                  
C09  37727605.021   196457543.420        -145.996          44.000    37727591.270   151913376.932        -112.769          48.000  
C25  23617122.312   122980562.854        1553.491          45.000                                                                  
C07  39538385.895   205886755.785        1118.368          35.000    39538375.325   159204653.966         864.045          38.000  
C08  39243855.844   204353030.843       -2467.865          36.000    39243843.912   158018702.157       -1908.156          40.000  
C10  40478078.942                         933.717          30.000    40478079.932   162988455.237         721.460          35.000  
C35  25946531.485   135110410.767         342.613          38.000                                                                  
C13  38410296.621   200012499.629       -2274.364          39.000    38410290.538   154662311.488       -1758.479          42.000  
C12  26409162.553   137519453.848        2315.449          31.000    26409160.736   106338759.193        1788.843          41.000  
G25  24474115.592   128612349.478       -3916.340          31.000    24474110.260   100217379.075       -3053.246          36.000  
> 2025 10 30 06 21 57.4000000  0 23                     
G32  22079405.412   116028054.567       -2961.502          44.000    22079399.685    90411435.395       -2307.568          42.000  
G29  23084661.065   121310725.082        -649.968          41.000    23084652.434    94527807.598        -506.276          40.000  
G28  21276798.541   111810331.895       -1212.154          46.000    21276788.217    87124893.123        -944.506          47.000  
G26  20331013.731   106840198.558         631.529          46.000    20331006.598    83252084.231         492.003          44.000  
G31  20620384.367   108360848.297         125.997          48.000    20620373.347    84436983.671          97.990          45.000  
G04  24428422.965   128372204.472        3171.442          35.000    24428418.572   100030317.580        2472.031          40.000  
C33  22519057.171   117262635.782        -757.210          50.000                                                                  
C06  36576334.258   190462573.278        -157.052          45.000    36576317.321   147277672.406        -121.432          48.000  
C14  22717551.955   118296239.722       -2303.148          45.000    22717537.412    91474102.530       -1781.063          49.000  
C16  37004849.839   192693963.326        -186.830          48.000    37004838.370   149003148.078        -144.347          48.000  
C24  21860088.306   113831220.817        -885.636          50.000                                                                  
C26  24480637.271   127477098.544       -2567.438          44.000                                                                  
G03  22891544.567   120295869.356        -186.324          40.000    22891539.949    93737034.550        -145.215          42.000  
G16  22370816.440   117559507.215        2946.584          38.000                                                                  
C09  37727606.115   196457549.276        -146.289          44.000    37727592.372   151913381.446        -112.797          48.000  
C25  23617110.378   122980500.715        1553.485          45.000                                                                  
C07  39538377.300   205886711.063        1118.140          33.000    39538366.731   159204619.386         864.214          38.000  
C08  39243874.804   204353129.573       -2468.320          36.000    39243862.856   158018778.484       -1908.309          39.000  
C10  40478071.771                         933.716          30.000    40478072.751   162988426.352         721.720          35.000  
C35  25946528.864   135110397.074         342.259          38.000                                                                  
C13  38410314.081   200012590.630       -2275.022          39.000    38410308.004   154662381.828       -1758.503          41.000  
C12  26409144.746   137519361.286        2315.277          31.000    26409142.974   106338687.632        1788.959          40.000  
G25  24474145.432   128612506.255       -3918.189          31.000    24474140.079   100217501.194       -3053.176          36.000  
> 2025 10 30 06 21 57.4400000  0 23                     
G32  22079427.918   116028173.021       -2961.422          43.000    22079422.248    90411527.702       -2307.710          42.000  
G29  23084665.991   121310751.071        -649.842          41.000    23084657.372    94527827.853        -506.350          40.000  
G28  21276807.776   111810380.378       -1212.030          46.000    21276797.451    87124930.917        -944.743          47.000  
G26  20331008.931   106840173.299         631.335          46.000    20331001.813    83252064.557         491.709          44.000  
G31  20620383.436   108360843.261         125.959          48.000    20620372.387    84436979.760          97.781          44.000  
G04  24428398.809   128372077.538        3172.651          35.000    24428394.428   100030218.665        2472.623          41.000  
C33  22519062.963   117262666.080        -757.478          48.000                                                                  
C06  36576335.452   190462579.561        -157.062          45.000    36576318.560   147277677.266        -121.495          48.000  
C14  22717569.612   118296331.853       -2303.331          45.000    22717555.107    91474173.768       -1781.071          49.000  
C16  37004851.244   192693970.806        -186.906          48.000    37004839.811   149003153.875        -144.752          47.000  
C24  21860095.103   113831256.259        -885.879          50.000                                                                  
C26  24480657.002   127477201.218       -2567.046          44.000                                                                  
G03  22891545.972   120295876.807        -186.299          40.000    22891541.375    93737040.344        -144.993          42.000  
G16  22370794.023   117559389.345        2946.400          36.000                                                                  
C09  37727607.236   196457555.113        -146.088          44.000    37727593.483   151913385.954        -112.697          47.000  
C25  23617098.455   122980438.572        1553.540          45.000                                                                  
C07  39538368.714   205886666.371        1117.461          33.000    39538358.139   159204584.802         864.451          38.000  
C08  39243893.731   204353228.215       -2467.098          36.000    39243881.830   158018854.808       -1908.298          38.000  
C10  40478064.585                         933.241          30.000    40478065.586   162988397.488         721.669          34.000  
C35  25946526.213   135110383.362         342.511          38.000                                                                  
C13  38410331.562   200012681.619       -2275.018          38.000    38410325.488   154662452.162       -1758.373          41.000  
C12  26409126.961                        2315.821          31.000    26409125.208   106338616.044        1789.557          38.000  
G25  24474175.231   128612663.021       -3919.135          31.000    24474169.884   100217623.284       -3052.595          36.000  
> 2025 10 30 06 21 57.4800000  0 23                     
G32  22079450.450   116028291.453       -2960.976          42.000    22079444.790    90411620.009       -2307.718          42.000  
G29  23084670.922   121310777.055        -649.630          42.000    23084662.334    94527848.110        -506.430          40.000  
G28  21276817.005   111810428.871       -1212.181          46.000    21276806.677    87124968.720        -945.046          47.000  
G26  20331004.107   106840148.033         631.434          45.000    20330997.000    83252044.879         491.696          44.000  
G31  20620382.519   108360838.231         125.804          48.000    20620371.444    84436975.853          97.603          44.000  
G04  24428374.636   128371950.615        3173.142          38.000    24428370.266   100030119.762        2472.688          41.000  
C33  22519068.795   117262696.380        -757.624          48.000                                                                  
C06  36576336.638   190462585.849        -157.174          45.000    36576319.778   147277682.137        -121.740          47.000  
C14  22717587.301   118296423.977       -2303.255          45.000    22717572.792    91474244.999       -1780.909          49.000  
C16  37004852.651   192693978.293        -187.088          48.000    37004841.293   149003159.672        -144.959          47.000  
C24  21860101.882   113831291.706        -886.104          49.000                                                                  
C26  24480676.737   127477303.888       -2566.780          45.000                                                                  
G03  22891547.404   120295884.249        -186.078          40.000    22891542.772    93737046.133        -144.787          42.000  
G16  22370771.578   117559271.474        2946.471          36.000                                                                  
C09  37727608.378   196457560.948        -145.916          43.000    37727594.590   151913390.471        -112.845          47.000  
C25  23617086.549   122980376.425        1553.638          45.000                                                                  
C07  39538360.120   205886621.646        1117.782          33.000    39538349.548   159204550.211         864.714          36.000  
C08  39243912.711   204353326.947       -2467.901          36.000    39243900.788   158018931.114       -1907.873          38.000  
C10  40478057.427                         933.157          30.000    40478058.401   162988368.633         721.521          34.000  
C35  25946523.603   135110369.646         342.758          38.000                                                                  
C13  38410349.048   200012772.597       -2274.571          38.000    38410342.978   154662522.502       -1758.398          41.000  
C12  26409109.173                        2316.372          26.000    26409107.424   106338544.436        1790.152          38.000  
G25  24474205.033                       -3917.350          31.000    24474199.683   100217745.367       -3052.117          36.000  
> 2025 10 30 06 21 57.5200000  0 23                     
G32  22079472.985   116028409.882       -2960.709          42.000    22079467.326    90411712.297       -2307.400          42.000  
G29  23084675.890   121310803.049        -649.743          42.000    23084667.279    94527868.363        -506.405          40.000  
G28  21276826.247   111810477.379       -1212.528          46.000    21276815.898    87125006.518        -945.063          47.000  
G26  20330999.282   106840122.765         631.585          45.000    20330992.168    83252025.183         492.122          44.000  
G31  20620381.575   108360833.213         125.502          48.000    20620370.486    84436971.937          97.747          44.000  
G04  24428350.481   128371823.696        3173.230          38.000    24428346.112   100030020.876        2472.351          41.000  
C33  22519074.609   117262726.678        -757.585          48.000                                                                  
C06  36576337.841   190462592.129        -157.074          45.000    36576321.005   147277687.000        -121.698          47.000  
C14  22717604.999   118296516.088       -2302.948          45.000    22717590.486    91474316.221       -1780.643          49.000  
C16  37004854.050   192693985.784        -187.260          48.000    37004842.723   149003165.466        -144.975          47.000  
C24  21860108.638   113831327.159        -886.346          49.000                                                                  
C26  24480696.446   127477406.565       -2566.777          45.000                                                                  
G03  22891548.825   120295891.696        -186.080          40.000    22891544.195    93737051.913        -144.514          42.000  
G16  22370749.153   117559153.587        2946.912          34.000                                                                  
C09  37727609.507   196457566.782        -145.825          43.000    37727595.724   151913394.993        -113.041          46.000  
C25  23617074.641   122980314.293        1553.360          44.000                                                                  
C07  39538351.507   205886576.895        1118.452          32.000    39538340.953   159204515.626         864.708          36.000  
C08  39243931.667   204353425.628       -2467.441          36.000    39243919.756   158019007.403       -1907.329          38.000  
C10  40478050.248                         933.688          30.000    40478051.236   162988339.739         722.166          34.000  
C35  25946520.962   135110355.915         343.210          38.000                                                                  
C13  38410366.497   200012863.576       -2274.399          37.000    38410360.438   154662592.840       -1758.442          40.000  
C12  26409091.414                        2315.652          27.000    26409089.661   106338472.833        1790.283          38.000  
G25  24474234.864   128612976.343       -3917.223          31.000    24474229.492   100217867.459       -3052.134          36.000  
> 2025 10 30 06 21 57.5600000  0 23                     
G32  22079495.502   116028528.306       -2960.561          42.000    22079489.888    90411804.586       -2307.251          42.000  
G29  23084680.847   121310829.050        -649.956          42.000    23084672.223    94527888.620        -506.461          40.000  
G28  21276835.506   111810525.904       -1213.014          46.000    21276825.119    87125044.321        -945.142          46.000  
G26  20330994.474   106840097.487         631.865          45.000    20330987.363    83252005.475         492.594          44.000  
G31  20620380.625   108360828.195         125.381          48.000    20620369.530    84436968.025          97.765          44.000  
G04  24428326.320   128371696.806        3172.704          38.000    24428321.994   100029921.990        2472.157          42.000  
C33  22519080.436   117262756.966        -757.346          48.000                                                                  
C06  36576339.063   190462598.410        -157.043          45.000    36576322.229   147277691.863        -121.663          47.000  
C14  22717622.656   118296608.189       -2302.609          45.000    22717608.138    91474387.435       -1780.381          49.000  
C16  37004855.461   192693993.281        -187.436          48.000    37004844.177   149003171.254        -144.840          47.000  
C24  21860115.450   113831362.611        -886.421          48.000                                                                  
C26  24480716.168   127477509.242       -2566.840          45.000                                                                  
G03  22891550.214   120295899.131        -185.933          40.000    22891545.631    93737057.720        -144.921          42.000  
G16  22370726.701   117559035.657        2947.979          34.000                                                                  
C09  37727610.618   196457572.627        -146.046          43.000    37727596.845   151913399.526        -113.297          46.000  
C25  23617062.679   122980252.169        1553.083          43.000                                                                  
C07  39538342.901   205886532.085        1119.878          32.000    39538332.381   159204481.035         864.832          36.000  
C08  39243950.626   204353524.298       -2466.960          36.000    39243938.708   158019083.711       -1907.401          38.000  
C10  40478043.059                         932.849          30.000    40478044.036   162988310.799         723.218          34.000  
C35  25946518.326   135110342.194         343.230          38.000                                                                  
C13  38410383.997   200012954.530       -2273.845          37.000    38410377.908   154662663.192       -1758.694          40.000  
C12  26409073.668                        2314.519          27.000    26409071.863   106338401.271        1789.455          38.000  
G25  24474264.677   128613133.047       -3917.418          31.000    24474259.308   100217989.543       -3052.051          36.000  
> 2025 10 30 06 21 57.6000000  0 23                     
G32  22079518.069   116028646.744       -2960.752          42.000    22079512.414    90411896.872       -2307.107          42.000  
G29  23084685.766   121310855.057        -650.185          42.000    23084677.176    94527908.883        -506.584          40.000  
G28  21276844.736   111810574.426       -1213.184          46.000    21276834.345    87125082.109        -944.901          46.000  
G26  20330989.643   106840072.195         632.230          45.000    20330982.550    83251985.759         492.944          44.000  
G31  20620379.667   108360823.171         125.456          47.000    20620368.576    84436964.111          97.809          43.000  
G04  24428302.167   128371569.906        3172.469          39.000    24428297.828   100029823.100        2472.151          42.000  
C33  22519086.261   117262787.247        -757.094          47.000                                                                  
C06  36576340.253   190462604.699        -157.174          45.000    36576323.435   147277696.721        -121.524          46.000  
C14  22717640.357   118296700.283       -2302.324          45.000    22717625.829    91474458.650       -1780.305          49.000  
C16  37004856.913   192694000.763        -187.247          48.000    37004845.593   149003177.043        -144.781          46.000  
C24  21860122.259   113831398.053        -886.262          48.000                                                                  
C26  24480735.863   127477611.922       -2566.921          45.000                                                                  
G03  22891551.607   120295906.563        -185.810          40.000    22891547.062    93737063.524        -145.082          42.000  
G16  22370704.247   117558917.706        2948.794          34.000                                                                  
C09  37727611.736   196457578.476        -146.228          42.000    37727597.963   151913404.064        -113.514          45.000  
C25  23617050.736   122980190.047        1552.950          43.000                                                                  
C07  39538334.301   205886487.311        1119.915          32.000    39538323.782   159204446.428         865.161          36.000  
C08  39243969.580   204353622.941       -2466.234          35.000    39243957.669   158019159.988       -1906.978          38.000  
C10  40478035.841                         933.729          29.000    40478036.856   162988281.883         723.254          34.000  
C35  25946515.676   135110328.488         342.814          37.000                                                                  
C13  38410401.438   200013045.480       -2273.664          37.000    38410395.362   154662733.535       -1758.656          40.000  
C12  26409055.888                        2313.402          32.000    26409054.090   106338329.732        1788.599          40.000  
G25  24474294.481   128613289.736       -3917.299          31.000    24474289.145   100218111.647       -3052.329          36.000  
> 2025 10 30 06 21 57.6400000  0 23                     
G32  22079540.596   116028765.191       -2961.065          42.000    22079534.933    90411989.156       -2307.085          42.000  
G29  23084690.718   121310881.068        -650.363          42.000    23084682.113    94527929.154        -506.769          40.000  
G28  21276853.947   111810622.943       -1213.153          46.000    21276843.580    87125119.908        -944.979          46.000  
G26  20330984.850   106840046.903         632.381          45.000    20330977.750    83251966.058         492.746          44.000  
G31  20620378.679   108360818.150         125.450          48.000    20620367.603    84436960.195          97.876          43.000  
G04  24428278.031   128371443.000        3172.490          39.000    24428273.668   100029724.195        2472.476          42.000  
C33  22519092.094   117262817.521        -756.832          47.000                                                                  
C06  36576341.450   190462610.997        -157.422          45.000    36576324.618   147277701.589        -121.637          46.000  
C14  22717658.027   118296792.379       -2302.250          45.000    22717643.483    91474529.865       -1780.292          49.000  
C16  37004858.381   192694008.246        -187.144          48.000    37004847.030   149003182.843        -144.952          46.000  
C24  21860129.102   113831433.500        -886.235          49.000                                                                  
C26  24480755.590   127477714.610       -2567.141          45.000                                                                  
G03  22891553.044   120295914.046        -186.781          40.000    22891548.477    93737069.346        -145.520          42.000  
G16  22370681.829   117558799.768        2948.899          36.000                                                                  
C09  37727612.885   196457584.332        -146.420          42.000    37727599.069   151913408.595        -113.457          45.000  
C25  23617038.813   122980127.930        1552.859          43.000                                                                  
C07  39538325.717   205886442.526        1119.929          32.000    39538315.158   159204411.812         865.405          36.000  
C08  39243988.527   204353721.583       -2465.862          35.000    39243976.598   158019236.260       -1906.724          40.000  
C10  40478028.693                         934.375          29.000    40478029.677   162988252.988         722.811          34.000  
C35  25946513.054   135110314.796         342.397          38.000                                                                  
C13  38410418.918   200013136.417       -2273.402          38.000    38410412.801   154662803.855       -1758.181          40.000  
C12  26409038.118                        2311.993          32.000    26409036.323   106338258.208        1787.950          40.000  
G25  24474324.277   128613446.379       -3916.313          31.000    24474318.959   100218233.743       -3052.416          36.000  
> 2025 10 30 06 21 57.6800000  0 23                     
G32  22079563.153   116028883.650       -2961.454          42.000    22079557.476    90412081.452       -2307.282          42.000  
G29  23084695.675   121310907.066        -650.173          42.000    23084687.081    94527949.425        -506.873          40.000  
G28  21276863.173   111810671.460       -1213.056          46.000    21276852.814    87125157.715        -945.180          46.000  
G26  20330980.044   106840021.619         632.259          45.000    20330972.931    83251946.367         492.408          44.000  
G31  20620377.744   108360813.135         125.333          48.000    20620366.628    84436956.282          97.808          43.000  
G04  24428253.875   128371316.086        3172.659          39.000    24428249.498   100029625.309        2472.285          42.000  
C33  22519097.870   117262847.801        -756.877          48.000                                                                  
C06  36576342.679   190462617.296        -157.570          45.000    36576325.793   147277706.448        -121.573          46.000  
C14  22717675.710   118296884.476       -2302.263          45.000    22717661.153    91474601.086       -1780.428          49.000  
C16  37004859.819   192694015.736        -187.238          48.000    37004848.481   149003188.639        -144.982          46.000  
C24  21860135.896   113831468.955        -886.359          50.000                                                                  
C26  24480775.315   127477817.296       -2567.207          45.000                                                                  
G03  22891554.465   120295921.537        -187.369          38.000    22891549.906    93737075.184        -145.952          40.000  
G16  22370659.371   117558681.830        2948.817          37.000                                                                  
C09  37727614.022   196457590.195        -146.650          41.000    37727600.169   151913413.126        -113.370          45.000  
C25  23617026.888   122980065.804        1552.990          43.000                                                                  
C07  39538317.102   205886397.739        1119.852          32.000    39538306.527   159204377.165         866.050          36.000  
C08  39244007.478   204353820.210       -2465.575          35.000    39243995.559   158019312.546       -1906.870          40.000  
C10  40478021.494                         934.585          29.000    40478022.483   162988224.051         723.339          34.000  
C35  25946510.413   135110301.113         341.993          38.000                                                                  
C13  38410436.373   200013227.355       -2273.324          39.000    38410430.257   154662874.166       -1757.701          40.000  
C12  26409020.340                        2312.284          32.000    26409018.552   106338186.659        1788.252          41.000  
G25  24474354.082                       -3916.767          31.000    24474348.793   100218355.836       -3052.322          36.000  
> 2025 10 30 06 21 57.7200000  0 23                     
G32  22079585.685   116029002.106       -2961.565          43.000    22079580.005    90412173.743       -2307.300          42.000  
G29  23084700.623   121310933.063        -650.024          42.000    23084692.013    94527969.688        -506.703          40.000  
G28  21276872.376   111810719.972       -1212.905          46.000    21276862.033    87125195.520        -945.211          46.000  
G26  20330975.223   106839996.327         632.327          45.000    20330968.151    83251926.655         492.634          43.000  
G31  20620376.762   108360808.121         125.279          49.000    20620365.692    84436952.377          97.673          43.000  
G04  24428229.752   128371189.204        3172.205          39.000    24428225.360   100029526.422        2472.192          41.000  
C33  22519103.679   117262878.077        -756.844          48.000                                                                  
C06  36576343.905   190462623.593        -157.548          45.000    36576326.985   147277711.308        -121.555          46.000  
C14  22717693.393   118296976.567       -2302.256          45.000    22717678.847    91474672.296       -1780.334          49.000  
C16  37004861.256   192694023.232        -187.406          48.000    37004849.900   149003194.427        -144.816          46.000  
C24  21860142.702   113831504.408        -886.389          50.000                                                                  
C26  24480795.022   127477919.976       -2567.108          45.000                                                                  
G03  22891555.877   120295928.996        -187.005          38.000    22891551.327    93737080.999        -145.659          40.000  
G16  22370636.922   117558563.915        2948.283          39.000                                                                  
C09  37727615.154   196457596.056        -146.656          41.000    37727601.288   151913417.657        -113.352          45.000  
C25  23617014.981   122980003.669        1553.273          43.000                                                                  
C07  39538308.517   205886353.011        1118.708          32.000    39538297.940   159204342.555         865.593          36.000  
C08  39244026.405   204353918.863       -2465.909          36.000    39244014.516   158019388.837       -1907.099          40.000  
C10  40478014.296                         935.006          29.000    40478015.280   162988195.147         722.876          34.000  
C35  25946507.802   135110287.409         342.246          38.000                                                                  
C13  38410453.822   200013318.302       -2273.486          39.000    38410447.699   154662944.489       -1757.834          40.000  
C12  26409002.549                        2313.465          32.000    26409000.765   106338115.097        1788.759          41.000  
G25  24474383.930   128613759.772       -3917.267          31.000    24474378.602   100218477.918       -3052.107          36.000  
> 2025 10 30 06 21 57.7600000  0 23                     
G32  22079608.202   116029120.554       -2961.426          44.000    22079602.563    90412266.034       -2307.333          42.000  
G29  23084705.572   121310959.074        -650.167          42.000    23084696.957    94527989.952        -506.640          40.000  
G28  21276881.596   111810768.473       -1212.631          46.000    21276871.267    87125233.326        -945.217          47.000  
G26  20330970.427   106839971.039         632.263          46.000    20330963.342    83251906.963         492.403          44.000  
G31  20620375.819   108360803.112         125.181          49.000    20620364.729    84436948.461          97.784          43.000  
G04  24428205.607   128371062.335        3171.700          39.000    24428201.203   100029427.551        2471.833          41.000  
C33  22519109.466   117262908.359        -756.960          49.000                                                                  
C06  36576345.099   190462629.892        -157.557          46.000    36576328.161   147277716.173        -121.600          47.000  
C14  22717711.057   118297068.667       -2302.429          45.000    22717696.551    91474743.515       -1780.443          49.000  
C16  37004862.697   192694030.729        -187.506          49.000    37004851.323   149003200.213        -144.703          47.000  
C24  21860149.528   113831539.863        -886.418          51.000                                                                  
C26  24480814.754   127478022.654       -2567.008          44.000                                                                  
G03  22891557.292   120295936.448        -186.568          38.000    22891552.738    93737086.810        -145.335          39.000  
G16  22370614.475   117558445.978        2948.308          39.000                                                                  
C09  37727616.260   196457601.899        -146.289          41.000    37727602.439   151913422.163        -112.845          45.000  
C25  23617003.045   122979941.520        1553.661          43.000                                                                  
C07  39538299.904   205886308.254        1118.579          32.000    39538289.360   159204307.912         865.948          36.000  
C08  39244045.355   204354017.531       -2466.456          36.000    39244033.474   158019465.120       -1907.092          41.000  
C10  40478007.097                         935.225          30.000    40478008.098   162988166.228         722.929          35.000  
C35  25946505.169   135110273.680         342.876          38.000                                                                  
C13  38410471.274   200013409.244       -2273.511          41.000    38410465.137   154663014.818       -1758.088          41.000  
C12  26408984.777                        2313.986          32.000    26408982.980   106338043.512        1789.436          42.000  
G25  24474413.773   128613916.483       -3917.670          31.000    24474408.417   100218599.985       -3051.689          36.000  
> 2025 10 30 06 21 57.8000000  0 23                     
G32  22079630.716   116029238.994       -2961.176          44.000    22079625.104    90412358.327       -2307.356          42.000  
G29  23084710.504   121310985.073        -650.035          42.000    23084701.910    94528010.207        -506.417          40.000  
G28  21276890.822   111810816.981       -1212.635          45.000    21276880.465    87125271.129        -945.147          47.000  
G26  20330965.613   106839945.757         632.070          46.000    20330958.515    83251887.266         492.361          44.000  
G31  20620374.858   108360798.101         125.181          49.000    20620363.753    84436944.546          97.845          44.000  
G04  24428181.474   128370935.431        3172.131          39.000    24428177.053   100029328.672        2471.840          41.000  
C33  22519115.234   117262938.645        -757.125          49.000                                                                  
C06  36576346.298   190462636.174        -157.255          46.000    36576329.369   147277721.038        -121.637          47.000  
C14  22717728.765   118297160.766       -2302.543          45.000    22717714.271    91474814.733       -1780.467          49.000  
C16  37004864.192   192694038.224        -187.494          49.000    37004852.759   149003206.000        -144.648          47.000  
C24  21860156.381   113831575.313        -886.357          51.000                                                                  
C26  24480834.503   127478125.337       -2567.064          44.000                                                                  
G03  22891558.685   120295943.893        -186.212          38.000    22891554.142    93737092.629        -145.422          39.000  
G16  22370592.062   117558328.068        2947.883          39.000                                                                  
C09  37727617.362   196457607.731        -145.899          41.000    37727603.561   151913426.668        -112.604          45.000  
C25  23616991.112   122979879.369        1553.856          43.000                                                                  
C08  39244064.312   204354116.193       -2466.599          36.000    39244052.426   158019541.403       -1907.118          41.000  
C10  40477999.899                         935.182          30.000    40478000.921   162988137.296         723.182          35.000  
C35  25946502.535   135110259.930         343.670          38.000                                                                  
C13  38410488.732   200013500.179       -2273.456          41.000    38410482.579   154663085.149       -1758.236          41.000  
C12  26408967.004                        2313.816          32.000    26408965.195   106337971.942        1789.470          44.000  
G25  24474443.530   128614073.156       -3917.216          31.000    24474438.256   100218722.090       -3052.220          36.000  
C07                                                                  39538280.743   159204273.295         865.641          36.000  
> 2025 10 30 06 21 57.8400000  0 23                     
G32  22079653.291   116029357.441       -2961.147          45.000    22079647.672    90412450.632       -2307.587          42.000  
G29  23084715.434   121311011.069        -649.937          42.000    23084706.846    94528030.463        -506.337          40.000  
G28  21276900.059   111810865.480       -1212.490          45.000    21276889.714    87125308.925        -945.011          47.000  
G26  20330960.809   106839920.479         631.928          46.000    20330953.710    83251867.568         492.386          45.000  
G31  20620373.887   108360793.083         125.317          49.000    20620362.795    84436940.629          97.926          44.000  
G04  24428157.308   128370808.523        3172.532          39.000    24428152.913   100029229.808        2471.597          41.000  
C33  22519121.042   117262968.933        -757.236          49.000                                                                  
C06  36576347.497   190462642.467        -157.244          46.000    36576330.584   147277725.897        -121.544          47.000  
C14  22717746.424   118297252.873       -2302.698          45.000    22717731.932    91474885.959       -1780.625          49.000  
C16  37004865.690   192694045.716        -187.400          49.000    37004854.188   149003211.786        -144.632          48.000  
C24  21860163.187   113831610.755        -886.143          51.000                                                                  
C26  24480854.235   127478228.014       -2566.965          44.000                                                                  
G03  22891560.116   120295951.360        -186.502          38.000    22891555.555    93737098.442        -145.341          40.000  
G16  22370569.633   117558210.146        2947.917          39.000                                                                  
C09  37727618.493   196457613.559        -145.634          43.000    37727604.689   151913431.182        -112.676          45.000  
C25  23616979.171   122979817.235        1553.552          44.000                                                                  
C08  39244083.250   204354214.863       -2466.772          36.000    39244071.374   158019617.707       -1907.452          41.000  
C10  40477992.738                         934.061          30.000    40477993.715   162988108.414         722.345          35.000  
C35  25946499.928   135110246.212         343.356          37.000                                                                  
C13  38410506.201   200013591.129       -2273.690          41.000    38410500.057   154663155.483       -1758.377          41.000  
C12  26408949.219                        2314.641          32.000    26408947.433   106337900.381        1789.221          44.000  
G25  24474473.352   128614229.877       -3917.834          31.000    24474468.075   100218844.171       -3052.219          36.000  
C07                                                                  39538272.165   159204238.678         865.438          36.000  
> 2025 10 30 06 21 57.8800000  0 23                     
G32  22079675.862   116029475.896       -2961.305          45.000    22079670.214    90412542.923       -2307.431          42.000  
G29  23084720.394   121311037.071        -649.994          42.000    23084711.816    94528050.729        -506.526          40.000  
G28  21276909.289   111810913.977       -1212.412          45.000    21276898.953    87125346.724        -945.001          47.000  
G26  20330955.984   106839895.208         631.755          46.000    20330948.897    83251847.872         492.375          45.000  
G31  20620372.927   108360788.065         125.403          49.000    20620361.850    84436936.716          97.851          44.000  
G04  24428133.140   128370681.606        3172.911          37.000    24428128.744   100029130.926        2471.842          41.000  
C33  22519126.873   117262999.224        -757.335          49.000                                                                  
C06  36576348.701   190462648.747        -157.052          46.000    36576331.775   147277730.760        -121.579          47.000  
C14  22717764.137   118297344.992       -2302.959          45.000    22717749.605    91474957.180       -1780.635          49.000  
C16  37004867.177   192694053.202        -187.232          49.000    37004855.595   149003217.571        -144.635          48.000  
C24  21860169.982   113831646.201        -886.120          51.000                                                                  
C26  24480873.945   127478330.710       -2567.283          44.000                                                                  
G03  22891561.556   120295958.831        -186.721          38.000    22891556.980    93737104.260        -145.425          40.000  
G16  22370547.185   117558092.223        2947.973          40.000                                                                  
C09  37727619.583   196457619.395        -145.726          43.000    37727605.798   151913435.705        -112.939          46.000  
C25  23616967.226   122979755.105        1553.318          44.000                                                                  
C08  39244102.201   204354313.539       -2467.076          36.000    39244090.326   158019694.011       -1907.612          41.000  
C10  40477985.608                         934.181          30.000    40477986.553   162988079.536         721.868          35.000  
C35  25946497.304   135110232.478         343.350          37.000                                                                  
C13  38410523.702   200013682.089       -2274.004          41.000    38410517.534   154663225.805       -1758.210          43.000  
C12  26408931.431                        2314.068          32.000    26408929.691   106337828.825        1788.987          44.000  
G25  24474503.161   128614386.528       -3916.978          31.000    24474497.912   100218966.297       -3052.947          36.000  
C07                                                                  39538263.581   159204204.055         865.536          36.000  
> 2025 10 30 06 21 57.9200000  0 23                     
G32  22079698.408   116029594.356       -2961.471          45.000    22079692.739    90412635.235       -2307.751          42.000  
G29  23084725.342   121311063.068        -649.964          41.000    23084716.759    94528070.980        -506.301          40.000  
G28  21276918.531   111810962.484       -1212.552          45.000    21276908.157    87125384.518        -944.897          47.000  
G26  20330951.186   106839869.935         631.714          46.000    20330944.086    83251828.174         492.394          45.000  
G31  20620371.964   108360783.041         125.551          49.000    20620360.890    84436932.808          97.728          44.000  
G04  24428108.993   128370554.694        3172.981          37.000    24428104.603   100029032.033        2472.169          41.000  
C33  22519132.674   117263029.520        -757.433          49.000                                                                  
C06  36576349.906   190462655.038        -157.131          46.000    36576332.977   147277735.618        -121.507          47.000  
C14  22717781.869   118297437.103       -2302.927          45.000    22717767.317    91475028.406       -1780.703          49.000  
C16  37004868.654   192694060.680        -187.015          49.000    37004857.036   149003223.359        -144.682          48.000  
C24  21860176.789   113831681.643        -886.046          51.000                                                                  
C26  24480893.694   127478433.385       -2567.045          44.000                                                                  
G03  22891562.979   120295966.301        -186.794          38.000    22891558.402    93737110.082        -145.576          40.000  
G16  22370524.735   117557974.304        2947.930          40.000                                                                  
C09  37727620.726   196457625.227        -145.742          43.000    37727606.919   151913440.219        -112.886          46.000  
C25  23616955.286   122979692.978        1553.171          44.000                                                                  
C08  39244121.178   204354412.230       -2467.407          36.000    39244109.272   158019770.303       -1907.482          41.000  
C10  40477978.433                         934.830          30.000    40477979.403   162988050.641         721.983          35.000  
C35  25946494.658   135110218.769         342.830          37.000                                                                  
C13  38410541.152   200013773.049       -2274.157          41.000    38410534.991   154663296.143       -1758.395          43.000  
C12  26408913.682                        2313.058          33.000    26408911.894   106337757.262        1788.956          45.000  
G25  24474532.972   128614543.191       -3916.602          31.000    24474527.749   100219088.423       -3053.254          36.000  
C07                                                                  39538255.013   159204169.471         864.845          36.000  
> 2025 10 30 06 21 57.9600000  0 23                     
G32  22079720.945   116029712.814       -2961.545          45.000    22079715.295    90412727.534       -2307.633          42.000  
G29  23084730.305   121311089.070        -650.039          41.000    23084721.687    94528091.220        -506.010          40.000  
G28  21276927.770   111811010.993       -1212.686          45.000    21276917.390    87125422.308        -944.774          47.000  
G26  20330946.353   106839844.661         631.760          46.000    20330939.272    83251808.480         492.325          45.000  
G31  20620370.988   108360778.013         125.692          49.000    20620359.953    84436928.890          97.870          45.000  
G04  24428084.819   128370427.774        3173.099          37.000    24428080.476   100028933.143        2472.313          41.000  
C33  22519138.507   117263059.808        -757.335          49.000                                                                  
C06  36576351.083   190462661.316        -157.031          46.000    36576334.189   147277740.480        -121.515          47.000  
C14  22717799.554   118297529.212       -2302.822          45.000    22717785.026    91475099.623       -1780.555          49.000  
C16  37004870.097   192694068.156        -186.874          49.000    37004858.474   149003229.146        -144.667          48.000  
C24  21860183.601   113831717.085        -886.031          51.000                                                                  
C26  24480913.417   127478536.054       -2566.803          44.000                                                                  
G03  22891564.388   120295973.760        -186.622          38.000    22891559.820    93737115.886        -145.298          40.000  
G16  22370502.302   117557856.389        2947.841          40.000                                                                  
C09  37727621.823   196457631.072        -145.985          43.000    37727608.023   151913444.732        -112.868          46.000  
C25  23616943.362   122979630.845        1553.209          44.000                                                                  
C08  39244140.119   204354510.877       -2466.711          36.000    39244128.210   158019846.606       -1907.594          41.000  
C10  40477971.239                         934.615          30.000    40477972.194   162988021.698         722.964          35.000  
C35  25946492.024   135110205.070         342.408          37.000                                                                  
C13  38410558.623   200013864.005       -2274.075          41.000    38410552.460   154663366.473       -1758.363          43.000  
C12  26408895.897                        2313.685          35.000    26408894.143   106337685.698        1789.037          45.000  
G25  24474562.830   128614699.889       -3916.918          31.000    24474557.561   100219210.501       -3052.471          36.000  
C07                                                                  39538246.419   159204134.872         864.801          36.000  
> 2025 10 30 06 21 58.0000000  0 23                     
G32  22079743.481   116029831.256       -2961.263          45.000    22079737.806    90412819.822       -2307.400          42.000  
G29  23084735.261   121311115.073        -650.114          41.000    23084726.633    94528111.497        -506.586          40.000  
G28  21276936.991   111811059.494       -1212.615          45.000    21276926.623    87125460.102        -944.780          47.000  
G26  20330941.546   106839819.380         631.916          46.000    20330934.470    83251788.787         492.263          45.000  
G31  20620370.016   108360772.982         125.820          49.000    20620359.000    84436924.970          97.969          45.000  
G04  24428060.674   128370300.882        3172.571          37.000    24428056.324   100028834.239        2472.609          41.000  
C33  22519144.343   117263090.092        -757.201          49.000                                                                  
C06  36576352.285   190462667.589        -156.844          46.000    36576335.393   147277745.332        -121.373          48.000  
C14  22717817.260   118297621.305       -2302.493          45.000    22717802.727    91475170.840       -1780.467          49.000  
C16  37004871.488   192694075.633        -186.849          49.000    37004859.913   149003234.929        -144.608          48.000  
C24  21860190.396   113831752.522        -885.929          51.000                                                                  
C26  24480933.137   127478638.727       -2566.750          44.000                                                                  
G03  22891565.787   120295981.208        -186.398          38.000    22891561.259    93737121.706        -145.425          41.000  
G16  22370479.864   117557738.478        2947.749          40.000                                                                  
C09  37727622.937   196457636.914        -146.071          43.000    37727609.159   151913449.249        -112.918          46.000  
C25  23616931.439   122979568.710        1553.277          44.000                                                                  
C08  39244159.069   204354609.547       -2466.654          35.000    39244147.171   158019922.897       -1907.467          41.000  
C10  40477964.074                         934.528          30.000    40477965.009   162987992.775         723.145          35.000  
C35  25946489.390   135110191.375         342.223          37.000                                                                  
C13  38410576.088   200013954.946       -2273.667          41.000    38410569.947   154663436.791       -1758.073          42.000  
C12  26408878.116                        2313.708          35.000    26408876.344   106337614.134        1789.068          45.000  
G25  24474592.650   128614856.640       -3918.144          31.000    24474587.380   100219332.589       -3052.260          37.000  
C07                                                                  39538237.813   159204100.235         865.500          36.000  
> 2025 10 30 06 21 58.0400000  0 23                     
G32  22079766.009   116029949.707       -2961.246          45.000    22079760.337    90412912.108       -2307.196          42.000  
G29  23084740.193   121311141.072        -650.025          41.000    23084731.595    94528131.772        -506.889          40.000  
G28  21276946.214   111811107.991       -1212.496          45.000    21276935.844    87125497.892        -944.737          47.000  
G26  20330936.735   106839794.101         631.959          46.000    20330929.678    83251769.085         492.413          45.000  
G31  20620369.072   108360767.953         125.788          49.000    20620358.052    84436921.055          97.900          45.000  
G04  24428036.532   128370173.955        3172.886          37.000    24428032.148   100028735.339        2472.622          41.000  
C33  22519150.162   117263120.379        -757.197          49.000                                                                  
C06  36576353.469   190462673.868        -156.865          46.000    36576336.593   147277750.185        -121.312          48.000  
C14  22717834.959   118297713.398       -2302.327          45.000    22717820.425    91475242.055       -1780.386          49.000  
C16  37004872.855   192694083.111        -186.900          49.000    37004861.354   149003240.710        -144.533          48.000  
C24  21860197.193   113831787.964        -886.006          51.000                                                                  
C26  24480952.849   127478741.405       -2566.830          44.000                                                                  
G03  22891567.223   120295988.669        -186.469          38.000    22891562.685    93737127.529        -145.531          41.000  
G16  22370457.424   117557620.553        2947.964          40.000                                                                  
C09  37727624.082   196457642.749        -145.961          43.000    37727610.276   151913453.766        -112.936          46.000  
C25  23616919.526   122979506.568        1553.468          44.000                                                                  
C08  39244178.027   204354708.214       -2466.578          35.000    39244166.132   158019999.178       -1907.178          41.000  
C10  40477956.903                         934.183          30.000    40477957.825   162987963.848         723.374          34.000  
C35  25946486.757   135110177.644         342.911          37.000                                                                  
C13  38410593.559   200014045.871       -2273.200          41.000    38410587.396   154663507.105       -1757.877          42.000  
C12  26408860.338                        2314.102          35.000    26408858.560   106337542.552        1789.450          45.000  
G25  24474622.441                       -3917.579          31.000    24474617.204   100219454.663       -3051.908          36.000  
C07                                                                  39538229.211   159204065.629         865.372          36.000  
> 2025 10 30 06 21 58.0800000  0 23                     
G32  22079788.535   116030068.142       -2960.950          45.000    22079782.882    90413004.401       -2307.253          42.000  
G29  23084745.125   121311167.075        -650.056          41.000    23084736.544    94528152.022        -506.524          40.000  
G28  21276955.432   111811156.479       -1212.287          45.000    21276945.077    87125535.684        -944.747          47.000  
G26  20330931.925   106839768.818         632.045          46.000    20330924.864    83251749.387         492.425          45.000  
G31  20620368.136   108360762.921         125.806          49.000    20620357.094    84436917.140          97.888          45.000  
G04  24428012.374   128370047.003        3173.641          37.000    24428008.004   100028636.455        2472.302          41.000  
C33  22519156.012   117263150.656        -757.034          49.000                                                                  
C06  36576354.670   190462680.142        -156.843          46.000    36576337.795   147277755.037        -121.298          48.000  
C14  22717852.627   118297805.499       -2302.389          45.000    22717838.088    91475313.268       -1780.331          49.000  
C16  37004874.278   192694090.582        -186.779          49.000    37004862.806   149003246.497        -144.647          48.000  
C24  21860204.040   113831823.398        -885.897          51.000                                                                  
C26  24480972.568   127478844.073       -2566.729          44.000                                                                  
G03  22891568.640   120295996.140        -186.728          38.000    22891564.099    93737133.339        -145.372          41.000  
G16  22370434.994   117557502.632        2948.033          40.000                                                                  
C09  37727625.201   196457648.587        -146.000          43.000    37727611.393   151913458.283        -112.961          46.000  
C25  23616907.579   122979444.417        1553.739          44.000                                                                  
C08  39244196.985   204354806.851       -2466.054          35.000    39244185.052   158020075.465       -1907.112          41.000  
C10  40477949.742                         934.901          30.000    40477950.677   162987934.963         722.677          34.000  
C35  25946484.141   135110163.920         343.114          37.000                                                                  
C13  38410611.012   200014136.808       -2273.264          41.000    38410604.842   154663577.431       -1758.026          42.000  
C12  26408842.562                        2314.341          35.000    26408840.769   106337470.976        1789.479          45.000  
G25  24474652.234                       -3916.588          31.000    24474647.020   100219576.750       -3052.002          37.000  
C07                                                                  39538220.614   159204030.989         865.781          36.000  
> 2025 10 30 06 21 58.1200000  0 23                     
G32  22079811.067   116030186.578       -2960.822          45.000    22079805.412    90413096.691       -2307.243          42.000  
G29  23084750.096   121311193.080        -650.137          41.000    23084741.483    94528172.273        -506.351          40.000  
G28  21276964.653   111811204.978       -1212.377          45.000    21276954.320    87125573.475        -944.801          47.000  
G26  20330927.096   106839743.535         632.069          46.000    20330920.061    83251729.684         492.543          45.000  
G31  20620367.209   108360757.890         125.793          49.000    20620356.136    84436913.211          98.122          45.000  
G04  24427988.225   128369920.103        3173.065          37.000    24427983.848   100028537.557        2472.335          41.000  
C33  22519161.802   117263180.942        -757.100          49.000                                                                  
C06  36576355.862   190462686.412        -156.748          46.000    36576339.033   147277759.889        -121.300          48.000  
C14  22717870.327   118297897.598       -2302.456          45.000    22717855.784    91475384.488       -1780.454          49.000  
C16  37004875.702   192694098.055        -186.810          49.000    37004864.255   149003252.267        -144.415          48.000  
C24  21860210.855   113831858.836        -885.946          51.000                                                                  
C26  24480992.278   127478946.739       -2566.691          44.000                                                                  
G03  22891570.052   120296003.598        -186.658          38.000    22891565.505    93737139.149        -145.280          41.000  
G16  22370412.545   117557384.700        2948.234          40.000                                                                  
C09  37727626.342   196457654.416        -145.803          43.000    37727612.496   151913462.798        -112.910          46.000  
C25  23616895.647   122979382.277        1553.601          44.000                                                                  
C08  39244215.952   204354905.477       -2465.647          35.000    39244203.998   158020151.757       -1907.186          41.000  
C10  40477942.555                         934.910          30.000    40477943.514   162987906.072         722.247          34.000  
C35  25946481.499   135110150.210         343.024          37.000                                                                  
C13  38410628.492   200014227.752       -2273.506          41.000    38410622.298   154663647.762       -1758.268          42.000  
C12  26408824.781   137517695.344        2314.523          35.000    26408822.988   106337399.400        1789.460          45.000  
G25  24474682.059                       -3916.327          31.000    24474676.824   100219698.825       -3051.920          37.000  
C07                                                                  39538212.001   159203996.333         866.329          36.000  
> 2025 10 30 06 21 58.1600000  0 23                     
G32  22079833.631   116030305.026       -2961.003          45.000    22079827.944    90413189.002       -2307.626          42.000  
G29  23084755.032   121311219.074        -649.950          41.000    23084746.423    94528192.526        -506.284          40.000  
G28  21276973.879   111811253.480       -1212.485          45.000    21276963.553    87125611.262        -944.727          47.000  
G26  20330922.294   106839718.259         631.949          46.000    20330915.237    83251709.984         492.517          45.000  
G31  20620366.274   108360752.867         125.626          49.000    20620355.178    84436909.294          97.966          45.000  
G04  24427964.062   128369793.184        3172.948          37.000    24427959.697   100028438.662        2472.289          41.000  
C33  22519167.613   117263211.231        -757.196          49.000                                                                  
C06  36576357.077   190462692.687        -156.833          46.000    36576340.264   147277764.742        -121.315          48.000  
C14  22717888.017   118297989.710       -2302.721          45.000    22717873.476    91475455.714       -1780.605          49.000  
C16  37004877.128   192694105.530        -186.878          49.000    37004865.658   149003258.048        -144.456          48.000  
C24  21860217.610   113831894.277        -886.019          51.000                                                                  
C26  24481011.985   127479049.405       -2566.669          44.000                                                                  
G03  22891571.459   120296011.052        -186.474          38.000    22891566.916    93737144.952        -145.118          41.000  
G16  22370390.127   117557266.781        2948.116          40.000                                                                  
C09  37727627.461   196457660.257        -145.985          43.000    37727613.615   151913467.310        -112.841          46.000  
C25  23616883.729   122979320.126        1553.706          44.000                                                                  
C08  39244234.900   204355004.166       -2466.722          35.000    39244222.941   158020228.041       -1907.161          41.000  
C10  40477935.379                         934.924          30.000    40477936.328   162987877.177         722.304          34.000  
C35  25946478.871   135110136.492         343.008          37.000                                                                  
C13  38410645.927   200014318.708       -2273.832          41.000    38410639.758   154663718.089       -1758.260          41.000  
C12  26408806.999   137517602.790        2314.028          35.000    26408805.222   106337327.827        1789.348          45.000  
G25  24474711.894                       -3916.606          31.000    24474706.653   100219820.933       -3052.428          37.000  
C07                                                                  39538203.374   159203961.761         865.043          36.000  
> 2025 10 30 06 21 58.2000000  0 23                     
G32  22079856.202   116030423.491       -2961.464          45.000    22079850.486    90413281.310       -2307.754          42.000  
G29  23084759.999   121311245.074        -649.969          41.000    23084751.367    94528212.800        -506.645          40.000  
G28  21276983.111   111811301.983       -1212.554          45.000    21276972.794    87125649.055        -944.795          47.000  
G26  20330917.503   106839692.985         631.819          47.000    20330910.430    83251690.285         492.473          45.000  
G31  20620365.303   108360747.837         125.646          49.000    20620354.212    84436905.382          97.788          45.000  
G04  24427939.910   128369666.285        3172.533          37.000    24427935.521   100028339.766        2472.326          41.000  
C33  22519173.396   117263241.524        -757.340          49.000                                                                  
C06  36576358.280   190462698.970        -157.029          46.000    36576341.470   147277769.596        -121.348          48.000  
C14  22717905.723   118298081.831       -2303.023          45.000    22717891.164    91475526.944       -1780.767          49.000  
C16  37004878.570   192694113.007        -186.962          49.000    37004867.085   149003263.829        -144.510          48.000  
C24  21860224.383   113831929.723        -886.135          51.000                                                                  
C26  24481031.710   127479152.089       -2566.957          43.000                                                                  
G03  22891572.883   120296018.523        -186.740          38.000    22891568.349    93737150.784        -145.560          41.000  
G16  22370367.697   117557148.865        2947.994          40.000                                                                  
C09  37727628.597   196457666.086        -145.824          43.000    37727614.725   151913471.818        -112.747          46.000  
C25  23616871.769   122979257.992        1553.477          44.000                                                                  
C08  39244253.864   204355102.862       -2467.408          35.000    39244241.903   158020304.317       -1907.003          41.000  
C10  40477928.223                         933.929          30.000    40477929.157   162987848.241         723.010          34.000  
C35  25946476.245   135110122.786         342.749          37.000                                                                  
C13  38410663.387   200014409.678       -2274.231          41.000    38410657.229   154663788.413       -1758.161          41.000  
C12  26408789.224   137517510.228        2313.974          35.000    26408787.441   106337256.264        1789.139          45.000  
G25  24474741.711                       -3917.625          31.000    24474736.449   100219943.028       -3052.499          37.000  
C07                                                                  39538194.760   159203927.120         865.570          36.000  
> 2025 10 30 06 21 58.2400000  0 23                     
G32  22079878.737   116030541.936       -2961.326          45.000    22079873.026    90413373.608       -2307.645          42.000  
G29  23084764.925   121311271.076        -650.026          41.000    23084756.322    94528233.055        -506.501          40.000  
G28  21276992.351   111811350.488       -1212.651          45.000    21276982.032    87125686.852        -944.899          47.000  
G26  20330912.705   106839667.714         631.740          47.000    20330905.621    83251670.588         492.423          45.000  
G31  20620364.334   108360742.812         125.603          49.000    20620353.247    84436901.467          97.807          45.000  
G04  24427915.759   128369539.378        3172.482          37.000    24427911.372   100028240.870        2472.333          41.000  
C33  22519179.247   117263271.816        -757.375          49.000                                                                  
C06  36576359.476   190462705.251        -157.090          46.000    36576342.671   147277774.450        -121.375          48.000  
C14  22717923.411   118298173.945       -2303.028          45.000    22717908.879    91475598.173       -1780.802          49.000  
C16  37004880.012   192694120.483        -186.952          49.000    37004868.525   149003269.608        -144.497          48.000  
C24  21860231.202   113831965.162        -886.058          51.000                                                                  
C26  24481051.411   127479254.765       -2566.926          43.000                                                                  
G03  22891574.302   120296025.997        -186.894          38.000    22891569.767    93737156.596        -145.417          41.000  
G16  22370345.247   117557030.944        2948.001          40.000                                                                  
C09  37727629.728   196457671.918        -145.813          43.000    37727615.846   151913476.329        -112.775          46.000  
C25  23616859.810   122979195.867        1553.157          44.000                                                                  
C08  39244272.830   204355201.514       -2466.832          35.000    39244260.845   158020380.621       -1907.393          41.000  
C10  40477921.061                         934.023          30.000    40477921.996   162987819.359         722.360          34.000  
C35  25946473.630   135110109.077         342.733          37.000                                                                  
C13  38410680.885   200014500.625       -2273.970          41.000    38410674.695   154663858.735       -1758.099          41.000  
C12  26408771.443   137517417.694        2313.427          35.000    26408769.654   106337184.687        1789.319          45.000  
G25  24474771.557                       -3917.784          31.000    24474766.266   100220065.105       -3052.180          37.000  
C07                                                                  39538186.162   159203892.529         864.982          36.000  
> 2025 10 30 06 21 58.2800000  0 23                     
G32  22079901.273   116030660.376       -2961.110          45.000    22079895.546    90413465.902       -2307.467          42.000  
G29  23084769.893   121311297.075        -650.001          41.000    23084761.274    94528253.331        -506.793          40.000  
G28  21277001.567   111811398.987       -1212.552          45.000    21276991.248    87125724.639        -944.782          47.000  
G26  20330907.887   106839642.434         631.891          47.000    20330900.830    83251650.904         492.131          45.000  
G31  20620363.372   108360737.784         125.646          49.000    20620352.270    84436897.544          97.949          45.000  
G04  24427891.602   128369412.463        3172.701          37.000    24427887.222   100028141.988        2472.104          41.000  
C33  22519185.078   117263302.104        -757.290          49.000                                                                  
C06  36576360.696   190462711.532        -157.111          46.000    36576343.880   147277779.301        -121.328          48.000  
C14  22717941.108   118298266.043       -2302.675          45.000    22717926.586    91475669.398       -1780.748          49.000  
C16  37004881.503   192694127.955        -186.872          49.000    37004869.917   149003275.388        -144.490          48.000  
C24  21860238.031   113832000.596        -885.933          51.000                                                                  
C26  24481071.151   127479357.437       -2566.873          43.000                                                                  
G03  22891575.727   120296033.458        -186.670          38.000    22891571.179    93737162.405        -145.234          41.000  
G16  22370322.822   117556913.031        2947.861          40.000                                                                  
C09  37727630.845   196457677.745        -145.719          43.000    37727616.950   151913480.829        -112.579          46.000  
C25  23616847.874   122979133.717        1553.504          44.000                                                                  
C08  39244291.764   204355300.140       -2466.056          35.000    39244279.801   158020456.918       -1907.468          41.000  
C10  40477913.911                         933.946          30.000    40477914.825   162987790.485         721.929          34.000  
C35  25946471.002   135110095.348         343.035          37.000                                                                  
C13  38410698.372   200014591.561       -2273.569          41.000    38410692.184   154663929.059       -1758.037          41.000  
C12  26408753.680   137517325.135        2313.595          35.000    26408751.902   106337113.107        1789.454          45.000  
G25  24474801.404                       -3917.202          31.000    24474796.083   100220187.196       -3052.260          37.000  
C07                                                                  39538177.570   159203857.912         865.140          36.000  
> 2025 10 30 06 21 58.3200000  0 23                     
G32  22079923.820   116030778.815       -2961.017          45.000    22079918.077    90413558.192       -2307.296          42.000  
G29  23084774.832   121311323.079        -650.075          41.000    23084766.233    94528273.597        -506.747          40.000  
G28  21277010.809   111811447.480       -1212.393          45.000    21277000.473    87125762.426        -944.725          47.000  
G26  20330903.065   106839617.154         631.958          47.000    20330896.005    83251631.210         492.202          45.000  
G31  20620362.398   108360732.753         125.726          49.000    20620351.321    84436893.629          97.881          45.000  
G04  24427867.453   128369285.554        3172.659          37.000    24427863.067   100028043.101        2472.078          41.000  
C33  22519190.906   117263332.388        -757.183          49.000                                                                  
C06  36576361.931   190462717.808        -157.003          46.000    36576345.053   147277784.154        -121.348          48.000  
C14  22717958.792   118298358.136       -2302.392          45.000    22717944.301    91475740.619       -1780.614          49.000  
C16  37004882.967   192694135.431        -186.879          49.000    37004871.318   149003281.161        -144.381          48.000  
C24  21860244.884   113832036.029        -885.846          51.000                                                                  
C26  24481090.855   127479460.094       -2566.587          43.000                                                                  
G03  22891577.169   120296040.910        -186.382          38.000    22891572.568    93737168.205        -145.024          41.000  
G16  22370300.412   117556795.106        2948.011          40.000                                                                  
C09  37727631.960   196457683.579        -145.815          43.000    37727618.057   151913485.324        -112.419          46.000  
C25  23616835.916   122979071.561        1553.812          44.000                                                                  
C08  39244310.696   204355398.787       -2465.962          35.000    39244298.740   158020533.210       -1907.416          41.000  
C10  40477906.736                         934.202          30.000    40477907.641   162987761.560         722.588          34.000  
C35  25946468.359   135110081.621         343.163          37.000                                                                  
C13  38410715.836   200014682.502       -2273.509          41.000    38410709.614   154663999.376       -1757.915          41.000  
C12  26408735.914   137517232.578        2313.713          35.000    26408734.112   106337041.530        1789.422          45.000  
G25  24474831.193   128616110.023       -3916.317          31.000    24474825.894   100220309.280       -3052.222          37.000  
C07                                                                  39538168.956   159203823.294         865.254          36.000  
