     3.04           OBSERVATION DATA    M: Mixed            RINEX VERSION / TYPE
RTKCONV 2.4.3 b34                       20251030 064027 UTC PGM / RUN BY / DATE 
format: u-blox UBX                                          COMMENT             
log: D:\GPdata\10_30\fingure_200_10_30_3.ubx                COMMENT             
                                                            MARKER NAME         
                                                            MARKER NUMBER       
                                                            MARKER TYPE         
                                                            OBSERVER / AGENCY   
                                                            REC # / TYPE / VERS 
                                                            ANT # / TYPE        
        0.0000        0.0000        0.0000                  APPROX POSITION XYZ 
        0.0000        0.0000        0.0000                  ANTENNA: DELTA H/E/N
G    8 C1C L1C D1C S1C C2L L2L D2L S2L                      SYS / # / OBS TYPES 
C    8 C2I L2I D2I S2I C7I L7I D7I S7I                      SYS / # / OBS TYPES 
  2025    10    30    06    17   22.6000000     GPS         TIME OF FIRST OBS   
  2025    10    30    06    17   41.4800000     GPS         TIME OF LAST OBS    
G L1C                                                       SYS / PHASE SHIFT   
G L2L  0.00000                                              SYS / PHASE SHIFT   
C L2I                                                       SYS / PHASE SHIFT   
C L7I                                                       SYS / PHASE SHIFT   
  0                                                         GLONASS SLOT / FRQ #
 C1C    0.000 C1P    0.000 C2C    0.000 C2P    0.000        GLONASS COD/PHS/BIS 
                                                            END OF HEADER       
> 2025 10 30 06 17 22.6000000  0 21                     
G32  21927611.241   115230373.0321      -2845.602          45.000    21927604.404    89789872.8831      -2217.311          42.000  
G29  23055251.258   121156181.3031       -476.771          41.000    23055243.502    94407378.5641       -371.289          41.000  
G28  21215048.276   111485831.2571      -1150.726          46.000    21215037.830    86872035.3841       -896.772          47.000  
G26  20368000.414   107034562.1161        781.138          46.000    20367993.397    83403535.8311        608.795          45.000  
G31  20628969.391   108405962.9181        201.269          46.000    20628958.574    84472137.7811        156.835          45.000  
G04  24594851.137   129246799.3891       3190.179          38.000    24594849.397   100711808.0851       2485.800          40.000  
C33  22483347.001   117076683.5791       -597.669          47.000                                                                  
C06  36567794.136   190418100.9981       -167.938          45.000    36567776.994   147243283.4791       -129.849          48.000  
C14  22599444.245   117681220.9531      -2174.296          48.000    22599429.591    90998531.3291      -1681.302          51.000  
C16  36994658.126   192640890.2541       -200.356          47.000    36994646.261   148962108.5691       -155.067          47.000  
C24  21815064.024   113596765.6201       -821.273          49.000                                                                  
C26  24345513.113   126773469.3941      -2555.070          44.000                                                                  
G03  22886638.003   120270095.7021         -2.888          35.000    22886631.789    93716937.2161         -2.262          31.000  
G16  22527506.174   118382847.3631       3042.625          42.000                                                                  
C09  37719621.536   196415967.8621       -157.962          43.000    37719607.185   151881227.7721       -122.087          45.000  
C25  23700564.566   123415063.1251       1607.758          44.000                                                                  
C13  38291070.578   199391648.8731      -2246.095          42.000    38291065.064   154182249.9751      -1737.129          45.000  
C08  39114162.707   203677698.1011      -2450.349          36.000    39114151.208   157496454.7191      -1894.699          42.000  
C10  40527292.163                         929.384          33.000    40527293.265   163186672.5061        718.323          40.000  
C35  25967926.066   135221825.3721        465.806          39.000                                                                  
G25  24269538.637   127537274.1151      -3908.405          36.000    24269530.622    99379669.0001      -3045.190          34.000  
> 2025 10 30 06 17 22.6400000  0 21                     
G32  21927632.879   115230486.843       -2845.447          45.000    21927626.050    89789961.564       -2217.159          42.000  
G29  23055254.890   121156200.370        -476.788          41.000    23055247.138    94407393.425        -371.488          41.000  
G28  21215057.028   111485877.287       -1150.808          45.000    21215046.588    86872071.254        -896.816          47.000  
G26  20367994.468   107034530.874         781.045          46.000    20367987.456    83403511.496         608.452          45.000  
G31  20628967.878   108405954.876         201.078          46.000    20628957.061    84472131.512         156.712          45.000  
G04  24594826.864   129246671.790        3189.948          38.000    24594825.106   100711708.643        2485.956          40.000  
C33  22483351.564   117076707.493        -597.853          47.000                                                                  
C06  36567795.425   190418107.711        -167.926          45.000    36567778.301   147243288.667        -129.775          48.000  
C14  22599460.971   117681307.925       -2174.356          48.000    22599446.282    90998598.586       -1681.458          51.000  
C16  36994659.661   192640898.284        -200.624          47.000    36994647.823   148962114.782        -155.321          47.000  
C24  21815070.323   113596798.482        -821.507          49.000                                                                  
C26  24345532.693   126773571.603       -2555.192          44.000                                                                  
G03  22886638.026   120270095.815          -2.985          35.000    22886631.785    93716937.294          -1.979          31.000  
G16  22527483.035   118382725.672        3042.361          42.000                                                                  
C09  37719622.756   196415974.190        -158.187          43.000    37719608.388   151881232.658        -122.169          45.000  
C25  23700552.227   123414998.812        1607.709          44.000                                                                  
C13  38291087.848   199391738.741       -2246.508          42.000    38291082.296   154182319.463       -1737.197          45.000  
C08  39114181.519   203677796.116       -2450.538          36.000    39114170.027   157496530.506       -1894.689          42.000  
C10  40527285.022                         929.099          33.000    40527286.098   163186643.779         718.101          40.000  
C35  25967922.488   135221806.752         465.494          39.000                                                                  
G25  24269568.391   127537430.448       -3908.243          36.000    24269560.373    99379790.848       -3045.839          34.000  
> 2025 10 30 06 17 22.6800000  0 21                     
G32  21927654.549   115230600.673       -2845.692          45.000    21927647.703    89790050.246       -2217.094          42.000  
G29  23055258.536   121156219.454        -477.089          41.000    23055250.766    94407408.294        -371.729          41.000  
G28  21215065.791   111485923.327       -1150.995          45.000    21215055.357    86872107.125        -896.814          47.000  
G26  20367988.532   107034499.646         780.767          46.000    20367981.517    83403487.161         608.299          45.000  
G31  20628966.351   108405946.838         200.931          46.000    20628955.529    84472125.248         156.577          45.000  
G04  24594802.587   129246544.205        3189.623          38.000    24594800.814   100711609.205        2485.936          40.000  
C33  22483356.113   117076731.414        -598.054          47.000                                                                  
C06  36567796.723   190418114.433        -168.068          45.000    36567779.588   147243293.868        -129.946          48.000  
C14  22599477.659   117681394.902       -2174.467          48.000    22599462.964    90998665.849       -1681.605          51.000  
C16  36994661.156   192640906.321        -200.911          47.000    36994649.401   148962120.997        -155.482          47.000  
C24  21815076.625   113596831.347        -821.668          49.000                                                                  
C26  24345552.310   126773673.824       -2555.447          44.000                                                                  
G03  22886638.059   120270095.926          -2.982          35.000    22886631.823    93716937.404          -2.502          32.000  
G16  22527459.903   118382603.985        3042.141          42.000                                                                  
C09  37719623.960   196415980.512        -158.176          43.000    37719609.600   151881237.554        -122.388          45.000  
C25  23700539.886   123414934.498        1607.745          44.000                                                                  
C13  38291105.100   199391828.615       -2246.824          43.000    38291099.556   154182388.948       -1737.172          45.000  
C08  39114200.331   203677894.152       -2450.986          36.000    39114188.861   157496606.304       -1894.869          42.000  
C10  40527277.901   211036174.014         928.748          33.000    40527278.983   163186615.023         718.552          40.000  
C35  25967918.914   135221788.126         465.474          39.000                                                                  
G25  24269598.194   127537586.811       -3908.713          36.000    24269590.135    99379912.706       -3046.288          34.000  
> 2025 10 30 06 17 22.7200000  0 21                     
G32  21927676.195   115230714.491       -2845.608          45.000    21927669.356    89790138.942       -2217.316          42.000  
G29  23055262.164   121156238.528        -476.976          41.000    23055254.402    94407423.163        -371.825          41.000  
G28  21215074.525   111485969.364       -1151.038          45.000    21215064.104    86872142.993        -896.786          47.000  
G26  20367982.597   107034468.418         780.638          46.000    20367975.557    83403462.818         608.407          45.000  
G31  20628964.820   108405938.803         200.827          46.000    20628954.003    84472118.989         156.424          45.000  
G04  24594778.306   129246416.596        3189.945          38.000    24594776.553   100711509.786        2485.561          40.000  
C33  22483360.694   117076755.339        -598.187          47.000                                                                  
C06  36567798.018   190418121.155        -168.086          45.000    36567780.900   147243299.070        -130.060          48.000  
C14  22599494.370   117681481.875       -2174.432          48.000    22599479.665    90998733.110       -1681.619          51.000  
C16  36994662.700   192640914.349        -200.864          47.000    36994650.980   148962127.203        -155.344          47.000  
C24  21815082.956   113596864.210        -821.685          49.000                                                                  
C26  24345571.932   126773776.032       -2555.372          44.000                                                                  
G03  22886638.100   120270096.035          -2.892          35.000    22886631.828    93716937.465          -1.961          32.000  
G16  22527436.758   118382482.297        3042.115          42.000                                                                  
C09  37719625.183   196415986.826        -157.983          43.000    37719610.831   151881242.446        -122.390          45.000  
C25  23700527.548   123414870.191        1607.666          44.000                                                                  
C13  38291122.384   199391918.484       -2246.857          43.000    38291116.837   154182458.438       -1737.253          45.000  
C08  39114219.171   203677992.180       -2450.937          36.000    39114207.665   157496682.109       -1895.063          42.000  
C10  40527270.787   211036136.841         929.170          33.000    40527271.815   163186586.266         718.900          40.000  
C35  25967915.347   135221769.495         465.590          39.000                                                                  
G25  24269627.953   127537743.152       -3908.593          36.000    24269619.893    99380034.547       -3046.132          34.000  
> 2025 10 30 06 17 22.7600000  0 21                     
G32  21927697.833   115230828.307       -2845.488          45.000    21927691.005    89790227.644       -2217.566          42.000  
G29  23055265.814   121156257.599        -476.855          41.000    23055258.023    94407438.012        -371.477          41.000  
G28  21215083.267   111486015.394       -1150.897          45.000    21215072.857    86872178.861        -896.744          46.000  
G26  20367976.648   107034437.180         780.778          46.000    20367969.600    83403438.483         608.359          45.000  
G31  20628963.276   108405930.757         200.994          46.000    20628952.464    84472112.723         156.530          45.000  
G04  24594754.005   129246288.984        3190.205          38.000    24594752.289   100711410.368        2485.396          40.000  
C33  22483365.284   117076779.250        -597.976          47.000                                                                  
C06  36567799.340   190418127.877        -168.096          45.000    36567782.162   147243304.272        -130.120          48.000  
C14  22599511.081   117681568.851       -2174.457          48.000    22599496.345    90998800.363       -1681.477          51.000  
C16  36994664.261   192640922.366        -200.593          47.000    36994652.521   148962133.407        -155.178          47.000  
C24  21815089.280   113596897.067        -821.549          49.000                                                                  
C26  24345591.561   126773878.237       -2555.251          44.000                                                                  
G03  22886638.102   120270096.148          -2.845          35.000    22886631.842    93716937.560          -2.208          32.000  
G16  22527413.594   118382360.593        3042.425          42.000                                                                  
C09  37719626.383   196415993.142        -157.920          43.000    37719612.028   151881247.333        -122.286          45.000  
C25  23700515.193   123414805.877        1607.776          44.000                                                                  
C13  38291139.639   199392008.341       -2246.606          43.000    38291134.089   154182527.927       -1737.290          45.000  
C08  39114238.006   203678090.171       -2450.225          36.000    39114226.505   157496757.904       -1895.000          43.000  
C10  40527263.636   211036099.648         929.778          33.000    40527264.673   163186557.525         718.716          40.000  
C35  25967911.780   135221750.875         465.459          39.000                                                                  
G25  24269657.720   127537899.530       -3909.199          36.000    24269649.611    99380156.357       -3045.564          34.000  
> 2025 10 30 06 17 22.8000000  0 21                     
G32  21927719.478   115230942.111       -2845.199          45.000    21927712.648    89790316.324       -2217.261          42.000  
G29  23055269.437   121156276.673        -476.818          41.000    23055261.644    94407452.872        -371.497          41.000  
G28  21215092.023   111486061.426       -1150.878          45.000    21215081.618    86872214.736        -896.822          46.000  
G26  20367970.696   107034405.940         780.928          46.000    20367963.635    83403414.142         608.440          45.000  
G31  20628961.756   108405922.714         201.068          46.000    20628950.932    84472106.452         156.653          45.000  
G04  24594729.715   129246161.374        3190.262          38.000    24594728.005   100711310.925        2485.813          40.000  
C33  22483369.885   117076803.159        -597.796          47.000                                                                  
C06  36567800.650   190418134.594        -168.014          44.000    36567783.428   147243309.468        -130.009          47.000  
C14  22599527.777   117681655.831       -2174.512          48.000    22599513.025    90998867.616       -1681.364          51.000  
C16  36994665.792   192640930.382        -200.449          47.000    36994654.060   148962139.604        -154.987          47.000  
C24  21815095.592   113596929.921        -821.424          49.000                                                                  
C26  24345611.205   126773980.433       -2555.015          44.000                                                                  
G03  22886638.125   120270096.267          -2.933          35.000    22886631.849    93716937.679          -2.777          32.000  
G16  22527390.413   118382238.891        3042.555          43.000                                                                  
C09  37719627.583   196415999.445        -157.688          43.000    37719613.215   151881252.223        -122.287          45.000  
C25  23700502.827   123414741.562        1607.837          44.000                                                                  
C13  38291156.876   199392098.195       -2246.407          43.000    38291151.359   154182597.413       -1737.214          45.000  
C08  39114256.806   203678188.186       -2450.267          36.000    39114245.337   157496833.689       -1894.788          44.000  
C10  40527256.492   211036062.487         929.397          33.000    40527257.594   163186528.780         718.684          40.000  
C35  25967908.198   135221732.250         465.524          39.000                                                                  
G25  24269687.469   127538055.893       -3909.298          36.000    24269679.366    99380278.217       -3046.249          34.000  
> 2025 10 30 06 17 22.8400000  0 21                     
G32  21927741.167   115231055.935       -2845.413          45.000    21927734.316    89790405.015       -2217.284          42.000  
G29  23055273.049   121156295.736        -476.604          41.000    23055265.267    94407467.721        -371.323          41.000  
G28  21215100.794   111486107.458       -1150.845          45.000    21215090.367    86872250.603        -896.742          46.000  
G26  20367964.763   107034374.704         780.933          46.000    20367957.680    83403389.800         608.489          45.000  
G31  20628960.226   108405914.665         201.173          46.000    20628949.398    84472100.184         156.671          45.000  
G04  24594705.438   129246033.797        3189.676          38.000    24594703.719   100711211.496        2485.795          40.000  
C33  22483374.498   117076827.074        -597.826          47.000                                                                  
C06  36567801.935   190418141.313        -168.009          44.000    36567784.719   147243314.660        -129.884          47.000  
C14  22599544.492   117681742.804       -2174.428          48.000    22599529.745    90998934.868       -1681.309          51.000  
C16  36994667.323   192640938.399        -200.402          47.000    36994655.588   148962145.808        -155.019          47.000  
C24  21815101.911   113596962.772        -821.304          49.000                                                                  
C26  24345630.827   126774082.637       -2555.009          44.000                                                                  
G03  22886638.166   120270096.417          -3.605          35.000    22886631.857    93716937.750          -2.122          32.000  
G16  22527367.256   118382117.190        3042.556          43.000                                                                  
C09  37719628.782   196416005.760        -157.749          43.000    37719614.445   151881257.092        -121.920          45.000  
C25  23700490.465   123414677.244        1607.916          44.000                                                                  
C13  38291174.143   199392188.048       -2246.297          43.000    38291168.608   154182666.900       -1737.208          45.000  
C08  39114275.631   203678286.205       -2450.404          36.000    39114264.157   157496909.468       -1894.545          44.000  
C10  40527249.363   211036025.338         928.887          33.000    40527250.438   163186500.035         718.703          40.000  
C35  25967904.644   135221713.606         465.953          39.000                                                                  
G25  24269717.219   127538212.250       -3909.206          36.000    24269709.118    99380400.055       -3046.211          34.000  
> 2025 10 30 06 17 22.8800000  0 21                     
G32  21927762.831   115231169.756       -2845.509          45.000    21927755.986    89790493.702       -2217.245          42.000  
G29  23055276.683   121156314.807        -476.664          41.000    23055268.910    94407482.590        -371.626          41.000  
G28  21215109.558   111486153.488       -1150.822          45.000    21215099.124    86872286.472        -896.773          46.000  
G26  20367958.826   107034343.476         780.745          46.000    20367951.744    83403365.460         608.457          45.000  
G31  20628958.708   108405906.629         200.975          46.000    20628947.879    84472093.921         156.603          45.000  
G04  24594681.183   129245906.172        3190.234          38.000    24594679.436   100711112.064        2485.792          40.000  
C33  22483379.065   117076851.001        -598.091          47.000                                                                  
C06  36567803.217   190418148.039        -168.114          44.000    36567785.984   147243319.854        -129.849          47.000  
C14  22599561.198   117681829.786       -2174.530          48.000    22599546.402    90999002.129       -1681.477          51.000  
C16  36994668.850   192640946.429        -200.646          47.000    36994657.117   148962152.020        -155.209          47.000  
C24  21815108.220   113596995.630        -821.381          49.000                                                                  
C26  24345650.456   126774184.859       -2555.370          44.000                                                                  
G03  22886638.187   120270096.505          -2.729          35.000    22886631.875    93716937.824          -1.751          32.000  
G16  22527344.107   118381995.511        3042.123          43.000                                                                  
C09  37719629.965   196416012.080        -157.915          43.000    37719615.655   151881261.975        -122.003          45.000  
C25  23700478.114   123414612.933        1607.837          44.000                                                                  
C13  38291191.393   199392277.911       -2246.455          43.000    38291185.851   154182736.383       -1737.121          45.000  
C08  39114294.472   203678384.228       -2450.511          36.000    39114282.998   157496985.253       -1894.507          45.000  
C10  40527242.231   211035988.148         929.421          34.000    40527243.327   163186471.306         718.385          40.000  
C35  25967901.049   135221694.997         465.483          39.000                                                                  
G25  24269746.967   127538368.619       -3909.290          36.000    24269738.862    99380521.881       -3045.968          34.000  
> 2025 10 30 06 17 22.9200000  0 21                     
G32  21927784.520   115231283.584       -2845.702          45.000    21927777.627    89790582.397       -2217.329          42.000  
G29  23055280.330   121156333.882        -476.797          41.000    23055272.542    94407497.460        -371.762          42.000  
G28  21215118.332   111486199.527       -1150.933          45.000    21215107.900    86872322.350        -896.953          46.000  
G26  20367952.899   107034312.247         780.678          46.000    20367945.794    83403341.130         608.283          45.000  
G31  20628957.184   108405898.599         200.747          46.000    20628946.343    84472087.658         156.535          45.000  
G04  24594656.916   129245778.575        3190.129          38.000    24594655.175   100711012.658        2485.367          40.000  
C33  22483383.664   117076874.938        -598.399          47.000                                                                  
C06  36567804.512   190418154.753        -167.980          44.000    36567787.253   147243325.048        -129.860          47.000  
C14  22599577.908   117681916.770       -2174.611          48.000    22599563.098    90999069.397       -1681.691          51.000  
C16  36994670.396   192640954.471        -200.986          47.000    36994658.640   148962158.229        -155.292          47.000  
C24  21815114.531   113597028.503        -821.702          49.000                                                                  
C26  24345670.067   126774287.080       -2555.559          44.000                                                                  
G03  22886638.224   120270096.616          -2.691          35.000    22886631.884    93716937.904          -1.798          32.000  
G16  22527320.931   118381873.833        3041.934          43.000                                                                  
C09  37719631.195   196416018.417        -158.340          43.000    37719616.886   151881266.879        -122.460          45.000  
C25  23700465.756   123414548.630        1607.617          44.000                                                                  
C13  38291208.654   199392367.774       -2246.573          43.000    38291203.094   154182805.872       -1737.228          45.000  
C08  39114313.301   203678482.255       -2450.604          36.000    39114301.823   157497061.061       -1894.947          44.000  
C10  40527235.106   211035951.010         928.731          34.000    40527236.198   163186442.568         718.409          40.000  
C35  25967897.493   135221676.366         465.655          39.000                                                                  
G25  24269776.714   127538524.950       -3908.754          36.000    24269768.615    99380643.720       -3045.962          34.000  
> 2025 10 30 06 17 22.9600000  0 21                     
G32  21927806.185   115231397.412       -2845.768          45.000    21927799.281    89790671.085       -2217.317          42.000  
G29  23055283.968   121156352.971        -477.136          41.000    23055276.192    94407512.342        -372.028          42.000  
G28  21215127.085   111486245.569       -1151.066          45.000    21215116.655    86872358.226        -896.986          46.000  
G26  20367946.993   107034281.025         780.536          46.000    20367939.854    83403316.805         608.079          45.000  
G31  20628955.643   108405890.560         200.860          46.000    20628944.814    84472081.402         156.382          45.000  
G04  24594632.646   129245650.997        3189.685          38.000    24594630.890   100710913.220        2485.698          40.000  
C33  22483388.278   117076898.866        -598.326          47.000                                                                  
C06  36567805.780   190418161.480        -168.129          44.000    36567788.565   147243330.253        -130.073          47.000  
C14  22599594.622   117682003.756       -2174.704          48.000    22599579.834    90999136.662       -1681.743          51.000  
C16  36994671.958   192640962.508        -201.040          47.000    36994660.148   148962164.440        -155.306          47.000  
C24  21815120.847   113597061.367        -821.714          49.000                                                                  
C26  24345689.690   126774389.293       -2555.468          44.000                                                                  
G03  22886638.248   120270096.725          -2.579          35.000    22886631.899    93716938.019          -2.517          32.000  
G16  22527297.755   118381752.152        3041.901          43.000                                                                  
C09  37719632.420   196416024.739        -158.262          43.000    37719618.105   151881271.773        -122.440          45.000  
C25  23700453.413   123414484.331        1607.440          44.000                                                                  
C13  38291225.907   199392457.649       -2246.815          43.000    38291220.332   154182875.375       -1737.513          45.000  
C08  39114332.128   203678580.297       -2450.879          36.000    39114320.659   157497136.863       -1895.104          44.000  
C10  40527227.971   211035913.844         928.931          34.000    40527229.011   163186413.827         718.455          40.000  
C35  25967893.892   135221657.753         465.358          39.000                                                                  
G25  24269806.453   127538681.303       -3908.879          36.000    24269798.363    99380765.571       -3046.224          34.000  
> 2025 10 30 06 17 23.0000000  0 21                     
G32  21927827.829   115231511.234       -2845.652          46.000    21927820.937    89790759.776       -2217.294          42.000  
G29  23055287.589   121156372.050        -477.094          41.000    23055279.833    94407527.198        -371.660          42.000  
G28  21215135.852   111486291.610       -1151.085          45.000    21215125.421    86872394.093        -896.799          46.000  
G26  20367941.031   107034249.797         780.575          46.000    20367933.920    83403292.465         608.256          45.000  
G31  20628954.108   108405882.521         200.903          46.000    20628943.290    84472075.133         156.567          45.000  
G04  24594608.375   129245523.408        3189.706          38.000    24594606.605   100710813.785        2485.818          40.000  
C33  22483392.893   117076922.784        -598.119          47.000                                                                  
C06  36567807.069   190418168.212        -168.268          44.000    36567789.861   147243335.451        -130.046          47.000  
C14  22599611.330   117682090.738       -2174.637          48.000    22599596.536    90999203.922       -1681.619          51.000  
C16  36994673.526   192640970.534        -200.865          47.000    36994661.687   148962170.640        -155.116          47.000  
C24  21815127.179   113597094.231        -821.663          49.000                                                                  
C26  24345709.315   126774491.490       -2555.116          44.000                                                                  
G03  22886638.264   120270096.866          -3.211          35.000    22886631.895    93716938.119          -2.580          32.000  
G16  22527274.590   118381630.465        3042.058          43.000                                                                  
C09  37719633.642   196416031.053        -158.018          43.000    37719619.311   151881276.660        -122.290          45.000  
C25  23700441.052   123414420.020        1607.581          44.000                                                                  
C13  38291243.162   199392547.518       -2246.799          43.000    38291237.589   154182944.859       -1737.287          45.000  
C08  39114350.940   203678678.327       -2450.910          35.000    39114339.475   157497212.653       -1894.920          44.000  
C10  40527220.839   211035876.657         929.472          34.000    40527221.893   163186385.091         718.372          40.000  
C35  25967890.308   135221639.122         465.594          39.000                                                                  
G25  24269836.212   127538837.661       -3909.014          36.000    24269828.103    99380887.393       -3045.768          34.000  
> 2025 10 30 06 17 23.0400000  0 21                     
G32  21927849.461   115231625.064       -2845.742          46.000    21927842.606    89790848.475       -2217.492          42.000  
G29  23055291.221   121156391.134        -477.122          41.000    23055283.455    94407542.053        -371.435          42.000  
G28  21215144.620   111486337.641       -1150.958          45.000    21215134.173    86872429.970        -896.861          46.000  
G26  20367935.066   107034218.565         780.694          46.000    20367927.970    83403268.130         608.324          45.000  
G31  20628952.577   108405874.486         200.884          46.000    20628941.774    84472068.870         156.567          45.000  
G04  24594584.069   129245395.780        3190.416          38.000    24594582.336   100710714.365        2485.618          40.000  
C33  22483397.485   117076946.705        -598.071          47.000                                                                  
C06  36567808.358   190418174.926        -168.019          44.000    36567791.169   147243340.649        -130.017          47.000  
C14  22599628.039   117682177.721       -2174.631          48.000    22599613.232    90999271.181       -1681.544          51.000  
C16  36994675.055   192640978.545        -200.432          47.000    36994663.243   148962176.852        -155.229          47.000  
C24  21815133.535   113597127.091        -821.589          49.000                                                                  
C26  24345728.980   126774593.687       -2554.919          44.000                                                                  
G03  22886638.272   120270097.003          -3.496          35.000    22886631.910    93716938.234          -2.955          32.000  
G16  22527251.431   118381508.773        3042.216          43.000                                                                  
C09  37719634.859   196416037.376        -158.025          43.000    37719620.541   151881281.542        -122.133          45.000  
C25  23700428.702   123414355.704        1607.794          44.000                                                                  
C13  38291260.443   199392637.375       -2246.543          43.000    38291254.853   154183014.341       -1737.113          45.000  
C08  39114369.761   203678776.352       -2450.694          35.000    39114358.290   157497288.439       -1894.741          45.000  
C10  40527213.677   211035839.484         929.439          34.000    40527214.754   163186356.366         718.132          38.000  
C35  25967886.712   135221620.517         465.223          39.000                                                                  
G25  24269865.997   127538994.026       -3909.211          36.000    24269857.869    99381009.195       -3045.230          34.000  
> 2025 10 30 06 17 23.0800000  0 21                     
G32  21927871.111   115231738.874       -2845.458          46.000    21927864.265    89790937.169       -2217.488          42.000  
G29  23055294.851   121156410.206        -476.946          41.000    23055287.093    94407556.905        -371.326          42.000  
G28  21215153.387   111486383.672       -1150.846          45.000    21215142.951    86872465.837        -896.755          46.000  
G26  20367929.118   107034187.331         780.806          46.000    20367922.025    83403243.789         608.430          45.000  
G31  20628951.025   108405866.438         201.118          46.000    20628940.254    84472062.604         156.604          45.000  
G04  24594559.795   129245268.187        3190.228          38.000    24594558.066   100710614.950        2485.474          40.000  
C33  22483402.102   117076970.621        -597.937          47.000                                                                  
C06  36567809.628   190418181.644        -167.979          44.000    36567792.458   147243345.841        -129.879          47.000  
C14  22599644.731   117682264.699       -2174.516          47.000    22599629.912    90999338.437       -1681.456          51.000  
C16  36994676.616   192640986.557        -200.261          47.000    36994664.786   148962183.052        -155.087          47.000  
C24  21815139.861   113597159.946        -821.434          49.000                                                                  
C26  24345748.609   126774695.895       -2555.043          44.000                                                                  
G03  22886638.288   120270097.133          -3.491          35.000    22886631.938    93716938.312          -2.286          32.000  
G16  22527228.283   118381387.085        3042.246          43.000                                                                  
C09  37719636.073   196416043.698        -158.065          42.000    37719621.728   151881286.415        -121.882          45.000  
C25  23700416.353   123414291.394        1607.745          44.000                                                                  
C13  38291277.721   199392727.228       -2246.358          43.000    38291272.101   154183083.828       -1737.171          45.000  
C08  39114388.585   203678874.361       -2450.354          35.000    39114377.106   157497364.227       -1894.701          45.000  
C10  40527206.513   211035802.304         929.623          34.000    40527207.658   163186327.613         718.568          38.000  
C35  25967883.124   135221601.899         465.303          39.000                                                                  
G25  24269895.727   127539150.382       -3909.144          36.000    24269887.637    99381131.061       -3046.147          34.000  
> 2025 10 30 06 17 23.1200000  0 21                     
G32  21927892.766   115231852.695       -2845.476          46.000    21927885.925    89791025.857       -2217.396          42.000  
G29  23055298.508   121156429.291        -477.073          41.000    23055290.746    94407571.778        -371.656          42.000  
G28  21215162.140   111486429.708       -1150.897          45.000    21215151.718    86872501.702        -896.644          46.000  
G26  20367923.189   107034156.107         780.649          46.000    20367916.101    83403219.458         608.329          45.000  
G31  20628949.505   108405858.398         201.038          46.000    20628938.729    84472056.338         156.622          45.000  
G04  24594535.538   129245140.572        3190.438          38.000    24594533.781   100710515.524        2485.550          40.000  
C33  22483406.706   117076994.548        -598.088          47.000                                                                  
C06  36567810.894   190418188.361        -167.957          44.000    36567793.743   147243351.030        -129.785          47.000  
C14  22599661.440   117682351.684       -2174.620          47.000    22599646.613    90999405.702       -1681.572          51.000  
C16  36994678.138   192640994.580        -200.411          47.000    36994666.356   148962189.258        -155.109          46.000  
C24  21815146.195   113597192.803        -821.434          49.000                                                                  
C26  24345768.213   126774798.108       -2555.272          44.000                                                                  
G03  22886638.307   120270097.252          -3.198          35.000    22886631.939    93716938.388          -1.894          32.000  
G16  22527205.120   118381265.397        3042.204          43.000                                                                  
C09  37719637.300   196416050.005        -157.793          42.000    37719622.917   151881291.297        -121.958          45.000  
C25  23700404.003   123414227.081        1607.782          44.000                                                                  
C13  38291294.977   199392817.099       -2246.647          43.000    38291289.338   154183153.319       -1737.277          45.000  
C08  39114407.407   203678972.356       -2449.953          35.000    39114395.928   157497440.023       -1894.840          45.000  
C10  40527199.345   211035765.123         929.635          36.000    40527200.508   163186298.874         718.545          38.000  
C35  25967879.556   135221583.259         465.749          39.000                                                                  
G25  24269925.489   127539306.721       -3908.772          36.000    24269917.369    99381252.885       -3045.855          34.000  
> 2025 10 30 06 17 23.1600000  0 21                     
G32  21927914.419   115231966.518       -2845.569          46.000    21927907.591    89791114.555       -2217.459          42.000  
G29  23055302.137   121156448.373        -477.149          41.000    23055294.362    94407586.652        -371.900          42.000  
G28  21215170.886   111486475.737       -1150.790          45.000    21215160.479    86872537.578        -896.791          46.000  
G26  20367917.253   107034124.881         780.600          46.000    20367910.146    83403195.122         608.354          45.000  
G31  20628947.982   108405850.363         200.951          46.000    20628937.221    84472050.079         156.499          45.000  
G04  24594511.265   129245012.976        3190.124          38.000    24594509.506   100710416.079        2485.981          40.000  
C33  22483411.278   117077018.482        -598.312          47.000                                                                  
C06  36567812.188   190418195.084        -168.029          44.000    36567795.067   147243356.233        -129.994          47.000  
C14  22599678.128   117682438.671       -2174.683          47.000    22599663.326    90999472.967       -1681.660          51.000  
C16  36994679.647   192641002.612        -200.679          47.000    36994667.893   148962195.468        -155.194          46.000  
C24  21815152.484   113597225.676        -821.716          49.000                                                                  
C26  24345787.863   126774900.329       -2555.476          44.000                                                                  
G03  22886638.325   120270097.382          -3.191          35.000    22886631.961    93716938.533          -3.109          32.000  
G16  22527181.972   118381143.720        3041.989          43.000                                                                  
C09  37719638.522   196416056.320        -157.816          42.000    37719624.103   151881296.183        -122.093          45.000  
C25  23700391.642   123414162.773        1607.703          44.000                                                                  
C13  38291312.218   199392906.976       -2246.894          43.000    38291306.590   154183222.810       -1737.308          45.000  
C08  39114426.243   203679070.374       -2450.282          35.000    39114414.807   157497515.818       -1894.890          45.000  
C10  40527192.228   211035727.986         928.754          36.000    40527193.377   163186270.136         718.500          38.000  
C35  25967875.950   135221564.645         465.487          39.000                                                                  
G25  24269955.258   127539463.099       -3909.231          36.000    24269947.117    99381374.729       -3046.011          34.000  
> 2025 10 30 06 17 23.2000000  0 21                     
G32  21927936.101   115232080.349       -2845.749          46.000    21927929.278    89791203.258       -2217.614          42.000  
G29  23055305.763   121156467.452        -477.078          41.000    23055297.999    94407601.532        -372.084          42.000  
G28  21215179.643   111486521.782       -1151.018          45.000    21215169.243    86872573.452        -896.848          46.000  
G26  20367911.327   107034093.661         780.463          46.000    20367904.219    83403170.799         608.124          45.000  
G31  20628946.472   108405842.336         200.705          46.000    20628935.715    84472043.828         156.295          45.000  
G04  24594486.998   129244885.396        3189.670          38.000    24594485.223   100710316.651        2485.916          40.000  
C33  22483415.899   117077042.418        -598.448          47.000                                                                  
C06  36567813.483   190418201.808        -168.087          44.000    36567796.367   147243361.432        -130.016          47.000  
C14  22599694.834   117682525.663       -2174.840          47.000    22599680.020    90999540.238       -1681.804          51.000  
C16  36994681.164   192641010.645        -200.835          47.000    36994669.457   148962201.683        -155.354          46.000  
C24  21815158.791   113597258.542        -821.736          49.000                                                                  
C26  24345807.518   126775002.540       -2555.427          44.000                                                                  
G03  22886638.323   120270097.498          -2.959          35.000    22886631.983    93716938.640          -2.998          32.000  
G16  22527158.809   118381022.045        3041.852          43.000                                                                  
C09  37719639.763   196416062.648        -158.131          42.000    37719625.309   151881301.082        -122.429          45.000  
C25  23700379.268   123414098.469        1607.611          44.000                                                                  
C13  38291329.461   199392996.850       -2246.941          43.000    38291323.857   154183292.311       -1737.512          45.000  
C08  39114445.088   203679168.396       -2450.435          35.000    39114433.643   157497591.624       -1895.099          45.000  
C10  40527185.081   211035690.827         928.727          36.000    40527186.215   163186241.389         718.600          38.000  
C35  25967872.365   135221546.040         465.160          39.000                                                                  
G25  24269985.013   127539619.464       -3909.246          36.000    24269976.872    99381496.577       -3046.121          34.000  
> 2025 10 30 06 17 23.2400000  0 21                     
G32  21927957.770   115232194.192       -2846.054          46.000    21927950.919    89791291.959       -2217.615          42.000  
G29  23055309.376   121156486.547        -477.336          41.000    23055301.607    94407616.413        -372.142          42.000  
G28  21215188.399   111486567.831       -1151.206          45.000    21215178.009    86872609.336        -897.059          46.000  
G26  20367905.401   107034062.438         780.490          46.000    20367898.274    83403146.467         608.226          45.000  
G31  20628944.942   108405834.312         200.570          46.000    20628934.176    84472037.565         156.420          45.000  
G04  24594462.707   129244757.791        3189.857          38.000    24594460.940   100710217.238        2485.535          40.000  
C33  22483420.480   117077066.353        -598.467          47.000                                                                  
C06  36567814.788   190418208.533        -168.195          44.000    36567797.670   147243366.636        -130.140          47.000  
C14  22599711.532   117682612.656       -2174.874          47.000    22599696.733    90999607.506       -1681.782          51.000  
C16  36994682.701   192641018.684        -201.004          47.000    36994671.003   148962207.886        -155.241          46.000  
C24  21815165.105   113597291.416        -821.883          49.000                                                                  
C26  24345827.165   126775104.757       -2555.448          44.000                                                                  
G03  22886638.351   120270097.636          -3.264          35.000    22886631.993    93716938.713          -2.214          32.000  
G16  22527135.643   118380900.366        3041.888          43.000                                                                  
C09  37719640.962   196416068.977        -158.298          42.000    37719626.511   151881305.975        -122.468          45.000  
C25  23700366.917   123414034.164        1607.568          44.000                                                                  
C13  38291346.726   199393086.723       -2246.927          43.000    38291341.094   154183361.804       -1737.429          45.000  
C08  39114463.924   203679266.409       -2450.339          35.000    39114452.459   157497667.426       -1895.129          45.000  
C10  40527177.945   211035653.686         928.443          36.000    40527179.056   163186212.671         718.096          38.000  
C35  25967868.813   135221527.431         465.115          39.000                                                                  
G25  24270014.766   127539775.832       -3909.307          36.000    24270006.616    99381618.403       -3045.795          34.000  
> 2025 10 30 06 17 23.2800000  0 21                     
G32  21927979.429   115232308.026       -2846.018          46.000    21927972.601    89791380.661       -2217.604          42.000  
G29  23055312.979   121156505.635        -477.301          41.000    23055305.239    94407631.277        -371.825          42.000  
G28  21215197.153   111486613.880       -1151.296          45.000    21215186.767    86872645.213        -897.044          46.000  
G26  20367899.489   107034031.213         780.528          46.000    20367892.328    83403122.141         608.183          45.000  
G31  20628943.385   108405826.285         200.577          46.000    20628932.660    84472031.306         156.420          45.000  
G04  24594438.404   129244630.204        3189.678          37.000    24594436.660   100710117.808        2485.571          40.000  
C33  22483425.091   117077090.281        -598.329          47.000                                                                  
C06  36567816.084   190418215.250        -168.092          44.000    36567798.947   147243371.828        -129.943          47.000  
C14  22599728.248   117682699.652       -2174.941          47.000    22599713.442    90999674.773       -1681.741          51.000  
C16  36994684.260   192641026.709        -200.823          47.000    36994672.554   148962214.091        -155.184          46.000  
C24  21815171.436   113597324.288        -821.896          49.000                                                                  
C26  24345846.793   126775206.968       -2555.360          44.000                                                                  
G03  22886638.382   120270097.764          -3.250          35.000    22886632.015    93716938.821          -2.465          32.000  
G16  22527112.456   118380778.682        3042.010          43.000                                                                  
C09  37719642.205   196416075.300        -158.248          42.000    37719627.752   151881310.860        -122.299          45.000  
C25  23700354.574   123413969.870        1607.373          44.000                                                                  
C13  38291363.979   199393176.598       -2246.945          43.000    38291358.367   154183431.298       -1737.410          45.000  
C08  39114482.753   203679364.474       -2451.119          35.000    39114471.275   157497743.220       -1894.971          45.000  
C10  40527170.819   211035616.517         928.870          36.000    40527171.926   163186183.948         717.963          38.000  
C35  25967865.252   135221508.822         465.111          39.000                                                                  
G25  24270044.499   127539932.163       -3908.641          36.000    24270036.361    99381740.240       -3045.961          34.000  
> 2025 10 30 06 17 23.3200000  0 21                     
G32  21928001.083   115232421.851       -2845.780          46.000    21927994.267    89791469.358       -2217.464          42.000  
G29  23055316.627   121156524.716        -477.161          41.000    23055308.852    94407646.141        -371.637          42.000  
G28  21215205.901   111486659.924       -1151.233          45.000    21215195.510    86872681.090        -897.028          46.000  
G26  20367893.559   107033999.985         780.627          46.000    20367886.358    83403097.805         608.327          45.000  
G31  20628941.857   108405818.248         200.769          46.000    20628931.145    84472025.043         156.519          45.000  
G04  24594414.100   129244502.600        3189.946          37.000    24594412.375   100710018.381        2485.537          40.000  
C33  22483429.697   117077114.206        -598.181          47.000                                                                  
C06  36567817.382   190418221.979        -168.218          44.000    36567800.252   147243377.031        -130.024          47.000  
C14  22599744.970   117682786.643       -2174.862          47.000    22599730.155    90999742.033       -1681.575          51.000  
C16  36994685.792   192641034.737        -200.765          47.000    36994674.106   148962220.295        -155.126          46.000  
C24  21815177.767   113597357.152        -821.713          49.000                                                                  
C26  24345866.429   126775309.167       -2555.092          44.000                                                                  
G03  22886638.373   120270097.894          -3.314          35.000    22886632.047    93716938.917          -2.260          32.000  
G16  22527089.297   118380657.003        3041.997          43.000                                                                  
C09  37719643.437   196416081.617        -158.049          42.000    37719628.963   151881315.746        -122.216          45.000  
C25  23700342.262   123413905.563        1607.556          44.000                                                                  
C13  38291381.221   199393266.466       -2246.795          43.000    38291375.629   154183500.787       -1737.298          45.000  
C08  39114501.598   203679462.459       -2450.059          35.000    39114490.102   157497819.009       -1894.842          45.000  
C10  40527163.681   211035579.346         929.207          36.000    40527164.790   163186155.211         718.218          38.000  
C35  25967861.684   135221490.198         465.421          39.000                                                                  
G25  24270074.241   127540088.518       -3908.743          36.000    24270066.126    99381862.097       -3046.322          34.000  
> 2025 10 30 06 17 23.3600000  0 21                     
G32  21928022.751   115232535.669       -2845.524          46.000    21928015.918    89791558.039       -2217.151          42.000  
G29  23055320.257   121156543.813        -477.382          41.000    23055312.490    94407661.024        -371.917          42.000  
G28  21215214.682   111486705.957       -1150.993          45.000    21215204.267    86872716.964        -896.924          46.000  
G26  20367887.619   107033968.760         780.621          46.000    20367880.413    83403073.467         608.419          45.000  
G31  20628940.332   108405810.209         200.904          46.000    20628929.626    84472018.788         156.426          45.000  
G04  24594389.809   129244375.004        3189.861          37.000    24594388.099   100709918.954        2485.568          40.000  
C33  22483434.283   117077138.136        -598.184          47.000                                                                  
C06  36567818.692   190418228.694        -168.026          44.000    36567801.543   147243382.226        -129.958          47.000  
C14  22599761.725   117682873.629       -2174.723          47.000    22599746.836    90999809.298       -1681.590          51.000  
C16  36994687.345   192641042.756        -200.566          47.000    36994675.629   148962226.496        -155.057          46.000  
C24  21815184.115   113597390.011        -821.534          49.000                                                                  
C26  24345886.023   126775411.375       -2555.115          44.000                                                                  
G03  22886638.408   120270098.051          -3.854          35.000    22886632.066    93716939.037          -2.800          32.000  
G16  22527066.131   118380535.323        3042.003          43.000                                                                  
C09  37719644.670   196416087.931        -157.911          42.000    37719630.165   151881320.637        -122.229          45.000  
C25  23700329.896   123413841.254        1607.660          44.000                                                                  
C13  38291398.509   199393356.328       -2246.590          43.000    38291392.897   154183570.279       -1737.318          45.000  
C08  39114520.386   203679560.466       -2450.017          35.000    39114508.926   157497894.799       -1894.754          45.000  
C10  40527156.536   211035542.159         929.599          36.000    40527157.666   163186126.466         718.522          38.000  
C35  25967858.102   135221471.579         465.476          39.000                                                                  
G25  24270103.997   127540244.871       -3908.744          36.000    24270095.870    99381983.924       -3045.969          34.000  
> 2025 10 30 06 17 23.4000000  0 21                     
G32  21928044.428   115232649.487       -2845.428          46.000    21928037.587    89791646.737       -2217.289          42.000  
G29  23055323.890   121156562.892        -477.134          41.000    23055316.124    94407675.898        -371.922          42.000  
G28  21215223.447   111486751.983       -1150.753          45.000    21215213.011    86872752.833        -896.816          46.000  
G26  20367881.676   107033937.529         780.714          46.000    20367874.486    83403049.138         608.300          45.000  
G31  20628938.762   108405802.165         201.057          46.000    20628928.094    84472012.521         156.568          45.000  
G04  24594365.524   129244247.393        3190.185          37.000    24594363.797   100709819.510        2485.943          39.000  
C33  22483438.933   117077162.057        -598.045          47.000                                                                  
C06  36567819.993   190418235.393        -167.609          44.000    36567802.817   147243387.415        -129.807          47.000  
C14  22599778.434   117682960.616       -2174.674          47.000    22599763.549    90999876.560       -1681.548          51.000  
C16  36994688.894   192641050.770        -200.391          47.000    36994677.165   148962232.703        -155.144          46.000  
C24  21815190.428   113597422.865        -821.356          49.000                                                                  
C26  24345905.645   126775513.579       -2555.107          44.000                                                                  
G03  22886638.409   120270098.172          -3.394          35.000    22886632.095    93716939.127          -2.457          32.000  
G16  22527042.970   118380413.638        3042.053          43.000                                                                  
C09  37719645.880   196416094.240        -157.749          42.000    37719631.388   151881325.518        -122.064          45.000  
C25  23700317.540   123413776.936        1607.880          44.000                                                                  
C13  38291415.774   199393446.189       -2246.486          43.000    38291410.157   154183639.769       -1737.287          45.000  
C08  39114539.218   203679658.494       -2450.372          35.000    39114527.769   157497970.587       -1894.664          45.000  
C10  40527149.387   211035504.994         929.388          36.000    40527150.522   163186097.713         718.783          38.000  
C35  25967854.503   135221452.967         465.483          39.000                                                                  
G25  24270133.745   127540401.247       -3909.128          36.000    24270125.614    99382105.764       -3046.029          34.000  
> 2025 10 30 06 17 23.4400000  0 21                     
G32  21928066.136   115232763.323       -2845.725          46.000    21928059.251    89791735.444       -2217.562          42.000  
G29  23055327.514   121156581.967        -476.961          41.000    23055319.759    94407690.760        -371.670          42.000  
G28  21215232.232   111486798.021       -1150.844          45.000    21215221.783    86872788.699        -896.708          46.000  
G26  20367875.736   107033906.308         780.582          46.000    20367868.577    83403024.817         608.069          45.000  
G31  20628937.249   108405794.131         200.970          46.000    20628926.535    84472006.253         156.654          45.000  
G04  24594341.254   129244119.778        3190.372          37.000    24594339.501   100709720.082        2485.830          39.000  
C33  22483443.499   117077185.986        -598.165          47.000                                                                  
C06  36567821.283   190418242.112        -167.781          44.000    36567804.090   147243392.607        -129.800          47.000  
C14  22599795.150   117683047.599       -2174.606          47.000    22599780.257    90999943.829       -1681.682          51.000  
C16  36994690.425   192641058.791        -200.461          47.000    36994678.696   148962238.897        -154.950          47.000  
C24  21815196.699   113597455.736        -821.594          49.000                                                                  
C26  24345925.266   126775615.801       -2555.425          44.000                                                                  
G03  22886638.432   120270098.284          -3.020          35.000    22886632.096    93716939.226          -2.530          32.000  
G16  22527019.825   118380291.952        3042.129          43.000                                                                  
C09  37719647.096   196416100.559        -157.861          42.000    37719632.603   151881330.396        -121.974          45.000  
C25  23700305.198   123413712.624        1607.886          44.000                                                                  
C13  38291433.009   199393536.050       -2246.457          43.000    38291427.391   154183709.251       -1737.113          45.000  
C08  39114558.050   203679756.511       -2450.284          35.000    39114546.570   157498046.379       -1894.746          45.000  
C10  40527142.247   211035467.849         928.799          36.000    40527143.363   163186068.968         718.776          38.000  
C35  25967850.941   135221434.350         465.533          39.000                                                                  
G25  24270163.474   127540557.585       -3908.659          36.000    24270155.379    99382227.564       -3045.286          34.000  
> 2025 10 30 06 17 23.4800000  0 21                     
G32  21928087.793   115232877.155       -2845.812          46.000    21928080.931    89791824.140       -2217.507          42.000  
G29  23055331.136   121156601.054        -477.109          41.000    23055323.386    94407705.637        -371.835          42.000  
G28  21215240.998   111486844.056       -1150.876          45.000    21215230.525    86872824.575        -896.820          46.000  
G26  20367869.791   107033875.084         780.513          46.000    20367862.631    83403000.494         607.984          45.000  
G31  20628935.739   108405786.100         200.797          46.000    20628925.022    84471999.995         156.499          45.000  
G04  24594316.986   129243992.164        3190.378          37.000    24594315.230   100709620.662        2485.606          39.000  
C33  22483448.093   117077209.919        -598.280          47.000                                                                  
C06  36567822.576   190418248.836        -168.009          44.000    36567805.371   147243397.804        -129.868          47.000  
C14  22599811.837   117683134.598       -2174.869          47.000    22599796.976    91000011.098       -1681.765          51.000  
C16  36994691.968   192641066.812        -200.510          47.000    36994680.218   148962245.100        -155.018          47.000  
C24  21815203.015   113597488.605        -821.730          49.000                                                                  
C26  24345944.931   126775718.011       -2555.330          44.000                                                                  
G03  22886638.466   120270098.426          -3.441          35.000    22886632.106    93716939.321          -2.383          32.000  
G16  22526996.677   118380170.279        3041.944          43.000                                                                  
C09  37719648.299   196416106.881        -157.988          42.000    37719633.816   151881335.282        -122.078          45.000  
C25  23700292.825   123413648.325        1607.599          44.000                                                                  
C13  38291450.291   199393625.918       -2246.646          43.000    38291444.643   154183778.744       -1737.239          45.000  
C08  39114576.866   203679854.516       -2450.083          35.000    39114565.393   157498122.177       -1894.900          45.000  
C10  40527135.119   211035430.694         928.730          36.000    40527136.193   163186040.246         718.292          38.000  
C35  25967847.352   135221415.743         465.317          39.000                                                                  
G25  24270193.221   127540713.956       -3909.015          36.000    24270185.136    99382349.399       -3045.491          34.000  
> 2025 10 30 06 17 23.5200000  0 21                     
G32  21928109.464   115232990.995       -2845.962          46.000    21928102.584    89791912.853       -2217.721          42.000  
G29  23055334.797   121156620.143        -477.247          41.000    23055327.003    94407720.512        -371.885          42.000  
G28  21215249.773   111486890.106       -1151.127          45.000    21215239.302    86872860.458        -897.004          46.000  
G26  20367863.835   107033843.866         780.415          46.000    20367856.684    83402976.164         608.116          45.000  
G31  20628934.239   108405778.075         200.625          46.000    20628923.482    84471993.743         156.320          45.000  
G04  24594292.726   129243864.571        3189.979          37.000    24594290.966   100709521.240        2485.484          39.000  
C33  22483452.698   117077233.866        -598.618          47.000                                                                  
C06  36567823.860   190418255.565        -168.230          44.000    36567806.646   147243403.001        -129.921          47.000  
C14  22599828.545   117683221.601       -2175.056          47.000    22599813.684    91000078.370       -1681.837          51.000  
C16  36994693.501   192641074.845        -200.761          47.000    36994681.731   148962251.315        -155.311          47.000  
C24  21815209.293   113597521.477        -821.816          49.000                                                                  
C26  24345964.557   126775820.217       -2555.228          44.000                                                                  
G03  22886638.484   120270098.577          -3.893          36.000    22886632.141    93716939.442          -2.715          32.000  
G16  22526973.531   118380048.599        3041.965          43.000                                                                  
C09  37719649.512   196416113.194        -157.839          42.000    37719635.021   151881340.174        -122.236          45.000  
C25  23700280.476   123413584.026        1607.513          44.000                                                                  
C13  38291467.556   199393715.798       -2246.950          43.000    38291461.893   154183848.240       -1737.363          45.000  
C08  39114595.688   203679952.510       -2449.871          35.000    39114584.236   157498197.983       -1895.108          45.000  
C10  40527127.989   211035393.519         929.125          36.000    40527129.062   163186011.519         718.191          38.000  
C35  25967843.765   135221397.137         465.134          39.000                                                                  
G25  24270222.985   127540870.308       -3908.906          36.000    24270214.896    99382471.263       -3046.204          34.000  
> 2025 10 30 06 17 23.5600000  0 21                     
G32  21928131.090   115233104.826       -2845.900          46.000    21928124.258    89792001.558       -2217.717          42.000  
G29  23055338.449   121156639.245        -477.495          41.000    23055330.637    94407735.397        -372.111          42.000  
G28  21215258.527   111486936.154       -1151.238          45.000    21215248.079    86872896.333        -896.978          46.000  
G26  20367857.871   107033812.653         780.279          46.000    20367850.749    83402951.832         608.235          45.000  
G31  20628932.694   108405770.044         200.632          46.000    20628921.943    84471987.492         156.229          45.000  
G04  24594268.473   129243736.979        3189.795          37.000    24594266.690   100709421.823        2485.360          39.000  
C33  22483457.313   117077257.799        -598.541          47.000                                                                  
C06  36567825.134   190418262.288        -168.220          44.000    36567807.950   147243408.203        -130.059          47.000  
C14  22599845.234   117683308.600       -2175.077          47.000    22599830.350    91000145.637       -1681.772          51.000  
C16  36994695.042   192641082.878        -200.865          47.000    36994683.271   148962257.534        -155.506          47.000  
C24  21815215.628   113597554.345        -821.799          49.000                                                                  
C26  24345984.164   126775922.429       -2555.292          44.000                                                                  
G03  22886638.509   120270098.733          -4.111          36.000    22886632.168    93716939.559          -3.025          32.000  
G16  22526950.354   118379926.916        3042.022          43.000                                                                  
C09  37719650.695   196416119.511        -157.880          42.000    37719636.227   151881345.067        -122.355          45.000  
C25  23700268.138   123413519.729        1607.397          44.000                                                                  
C13  38291484.817   199393805.670       -2246.960          43.000    38291479.146   154183917.736       -1737.456          45.000  
C08  39114614.506   203680050.562       -2450.859          35.000    39114603.055   157498273.773       -1894.925          45.000  
C10  40527120.857   211035356.353         929.120          36.000    40527121.939   163185982.780         718.313          39.000  
C35  25967840.221   135221378.520         465.275          39.000                                                                  
G25  24270252.724   127541026.669       -3908.987          36.000    24270244.627    99382593.114       -3046.470          34.000  
> 2025 10 30 06 17 23.6000000  0 21                     
G32  21928152.729   115233218.653       -2845.781          46.000    21928145.924    89792090.250       -2217.456          42.000  
G29  23055342.074   121156658.345        -477.579          42.000    23055334.262    94407750.276        -372.056          42.000  
G28  21215267.303   111486982.197       -1151.183          45.000    21215256.837    86872932.216        -897.060          46.000  
G26  20367851.917   107033781.435         780.331          46.000    20367844.804    83402927.511         608.091          45.000  
G31  20628931.160   108405762.013         200.676          46.000    20628920.402    84471981.230         156.402          45.000  
G04  24594244.175   129243609.368        3190.050          37.000    24594242.416   100709322.385        2485.694          39.000  
C33  22483461.927   117077281.735        -598.486          47.000                                                                  
C06  36567826.419   190418269.013        -168.271          44.000    36567809.239   147243413.400        -130.028          47.000  
C14  22599861.960   117683395.591       -2174.916          47.000    22599847.055    91000212.909       -1681.816          51.000  
C16  36994696.628   192641090.900        -200.705          47.000    36994684.855   148962263.739        -155.315          47.000  
C24  21815221.924   113597587.219        -821.860          49.000                                                                  
C26  24346003.792   126776024.638       -2555.266          44.000                                                                  
G03  22886638.526   120270098.854          -3.488          36.000    22886632.218    93716939.660          -2.846          32.000  
G16  22526927.185   118379805.238        3041.938          43.000                                                                  
C09  37719651.897   196416125.842        -158.172          42.000    37719637.473   151881349.946        -122.110          45.000  
C25  23700255.790   123413455.424        1607.495          44.000                                                                  
C13  38291502.093   199393895.539       -2246.859          43.000    38291496.409   154183987.231       -1737.460          45.000  
C08  39114633.331   203680148.585       -2450.863          35.000    39114621.854   157498349.563       -1894.820          45.000  
C10  40527113.735   211035319.191         929.082          36.000    40527114.787   163185954.025         718.707          39.000  
C35  25967836.651   135221359.899         465.419          39.000                                                                  
G25  24270282.480   127541183.011       -3908.706          36.000    24270274.377    99382714.955       -3046.365          34.000  
> 2025 10 30 06 17 23.6400000  0 21                     
G32  21928174.393   115233332.490       -2845.901          46.000    21928167.606    89792178.963       -2217.691          42.000  
G29  23055345.712   121156677.443        -477.577          42.000    23055337.883    94407765.144        -371.829          42.000  
G28  21215276.057   111487028.245       -1151.229          45.000    21215265.621    86872968.093        -896.994          46.000  
G26  20367845.979   107033750.225         780.220          46.000    20367838.869    83402903.192         607.973          45.000  
G31  20628929.633   108405753.983         200.701          46.000    20628918.886    84471974.973         156.433          45.000  
G04  24594219.914   129243481.799        3189.412          37.000    24594218.133   100709222.947        2485.960          39.000  
C33  22483466.553   117077305.672        -598.484          47.000                                                                  
C06  36567827.709   190418275.722        -167.970          44.000    36567810.539   147243418.600        -130.039          47.000  
C14  22599878.650   117683482.587       -2174.930          47.000    22599863.776    91000280.182       -1681.860          51.000  
C16  36994698.185   192641098.921        -200.603          47.000    36994686.399   148962269.943        -155.157          47.000  
C24  21815228.237   113597620.089        -821.827          49.000                                                                  
C26  24346023.441   126776126.847       -2555.253          44.000                                                                  
G03  22886638.570   120270098.994          -3.471          36.000    22886632.266    93716939.776          -2.943          32.000  
G16  22526904.043   118379683.566        3041.812          43.000                                                                  
C09  37719653.119   196416132.167        -158.160          42.000    37719638.684   151881354.833        -122.138          45.000  
C25  23700243.458   123413391.125        1607.458          44.000                                                                  
C13  38291519.352   199393985.403       -2246.703          43.000    38291513.688   154184056.723       -1737.373          45.000  
C08  39114652.172   203680246.599       -2450.598          35.000    39114640.683   157498425.366       -1895.006          44.000  
C10  40527106.613   211035282.048         928.681          36.000    40527107.689   163185925.294         718.454          39.000  
C35  25967833.071   135221341.289         465.415          38.000                                                                  
G25  24270312.231   127541339.386       -3909.112          36.000    24270304.117    99382836.802       -3046.268          34.000  
> 2025 10 30 06 17 23.6800000  0 21                     
G32  21928196.081   115233446.327       -2845.950          46.000    21928189.276    89792267.653       -2217.403          42.000  
G29  23055349.327   121156696.524        -477.242          42.000    23055341.505    94407780.024        -371.931          42.000  
G28  21215284.805   111487074.281       -1151.059          45.000    21215274.395    86873003.976        -897.047          46.000  
G26  20367840.026   107033719.009         780.290          46.000    20367832.928    83402878.867         608.011          45.000  
G31  20628928.087   108405745.951         200.738          46.000    20628917.359    84471968.710         156.525          45.000  
G04  24594195.638   129243354.208        3189.508          37.000    24594193.863   100709123.518        2485.916          39.000  
C33  22483471.130   117077329.616        -598.573          47.000                                                                  
C06  36567828.997   190418282.439        -167.899          44.000    36567811.855   147243423.795        -129.971          47.000  
C14  22599895.353   117683569.591       -2175.075          47.000    22599880.479    91000347.456       -1681.877          51.000  
C16  36994699.729   192641106.947        -200.624          47.000    36994687.940   148962276.142        -155.000          47.000  
C24  21815234.548   113597652.957        -821.741          49.000                                                                  
C26  24346043.056   126776229.064       -2555.397          44.000                                                                  
G03  22886638.583   120270099.127          -3.346          36.000    22886632.296    93716939.903          -3.135          32.000  
G16  22526880.868   118379561.893        3041.758          43.000                                                                  
C09  37719654.311   196416138.478        -157.924          42.000    37719639.900   151881359.720        -122.190          45.000  
C25  23700231.110   123413326.828        1607.404          44.000                                                                  
C13  38291536.595   199394075.274       -2246.786          43.000    38291530.942   154184126.217       -1737.360          45.000  
C08  39114670.987   203680344.625       -2450.592          35.000    39114659.499   157498501.169       -1895.124          44.000  
C10  40527099.450   211035244.872         929.047          36.000    40527100.580   163185896.563         718.348          39.000  
C35  25967829.486   135221322.693         465.055          38.000                                                                  
G25  24270342.000   127541495.765       -3909.479          36.000    24270333.850    99382958.620       -3045.731          34.000  
> 2025 10 30 06 17 23.7200000  0 21                     
G32  21928217.741   115233560.162       -2845.948          46.000    21928210.949    89792356.367       -2217.693          42.000  
G29  23055352.976   121156715.618        -477.294          42.000    23055345.149    94407794.906        -372.038          42.000  
G28  21215293.544   111487120.322       -1150.993          45.000    21215283.166    86873039.846        -896.867          46.000  
G26  20367834.080   107033687.793         780.346          46.000    20367826.980    83402854.543         608.036          45.000  
G31  20628926.574   108405737.922         200.719          46.000    20628915.833    84471962.449         156.519          45.000  
G04  24594171.324   129243226.598        3189.975          37.000    24594169.565   100709024.093        2485.746          39.000  
C33  22483475.720   117077353.555        -598.531          47.000                                                                  
C06  36567830.297   190418289.161        -167.954          44.000    36567813.185   147243428.989        -129.900          47.000  
C14  22599912.071   117683656.587       -2174.978          47.000    22599897.186    91000414.725       -1681.801          51.000  
C16  36994701.248   192641114.969        -200.578          47.000    36994689.454   148962282.343        -154.959          47.000  
C24  21815240.884   113597685.825        -821.716          49.000                                                                  
C26  24346062.672   126776331.278       -2555.398          44.000                                                                  
G03  22886638.608   120270099.262          -3.323          36.000    22886632.345    93716940.019          -2.934          32.000  
G16  22526857.714   118379440.216        3041.837          43.000                                                                  
C09  37719655.540   196416144.800        -157.990          42.000    37719641.121   151881364.600        -122.082          45.000  
C25  23700218.756   123413262.522        1607.587          44.000                                                                  
C13  38291553.827   199394165.144       -2246.779          43.000    38291548.171   154184195.707       -1737.292          45.000  
C08  39114689.813   203680442.646       -2450.549          35.000    39114678.291   157498576.965       -1895.073          44.000  
C10  40527092.313   211035207.698         929.241          36.000    40527093.481   163185867.838         718.113          39.000  
C35  25967825.913   135221304.083         465.146          38.000                                                                  
G25  24270371.739   127541652.125       -3909.268          36.000    24270363.596    99383080.465       -3045.883          34.000  
> 2025 10 30 06 17 23.7600000  0 21                     
G32  21928239.426   115233674.004       -2846.063          46.000    21928232.595    89792445.059       -2217.498          42.000  
G29  23055356.624   121156734.724        -477.546          42.000    23055348.776    94407809.784        -371.967          42.000  
G28  21215302.310   111487166.362       -1150.977          45.000    21215291.908    86873075.718        -896.815          46.000  
G26  20367828.143   107033656.578         780.358          46.000    20367821.033    83402830.214         608.148          45.000  
G31  20628925.047   108405729.896         200.671          46.000    20628914.297    84471956.200         156.284          45.000  
G04  24594147.015   129243098.981        3190.373          37.000    24594145.273   100708924.672        2485.596          39.000  
C33  22483480.333   117077377.493        -598.487          47.000                                                                  
C06  36567831.571   190418295.883        -168.000          44.000    36567814.509   147243434.183        -129.897          47.000  
C14  22599928.793   117683743.584       -2174.958          47.000    22599913.890    91000481.999       -1681.845          51.000  
C16  36994702.782   192641122.993        -200.593          47.000    36994690.967   148962288.550        -155.081          47.000  
C24  21815247.161   113597718.698        -821.809          49.000                                                                  
C26  24346082.286   126776433.489       -2555.344          44.000                                                                  
G03  22886638.662   120270099.421          -3.758          36.000    22886632.356    93716940.091          -2.185          32.000  
G16  22526834.563   118379318.541        3041.851          43.000                                                                  
C09  37719656.752   196416151.119        -157.985          42.000    37719642.350   151881369.489        -122.191          45.000  
C25  23700206.407   123413198.214        1607.678          44.000                                                                  
C13  38291571.085   199394255.013       -2246.772          43.000    38291565.418   154184265.198       -1737.261          45.000  
C08  39114708.612   203680540.648       -2450.222          35.000    39114697.111   157498652.753       -1894.884          44.000  
C10  40527085.171   211035170.520         929.415          36.000    40527086.368   163185839.102         718.225          39.000  
C35  25967822.330   135221285.487         465.004          38.000                                                                  
G25  24270401.490   127541808.449       -3908.518          36.000    24270393.317    99383202.268       -3045.409          33.000  
> 2025 10 30 06 17 23.8000000  0 21                     
G32  21928261.076   115233787.841       -2846.016          46.000    21928254.287    89792533.769       -2217.694          42.000  
G29  23055360.271   121156753.828        -477.638          42.000    23055352.418    94407824.675        -372.199          42.000  
G28  21215311.060   111487212.401       -1150.947          45.000    21215300.671    86873111.607        -897.118          46.000  
G26  20367822.208   107033625.367         780.296          46.000    20367815.103    83402805.888         608.142          45.000  
G31  20628923.528   108405721.867         200.701          46.000    20628912.806    84471949.945         156.316          45.000  
G04  24594122.709   129242971.373        3190.372          37.000    24594120.981   100708825.247        2485.595          39.000  
C33  22483484.931   117077401.441        -598.661          47.000                                                                  
C06  36567832.870   190418302.606        -168.063          44.000    36567815.802   147243439.378        -129.906          47.000  
C14  22599945.497   117683830.583       -2174.984          47.000    22599930.575    91000549.273       -1681.858          51.000  
C16  36994704.298   192641131.022        -200.691          47.000    36994692.527   148962294.760        -155.216          47.000  
C24  21815253.477   113597751.569        -821.807          49.000                                                                  
C26  24346101.935   126776535.700       -2555.333          44.000                                                                  
G03  22886638.676   120270099.555          -3.534          36.000    22886632.395    93716940.245          -3.246          32.000  
G16  22526811.413   118379196.865        3041.876          43.000                                                                  
C09  37719657.968   196416157.439        -158.011          42.000    37719643.564   151881374.375        -122.223          45.000  
C25  23700194.036   123413133.916        1607.471          44.000                                                                  
C13  38291588.348   199394344.881       -2246.716          43.000    38291582.680   154184334.690       -1737.294          45.000  
C08  39114727.399   203680638.686       -2450.744          35.000    39114715.941   157498728.544       -1894.822          44.000  
C10  40527078.054   211035133.382         928.753          36.000    40527079.209   163185810.358         718.422          39.000  
C35  25967818.770   135221266.875         465.246          38.000                                                                  
G25  24270431.214   127541964.790       -3908.434          36.000    24270423.098    99383324.133       -3046.121          33.000  
> 2025 10 30 06 17 23.8400000  0 21                     
G32  21928282.728   115233901.677       -2845.949          46.000    21928275.962    89792622.477       -2217.735          42.000  
G29  23055363.921   121156772.934        -477.685          42.000    23055356.062    94407839.565        -372.253          42.000  
G28  21215319.849   111487258.463       -1151.361          45.000    21215309.421    86873147.487        -897.104          46.000  
G26  20367816.286   107033594.165         780.072          46.000    20367809.164    83402781.573         607.942          45.000  
G31  20628922.011   108405713.839         200.689          46.000    20628911.282    84471943.697         156.212          45.000  
G04  24594098.429   129242843.792        3189.911          37.000    24594096.706   100708725.826        2485.468          39.000  
C33  22483489.495   117077425.389        -598.768          47.000                                                                  
C06  36567834.170   190418309.335        -168.219          44.000    36567817.129   147243444.578        -129.998          47.000  
C14  22599962.167   117683917.590       -2175.149          47.000    22599947.283    91000616.554       -1682.016          51.000  
C16  36994705.839   192641139.052        -200.754          47.000    36994694.067   148962300.978        -155.420          47.000  
C24  21815259.789   113597784.448        -821.978          49.000                                                                  
C26  24346121.574   126776637.910       -2555.294          44.000                                                                  
G03  22886638.686   120270099.725          -4.095          36.000    22886632.404                          -2.966          32.000  
G16  22526788.268   118379075.200        3041.692          43.000                                                                  
C09  37719659.190   196416163.763        -158.119          42.000    37719644.753   151881379.266        -122.310          45.000  
C25  23700181.711   123413069.614        1607.483          44.000                                                                  
C13  38291605.596   199394434.757       -2246.847          43.000    38291599.954   154184404.188       -1737.424          45.000  
C08  39114746.198   203680736.718       -2450.971          35.000    39114734.772   157498804.342       -1894.903          44.000  
C10  40527070.926   211035096.206         929.074          36.000    40527072.091   163185781.612         718.605          39.000  
C35  25967815.202   135221248.262         465.382          38.000                                                                  
G25  24270460.975   127542121.172       -3909.190          36.000    24270452.846    99383445.987       -3046.477          33.000  
> 2025 10 30 06 17 23.8800000  0 21                     
G32  21928304.407   115234015.520       -2846.038          46.000    21928297.605    89792711.193       -2217.900          42.000  
G29  23055367.536   121156792.024        -477.414          42.000    23055359.689    94407854.446        -372.100          42.000  
G28  21215328.610   111487304.517       -1151.401          45.000    21215318.187    86873183.365        -897.018          46.000  
G26  20367810.338   107033562.959         780.043          46.000    20367803.228    83402757.263         607.770          45.000  
G31  20628920.471   108405705.820         200.492          46.000    20628909.751    84471937.443         156.261          45.000  
G04  24594074.164   129242716.211        3189.546          37.000    24594072.444   100708626.407        2485.430          39.000  
C33  22483494.081   117077449.343        -598.885          47.000                                                                  
C06  36567835.476   190418316.057        -168.187          44.000    36567818.415   147243449.785        -130.145          47.000  
C14  22599978.852   117684004.600       -2175.279          47.000    22599963.986    91000683.833       -1682.045          51.000  
C16  36994707.420   192641147.084        -200.815          47.000    36994695.595   148962307.187        -155.356          47.000  
C24  21815266.109   113597817.321        -821.919          49.000                                                                  
C26  24346141.188   126776740.138       -2555.591          44.000                                                                  
G03  22886638.689   120270099.882          -4.198          36.000    22886632.463                          -3.011          32.000  
G16  22526765.115   118378953.528        3041.758          43.000                                                                  
C09  37719660.394   196416170.095        -158.301          42.000    37719645.989   151881384.154        -122.282          45.000  
C25  23700169.361   123413005.315        1607.416          44.000                                                                  
C13  38291622.847   199394524.639       -2247.052          43.000    38291617.211   154184473.683       -1737.448          45.000  
C08  39114765.024   203680834.761       -2451.208          35.000    39114753.594   157498880.141       -1895.006          44.000  
C10  40527063.793   211035059.060         928.632          36.000    40527064.944   163185752.883         718.373          39.000  
C35  25967811.632   135221229.675         464.907          38.000                                                                  
G25  24270490.758   127542277.549       -3909.543          36.000    24270482.590    99383567.794       -3045.712          33.000  
> 2025 10 30 06 17 23.9200000  0 21                     
G32  21928326.064   115234129.367       -2846.155          46.000    21928319.263    89792799.886       -2217.586          42.000  
G29  23055371.183   121156811.138        -477.743          42.000    23055363.324    94407869.335        -372.202          42.000  
G28  21215337.363   111487350.561       -1151.284          45.000    21215326.943    86873219.247        -897.053          46.000  
G26  20367804.387   107033531.750         780.119          46.000    20367797.282    83402732.944         607.840          45.000  
G31  20628918.936   108405697.798         200.443          46.000    20628908.206    84471931.188         156.311          45.000  
G04  24594049.884   129242588.618        3189.576          37.000    24594048.178   100708526.997        2485.245          39.000  
C33  22483498.715   117077473.291        -598.816          47.000                                                                  
C06  36567836.763   190418322.778        -168.099          44.000    36567819.705   147243454.981        -130.034          47.000  
C14  22599995.542   117684091.601       -2175.162          47.000    22599980.696    91000751.110       -1682.017          51.000  
C16  36994708.971   192641155.114        -200.826          47.000    36994697.148   148962313.396        -155.309          47.000  
C24  21815272.430   113597850.195        -821.891          49.000                                                                  
C26  24346160.835   126776842.350       -2555.479          44.000                                                                  
G03  22886638.721   120270100.030          -3.965          36.000    22886632.508                          -2.474          32.000  
G16  22526741.960   118378831.856        3041.758          43.000                                                                  
C09  37719661.605   196416176.421        -158.304          42.000    37719647.214   151881389.048        -122.351          45.000  
C25  23700157.020   123412941.019        1607.324          44.000                                                                  
C13  38291640.097   199394614.510       -2246.926          43.000    38291634.477   154184543.178       -1737.467          45.000  
C08  39114783.816   203680932.760       -2450.411          35.000    39114772.427   157498955.943       -1895.065          44.000  
C10  40527056.667   211035021.871         929.294          36.000    40527057.812   163185724.149         718.330          39.000  
C35  25967808.055   135221211.081         464.785          38.000                                                                  
G25  24270520.524   127542433.906       -3909.287          36.000    24270512.334    99383689.653       -3046.150          33.000  
> 2025 10 30 06 17 23.9600000  0 21                     
G32  21928347.737   115234243.219       -2846.333          46.000    21928340.928    89792888.601       -2217.747          42.000  
G29  23055374.815   121156830.247        -477.809          42.000    23055366.976    94407884.221        -372.188          42.000  
G28  21215346.123   111487396.607       -1151.239          45.000    21215335.698    86873255.136        -897.206          46.000  
G26  20367798.465   107033500.546         780.082          46.000    20367791.333    83402708.635         607.691          45.000  
G31  20628917.414   108405689.781         200.357          46.000    20628906.689    84471924.941         156.181          45.000  
G04  24594025.589   129242460.987        3190.422          37.000    24594023.889   100708427.566        2485.509          39.000  
C33  22483503.341   117077497.247        -598.917          47.000                                                                  
C06  36567838.063   190418329.499        -168.053          44.000    36567820.960   147243460.183        -130.060          47.000  
C14  22600012.281   117684178.606       -2175.155          47.000    22599997.398    91000818.390       -1682.049          51.000  
C16  36994710.537   192641163.140        -200.748          47.000    36994698.693   148962319.596        -155.128          47.000  
C24  21815278.723   113597883.076        -822.002          49.000                                                                  
C26  24346180.474   126776944.577       -2555.641          44.000                                                                  
G03  22886638.743   120270100.185          -3.926          36.000    22886632.520    93716940.668          -2.388          32.000  
G16  22526718.813   118378710.183        3041.783          43.000                                                                  
C09  37719662.811   196416182.733        -158.004          42.000    37719648.423   151881393.932        -122.197          45.000  
C25  23700144.665   123412876.727        1607.269          44.000                                                                  
C13  38291657.362   199394704.382       -2246.850          43.000    38291651.721   154184612.675       -1737.510          45.000  
C08  39114802.630   203681030.784       -2450.416          35.000    39114791.252   157499031.759       -1895.347          44.000  
C10  40527049.524   211034984.722         928.949          36.000    40527050.677   163185695.426         718.051          39.000  
C35  25967804.505   135221192.492         464.754          38.000                                                                  
G25  24270550.289   127542590.267       -3909.167          36.000    24270542.077    99383811.500       -3046.218          33.000  
> 2025 10 30 06 17 24.0000000  0 21                     
G32  21928369.398   115234357.062       -2846.201          46.000    21928362.589    89792977.327       -2218.050          42.000  
G29  23055378.436   121156849.363        -477.939          42.000    23055370.623    94407899.110        -372.232          42.000  
G28  21215354.867   111487442.666       -1151.439          45.000    21215344.445    86873291.021        -897.227          46.000  
G26  20367792.546   107033469.348         779.945          46.000    20367785.404    83402684.325         607.648          45.000  
G31  20628915.873   108405681.758         200.438          46.000    20628905.177    84471918.692         156.175          45.000  
G04  24594001.303   129242333.421        3189.725          37.000    24593999.609   100708328.132        2485.702          39.000  
C33  22483507.923   117077521.202        -598.940          47.000                                                                  
C06  36567839.351   190418336.234        -168.300          44.000    36567822.220   147243465.390        -130.157          47.000  
C14  22600028.983   117684265.623       -2175.364          47.000    22600014.102    91000885.675       -1682.149          51.000  
C16  36994712.072   192641171.174        -200.831          47.000    36994700.240   148962325.799        -155.093          47.000  
C24  21815285.010   113597915.960        -822.117          49.000                                                                  
C26  24346200.091   126777046.795       -2555.569          44.000                                                                  
G03  22886638.788   120270100.329          -3.753          36.000    22886632.551    93716940.814          -3.214          32.000  
G16  22526695.642   118378588.527        3041.511          43.000                                                                  
C09  37719664.045   196416189.059        -158.082          42.000    37719649.638   151881398.828        -122.332          45.000  
C25  23700132.320   123412812.441        1607.159          44.000                                                                  
C13  38291674.602   199394794.260       -2246.913          43.000    38291668.961   154184682.175       -1737.559          45.000  
C08  39114821.460   203681128.811       -2450.645          35.000    39114810.092   157499107.561       -1895.233          44.000  
C10  40527042.403   211034947.578         928.718          36.000    40527043.517   163185666.700         718.038          39.000  
C35  25967800.936   135221173.891         464.893          38.000                                                                  
G25  24270580.057   127542746.642       -3909.273          36.000    24270571.819    99383933.335       -3046.096          33.000  
> 2025 10 30 06 17 24.0400000  0 21                     
G32  21928391.059   115234470.918       -2846.363          46.000    21928384.245    89793066.037       -2217.907          42.000  
G29  23055382.066   121156868.471        -477.848          42.000    23055374.268    94407914.021        -372.659          42.000  
G28  21215363.651   111487488.722       -1151.486          45.000    21215353.226    86873326.913        -897.301          46.000  
G26  20367786.622   107033438.154         779.803          46.000    20367779.469    83402660.017         607.626          45.000  
G31  20628914.349   108405673.742         200.389          46.000    20628903.642    84471912.451         156.003          45.000  
G04  24593977.023   129242205.826        3189.768          37.000    24593975.342   100708228.719        2485.399          39.000  
C33  22483512.534   117077545.158        -598.931          47.000                                                                  
C06  36567840.638   190418342.972        -168.464          44.000    36567823.511   147243470.592        -130.142          47.000  
C14  22600045.666   117684352.643       -2175.532          47.000    22600030.787    91000952.960       -1682.185          51.000  
C16  36994713.614   192641179.212        -200.945          47.000    36994701.789   148962332.022        -155.433          47.000  
C24  21815291.318   113597948.845        -822.197          49.000                                                                  
C26  24346219.729   126777149.008       -2555.450          44.000                                                                  
G03  22886638.820   120270100.492          -3.927          36.000    22886632.586    93716940.955          -3.567          32.000  
G16  22526672.490   118378466.872        3041.337          43.000                                                                  
C09  37719665.255   196416195.393        -158.298          42.000    37719650.878   151881403.729        -122.515          45.000  
C25  23700119.983   123412748.148        1607.208          44.000                                                                  
C13  38291691.876   199394884.139       -2246.949          43.000    38291686.220   154184751.683       -1737.720          45.000  
C08  39114840.290   203681226.848       -2450.900          35.000    39114828.884   157499183.352       -1894.952          44.000  
C10  40527035.269   211034910.412         928.970          36.000    40527036.397   163185637.978         718.010          39.000  
C35  25967797.361   135221155.286         465.087          38.000                                                                  
G25  24270609.792   127542903.002       -3909.064          36.000    24270601.567    99384055.223       -3046.971          33.000  
> 2025 10 30 06 17 24.0800000  0 21                     
G32  21928412.740   115234584.777       -2846.515          46.000    21928405.888    89793154.757       -2217.995          42.000  
G29  23055385.716   121156887.596        -478.112          42.000    23055377.904    94407928.919        -372.654          42.000  
G28  21215372.406   111487534.798       -1151.831          45.000    21215361.990    86873362.804        -897.345          46.000  
G26  20367780.681   107033406.966         779.662          46.000    20367773.541    83402635.719         607.440          45.000  
G31  20628912.834   108405665.735         200.198          46.000    20628902.127    84471906.213         155.893          45.000  
G04  24593952.738   129242078.266        3189.155          37.000    24593951.065   100708129.318        2485.032          39.000  
C33  22483517.099   117077569.124        -599.135          47.000                                                                  
C06  36567841.923   190418349.712        -168.540          44.000    36567824.808   147243475.806        -130.347          47.000  
C14  22600062.390   117684439.660       -2175.541          47.000    22600047.494    91001020.253       -1682.316          51.000  
C16  36994715.150   192641187.256        -201.124          47.000    36994703.341   148962338.245        -155.620          47.000  
C24  21815297.610   113597981.738        -822.369          49.000                                                                  
C26  24346239.345   126777251.237       -2555.649          44.000                                                                  
G03  22886638.848   120270100.673          -4.391          36.000    22886632.619    93716941.147          -4.698          32.000  
G16  22526649.335   118378345.216        3041.285          43.000                                                                  
C09  37719666.467   196416201.722        -158.320          42.000    37719652.101   151881408.628        -122.569          45.000  
C25  23700107.602   123412683.861        1607.123          44.000                                                                  
C13  38291709.131   199394974.031       -2247.204          43.000    38291703.472   154184821.191       -1737.799          45.000  
C08  39114859.113   203681324.902       -2451.336          35.000    39114847.686   157499259.163       -1895.189          44.000  
C10  40527028.143   211034873.273         928.593          36.000    40527029.246   163185609.241         718.234          39.000  
C35  25967793.782   135221136.714         464.531          38.000                                                                  
G25  24270639.561   127543059.376       -3909.220          36.000    24270631.335    99384177.050       -3046.384          33.000  
> 2025 10 30 06 17 24.1200000  0 21                     
G32  21928434.416   115234698.632       -2846.481          46.000    21928427.542    89793243.476       -2218.014          42.000  
G29  23055389.359   121156906.725        -478.296          42.000    23055381.560    94407943.822        -372.695          42.000  
G28  21215381.175   111487580.852       -1151.603          45.000    21215370.733    86873398.699        -897.454          46.000  
G26  20367774.749   107033375.775         779.645          46.000    20367767.595    83402611.412         607.504          45.000  
G31  20628911.284   108405657.726         200.144          46.000    20628900.611    84471899.971         155.918          45.000  
G04  24593928.490   129241950.676        3189.451          37.000    24593926.797   100708029.901        2485.245          39.000  
C33  22483521.724   117077593.089        -599.201          47.000                                                                  
C06  36567843.232   190418356.439        -168.355          44.000    36567826.111   147243481.012        -130.287          47.000  
C14  22600079.115   117684526.683       -2175.633          47.000    22600064.192    91001087.544       -1682.364          51.000  
C16  36994716.678   192641195.301        -201.202          47.000    36994704.892   148962344.465        -155.618          47.000  
C24  21815303.950   113598014.626        -822.336          49.000                                                                  
C26  24346258.988   126777353.466       -2555.750          44.000                                                                  
G03  22886638.867   120270100.844          -4.437          36.000    22886632.641                          -3.229          32.000  
G16  22526626.188   118378223.561        3041.288          43.000                                                                  
C09  37719667.684   196416208.065        -158.566          42.000    37719653.318   151881413.524        -122.522          45.000  
C25  23700095.239   123412619.582        1606.982          44.000                                                                  
C13  38291726.382   199395063.917       -2247.220          43.000    38291720.760   154184890.699       -1737.822          45.000  
C08  39114877.960   203681422.960       -2451.645          35.000    39114866.516   157499334.977       -1895.372          44.000  
C10  40527021.011   211034836.123         928.656          36.000    40527022.122   163185580.517         718.103          39.000  
C35  25967790.207   135221118.142         464.266          38.000                                                                  
G25  24270669.308   127543215.754       -3909.451          36.000    24270661.083    99384298.918       -3046.742          33.000  
> 2025 10 30 06 17 24.1600000  0 21                     
G32  21928456.080   115234812.486       -2846.414          46.000    21928449.179    89793332.184       -2217.846          42.000  
G29  23055392.984   121156925.849        -478.280          42.000    23055385.194    94407958.722        -372.604          42.000  
G28  21215389.928   111487626.912       -1151.568          45.000    21215379.494    86873434.589        -897.382          46.000  
G26  20367768.820   107033344.581         779.740          46.000    20367761.650    83402587.105         607.617          45.000  
G31  20628909.773   108405649.724         200.040          46.000    20628899.094    84471893.728         155.962          45.000  
G04  24593904.181   129241823.092        3189.467          37.000    24593902.510   100707930.483        2485.365          39.000  
C33  22483526.358   117077617.056        -599.248          47.000                                                                  
C06  36567844.522   190418363.169        -168.318          44.000    36567827.433   147243486.216        -130.205          47.000  
C14  22600095.850   117684613.706       -2175.656          47.000    22600080.938    91001154.830       -1682.266          51.000  
C16  36994718.204   192641203.340        -201.098          47.000    36994706.444   148962350.689        -155.658          47.000  
C24  21815310.288   113598047.516        -822.331          49.000                                                                  
C26  24346278.636   126777455.694       -2555.769          44.000                                                                  
G03  22886638.916   120270101.020          -4.411          36.000    22886632.679                          -3.486          32.000  
G16  22526603.045   118378101.910        3041.202          43.000                                                                  
C09  37719668.885   196416214.407        -158.682          42.000    37719654.532   151881418.427        -122.615          45.000  
C25  23700082.925   123412555.304        1606.897          44.000                                                                  
C13  38291743.606   199395153.807       -2247.282          43.000    38291738.044   154184960.198       -1737.647          45.000  
C08  39114896.791   203681520.970       -2450.909          35.000    39114885.353   157499410.786       -1895.362          44.000  
C10  40527013.866   211034798.964         928.848          36.000    40527015.000   163185551.787         718.161          39.000  
C35  25967786.643   135221099.551         464.472          38.000                                                                  
G25  24270699.059   127543372.131       -3909.538          36.000    24270690.829    99384420.731       -3045.845          33.000  
> 2025 10 30 06 17 24.2000000  0 21                     
G32  21928477.763   115234926.351       -2846.610          46.000    21928470.849    89793420.920       -2218.234          42.000  
G29  23055396.605   121156944.971        -478.183          42.000    23055388.823    94407973.623        -372.560          42.000  
G28  21215398.703   111487672.962       -1151.385          45.000    21215388.259    86873470.478        -897.284          46.000  
G26  20367762.888   107033313.393         779.672          46.000    20367755.718    83402562.797         607.641          45.000  
G31  20628908.240   108405641.716         200.096          46.000    20628897.594    84471887.488         155.968          45.000  
G04  24593879.900   129241695.517        3189.353          37.000    24593878.221   100707831.061        2485.444          39.000  
C33  22483530.997   117077641.019        -599.174          47.000                                                                  
C06  36567845.825   190418369.900        -168.286          44.000    36567828.711   147243491.418        -130.112          47.000  
C14  22600112.549   117684700.728       -2175.653          47.000    22600097.621    91001222.114       -1682.170          51.000  
C16  36994719.749   192641211.372        -200.911          47.000    36994707.987   148962356.894        -155.319          47.000  
C24  21815316.629   113598080.401        -822.239          49.000                                                                  
C26  24346298.236   126777557.922       -2555.780          44.000                                                                  
G03  22886638.949   120270101.177          -4.058          36.000    22886632.733                          -3.469          32.000  
G16  22526579.884   118377980.260        3041.205          43.000                                                                  
C09  37719670.112   196416220.736        -158.416          42.000    37719655.725   151881423.323        -122.485          45.000  
C25  23700070.577   123412491.018        1607.025          44.000                                                                  
C13  38291760.864   199395243.688       -2247.119          43.000    38291755.305   154185029.699       -1737.560          45.000  
C08  39114915.633   203681618.998       -2450.739          35.000    39114904.165   157499486.590       -1895.224          44.000  
C10  40527006.751   211034761.856         928.010          36.000    40527007.866   163185523.061         718.122          39.000  
C35  25967783.051   135221080.962         464.612          38.000                                                                  
G25  24270728.808   127543528.495       -3909.287          36.000    24270720.582    99384542.573       -3045.867          33.000  
> 2025 10 30 06 17 24.2400000  0 21                     
G32  21928499.435   115235040.217       -2846.695          46.000    21928492.520    89793509.655       -2218.415          42.000  
G29  23055400.262   121156964.093        -478.152          42.000    23055392.470    94407988.520        -372.504          42.000  
G28  21215407.486   111487719.036       -1151.709          45.000    21215397.020    86873506.377        -897.447          46.000  
G26  20367756.934   107033282.204         779.654          46.000    20367749.795    83402538.499         607.479          45.000  
G31  20628906.713   108405633.706         200.170          46.000    20628896.063    84471881.251         155.919          45.000  
G04  24593855.597   129241567.939        3189.370          37.000    24593853.962   100707731.665        2485.114          39.000  
C33  22483535.579   117077664.988        -599.218          47.000                                                                  
C06  36567847.116   190418376.639        -168.434          44.000    36567830.005   147243496.626        -130.146          47.000  
C14  22600129.241   117684787.749       -2175.607          47.000    22600114.300    91001289.414       -1682.400          51.000  
C16  36994721.268   192641219.413        -200.999          47.000    36994709.532   148962363.105        -155.267          47.000  
C24  21815322.929   113598113.295        -822.323          49.000                                                                  
C26  24346317.865   126777660.153       -2555.845          44.000                                                                  
G03  22886638.989   120270101.365          -4.521          36.000    22886632.784                          -3.306          32.000  
G16  22526556.742   118377858.607        3041.270          43.000                                                                  
C09  37719671.298   196416227.064        -158.279          42.000    37719656.924   151881428.220        -122.423          45.000  
C25  23700058.242   123412426.736        1607.044          44.000                                                                  
C13  38291778.136   199395333.579       -2247.244          43.000    38291772.548   154185099.213       -1737.766          45.000  
C08  39114934.475   203681717.026       -2450.669          35.000    39114923.012   157499562.393       -1895.125          44.000  
C10  40526999.608   211034724.706         928.284          35.000    40527000.735   163185494.335         718.078          39.000  
C35  25967779.507   135221062.371         464.730          38.000                                                                  
G25  24270758.581   127543684.862       -3909.211          36.000    24270750.342    99384664.441       -3046.332          33.000  
> 2025 10 30 06 17 24.2800000  0 21                     
G32  21928521.107   115235154.078       -2846.640          46.000    21928514.182    89793598.373       -2218.186          42.000  
G29  23055403.906   121156983.216        -478.121          42.000    23055396.108    94408003.431        -372.744          42.000  
G28  21215416.259   111487765.108       -1151.854          45.000    21215405.786    86873542.275        -897.487          46.000  
G26  20367750.999   107033251.019         779.593          46.000    20367743.873    83402514.206         607.324          45.000  
G31  20628905.194   108405625.692         200.300          46.000    20628894.538    84471875.009         155.975          45.000  
G04  24593831.309   129241440.366        3189.287          37.000    24593829.693   100707632.252        2485.198          39.000  
C33  22483540.173   117077688.962        -599.345          47.000                                                                  
C06  36567848.402   190418383.381        -168.556          44.000    36567831.311   147243501.833        -130.181          47.000  
C14  22600145.956   117684874.773       -2175.599          47.000    22600131.008    91001356.709       -1682.448          51.000  
C16  36994722.829   192641227.460        -201.147          47.000    36994711.048   148962369.328        -155.459          47.000  
C24  21815329.233   113598146.188        -822.346          49.000                                                                  
C26  24346337.483   126777762.388       -2555.950          44.000                                                                  
G03  22886639.020   120270101.537          -4.507          36.000    22886632.821                          -3.598          32.000  
G16  22526533.590   118377736.950        3041.358          43.000                                                                  
C09  37719672.518   196416233.394        -158.250          42.000    37719658.165   151881433.115        -122.379          45.000  
C25  23700045.896   123412362.453        1607.037          44.000                                                                  
C13  38291795.407   199395423.472       -2247.324          43.000    38291789.791   154185168.721       -1737.759          45.000  
C08  39114953.291   203681815.066       -2450.804          35.000    39114941.841   157499638.200       -1895.163          44.000  
C10  40526992.477   211034687.550         928.667          35.000    40526993.596   163185465.617         717.954          39.000  
C35  25967775.957   135221043.794         464.463          38.000                                                                  
G25  24270788.342   127543841.248       -3909.499          36.000    24270780.102    99384786.325       -3047.076          33.000  
> 2025 10 30 06 17 24.3200000  0 21                     
G32  21928542.777   115235267.944       -2846.703          46.000    21928535.862    89793687.091       -2218.038          42.000  
G29  23055407.570   121157002.342        -478.151          42.000    23055399.752    94408018.335        -372.717          42.000  
G28  21215425.017   111487811.177       -1151.838          45.000    21215414.540    86873578.166        -897.378          46.000  
G26  20367745.061   107033219.843         779.413          46.000    20367737.938    83402489.906         607.395          45.000  
G31  20628903.671   108405617.684         200.262          46.000    20628893.032    84471868.769         155.962          45.000  
G04  24593807.025   129241312.761        3189.865          37.000    24593805.414   100707532.830        2485.435          39.000  
C33  22483544.794   117077712.931        -599.303          47.000                                                                  
C06  36567849.722   190418390.116        -168.506          44.000    36567832.647   147243507.054        -130.444          47.000  
C14  22600162.685   117684961.800       -2175.649          48.000    22600147.724    91001424.005       -1682.471          51.000  
C16  36994724.364   192641235.496        -201.014          47.000    36994712.564   148962375.553        -155.637          47.000  
C24  21815335.547   113598179.085        -822.443          49.000                                                                  
C26  24346357.114   126777864.614       -2555.824          44.000                                                                  
G03  22886639.079   120270101.720          -4.688          36.000    22886632.840                          -2.840          32.000  
G16  22526510.453   118377615.306        3041.173          43.000                                                                  
C09  37719673.724   196416239.734        -158.409          42.000    37719659.389   151881438.012        -122.420          45.000  
C25  23700033.544   123412298.173        1606.995          44.000                                                                  
C13  38291812.663   199395513.361       -2247.285          43.000    38291807.053   154185238.226       -1737.708          45.000  
C08  39114972.112   203681913.125       -2451.273          35.000    39114960.694   157499714.015       -1895.337          44.000  
C10  40526985.337   211034650.366         929.334          35.000    40526986.459   163185436.896         717.931          39.000  
C35  25967772.356   135221025.224         464.298          38.000                                                                  
G25  24270818.098   127543997.630       -3909.600          36.000    24270809.854    99384908.159       -3046.542          33.000  
> 2025 10 30 06 17 24.3600000  0 21                     
G32  21928564.434   115235381.810       -2846.727          46.000    21928557.521    89793775.804       -2217.887          42.000  
G29  23055411.214   121157021.481        -478.383          41.000    23055403.406    94408033.236        -372.634          42.000  
G28  21215433.784   111487857.240       -1151.706          45.000    21215423.320    86873614.065        -897.466          46.000  
G26  20367739.114   107033188.664         779.383          46.000    20367732.000    83402465.608         607.433          45.000  
G31  20628902.173   108405609.692         199.911          46.000    20628891.521    84471862.540         155.778          45.000  
G04  24593782.760   129241185.190        3189.458          37.000    24593781.132   100707433.410        2485.480          39.000  
C33  22483549.359   117077736.908        -599.417          47.000                                                                  
C06  36567851.004   190418396.856        -168.571          44.000    36567833.946   147243512.261        -130.344          47.000  
C14  22600179.360   117685048.838       -2175.916          48.000    22600164.464    91001491.302       -1682.489          51.000  
C16  36994725.925   192641243.547        -201.215          47.000    36994714.101   148962381.772        -155.581          47.000  
C24  21815341.849   113598211.984        -822.513          49.000                                                                  
C26  24346376.754   126777966.848       -2555.876          44.000                                                                  
G03  22886639.105   120270101.886          -4.395          36.000    22886632.867                          -2.780          32.000  
G16  22526487.328   118377493.670        3040.921          43.000                                                                  
C09  37719674.952   196416246.076        -158.541          42.000    37719660.605   151881442.913        -122.509          45.000  
C25  23700021.178   123412233.897        1606.897          44.000                                                                  
C13  38291829.924   199395603.258       -2247.448          43.000    38291824.314   154185307.741       -1737.845          45.000  
C08  39114990.947   203682011.164       -2451.229          35.000    39114979.524   157499789.825       -1895.328          44.000  
C10  40526978.212   211034613.219         929.087          35.000    40526979.326   163185408.170         718.053          39.000  
C35  25967768.779   135221006.665         463.967          38.000                                                                  
G25  24270847.876   127544154.015       -3909.685          35.000    24270839.601    99385030.031       -3046.774          33.000  
> 2025 10 30 06 17 24.4000000  0 21                     
G32  21928586.112   115235495.686       -2846.919          46.000    21928579.182    89793864.552       -2218.440          42.000  
G29  23055414.857   121157040.636        -478.833          41.000    23055407.047    94408048.164        -373.067          42.000  
G28  21215442.567   111487903.323       -1151.985          45.000    21215432.102    86873649.969        -897.598          46.000  
G26  20367733.191   107033157.504         779.024          46.000    20367726.061    83402441.324         607.172          45.000  
G31  20628900.683   108405601.714         199.450          46.000    20628890.020    84471856.317         155.569          45.000  
G04  24593758.508   129241057.647        3188.665          37.000    24593756.868   100707334.008        2485.259          39.000  
C33  22483553.945   117077760.901        -599.793          47.000                                                                  
C06  36567852.309   190418403.613        -168.896          44.000    36567835.245   147243517.486        -130.592          47.000  
C14  22600196.075   117685135.886       -2176.211          48.000    22600181.201    91001558.612       -1682.742          51.000  
C16  36994727.511   192641251.607        -201.503          47.000    36994715.637   148962388.004        -155.808          47.000  
C24  21815348.139   113598244.896        -822.824          49.000                                                                  
C26  24346396.373   126778069.093       -2556.113          44.000                                                                  
G03  22886639.142   120270102.087          -4.840          36.000    22886632.895                          -4.022          32.000  
G16  22526464.184   118377372.039        3040.691          43.000                                                                  
C09  37719676.160   196416252.428        -158.793          42.000    37719661.846   151881447.833        -122.926          45.000  
C25  23700008.853   123412169.640        1606.451          44.000                                                                  
C13  38291847.195   199395693.169       -2247.757          43.000    38291841.569   154185377.268       -1738.130          45.000  
C08  39115009.774   203682109.202       -2451.195          35.000    39114998.355   157499865.655       -1895.748          44.000  
C10  40526971.076   211034576.112         928.146          35.000    40526972.178   163185379.479         717.410          39.000  
C35  25967765.216   135220988.095         463.971          38.000                                                                  
G25  24270877.652   127544310.407       -3909.786          35.000    24270869.348    99385151.894       -3046.667          33.000  
> 2025 10 30 06 17 24.4400000  0 21                     
G32  21928607.773   115235609.580       -2847.305          46.000    21928600.872    89793953.303       -2218.758          42.000  
G29  23055418.503   121157059.802        -479.249          41.000    23055410.705    94408063.092        -373.269          42.000  
G28  21215451.334   111487949.423       -1152.420          45.000    21215440.867    86873685.893        -898.001          46.000  
G26  20367727.261   107033126.355         778.686          46.000    20367720.131    83402417.058         606.707          45.000  
G31  20628899.173   108405593.742         199.187          46.000    20628888.506    84471850.103         155.324          45.000  
G04  24593734.259   129240930.113        3188.162          37.000    24593732.613   100707234.636        2484.613          39.000  
C33  22483558.545   117077784.908        -600.201          47.000                                                                  
C06  36567853.616   190418410.376        -169.139          44.000    36567836.562   147243522.723        -130.898          47.000  
C14  22600212.767   117685222.947       -2176.577          48.000    22600197.955    91001625.933       -1683.041          51.000  
C16  36994729.053   192641259.682        -201.868          47.000    36994717.186   148962394.248        -156.124          47.000  
C24  21815354.461   113598277.821        -823.157          49.000                                                                  
C26  24346415.993   126778171.359       -2556.591          44.000                                                                  
G03  22886639.174   120270102.308          -5.465          36.000    22886632.941                          -4.969          32.000  
G16  22526441.028   118377250.418        3040.457          43.000                                                                  
C09  37719677.381   196416258.800        -159.255          42.000    37719663.073   151881452.754        -123.110          45.000  
C25  23699996.487   123412105.397        1606.006          44.000                                                                  
C13  38291864.488   199395783.094       -2248.139          43.000    38291858.863   154185446.802       -1738.364          45.000  
C08  39115028.627   203682207.281       -2451.856          35.000    39115017.201   157499941.484       -1895.868          44.000  
C10  40526963.956   211034539.006         927.631          35.000    40526965.060   163185350.786         717.179          39.000  
C35  25967761.639   135220969.541         463.748          38.000                                                                  
G25  24270907.417   127544466.796       -3909.724          35.000    24270899.092    99385273.734       -3046.261          33.000  
> 2025 10 30 06 17 24.4800000  0 21                     
G32  21928629.467   115235723.473       -2847.420          46.000    21928622.544    89794042.062       -2219.050          41.000  
G29  23055422.158   121157078.952        -479.044          41.000    23055414.351    94408078.019        -373.347          42.000  
G28  21215460.092   111487995.510       -1152.374          45.000    21215449.646    86873721.812        -898.110          46.000  
G26  20367721.329   107033095.192         778.859          46.000    20367714.191    83402392.774         606.861          45.000  
G31  20628897.646   108405585.752         199.449          46.000    20628886.964    84471843.884         155.332          45.000  
G04  24593709.995   129240802.552        3188.511          37.000    24593708.345   100707135.255        2484.394          39.000  
C33  22483563.173   117077808.905        -600.181          47.000                                                                  
C06  36567854.939   190418417.126        -168.978          44.000    36567837.857   147243527.941        -130.701          47.000  
C14  22600229.509   117685309.994       -2176.414          48.000    22600214.653    91001693.241       -1682.919          51.000  
C16  36994730.649   192641267.739        -201.666          47.000    36994718.759   148962400.475        -155.911          47.000  
C24  21815360.800   113598310.732        -823.022          49.000                                                                  
C26  24346435.622   126778273.608       -2556.499          44.000                                                                  
G03  22886639.237   120270102.514          -5.390          36.000    22886632.980                          -4.247          32.000  
G16  22526417.890   118377128.792        3040.492          43.000                                                                  
C09  37719678.598   196416265.150        -159.082          42.000    37719664.297   151881457.672        -123.154          45.000  
C25  23699984.145   123412041.131        1606.305          44.000                                                                  
C13  38291881.737   199395873.008       -2248.085          43.000    38291876.128   154185516.326       -1738.280          45.000  
C08  39115047.444   203682305.331       -2451.666          35.000    39115036.031   157500017.311       -1895.845          44.000  
C10  40526956.842   211034501.907         927.316          35.000    40526957.920   163185322.058         717.759          39.000  
C35  25967758.100   135220950.985         463.735          38.000                                                                  
G25  24270937.181   127544623.212       -3910.196          36.000    24270928.848    99385395.564       -3045.747          33.000  
> 2025 10 30 06 17 24.5200000  0 21                     
G32  21928651.131   115235837.354       -2847.242          46.000    21928644.223    89794130.788       -2218.539          41.000  
G29  23055425.811   121157098.087        -478.614          41.000    23055418.004    94408092.945        -373.317          42.000  
G28  21215468.849   111488041.585       -1152.097          45.000    21215458.396    86873757.717        -897.876          46.000  
G26  20367715.404   107033064.007         779.402          46.000    20367708.242    83402368.469         607.379          45.000  
G31  20628896.127   108405577.752         199.832          46.000    20628885.440    84471837.652         155.641          45.000  
G04  24593685.690   129240674.956        3189.505          37.000    24593684.088   100707035.839        2484.949          38.000  
C33  22483567.775   117077832.886        -599.802          47.000                                                                  
C06  36567856.242   190418423.868        -168.723          44.000    36567839.155   147243533.155        -130.459          47.000  
C14  22600246.216   117685397.024       -2176.006          48.000    22600231.346    91001760.541       -1682.644          51.000  
C16  36994732.214   192641275.783        -201.313          48.000    36994720.292   148962406.698        -155.721          47.000  
C24  21815367.111   113598343.634        -822.750          49.000                                                                  
C26  24346455.249   126778375.836       -2556.016          44.000                                                                  
G03  22886639.271   120270102.699          -4.856          36.000    22886633.021                          -4.070          32.000  
G16  22526394.719   118377007.147        3040.921          43.000                                                                  
C09  37719679.807   196416271.489        -158.710          42.000    37719665.496   151881462.574        -122.807          45.000  
C25  23699971.822   123411976.856        1606.683          44.000                                                                  
C13  38291899.015   199395962.899       -2247.560          43.000    38291893.414   154185585.839       -1738.011          45.000  
C08  39115066.283   203682403.359       -2451.067          35.000    39115054.850   157500093.127       -1895.610          44.000  
C10  40526949.687   211034464.757         928.100          35.000    40526950.784   163185293.339         717.974          39.000  
C35  25967754.559   135220932.423         463.882          38.000                                                                  
G25  24270966.941   127544779.603       -3910.083          36.000    24270958.593    99385517.430       -3046.129          33.000  
> 2025 10 30 06 17 24.5600000  0 21                     
G32  21928672.795   115235951.214       -2846.724          46.000    21928665.897    89794219.513       -2218.218          41.000  
G29  23055429.450   121157117.207        -478.095          41.000    23055421.637    94408107.854        -372.944          42.000  
G28  21215477.606   111488087.653       -1151.802          45.000    21215467.153    86873793.607        -897.457          46.000  
G26  20367709.456   107033032.829         779.529          46.000    20367702.305    83402344.176         607.414          45.000  
G31  20628894.591   108405569.746         200.120          46.000    20628883.930    84471831.420         155.776          45.000  
G04  24593661.413   129240547.375        3189.691          37.000    24593659.799   100706936.410        2485.519          39.000  
C33  22483572.385   117077856.859        -599.460          47.000                                                                  
C06  36567857.543   190418430.603        -168.423          44.000    36567840.414   147243538.362        -130.240          47.000  
C14  22600262.952   117685484.049       -2175.654          48.000    22600248.061    91001827.834       -1682.399          51.000  
C16  36994733.770   192641283.820        -200.969          48.000    36994721.844   148962412.914        -155.472          47.000  
C24  21815373.419   113598376.525        -822.395          49.000                                                                  
C26  24346474.891   126778478.058       -2555.677          44.000                                                                  
G03  22886639.299   120270102.836          -3.704          36.000    22886633.059                          -3.209          32.000  
G16  22526371.557   118376885.495        3041.279          43.000                                                                  
C09  37719681.027   196416277.822        -158.370          42.000    37719666.708   151881467.469        -122.499          45.000  
C25  23699959.458   123411912.570        1607.092          44.000                                                                  
C13  38291916.304   199396052.778       -2247.039          43.000    38291910.681   154185655.346       -1737.738          45.000  
C08  39115085.123   203682501.380       -2450.594          35.000    39115073.662   157500168.926       -1895.104          44.000  
C10  40526942.539   211034427.565         929.489          35.000    40526943.627   163185264.610         718.241          39.000  
C35  25967750.995   135220913.842         464.374          38.000                                                                  
G25  24270996.692   127544935.979       -3909.649          36.000    24270988.350    99385639.327       -3046.917          33.000  
> 2025 10 30 06 17 24.6000000  0 21                     
G32  21928694.444   115236065.071       -2846.418          46.000    21928687.551    89794308.227       -2217.844          41.000  
G29  23055433.095   121157136.336        -478.027          41.000    23055425.282    94408122.753        -372.557          42.000  
G28  21215486.354   111488133.713       -1151.542          45.000    21215475.912    86873829.494        -897.178          46.000  
G26  20367703.525   107033001.641         779.719          46.000    20367696.370    83402319.880         607.449          45.000  
G31  20628893.070   108405561.737         200.291          46.000    20628882.405    84471825.178         156.040          45.000  
G04  24593637.139   129240419.793        3189.752          37.000    24593635.535   100706837.002        2485.416          39.000  
C33  22483577.014   117077880.826        -599.192          47.000                                                                  
C06  36567858.821   190418437.328        -168.127          44.000    36567841.683   147243543.562        -130.029          47.000  
C14  22600279.659   117685571.071       -2175.477          48.000    22600264.751    91001895.129       -1682.328          51.000  
C16  36994735.339   192641291.849        -200.690          48.000    36994723.395   148962419.128        -155.339          47.000  
C24  21815379.725   113598409.413        -822.170          49.000                                                                  
C26  24346494.534   126778580.283       -2555.524          44.000                                                                  
G03  22886639.318   120270103.011          -3.921          36.000    22886633.074                          -3.158          32.000  
G16  22526348.402   118376763.844        3041.397          43.000                                                                  
C09  37719682.219   196416284.144        -158.029          42.000    37719667.921   151881472.353        -122.124          45.000  
C25  23699947.098   123411848.290        1607.159          44.000                                                                  
C13  38291933.587   199396142.673       -2247.131          43.000    38291927.907   154185724.852       -1737.610          45.000  
C08  39115103.950   203682599.441       -2451.094          35.000    39115092.477   157500244.725       -1894.899          44.000  
C10  40526935.380   211034390.420         929.147          35.000    40526936.486   163185235.880         718.382          39.000  
C35  25967747.436   135220895.253         464.700          38.000                                                                  
G25  24271026.438   127545092.338       -3909.186          36.000    24271018.088    99385761.158       -3046.308          33.000  
> 2025 10 30 06 17 24.6400000  0 21                     
G32  21928716.100   115236178.931       -2846.368          46.000    21928709.219    89794396.956       -2218.007          41.000  
G29  23055436.734   121157155.474        -478.226          41.000    23055428.915    94408137.660        -372.578          42.000  
G28  21215495.118   111488179.764       -1151.272          45.000    21215484.680    86873865.383        -897.116          46.000  
G26  20367697.598   107032970.459         779.666          46.000    20367690.454    83402295.585         607.423          45.000  
G31  20628891.539   108405553.740         200.110          46.000    20628880.884    84471818.937         156.100          45.000  
G04  24593612.874   129240292.220        3189.583          37.000    24593611.256   100706737.574        2485.683          39.000  
C33  22483581.594   117077904.800        -599.222          47.000                                                                  
C06  36567860.102   190418444.061        -168.157          44.000    36567842.977   147243548.774        -130.159          47.000  
C14  22600296.347   117685658.100       -2175.549          48.000    22600281.458    91001962.421       -1682.257          51.000  
C16  36994736.843   192641299.887        -200.761          48.000    36994724.958   148962425.339        -155.235          47.000  
C24  21815386.030   113598442.300        -822.085          49.000                                                                  
C26  24346514.172   126778682.508       -2555.505          44.000                                                                  
G03  22886639.367   120270103.230          -4.881          36.000    22886633.089                          -2.678          32.000  
G16  22526325.257   118376642.192        3041.423          43.000                                                                  
C09  37719683.433   196416290.464        -157.873          42.000    37719669.139   151881477.252        -122.279          45.000  
C25  23699934.728   123411784.010        1607.105          44.000                                                                  
C13  38291950.829   199396232.557       -2247.028          43.000    38291945.170   154185794.354       -1737.495          45.000  
C08  39115122.787   203682697.482       -2451.059          35.000    39115111.314   157500320.542       -1895.148          44.000  
C10  40526928.249   211034353.290         928.479          35.000    40526929.352   163185207.153         718.369          39.000  
C35  25967743.854   135220876.675         464.650          38.000                                                                  
G25  24271056.180   127545248.696       -3908.928          36.000    24271047.831    99385883.032       -3046.674          33.000  
> 2025 10 30 06 17 24.6800000  0 21                     
G32  21928737.780   115236292.806       -2846.687          46.000    21928730.904    89794485.679       -2218.081          41.000  
G29  23055440.350   121157174.609        -478.316          41.000    23055432.548    94408152.568        -372.663          42.000  
G28  21215503.876   111488225.834       -1151.489          45.000    21215493.432    86873901.292        -897.496          46.000  
G26  20367691.672   107032939.287         779.377          46.000    20367684.526    83402271.298         607.222          45.000  
G31  20628890.046   108405545.742         199.974          46.000    20628879.362    84471812.702         155.975          45.000  
G04  24593588.578   129240164.611        3190.062          37.000    24593586.970   100706638.154        2485.651          39.000  
C33  22483586.198   117077928.782        -599.446          47.000                                                                  
C06  36567861.395   190418450.800        -168.336          44.000    36567844.259   147243553.980        -130.157          47.000  
C14  22600313.059   117685745.143       -2175.901          48.000    22600298.154    91002029.722       -1682.412          51.000  
C16  36994738.375   192641307.935        -201.027          48.000    36994726.523   148962431.554        -155.266          47.000  
C24  21815392.358   113598475.196        -822.246          49.000                                                                  
C26  24346533.778   126778784.733       -2555.548          44.000                                                                  
G03  22886639.409   120270103.416          -4.869          36.000    22886633.110                          -3.354          32.000  
G16  22526302.101   118376520.552        3041.177          43.000                                                                  
C09  37719684.636   196416296.805        -158.229          42.000    37719670.343   151881482.148        -122.326          45.000  
C25  23699922.388   123411719.731        1607.031          44.000                                                                  
C13  38291968.079   199396322.455       -2247.337          43.000    38291962.426   154185863.868       -1737.690          45.000  
C08  39115141.590   203682795.509       -2450.816          35.000    39115130.150   157500396.354       -1895.222          43.000  
C10  40526921.119   211034316.136         928.552          35.000    40526922.255   163185178.445         717.933          40.000  
C35  25967740.290   135220858.116         464.148          39.000                                                                  
G25  24271085.944   127545405.072       -3909.257          36.000    24271077.565    99386004.865       -3046.280          33.000  
> 2025 10 30 06 17 24.7200000  0 21                     
G32  21928759.475   115236406.683       -2846.893          46.000    21928752.564    89794574.412       -2218.268          41.000  
G29  23055443.991   121157193.754        -478.568          41.000    23055436.177    94408167.477        -372.714          42.000  
G28  21215512.638   111488271.907       -1151.698          45.000    21215502.210    86873937.192        -897.566          46.000  
G26  20367685.752   107032908.115         779.279          46.000    20367678.566    83402247.004         607.249          45.000  
G31  20628888.528   108405537.743         199.962          46.000    20628877.828    84471806.467         155.901          45.000  
G04  24593564.327   129240037.060        3189.252          37.000    24593562.713   100706538.776        2484.845          39.000  
C33  22483590.800   117077952.768        -599.616          47.000                                                                  
C06  36567862.684   190418457.541        -168.447          44.000    36567845.566   147243559.186        -130.138          47.000  
C14  22600329.754   117685832.176       -2175.911          48.000    22600314.846    91002097.023       -1682.513          51.000  
C16  36994739.922   192641315.977        -201.070          48.000    36994728.068   148962437.775        -155.418          47.000  
C24  21815398.655   113598508.098        -822.457          49.000                                                                  
C26  24346553.399   126778886.967       -2555.736          44.000                                                                  
G03  22886639.455   120270103.607          -4.813          36.000    22886633.169    93716943.379          -4.082          32.000  
G16  22526278.961   118376398.908        3041.089          43.000                                                                  
C09  37719685.852   196416303.148        -158.489          42.000    37719671.564   151881487.043        -122.345          45.000  
C25  23699910.049   123411655.456        1606.897          44.000                                                                  
C13  38291985.333   199396412.349       -2247.424          43.000    38291979.701   154185933.386       -1737.921          45.000  
C08  39115160.422   203682893.534       -2450.586          35.000    39115148.957   157500472.175       -1895.422          43.000  
C10  40526913.985   211034278.990         928.595          35.000    40526915.109   163185149.730         717.829          40.000  
C35  25967736.708   135220839.540         464.227          39.000                                                                  
G25  24271115.718   127545561.463       -3909.703          36.000    24271107.321    99386126.710       -3046.291          33.000  
> 2025 10 30 06 17 24.7600000  0 21                     
G32  21928781.133   115236520.548       -2846.797          46.000    21928774.242    89794663.148       -2218.419          41.000  
G29  23055447.653   121157212.887        -478.444          41.000    23055439.821    94408182.401        -373.047          42.000  
G28  21215521.386   111488317.976       -1151.774          45.000    21215510.993    86873973.090        -897.554          46.000  
G26  20367679.809   107032876.938         779.331          46.000    20367672.627    83402222.712         607.274          45.000  
G31  20628886.994   108405529.731         200.166          46.000    20628876.297    84471800.231         155.883          45.000  
G04  24593540.039   129239909.509        3188.899          37.000    24593538.427   100706439.359        2485.143          39.000  
C33  22483595.430   117077976.751        -599.664          47.000                                                                  
C06  36567863.972   190418464.275        -168.378          44.000    36567846.864   147243564.395        -130.220          47.000  
C14  22600346.468   117685919.205       -2175.833          48.000    22600331.550    91002164.322       -1682.518          51.000  
C16  36994741.463   192641324.013        -200.998          48.000    36994729.600   148962443.991        -155.425          47.000  
C24  21815404.998   113598540.994        -822.466          49.000                                                                  
C26  24346573.036   126778989.201       -2555.868          44.000                                                                  
G03  22886639.476   120270103.793          -4.706          36.000    22886633.207                          -3.349          32.000  
G16  22526255.808   118376277.265        3041.014          43.000                                                                  
C09  37719687.067   196416309.483        -158.459          42.000    37719672.809   151881491.937        -122.372          45.000  
C25  23699897.714   123411591.180        1606.860          44.000                                                                  
C13  38292002.595   199396502.237       -2247.335          43.000    38291996.959   154186002.880       -1737.609          45.000  
C08  39115179.256   203682991.576       -2450.766          35.000    39115167.798   157500547.989       -1895.421          43.000  
C10  40526906.865   211034241.837         928.782          35.000    40526907.971   163185121.003         717.997          40.000  
C35  25967733.160   135220820.962         464.297          39.000                                                                  
G25  24271145.478   127545717.832       -3909.529          36.000    24271137.066    99386248.554       -3046.281          33.000  
> 2025 10 30 06 17 24.8000000  0 21                     
G32  21928802.817   115236634.408       -2846.602          46.000    21928795.891    89794751.875       -2218.323          41.000  
G29  23055451.292   121157232.025        -478.462          41.000    23055443.410    94408197.312        -372.923          42.000  
G28  21215530.160   111488364.046       -1151.803          45.000    21215519.750    86874008.984        -897.444          46.000  
G26  20367673.900   107032845.762         779.351          46.000    20367666.698    83402198.408         607.466          45.000  
G31  20628885.478   108405521.727         200.128          46.000    20628874.780    84471793.996         155.871          45.000  
G04  24593515.756   129239781.922        3189.322          37.000    24593514.142   100706339.936        2485.432          39.000  
C33  22483600.027   117078000.734        -599.660          47.000                                                                  
C06  36567865.272   190418471.005        -168.287          44.000    36567848.175   147243569.596        -130.093          47.000  
C14  22600363.178   117686006.232       -2175.731          48.000    22600348.251    91002231.619       -1682.485          51.000  
C16  36994743.031   192641332.048        -200.940          48.000    36994731.126   148962450.203        -155.346          47.000  
C24  21815411.326   113598573.890        -822.437          49.000                                                                  
C26  24346592.664   126779091.428       -2555.781          44.000                                                                  
G03  22886639.505   120270103.967          -4.501          36.000    22886633.235                          -4.154          32.000  
G16  22526232.678   118376155.617        3041.092          43.000                                                                  
C09  37719688.274   196416315.821        -158.502          42.000    37719673.989   151881496.833        -122.410          45.000  
C25  23699885.389   123411526.897        1606.995          44.000                                                                  
C13  38292019.862   199396592.116       -2247.085          43.000    38292014.183   154186072.382       -1737.541          45.000  
C08  39115198.082   203683089.613       -2450.859          35.000    39115186.621   157500623.780       -1894.965          43.000  
C10  40526899.714   211034204.699         928.545          35.000    40526900.826   163185092.267         718.302          40.000  
C35  25967729.595   135220802.389         464.285          39.000                                                                  
G25  24271175.257   127545874.198       -3909.193          36.000    24271166.839    99386370.404       -3046.266          33.000  
> 2025 10 30 06 17 24.8400000  0 21                     
G32  21928824.502   115236748.276       -2846.677          45.000    21928817.557    89794840.598       -2218.180          41.000  
G29  23055454.911   121157251.156        -478.344          41.000    23055447.049    94408212.221        -372.802          42.000  
G28  21215538.909   111488410.111       -1151.700          45.000    21215528.521    86874044.878        -897.370          46.000  
G26  20367667.963   107032814.579         779.494          46.000    20367660.759    83402174.117         607.322          45.000  
G31  20628883.949   108405513.714         200.301          46.000    20628873.245    84471787.756         155.932          45.000  
G04  24593491.467   129239654.320        3189.735          37.000    24593489.849   100706240.512        2485.609          39.000  
C33  22483604.644   117078024.705        -599.408          47.000                                                                  
C06  36567866.577   190418477.735        -168.246          44.000    36567849.484   147243574.802        -130.101          47.000  
C14  22600379.894   117686093.259       -2175.694          48.000    22600364.987    91002298.915       -1682.448          51.000  
C16  36994744.591   192641340.078        -200.793          48.000    36994732.623   148962456.420        -155.413          47.000  
C24  21815417.672   113598606.780        -822.331          49.000                                                                  
C26  24346612.293   126779193.647       -2555.603          44.000                                                                  
G03  22886639.537   120270104.155          -4.674          36.000    22886633.274                          -3.688          32.000  
G16  22526209.535   118376033.964        3041.217          43.000                                                                  
C09  37719689.493   196416322.137        -158.082          42.000    37719675.208   151881501.729        -122.441          45.000  
C25  23699873.047   123411462.616        1607.019          44.000                                                                  
C13  38292037.118   199396681.993       -2246.900          43.000    38292031.424   154186141.889       -1737.610          45.000  
C08  39115216.921   203683187.646       -2450.854          35.000    39115205.440   157500699.582       -1894.937          43.000  
C10  40526892.582   211034167.532         928.913          34.000    40526893.687   163185063.516         718.690          40.000  
C35  25967726.046   135220783.796         464.682          39.000                                                                  
G25  24271205.002   127546030.559       -3908.981          36.000    24271196.580    99386492.245       -3046.076          33.000  
> 2025 10 30 06 17 24.8800000  0 21                     
G32  21928846.190   115236862.147       -2846.733          45.000    21928839.245    89794929.319       -2218.066          41.000  
G29  23055458.555   121157270.290        -478.358          41.000    23055450.660    94408227.126        -372.658          42.000  
G28  21215547.673   111488456.172       -1151.594          45.000    21215537.285    86874080.762        -897.182          46.000  
G26  20367662.035   107032783.400         779.512          46.000    20367654.829    83402149.819         607.372          45.000  
G31  20628882.437   108405505.703         200.324          46.000    20628871.719    84471781.511         156.049          45.000  
G04  24593467.199   129239526.718        3190.094          37.000    24593465.567   100706141.091        2485.627          39.000  
C33  22483609.230   117078048.675        -599.244          47.000                                                                  
C06  36567867.854   190418484.452        -167.976          44.000    36567850.771   147243580.001        -130.017          47.000  
C14  22600396.608   117686180.289       -2175.721          48.000    22600381.694    91002366.212       -1682.422          51.000  
C16  36994746.134   192641348.110        -200.786          48.000    36994734.173   148962462.629        -155.309          47.000  
C24  21815424.016   113598639.670        -822.262          49.000                                                                  
C26  24346631.942   126779295.865       -2555.490          44.000                                                                  
G03  22886639.575   120270104.336          -4.552          36.000    22886633.285    93716943.950          -3.669          32.000  
G16  22526186.390   118375912.315        3041.210          43.000                                                                  
C09  37719690.692   196416328.468        -158.163          42.000    37719676.435   151881506.620        -122.338          45.000  
C25  23699860.699   123411398.328        1607.172          44.000                                                                  
C13  38292054.374   199396771.879       -2247.021          43.000    38292048.680   154186211.394       -1737.635          45.000  
C08  39115235.742   203683285.695       -2451.096          35.000    39115224.264   157500775.387       -1895.020          43.000  
C10  40526885.442   211034130.344         929.478          34.000    40526886.562   163185034.797         718.250          40.000  
C35  25967722.494   135220765.224         464.470          39.000                                                                  
G25  24271234.745   127546186.912       -3908.727          36.000    24271226.334    99386614.091       -3046.117          33.000  
> 2025 10 30 06 17 24.9200000  0 21                     
G32  21928867.848   115236976.006       -2846.572          45.000    21928860.913    89795018.037       -2217.947          41.000  
G29  23055462.212   121157289.427        -478.473          41.000    23055454.319    94408242.036        -372.705          42.000  
G28  21215556.429   111488502.233       -1151.531          45.000    21215546.053    86874116.653        -897.226          46.000  
G26  20367656.088   107032752.221         779.485          46.000    20367648.898    83402125.528         607.291          45.000  
G31  20628880.920   108405497.704         200.083          46.000    20628870.206    84471775.272         155.993          45.000  
G04  24593442.908   129239399.141        3189.753          37.000    24593441.300   100706041.689        2485.214          39.000  
C33  22483613.812   117078072.648        -599.284          47.000                                                                  
C06  36567869.161   190418491.175        -167.980          44.000    36567852.087   147243585.198        -129.922          47.000  
C14  22600413.331   117686267.314       -2175.690          48.000    22600398.419    91002433.504       -1682.360          51.000  
C16  36994747.689   192641356.140        -200.762          48.000    36994735.674   148962468.839        -155.287          47.000  
C24  21815430.325   113598672.560        -822.253          49.000                                                                  
C26  24346651.557   126779398.084       -2555.470          44.000                                                                  
G03  22886639.607   120270104.514          -4.375          36.000    22886633.333    93716944.089          -3.531          32.000  
G16  22526163.232   118375790.665        3041.208          43.000                                                                  
C09  37719691.878   196416334.790        -158.096          42.000    37719677.641   151881511.509        -122.238          45.000  
C25  23699848.349   123411334.044        1607.147          44.000                                                                  
C13  38292071.633   199396861.769       -2247.234          43.000    38292065.915   154186280.893       -1737.536          45.000  
C08  39115254.556   203683383.736       -2451.027          35.000    39115243.131   157500851.201       -1895.245          43.000  
C10  40526878.298   211034093.203         928.969          34.000    40526879.444   163185006.060         718.360          40.000  
C35  25967718.903   135220746.650         464.376          39.000                                                                  
G25  24271264.523   127546343.301       -3909.337          36.000    24271256.078    99386735.935       -3046.144          33.000  
> 2025 10 30 06 17 24.9600000  0 21                     
G32  21928889.524   115237089.867       -2846.509          45.000    21928882.570    89795106.756       -2217.946          41.000  
G29  23055465.839   121157308.555        -478.360          41.000    23055457.944    94408256.945        -372.712          42.000  
G28  21215565.179   111488548.292       -1151.476          45.000    21215554.819    86874152.545        -897.291          46.000  
G26  20367650.138   107032721.038         779.547          46.000    20367642.978    83402101.229         607.410          45.000  
G31  20628879.401   108405489.692         200.208          46.000    20628868.694    84471769.035         155.938          45.000  
G04  24593418.641   129239271.563        3189.523          37.000    24593417.024   100705942.274        2485.226          39.000  
C33  22483618.426   117078096.634        -599.542          47.000                                                                  
C06  36567870.463   190418497.909        -168.196          44.000    36567853.393   147243590.399        -129.988          47.000  
C14  22600430.035   117686354.344       -2175.742          48.000    22600415.113    91002500.796       -1682.304          51.000  
C16  36994749.255   192641364.168        -200.684          48.000    36994737.210   148962475.045        -155.212          47.000  
C24  21815436.655   113598705.450        -822.275          49.000                                                                  
C26  24346671.158   126779500.305       -2555.486          44.000                                                                  
G03  22886639.637   120270104.708          -4.713          36.000    22886633.375    93716944.222          -3.428          32.000  
G16  22526140.065   118375669.016        3041.189          43.000                                                                  
C09  37719693.085   196416341.108        -157.972          42.000    37719678.841   151881516.396        -122.177          45.000  
C25  23699836.016   123411269.759        1607.123          44.000                                                                  
C13  38292088.880   199396951.655       -2247.233          43.000    38292083.183   154186350.402       -1737.679          45.000  
C08  39115273.368   203683481.754       -2450.607          35.000    39115261.952   157500927.006       -1895.198          43.000  
C10  40526871.178   211034056.055         928.736          34.000    40526872.298   163184977.337         718.163          40.000  
C35  25967715.331   135220728.075         464.314          39.000                                                                  
G25  24271294.299   127546499.663       -3909.175          36.000    24271285.824    99386857.794       -3046.465          33.000  
> 2025 10 30 06 17 25.0000000  0 21                     
G32  21928911.190   115237203.732       -2846.590          45.000    21928904.221    89795195.488       -2218.166          41.000  
G29  23055469.487   121157327.689        -478.411          41.000    23055461.594    94408271.851        -372.688          42.000  
G28  21215573.939   111488594.357       -1151.540          45.000    21215563.600    86874188.446        -897.497          46.000  
G26  20367644.209   107032689.864         779.385          46.000    20367637.042    83402076.941         607.216          45.000  
G31  20628877.889   108405481.685         200.183          46.000    20628867.174    84471762.799         155.876          45.000  
G04  24593394.348   129239143.967        3189.686          37.000    24593392.741   100705842.849        2485.410          39.000  
C33  22483622.988   117078120.616        -599.622          47.000                                                                  
C06  36567871.759   190418504.646        -168.357          44.000    36567854.695   147243595.607        -130.154          47.000  
C14  22600446.760   117686441.376       -2175.818          48.000    22600431.834    91002568.099       -1682.516          51.000  
C16  36994750.797   192641372.208        -200.888          48.000    36994738.753   148962481.257        -155.286          47.000  
C24  21815442.973   113598738.348        -822.420          49.000                                                                  
C26  24346690.757   126779602.539       -2555.736          44.000                                                                  
G03  22886639.688   120270104.907          -4.968          36.000    22886633.415    93716944.370          -3.761          32.000  
G16  22526116.904   118375547.357        3041.366          43.000                                                                  
C09  37719694.290   196416347.436        -158.107          42.000    37719680.027   151881521.280        -122.129          45.000  
C25  23699823.663   123411205.488        1606.860          44.000                                                                  
C13  38292106.146   199397041.530       -2247.020          43.000    38292100.442   154186419.904       -1737.623          45.000  
C08  39115292.178   203683579.785       -2450.607          35.000    39115280.769   157501002.817       -1895.275          43.000  
C10  40526864.033   211034018.917         928.547          34.000    40526865.179   163184948.614         718.024          40.000  
C35  25967711.769   135220709.505         464.201          39.000                                                                  
G25  24271324.039   127546656.039       -3909.362          36.000    24271315.591    99386979.649       -3046.491          33.000  
> 2025 10 30 06 17 25.0400000  0 21                     
G32  21928932.880   115237317.617       -2846.983          45.000    21928925.888    89795284.241       -2218.641          41.000  
G29  23055473.133   121157346.838        -478.705          41.000    23055465.247    94408286.780        -373.116          42.000  
G28  21215582.734   111488640.436       -1151.860          45.000    21215572.371    86874224.352        -897.683          46.000  
G26  20367638.299   107032658.701         779.100          46.000    20367631.126    83402052.654         607.111          45.000  
G31  20628876.381   108405473.684         200.041          46.000    20628865.673    84471756.566         155.815          45.000  
G04  24593370.068   129239016.395        3189.416          37.000    24593368.456   100705743.442        2485.220          39.000  
C33  22483627.585   117078144.603        -599.733          47.000                                                                  
C06  36567873.070   190418511.379        -168.372          44.000    36567855.986   147243600.819        -130.308          47.000  
C14  22600463.460   117686528.417       -2175.993          48.000    22600448.570    91002635.405       -1682.653          51.000  
C16  36994752.339   192641380.247        -201.016          48.000    36994740.313   148962487.471        -155.362          47.000  
C24  21815449.278   113598771.250        -822.560          49.000                                                                  
C26  24346710.384   126779704.776       -2555.923          44.000                                                                  
G03  22886639.700   120270105.095          -4.837          36.000    22886633.424    93716944.530          -4.097          32.000  
G16  22526093.770   118375425.728        3040.908          43.000                                                                  
C09  37719695.513   196416353.776        -158.425          42.000    37719681.244   151881526.185        -122.518          45.000  
C25  23699811.342   123411141.210        1606.860          44.000                                                                  
C13  38292123.392   199397131.426       -2247.257          43.000    38292117.701   154186489.413       -1737.710          45.000  
C08  39115311.018   203683677.808       -2450.494          35.000    39115299.577   157501078.627       -1895.263          43.000  
C10  40526856.899   211033981.764         928.718          34.000    40526858.047   163184919.883         718.116          40.000  
C35  25967708.204   135220690.937         464.192          39.000                                                                  
G25  24271353.798   127546812.421       -3909.558          36.000    24271345.351    99387101.504       -3046.432          34.000  
> 2025 10 30 06 17 25.0800000  0 21                     
G32  21928954.550   115237431.491       -2846.961          45.000    21928947.551    89795372.967       -2218.424          41.000  
G29  23055476.769   121157365.975        -478.601          41.000    23055468.892    94408301.695        -373.029          42.000  
G28  21215591.504   111488686.500       -1151.744          45.000    21215581.163    86874260.253        -897.650          46.000  
G26  20367632.351   107032627.529         779.146          46.000    20367625.190    83402028.362         607.200          45.000  
G31  20628874.860   108405465.679         200.078          46.000    20628864.144    84471750.325         155.951          45.000  
G04  24593345.772   129238888.816        3189.410          37.000    24593344.190   100705644.032        2485.200          39.000  
C33  22483632.202   117078168.587        -599.704          47.000                                                                  
C06  36567874.363   190418518.103        -168.223          44.000    36567857.276   147243606.016        -130.095          47.000  
C14  22600480.198   117686615.449       -2175.933          48.000    22600465.271    91002702.706       -1682.643          51.000  
C16  36994753.883   192641388.287        -201.069          48.000    36994741.882   148962493.683        -155.353          47.000  
C24  21815455.602   113598804.138        -822.378          49.000                                                                  
C26  24346730.025   126779806.994       -2555.664          44.000                                                                  
G03  22886639.751   120270105.284          -4.813          36.000    22886633.438    93716944.704          -4.467          32.000  
G16  22526070.626   118375304.084        3040.978          43.000                                                                  
C09  37719696.722   196416360.104        -158.350          42.000    37719682.492   151881531.081        -122.513          45.000  
C25  23699798.983   123411076.924        1607.037          44.000                                                                  
C13  38292140.683   199397221.305       -2247.075          43.000    38292134.951   154186558.914       -1737.591          45.000  
C08  39115329.854   203683775.864       -2451.062          35.000    39115318.414   157501154.425       -1895.051          43.000  
C10  40526849.767   211033944.598         929.126          34.000    40526850.887   163184891.148         718.309          40.000  
C35  25967704.636   135220672.373         464.113          39.000                                                                  
G25  24271383.560   127546968.786       -3909.416          36.000    24271375.097    99387223.320       -3045.675          34.000  
> 2025 10 30 06 17 25.1200000  0 21                     
G32  21928976.199   115237545.353       -2846.731          45.000    21928969.219    89795461.696       -2218.318          41.000  
G29  23055480.415   121157385.124        -478.731          41.000    23055472.512    94408316.610        -372.964          42.000  
G28  21215600.248   111488732.558       -1151.590          45.000    21215589.930    86874296.145        -897.454          46.000  
G26  20367626.407   107032596.348         779.377          46.000    20367619.293    83402004.077         607.107          45.000  
G31  20628873.333   108405457.669         200.152          46.000    20628862.634    84471744.089         155.870          45.000  
G04  24593321.501   129238761.238        3189.324          37.000    24593319.891   100705544.603        2485.541          39.000  
C33  22483636.828   117078192.569        -599.664          47.000                                                                  
C06  36567875.672   190418524.832        -168.226          44.000    36567858.539   147243611.214        -129.978          47.000  
C14  22600496.918   117686702.481       -2175.856          48.000    22600481.967    91002770.002       -1682.495          51.000  
C16  36994755.439   192641396.311        -200.774          47.000    36994743.459   148962499.900        -155.415          47.000  
C24  21815461.957   113598837.032        -822.372          49.000                                                                  
C26  24346749.670   126779909.202       -2555.358          44.000                                                                  
G03  22886639.763   120270105.474          -4.903          36.000    22886633.433    93716944.815          -3.501          32.000  
G16  22526047.476   118375182.434        3041.152          43.000                                                                  
C09  37719697.963   196416366.429        -158.228          42.000    37719683.694   151881535.973        -122.408          45.000  
C25  23699786.619   123411012.643        1607.019          44.000                                                                  
C13  38292157.931   199397311.188       -2247.083          42.000    38292152.235   154186628.423       -1737.653          45.000  
C08  39115348.688   203683873.914       -2451.269          35.000    39115337.281   157501230.236       -1895.198          43.000  
C10  40526842.619   211033907.451         928.989          34.000    40526843.757   163184862.422         718.237          40.000  
C35  25967701.065   135220653.799         464.193          39.000                                                                  
G25  24271413.296   127547125.149       -3909.188          36.000    24271404.844    99387345.165       -3045.717          34.000  
> 2025 10 30 06 17 25.1600000  0 21                     
G32  21928997.879   115237659.238       -2846.993          45.000    21928990.878    89795550.437       -2218.500          41.000  
G29  23055484.056   121157404.271        -478.747          41.000    23055476.142    94408331.535        -373.148          42.000  
G28  21215609.029   111488778.637       -1151.859          45.000    21215598.687    86874332.048        -897.529          46.000  
G26  20367620.482   107032565.189         779.071          46.000    20367613.367    83401979.792         607.089          45.000  
G31  20628871.832   108405449.683         199.751          46.000    20628861.119    84471737.864         155.624          45.000  
G04  24593297.244   129238633.665        3189.314          37.000    24593295.604   100705445.197        2485.322          39.000  
C33  22483641.418   117078216.568        -599.934          47.000                                                                  
C06  36567876.933   190418531.563        -168.281          44.000    36567859.823   147243616.425        -130.175          47.000  
C14  22600513.646   117686789.526       -2176.065          48.000    22600498.678    91002837.311       -1682.693          51.000  
C16  36994756.964   192641404.340        -200.700          47.000    36994745.015   148962506.111        -155.343          47.000  
C24  21815468.250   113598869.931        -822.451          49.000                                                                  
C26  24346769.317   126780011.440       -2555.721          44.000                                                                  
G03  22886639.824   120270105.679          -5.133          36.000    22886633.468    93716944.969          -3.693          32.000  
G16  22526024.346   118375060.799        3040.960          43.000                                                                  
C09  37719699.211   196416372.755        -158.185          42.000    37719684.918   151881540.865        -122.338          45.000  
C25  23699774.267   123410948.363        1606.995          44.000                                                                  
C13  38292175.182   199397401.084       -2247.338          42.000    38292169.502   154186697.932       -1737.716          45.000  
C08  39115367.532   203683971.957       -2451.295          35.000    39115356.115   157501306.054       -1895.418          43.000  
C10  40526835.498   211033870.267         929.544          34.000    40526836.626   163184833.697         718.154          40.000  
C35  25967697.466   135220635.228         464.258          39.000                                                                  
G25  24271443.030   127547281.541       -3909.563          36.000    24271434.594    99387467.001       -3045.778          34.000  
> 2025 10 30 06 17 25.2000000  0 21                     
G32  21929019.559   115237773.114       -2846.982          45.000    21929012.548    89795639.179       -2218.552          41.000  
G29  23055487.694   121157423.421        -478.782          41.000    23055479.788    94408346.460        -373.213          42.000  
G28  21215617.777   111488824.716       -1152.004          45.000    21215607.478    86874367.943        -897.405          46.000  
G26  20367614.537   107032534.021         779.117          46.000    20367607.420    83401955.503         607.133          45.000  
G31  20628870.317   108405441.694         199.630          46.000    20628859.595    84471731.636         155.594          45.000  
G04  24593272.966   129238506.081        3189.521          37.000    24593271.322   100705345.785        2485.270          39.000  
C33  22483646.019   117078240.562        -599.972          47.000                                                                  
C06  36567878.228   190418538.299        -168.384          44.000    36567861.116   147243621.635        -130.243          47.000  
C14  22600530.352   117686876.573       -2176.188          48.000    22600515.394    91002904.618       -1682.715          51.000  
C16  36994758.493   192641412.383        -200.902          47.000    36994746.550   148962512.326        -155.395          47.000  
C24  21815474.556   113598902.837        -822.618          49.000                                                                  
C26  24346788.930   126780113.677       -2555.892          44.000                                                                  
G03  22886639.860   120270105.875          -5.067          36.000    22886633.488    93716945.112          -3.618          32.000  
G16  22526001.192   118374939.161        3040.905          43.000                                                                  
C09  37719700.436   196416379.091        -158.318          42.000    37719686.136   151881545.766        -122.478          45.000  
C25  23699761.952   123410884.102        1606.622          44.000                                                                  
C13  38292192.437   199397490.992       -2247.654          42.000    38292186.755   154186767.444       -1737.783          45.000  
C08  39115386.365   203684069.972       -2450.674          35.000    39115374.972   157501381.873       -1895.529          43.000  
C10  40526828.341   211033833.127         928.956          34.000    40526829.497   163184804.983         717.888          40.000  
C35  25967693.890   135220616.660         464.207          39.000                                                                  
G25  24271472.791   127547437.915       -3909.499          36.000    24271464.367    99387588.876       -3046.495          34.000  
> 2025 10 30 06 17 25.2400000  0 21                     
G32  21929041.220   115237886.982       -2846.831          45.000    21929034.199    89795727.902       -2218.232          41.000  
G29  23055491.337   121157442.552        -478.417          41.000    23055483.430    94408361.379        -373.091          42.000  
G28  21215626.544   111488870.777       -1151.752          45.000    21215616.243    86874403.828        -897.183          46.000  
G26  20367608.607   107032502.844         779.317          46.000    20367601.485    83401931.212         607.208          45.000  
G31  20628868.796   108405433.686         199.951          46.000    20628858.060    84471725.397         155.867          45.000  
G04  24593248.661   129238378.487        3189.841          37.000    24593247.036   100705246.370        2485.297          39.000  
C33  22483650.632   117078264.541        -599.659          47.000                                                                  
C06  36567879.527   190418545.028        -168.285          44.000    36567862.392   147243626.837        -130.117          47.000  
C14  22600547.069   117686963.599       -2175.856          48.000    22600532.118    91002971.917       -1682.593          51.000  
C16  36994760.018   192641420.422        -200.972          47.000    36994748.113   148962518.537        -155.357          47.000  
C24  21815480.908   113598935.726        -822.392          49.000                                                                  
C26  24346808.566   126780215.901       -2555.720          44.000                                                                  
G03  22886639.911   120270106.058          -4.782          36.000    22886633.529    93716945.306          -4.595          32.000  
G16  22525978.028   118374817.504        3041.282          43.000                                                                  
C09  37719701.656   196416385.410        -158.081          42.000    37719687.325   151881550.654        -122.346          45.000  
C25  23699749.599   123410819.812        1607.007          44.000                                                                  
C13  38292209.692   199397580.869       -2247.278          42.000    38292204.025   154186836.936       -1737.459          45.000  
C08  39115405.204   203684168.003       -2450.628          35.000    39115393.827   157501457.672       -1895.229          43.000  
C10  40526821.219   211033795.994         928.417          34.000    40526822.346   163184776.236         718.367          40.000  
C35  25967690.342   135220598.085         464.294          39.000                                                                  
G25  24271502.551   127547594.275       -3909.204          36.000    24271494.128    99387710.753       -3046.994          34.000  
> 2025 10 30 06 17 25.2800000  0 21                     
G32  21929062.901   115238000.840       -2846.563          45.000    21929055.854    89795816.623       -2218.011          41.000  
G29  23055495.002   121157461.701        -478.558          41.000    23055487.064    94408376.278        -372.625          42.000  
G28  21215635.300   111488916.828       -1151.421          45.000    21215624.997    86874439.713        -897.080          46.000  
G26  20367602.671   107032471.664         779.446          46.000    20367595.541    83401906.912         607.426          45.000  
G31  20628867.277   108405425.667         200.364          46.000    20628856.527    84471719.142         156.279          45.000  
G04  24593224.402   129238250.885        3190.004          37.000    24593222.747   100705146.950        2485.465          39.000  
C33  22483655.265   117078288.513        -599.375          47.000                                                                  
C06  36567880.813   190418551.754        -168.160          44.000    36567863.659   147243632.028        -129.873          47.000  
C14  22600563.766   117687050.625       -2175.694          48.000    22600548.809    91003039.212       -1682.430          51.000  
C16  36994761.564   192641428.440        -200.628          47.000    36994749.617   148962524.733        -155.053          47.000  
C24  21815487.241   113598968.609        -822.180          49.000                                                                  
C26  24346828.200   126780318.113       -2555.417          44.000                                                                  
G03  22886639.943   120270106.246          -4.697          36.000    22886633.578    93716945.475          -4.611          32.000  
G16  22525954.857   118374695.845        3041.513          43.000                                                                  
C09  37719702.851   196416391.723        -157.883          42.000    37719688.514   151881555.539        -122.195          45.000  
C25  23699737.268   123410755.514        1607.349          44.000                                                                  
C13  38292226.928   199397670.734       -2246.856          42.000    38292221.277   154186906.438       -1737.480          45.000  
C08  39115424.037   203684266.028       -2450.567          35.000    39115412.661   157501533.469       -1895.000          43.000  
C10  40526814.090   211033758.851         928.381          34.000    40526815.207   163184747.509         718.274          40.000  
C35  25967686.793   135220579.500         464.519          39.000                                                                  
G25  24271532.303   127547750.638       -3909.106          36.000    24271523.885    99387832.597       -3046.463          34.000  
> 2025 10 30 06 17 25.3200000  0 21                     
G32  21929084.578   115238114.707       -2846.602          45.000    21929077.504    89795905.346       -2218.000          41.000  
G29  23055498.641   121157480.825        -478.232          41.000    23055490.697    94408391.187        -372.573          42.000  
G28  21215644.063   111488962.879       -1151.252          45.000    21215633.772    86874475.612        -897.317          46.000  
G26  20367596.752   107032440.492         779.345          46.000    20367589.611    83401882.615         607.480          45.000  
G31  20628865.763   108405417.654         200.424          46.000    20628855.007    84471712.896         156.302          45.000  
G04  24593200.113   129238123.290        3189.961          37.000    24593198.471   100705047.511        2485.856          39.000  
C33  22483659.871   117078312.492        -599.375          47.000                                                                  
C06  36567882.102   190418558.464        -167.858          45.000    36567864.961   147243637.225        -129.855          47.000  
C14  22600580.472   117687137.651       -2175.621          48.000    22600565.494    91003106.504       -1682.312          51.000  
C16  36994763.127   192641436.460        -200.473          47.000    36994751.159   148962530.936        -155.021          47.000  
C24  21815493.563   113599001.496        -822.141          49.000                                                                  
C26  24346847.830   126780420.326       -2555.303          44.000                                                                  
G03  22886639.975   120270106.433          -4.602          36.000    22886633.597    93716945.577          -3.194          32.000  
G16  22525931.706   118374574.192        3041.442          43.000                                                                  
C09  37719704.054   196416398.050        -158.052          42.000    37719689.738   151881560.417        -122.020          45.000  
C25  23699724.922   123410691.225        1607.343          44.000                                                                  
C13  38292244.197   199397760.613       -2246.885          42.000    38292238.563   154186975.938       -1737.494          45.000  
C08  39115442.855   203684364.064       -2450.734          36.000    39115431.494   157501609.264       -1894.892          43.000  
C10  40526806.951   211033721.671         929.177          34.000    40526808.074   163184718.773         718.369          40.000  
C35  25967683.235   135220560.930         464.340          39.000                                                                  
G25  24271562.074   127547907.000       -3909.012          36.000    24271553.630    99387954.409       -3045.696          34.000  
> 2025 10 30 06 17 25.3600000  0 21                     
G32  21929106.212   115238228.567       -2846.507          45.000    21929099.171    89795994.067       -2218.016          41.000  
G29  23055502.288   121157499.955        -478.180          41.000    23055494.347    94408406.091        -372.502          42.000  
G28  21215652.840   111489008.933       -1151.238          45.000    21215642.543    86874511.501        -897.283          46.000  
G26  20367590.804   107032409.309         779.512          46.000    20367583.686    83401858.321         607.416          45.000  
G31  20628864.241   108405409.635         200.540          46.000    20628853.488    84471706.643         156.374          45.000  
G04  24593175.858   129237995.699        3189.837          37.000    24593174.197   100704948.081        2485.847          39.000  
C33  22483664.464   117078336.465        -599.297          47.000                                                                  
C06  36567883.369   190418565.176        -167.772          45.000    36567866.260   147243642.417        -129.788          47.000  
C14  22600597.185   117687224.677       -2175.601          48.000    22600582.213    91003173.797       -1682.290          51.000  
C16  36994764.722   192641444.473        -200.311          47.000    36994752.705   148962537.138        -155.013          47.000  
C24  21815499.889   113599034.382        -822.120          49.000                                                                  
C26  24346867.438   126780522.534       -2555.182          44.000                                                                  
G03  22886639.984   120270106.621          -4.630          36.000    22886633.612    93716945.725          -3.442          32.000  
G16  22525908.559   118374452.536        3041.414          43.000                                                                  
C09  37719705.269   196416404.362        -157.915          42.000    37719690.936   151881565.299        -121.999          45.000  
C25  23699712.582   123410626.938        1607.233          44.000                                                                  
C13  38292261.473   199397850.475       -2246.619          42.000    38292255.844   154187045.432       -1737.427          45.000  
C08  39115461.696   203684462.096       -2450.824          36.000    39115450.361   157501685.063       -1894.908          43.000  
C10  40526799.795   211033684.488         929.612          34.000    40526800.952   163184690.032         718.466          40.000  
C35  25967679.682   135220542.344         464.541          39.000                                                                  
G25  24271591.808   127548063.346       -3908.808          36.000    24271583.371    99388076.231       -3045.507          33.000  
> 2025 10 30 06 17 25.4000000  0 21                     
G32  21929127.875   115238342.437       -2846.681          45.000    21929120.850    89796082.788       -2218.045          41.000  
G29  23055505.937   121157519.096        -478.397          41.000    23055497.971    94408421.012        -372.813          42.000  
G28  21215661.622   111489054.994       -1151.402          45.000    21215651.288    86874547.389        -897.243          46.000  
G26  20367584.878   107032378.128         779.536          46.000    20367577.781    83401834.026         607.371          45.000  
G31  20628862.714   108405401.632         200.249          46.000    20628851.961    84471700.414         155.929          45.000  
G04  24593151.581   129237868.112        3189.703          37.000    24593149.930   100704848.670        2485.419          39.000  
C33  22483669.048   117078360.443        -599.357          47.000                                                                  
C06  36567884.640   190418571.887        -167.744          45.000    36567867.565   147243647.610        -129.801          47.000  
C14  22600613.902   117687311.707       -2175.692          48.000    22600598.936    91003241.094       -1682.394          51.000  
C16  36994766.243   192641452.501        -200.527          47.000    36994754.242   148962543.344        -155.080          47.000  
C24  21815506.201   113599067.265        -822.077          49.000                                                                  
C26  24346887.045   126780624.757       -2555.394          44.000                                                                  
G03  22886640.024   120270106.802          -4.544          36.000    22886633.662    93716945.865          -3.426          32.000  
G16  22525885.408   118374330.886        3041.305          43.000                                                                  
C09  37719706.462   196416410.671        -157.777          42.000    37719692.152   151881570.186        -122.122          45.000  
C25  23699700.239   123410562.643        1607.330          44.000                                                                  
C13  38292278.737   199397940.357       -2246.871          42.000    38292273.091   154187114.928       -1737.421          45.000  
C08  39115480.535   203684560.111       -2450.497          36.000    39115469.197   157501760.864       -1894.980          43.000  
C10  40526792.639   211033647.321         929.526          34.000    40526793.807   163184661.281         718.691          40.000  
C35  25967676.113   135220523.777         464.256          39.000                                                                  
G25  24271621.572   127548219.694       -3908.699          36.000    24271613.131    99388198.061       -3045.618          34.000  
> 2025 10 30 06 17 25.4400000  0 21                     
G32  21929149.552   115238456.304       -2846.711          45.000    21929142.516    89796171.514       -2218.134          41.000  
G29  23055509.585   121157538.248        -478.749          41.000    23055501.614    94408435.953        -373.365          42.000  
G28  21215670.407   111489101.064       -1151.661          45.000    21215660.072    86874583.281        -897.291          46.000  
G26  20367578.960   107032346.952         779.423          46.000    20367571.836    83401809.738         607.209          45.000  
G31  20628861.179   108405393.626         200.126          46.000    20628850.439    84471694.184         155.721          45.000  
G04  24593127.286   129237740.523        3189.673          37.000    24593125.660   100704749.262        2485.157          39.000  
C33  22483673.622   117078384.428        -599.545          47.000                                                                  
C06  36567885.888   190418578.606        -167.866          45.000    36567868.897   147243652.803        -129.824          47.000  
C14  22600630.606   117687398.747       -2175.933          48.000    22600615.665    91003308.398       -1682.565          51.000  
C16  36994767.771   192641460.526        -200.612          47.000    36994755.764   148962549.554        -155.223          47.000  
C24  21815512.483   113599100.158        -822.259          49.000                                                                  
C26  24346906.646   126780726.979       -2555.546          44.000                                                                  
G03  22886640.084   120270107.012          -5.074          36.000    22886633.702    93716946.030          -3.911          32.000  
G16  22525862.261   118374209.241        3041.140          43.000                                                                  
C09  37719707.673   196416416.992        -157.945          42.000    37719693.355   151881575.074        -122.198          45.000  
C25  23699687.902   123410498.356        1607.166          44.000                                                                  
C13  38292296.014   199398030.235       -2246.989          42.000    38292290.353   154187184.427       -1737.509          45.000  
C08  39115499.348   203684658.123       -2450.347          36.000    39115488.033   157501836.671       -1895.149          43.000  
C10  40526785.505   211033610.134         929.589          34.000    40526786.658   163184632.547         718.484          40.000  
C35  25967672.542   135220505.211         464.127          39.000                                                                  
G25  24271651.338   127548376.082       -3909.414          36.000    24271642.887    99388319.924       -3046.261          34.000  
> 2025 10 30 06 17 25.4800000  0 21                     
G32  21929171.244   115238570.174       -2846.787          45.000    21929164.190    89796260.250       -2218.359          41.000  
G29  23055513.236   121157557.392        -478.796          41.000    23055505.253    94408450.868        -373.151          42.000  
G28  21215679.178   111489147.134       -1151.814          45.000    21215668.852    86874619.180        -897.435          46.000  
G26  20367573.041   107032315.791         779.100          46.000    20367565.894    83401785.457         607.012          45.000  
G31  20628859.670   108405385.628         199.941          46.000    20628848.904    84471687.949         155.697          45.000  
G04  24593103.024   129237612.932        3189.723          37.000    24593101.382   100704649.834        2485.403          39.000  
C33  22483678.219   117078408.422        -599.818          47.000                                                                  
C06  36567887.168   190418585.336        -168.130          45.000    36567870.222   147243658.005        -129.989          47.000  
C14  22600647.318   117687485.788       -2176.068          48.000    22600632.388    91003375.704       -1682.683          51.000  
C16  36994769.309   192641468.562        -200.870          47.000    36994757.302   148962555.755        -155.136          47.000  
C24  21815518.807   113599133.054        -822.379          49.000                                                                  
C26  24346926.288   126780829.197       -2555.505          44.000                                                                  
G03  22886640.144   120270107.204          -4.929          36.000    22886633.725    93716946.157          -3.513          32.000  
G16  22525839.111   118374087.593        3041.112          43.000                                                                  
C09  37719708.878   196416423.323        -158.210          42.000    37719694.562   151881579.968        -122.355          45.000  
C25  23699675.530   123410434.078        1606.946          44.000                                                                  
C13  38292313.254   199398120.115       -2247.075          42.000    38292307.673   154187253.932       -1737.651          45.000  
C08  39115518.195   203684756.191       -2451.185          36.000    39115506.852   157501912.478       -1895.265          43.000  
C10  40526778.388   211033572.983         929.128          34.000    40526779.522   163184603.811         718.383          40.000  
C35  25967668.964   135220486.642         464.130          39.000                                                                  
G25  24271681.090   127548532.445       -3909.374          36.000    24271672.640    99388441.788       -3046.710          34.000  
> 2025 10 30 06 17 25.5200000  0 21                     
G32  21929192.917   115238684.048       -2846.875          45.000    21929185.870    89796348.980       -2218.339          41.000  
G29  23055516.885   121157576.551        -478.992          41.000    23055508.908    94408465.772        -372.810          42.000  
G28  21215687.922   111489193.202       -1151.830          45.000    21215677.611    86874655.077        -897.470          46.000  
G26  20367567.106   107032284.619         779.140          46.000    20367559.958    83401761.168         607.083          45.000  
G31  20628858.143   108405377.628         199.868          46.000    20628847.384    84471681.717         155.729          45.000  
G04  24593078.727   129237485.342        3189.730          37.000    24593077.107   100704550.415        2485.468          39.000  
C33  22483682.822   117078432.418        -599.950          47.000                                                                  
C06  36567888.464   190418592.069        -168.326          45.000    36567871.512   147243663.213        -130.182          47.000  
C14  22600664.047   117687572.826       -2176.064          48.000    22600649.095    91003443.011       -1682.750          51.000  
C16  36994770.893   192641476.590        -200.830          47.000    36994758.858   148962561.961        -155.168          47.000  
C24  21815525.132   113599165.949        -822.440          49.000                                                                  
C26  24346945.911   126780931.418       -2555.566          44.000                                                                  
G03  22886640.141   120270107.394          -4.867          36.000    22886633.760    93716946.316          -3.809          32.000  
G16  22525815.964   118373965.956        3040.936          43.000                                                                  
C09  37719710.089   196416429.647        -158.179          42.000    37719695.753   151881584.862        -122.448          45.000  
C25  23699663.187   123410369.803        1606.818          44.000                                                                  
C13  38292330.541   199398210.004       -2247.223          42.000    38292324.963   154187323.442       -1737.800          45.000  
C08  39115537.010   203684854.210       -2450.771          36.000    39115525.645   157501988.291       -1895.419          43.000  
C10  40526771.242   211033535.831         928.827          34.000    40526772.404   163184575.097         717.921          40.000  
C35  25967665.397   135220468.054         464.521          39.000                                                                  
G25  24271710.850   127548688.810       -3909.297          36.000    24271702.404    99388563.621       -3046.279          34.000  
> 2025 10 30 06 17 25.5600000  0 21                     
G32  21929214.576   115238797.915       -2846.733          45.000    21929207.531    89796437.708       -2218.243          41.000  
G29  23055520.543   121157595.695        -478.780          41.000    23055512.530    94408480.684        -372.762          42.000  
G28  21215696.701   111489239.262       -1151.670          45.000    21215686.387    86874690.965        -897.319          46.000  
G26  20367561.190   107032253.452         779.135          46.000    20367554.029    83401736.880         607.134          45.000  
G31  20628856.605   108405369.615         200.166          46.000    20628845.873    84471675.466         156.143          45.000  
G04  24593054.459   129237357.751        3189.786          37.000    24593052.824   100704451.003        2485.292          39.000  
C33  22483687.429   117078456.403        -599.798          47.000                                                                  
C06  36567889.776   190418598.785        -168.120          45.000    36567872.823   147243668.409        -130.062          47.000  
C14  22600680.787   117687659.856       -2175.885          48.000    22600665.826    91003510.307       -1682.556          51.000  
C16  36994772.446   192641484.617        -200.768          47.000    36994760.366   148962568.165        -155.135          47.000  
C24  21815531.460   113599198.837        -822.317          49.000                                                                  
C26  24346965.556   126781033.633       -2555.464          44.000                                                                  
G03  22886640.185   120270107.593          -5.051          36.000    22886633.803    93716946.494          -4.257          32.000  
G16  22525792.813   118373844.295        3041.302          43.000                                                                  
C09  37719711.306   196416435.960        -157.955          42.000    37719696.979   151881589.742        -122.191          45.000  
C25  23699650.818   123410305.509        1607.178          44.000                                                                  
C13  38292347.793   199398299.872       -2246.923          42.000    38292342.205   154187392.931       -1737.436          45.000  
C08  39115555.806   203684952.225       -2450.417          36.000    39115544.484   157502064.080       -1895.025          43.000  
C10  40526764.128   211033498.687         928.509          34.000    40526765.265   163184546.358         718.189          40.000  
C35  25967661.827   135220449.482         464.463          39.000                                                                  
G25  24271740.568   127548845.179       -3909.332          36.000    24271732.148    99388685.439       -3045.780          34.000  
> 2025 10 30 06 17 25.6000000  0 21                     
G32  21929236.240   115238911.772       -2846.481          45.000    21929229.199    89796526.428       -2218.049          42.000  
G29  23055524.170   121157614.813        -478.125          41.000    23055516.177    94408495.609        -373.022          42.000  
G28  21215705.461   111489285.306       -1151.294          45.000    21215695.155    86874726.844        -897.083          46.000  
G26  20367555.261   107032222.267         779.459          46.000    20367548.106    83401712.579         607.408          45.000  
G31  20628855.067   108405361.602         200.301          46.000    20628844.342    84471669.210         156.432          45.000  
G04  24593030.179   129237230.163        3189.752          37.000    24593028.533   100704351.551        2485.919          39.000  
C33  22483692.065   117078480.374        -599.458          47.000                                                                  
C06  36567891.079   190418605.493        -167.831          45.000    36567874.111   147243673.595        -129.806          47.000  
C14  22600697.512   117687746.877       -2175.599          48.000    22600682.544    91003577.596       -1682.297          51.000  
C16  36994773.937   192641492.625        -200.394          47.000    36994761.943   148962574.364        -155.026          47.000  
C24  21815537.816   113599231.717        -822.082          49.000                                                                  
C26  24346985.161   126781135.831       -2555.089          44.000                                                                  
G03  22886640.227   120270107.769          -4.665          36.000    22886633.844    93716946.628          -3.678          32.000  
G16  22525769.684   118373722.634        3041.496          43.000                                                                  
C09  37719712.499   196416442.267        -157.743          42.000    37719698.233   151881594.611        -121.824          45.000  
C25  23699638.504   123410241.212        1607.404          44.000                                                                  
C13  38292365.042   199398389.743       -2246.812          43.000    38292359.448   154187462.418       -1737.201          45.000  
C08  39115574.636   203685050.260       -2450.566          36.000    39115563.287   157502139.876       -1894.945          43.000  
C10  40526756.984   211033461.513         929.080          34.000    40526758.122   163184517.599         718.717          40.000  
C35  25967658.263   135220430.908         464.385          39.000                                                                  
G25  24271770.319   127549001.545       -3909.246          36.000    24271761.895    99388807.272       -3045.710          34.000  
> 2025 10 30 06 17 25.6400000  0 21                     
G32  21929257.876   115239025.633       -2846.450          45.000    21929250.866    89796615.146       -2217.967          41.000  
G29  23055527.780   121157633.944        -478.070          41.000    23055519.813    94408510.519        -372.876          42.000  
G28  21215714.227   111489331.361       -1151.271          45.000    21215703.933    86874762.731        -897.097          46.000  
G26  20367549.315   107032191.086         779.557          46.000    20367542.178    83401688.280         607.511          45.000  
G31  20628853.510   108405353.576         200.608          46.000    20628842.828    84471662.973         156.134          45.000  
G04  24593005.877   129237102.559        3189.984          37.000    24593004.247   100704252.136        2485.574          39.000  
C33  22483696.676   117078504.351        -599.394          47.000                                                                  
C06  36567892.378   190418612.199        -167.682          45.000    36567875.397   147243678.775        -129.554          47.000  
C14  22600714.216   117687833.906       -2175.644          48.000    22600699.266    91003644.891       -1682.321          51.000  
C16  36994775.459   192641500.640        -200.331          47.000    36994763.494   148962580.558        -154.900          47.000  
C24  21815544.137   113599264.593        -821.885          49.000                                                                  
C26  24347004.772   126781238.036       -2555.015          44.000                                                                  
G03  22886640.261   120270107.982          -5.223          36.000    22886633.865    93716946.754          -3.198          32.000  
G16  22525746.521   118373600.971        3041.632          43.000                                                                  
C09  37719713.716   196416448.575        -157.672          42.000    37719699.438   151881599.493        -121.900          45.000  
C25  23699626.137   123410176.910        1607.587          44.000                                                                  
C13  38292382.284   199398479.610       -2246.695          43.000    38292376.698   154187531.908       -1737.179          45.000  
C08  39115593.468   203685148.259       -2450.079          36.000    39115582.125   157502215.670       -1894.886          43.000  
C10  40526749.851   211033424.351         929.166          33.000    40526750.997   163184488.848         718.868          40.000  
C35  25967654.705   135220412.335         464.308          39.000                                                                  
G25  24271800.055   127549157.887       -3908.819          36.000    24271791.635    99388929.114       -3045.903          34.000  
> 2025 10 30 06 17 25.6800000  0 21                     
G32  21929279.539   115239139.501       -2846.596          45.000    21929272.545    89796703.886       -2218.307          41.000  
G29  23055531.435   121157653.092        -478.427          41.000    23055523.453    94408525.439        -372.964          42.000  
G28  21215723.006   111489377.416       -1151.313          45.000    21215712.729    86874798.625        -897.254          46.000  
G26  20367543.391   107032159.912         779.437          46.000    20367536.223    83401663.987         607.397          45.000  
G31  20628852.021   108405345.567         200.384          46.000    20628841.335    84471656.731         156.047          45.000  
G04  24592981.618   129236974.949        3190.212          37.000    24592979.953   100704152.694        2485.882          39.000  
C33  22483701.239   117078528.332        -599.463          47.000                                                                  
C06  36567893.700   190418618.907        -167.638          45.000    36567876.680   147243683.966        -129.658          47.000  
C14  22600730.925   117687920.933       -2175.665          48.000    22600715.967    91003712.191       -1682.457          51.000  
C16  36994776.975   192641508.654        -200.337          47.000    36994765.043   148962586.760        -154.996          47.000  
C24  21815550.411   113599297.479        -822.005          49.000                                                                  
C26  24347024.417   126781340.248       -2555.184          44.000                                                                  
G03  22886640.297   120270108.147          -4.577          36.000    22886633.907    93716946.881          -3.070          32.000  
G16  22525723.376   118373479.319        3041.481          43.000                                                                  
C09  37719714.904   196416454.890        -157.777          42.000    37719700.665   151881604.370        -121.857          45.000  
C25  23699613.779   123410112.623        1607.336          44.000                                                                  
C13  38292399.541   199398569.484       -2246.752          43.000    38292393.956   154187601.402       -1737.300          45.000  
C08  39115612.288   203685246.289       -2450.513          36.000    39115600.953   157502291.474       -1895.047          43.000  
C10  40526742.696   211033387.142         930.031          33.000    40526743.872   163184460.108         718.639          40.000  
C35  25967651.139   135220393.762         464.303          39.000                                                                  
G25  24271829.793   127549314.232       -3908.699          36.000    24271821.385    99389050.934       -3045.726          34.000  
> 2025 10 30 06 17 25.7200000  0 21                     
G32  21929301.194   115239253.369       -2846.668          45.000    21929294.213    89796792.619       -2218.346          42.000  
G29  23055535.085   121157672.241        -478.665          41.000    23055527.083    94408540.353        -372.882          42.000  
G28  21215731.770   111489423.474       -1151.382          45.000    21215721.496    86874834.510        -897.188          46.000  
G26  20367537.448   107032128.739         779.337          46.000    20367530.291    83401639.697         607.260          45.000  
G31  20628850.489   108405337.552         200.390          46.000    20628839.816    84471650.493         155.968          45.000  
G04  24592957.329   129236847.365        3189.873          37.000    24592955.679   100704053.268        2485.746          39.000  
C33  22483705.817   117078552.325        -599.719          47.000                                                                  
C06  36567894.979   190418625.622        -167.777          45.000    36567877.957   147243689.159        -129.768          47.000  
C14  22600747.632   117688007.962       -2175.671          48.000    22600732.690    91003779.489       -1682.507          51.000  
C16  36994778.479   192641516.673        -200.404          47.000    36994766.583   148962592.957        -154.964          47.000  
C24  21815556.688   113599330.365        -822.100          49.000                                                                  
C26  24347044.043   126781442.472       -2555.480          44.000                                                                  
G03  22886640.316   120270108.337          -4.630          36.000    22886633.933    93716947.038          -3.467          32.000  
G16  22525700.238   118373357.668        3041.341          43.000                                                                  
C09  37719716.127   196416461.199        -157.745          42.000    37719701.849   151881609.243        -121.783          45.000  
C25  23699601.420   123410048.334        1607.220          44.000                                                                  
C13  38292416.783   199398659.357       -2246.771          43.000    38292411.226   154187670.897       -1737.381          45.000  
C08  39115631.116   203685344.308       -2450.509          36.000    39115619.789   157502367.272       -1895.037          43.000  
C10  40526735.552   211033349.960         929.968          33.000    40526736.764   163184431.363         718.692          40.000  
C35  25967647.553   135220375.186         464.329          39.000                                                                  
G25  24271859.535   127549470.589       -3908.769          36.000    24271851.139    99389172.780       -3046.108          34.000  
> 2025 10 30 06 17 25.7600000  0 21                     
G32  21929322.833   115239367.233       -2846.648          45.000    21929315.858    89796881.326       -2217.910          42.000  
G29  23055538.717   121157691.379        -478.549          41.000    23055530.732    94408555.257        -372.682          42.000  
G28  21215740.507   111489469.522       -1151.269          45.000    21215730.248    86874870.397        -897.174          46.000  
G26  20367531.524   107032097.565         779.331          46.000    20367524.368    83401615.412         607.073          45.000  
G31  20628848.986   108405329.541         200.292          46.000    20628838.300    84471644.247         156.054          45.000  
G04  24592933.022   129236719.754        3190.198          37.000    24592931.416   100703953.853        2485.445          39.000  
C33  22483710.451   117078576.301        -599.529          47.000                                                                  
C06  36567896.270   190418632.336        -167.865          45.000    36567879.198   147243694.345        -129.720          47.000  
C14  22600764.358   117688094.986       -2175.615          48.000    22600749.421    91003846.783       -1682.442          51.000  
C16  36994780.039   192641524.685        -200.341          47.000    36994768.112   148962599.155        -154.978          47.000  
C24  21815563.002   113599363.251        -822.158          49.000                                                                  
C26  24347063.680   126781544.672       -2555.223          44.000                                                                  
G03  22886640.358   120270108.525          -4.748          36.000    22886633.992    93716947.249          -5.052          32.000  
G16  22525677.082   118373236.009        3041.437          43.000                                                                  
C09  37719717.362   196416467.502        -157.613          42.000    37719703.043   151881614.115        -121.781          45.000  
C25  23699589.083   123409984.040        1607.275          44.000                                                                  
C13  38292434.033   199398749.218       -2246.655          43.000    38292428.507   154187740.383       -1737.256          45.000  
C08  39115649.940   203685442.326       -2450.501          36.000    39115638.618   157502443.060       -1894.819          43.000  
C10  40526728.417   211033312.817         929.141          34.000    40526729.599   163184402.619         718.612          40.000  
C35  25967644.005   135220356.595         464.630          39.000                                                                  
G25  24271889.280   127549626.949       -3908.898          36.000    24271880.886    99389294.632       -3046.419          34.000  
> 2025 10 30 06 17 25.8000000  0 21                     
G32  21929344.484   115239481.089       -2846.499          45.000    21929337.524    89796970.052       -2217.987          42.000  
G29  23055542.374   121157710.521        -478.561          41.000    23055534.378    94408570.166        -372.666          42.000  
G28  21215749.275   111489515.575       -1151.287          45.000    21215739.001    86874906.278        -897.062          46.000  
G26  20367525.598   107032066.390         779.313          46.000    20367518.419    83401591.119         607.194          45.000  
G31  20628847.455   108405321.523         200.347          46.000    20628836.776    84471637.993         156.263          45.000  
G04  24592908.736   129236592.158        3190.068          37.000    24592907.130   100703854.412        2485.791          39.000  
C33  22483715.069   117078600.281        -599.503          47.000                                                                  
C06  36567897.577   190418639.040        -167.701          45.000    36567880.459   147243699.532        -129.667          47.000  
C14  22600781.080   117688182.008       -2175.527          48.000    22600766.103    91003914.076       -1682.379          51.000  
C16  36994781.605   192641532.693        -200.259          47.000    36994769.625   148962605.345        -154.836          47.000  
C24  21815569.328   113599396.129        -822.031          49.000                                                                  
C26  24347083.297   126781646.869       -2554.980          44.000                                                                  
G03  22886640.394   120270108.704          -4.550          36.000    22886634.043                          -3.650          32.000  
G16  22525653.924   118373114.340        3041.659          43.000                                                                  
C09  37719718.592   196416473.808        -157.609          42.000    37719704.254   151881619.003        -122.061          45.000  
C25  23699576.770   123409919.746        1607.312          44.000                                                                  
C13  38292451.295   199398839.075       -2246.475          43.000    38292445.769   154187809.871       -1737.206          45.000  
C08  39115668.757   203685540.363       -2450.783          35.000    39115657.456   157502518.852       -1894.758          44.000  
C10  40526721.273   211033275.630         929.438          34.000    40526722.478   163184373.861         718.815          40.000  
C35  25967640.429   135220338.005         464.830          39.000                                                                  
G25  24271919.043   127549783.300       -3908.845          36.000    24271910.654    99389416.467       -3046.236          34.000  
> 2025 10 30 06 17 25.8400000  0 21                     
G32  21929366.156   115239594.948       -2846.456          45.000    21929359.188    89797058.767       -2217.902          42.000  
G29  23055546.011   121157729.646        -478.278          40.000    23055538.027    94408585.080        -372.806          42.000  
G28  21215758.009   111489561.620       -1151.198          45.000    21215747.752    86874942.153        -896.901          46.000  
G26  20367519.663   107032035.209         779.450          46.000    20367512.494    83401566.813         607.467          45.000  
G31  20628845.909   108405313.499         200.526          46.000    20628835.254    84471631.730         156.528          45.000  
G04  24592884.460   129236464.546        3190.135          37.000    24592882.847   100703754.974        2485.939          39.000  
C33  22483719.666   117078624.263        -599.532          47.000                                                                  
C06  36567898.872   190418645.743        -167.607          45.000    36567881.759   147243704.709        -129.490          47.000  
C14  22600797.800   117688269.026       -2175.454          48.000    22600782.811    91003981.367       -1682.311          51.000  
C16  36994783.148   192641540.689        -200.006          47.000    36994771.149   148962611.533        -154.743          47.000  
C24  21815575.671   113599429.007        -821.948          49.000                                                                  
C26  24347102.931   126781749.074       -2555.049          44.000                                                                  
G03  22886640.443   120270108.877          -4.254          36.000    22886634.073    93716947.474          -3.227          32.000  
G16  22525630.759   118372992.671        3041.757          43.000                                                                  
C09  37719719.828   196416480.103        -157.401          42.000    37719705.450   151881623.881        -122.033          45.000  
C25  23699564.412   123409855.442        1607.550          44.000                                                                  
C13  38292468.551   199398928.933       -2246.408          43.000    38292463.014   154187879.352       -1737.070          45.000  
C08  39115687.577   203685638.413       -2451.273          35.000    39115676.268   157502594.625       -1894.463          44.000  
C10  40526714.155   211033238.433         929.817          34.000    40526715.343   163184345.115         718.684          40.000  
C35  25967636.863   135220319.424         464.713          39.000                                                                  
G25  24271948.791   127549939.653       -3908.833          36.000    24271940.386    99389538.285       -3045.793          34.000  
> 2025 10 30 06 17 25.8800000  0 21                     
G32  21929387.815   115239708.805       -2846.414          45.000    21929380.857    89797147.486       -2217.952          42.000  
G29  23055549.648   121157748.771        -478.130          41.000    23055541.666    94408599.998        -372.950          42.000  
G28  21215766.757   111489607.659       -1151.023          45.000    21215756.512    86874978.028        -896.865          46.000  
G26  20367513.738   107032004.026         779.511          46.000    20367506.545    83401542.512         607.540          45.000  
G31  20628844.360   108405305.464         200.809          46.000    20628833.729    84471625.480         156.372          45.000  
G04  24592860.204   129236336.934        3190.217          37.000    24592858.558   100703655.543        2485.882          39.000  
C33  22483724.298   117078648.239        -599.450          47.000                                                                  
C06  36567900.133   190418652.433        -167.301          45.000    36567883.054   147243709.885        -129.401          47.000  
C14  22600814.517   117688356.039       -2175.330          47.000    22600799.516    91004048.654       -1682.224          51.000  
C16  36994784.690   192641548.692        -200.018          47.000    36994772.669   148962617.715        -154.559          47.000  
C24  21815582.005   113599461.871        -821.686          49.000                                                                  
C26  24347122.543   126781851.262       -2554.797          44.000                                                                  
G03  22886640.486   120270109.057          -4.373          36.000    22886634.105    93716947.587          -2.884          32.000  
G16  22525607.592   118372870.997        3041.865          43.000                                                                  
C09  37719721.071   196416486.403        -157.418          42.000    37719706.656   151881628.751        -121.848          45.000  
C25  23699552.063   123409791.133        1607.709          44.000                                                                  
C13  38292485.820   199399018.781       -2246.217          43.000    38292480.280   154187948.827       -1736.885          45.000  
C08  39115706.431   203685736.440       -2450.978          35.000    39115695.067   157502670.409       -1894.511          44.000  
C10  40526706.986   211033201.245         929.804          34.000    40526708.183   163184316.342         719.096          40.000  
C35  25967633.309   135220300.853         464.390          39.000                                                                  
G25  24271978.577   127550095.978       -3908.241          36.000    24271970.136    99389660.093       -3045.402          34.000  
> 2025 10 30 06 17 25.9200000  0 21                     
G32  21929409.457   115239822.655       -2846.273          45.000    21929402.518    89797236.207       -2218.004          42.000  
G29  23055553.280   121157767.908        -478.284          40.000    23055545.324    94408614.905        -372.804          42.000  
G28  21215775.527   111489653.698       -1150.964          45.000    21215765.281    86875013.906        -896.913          46.000  
G26  20367507.788   107031972.836         779.709          46.000    20367500.618    83401518.219         607.377          45.000  
G31  20628842.834   108405297.435         200.813          46.000    20628832.212    84471619.227         156.329          45.000  
G04  24592835.928   129236209.331        3190.146          37.000    24592834.279   100703556.103        2485.983          39.000  
C33  22483728.925   117078672.214        -599.413          47.000                                                                  
C06  36567901.403   190418659.130        -167.313          45.000    36567884.350   147243715.064        -129.436          47.000  
C14  22600831.232   117688443.049       -2175.232          47.000    22600816.210    91004115.943       -1682.207          50.000  
C16  36994786.217   192641556.696        -200.067          47.000    36994774.181   148962623.903        -154.597          47.000  
C24  21815588.316   113599494.739        -821.657          49.000                                                                  
C26  24347142.155   126781953.463       -2554.890          44.000                                                                  
G03  22886640.546   120270109.252          -4.733          36.000    22886634.138                          -3.578          32.000  
G16  22525584.439   118372749.328        3041.797          43.000                                                                  
C09  37719722.281   196416492.695        -157.319          42.000    37719707.865   151881633.609        -121.578          45.000  
C25  23699539.707   123409726.830        1607.660          44.000                                                                  
C13  38292503.107   199399108.632       -2246.169          43.000    38292497.543   154188018.305       -1736.875          45.000  
C08  39115725.262   203685834.453       -2450.586          35.000    39115713.886   157502746.195       -1894.595          45.000  
C10  40526699.858   211033164.033         930.226          34.000    40526701.037   163184287.600         718.741          39.000  
C35  25967629.745   135220282.256         464.719          39.000                                                                  
G25  24272008.312   127550252.326       -3908.440          36.000    24271999.883    99389781.897       -3045.222          34.000  
> 2025 10 30 06 17 25.9600000  0 21                     
G32  21929431.103   115239936.505       -2846.233          45.000    21929424.179    89797324.917       -2217.855          42.000  
G29  23055556.930   121157787.028        -478.071          41.000    23055548.972    94408629.803        -372.585          42.000  
G28  21215784.289   111489699.744       -1151.086          45.000    21215774.054    86875049.787        -897.008          46.000  
G26  20367501.863   107031941.653         779.639          46.000    20367494.671    83401493.920         607.433          45.000  
G31  20628841.308   108405289.406         200.806          46.000    20628830.671    84471612.980         156.212          45.000  
G04  24592811.663   129236081.736        3189.937          37.000    24592809.992   100703456.669        2485.918          40.000  
C33  22483733.548   117078696.187        -599.365          48.000                                                                  
C06  36567902.669   190418665.833        -167.450          45.000    36567885.651   147243720.243        -129.442          47.000  
C14  22600847.940   117688530.073       -2175.469          47.000    22600832.916    91004183.233       -1682.234          50.000  
C16  36994787.772   192641564.696        -199.982          47.000    36994775.716   148962630.094        -154.724          47.000  
C24  21815594.621   113599527.612        -821.728          49.000                                                                  
C26  24347161.795   126782055.649       -2554.681          44.000                                                                  
G03  22886640.557   120270109.434          -4.661          36.000    22886634.169    93716947.881          -3.413          32.000  
G16  22525561.285   118372627.665        3041.644          44.000                                                                  
C09  37719723.518   196416498.982        -157.196          42.000    37719709.097   151881638.468        -121.457          45.000  
C25  23699527.372   123409662.537        1607.404          43.000                                                                  
C13  38292520.354   199399198.481       -2246.190          43.000    38292514.788   154188087.786       -1736.964          45.000  
C08  39115744.065   203685932.482       -2450.519          35.000    39115732.733   157502821.980       -1894.592          45.000  
C10  40526692.743   211033126.846         929.912          36.000    40526693.895   163184258.832         718.984          39.000  
C35  25967626.172   135220263.669         464.705          39.000                                                                  
G25  24272038.068   127550408.664       -3908.437          36.000    24272029.657    99389903.726       -3045.447          34.000  
> 2025 10 30 06 17 26.0000000  0 21                     
G32  21929452.789   115240050.359       -2846.288          45.000    21929445.845    89797413.635       -2217.923          42.000  
G29  23055560.600   121157806.155        -478.124          41.000    23055552.627    94408644.714        -372.649          42.000  
G28  21215793.046   111489745.787       -1151.091          45.000    21215782.821    86875085.667        -897.054          46.000  
G26  20367495.940   107031910.473         779.514          46.000    20367488.749    83401469.620         607.445          45.000  
G31  20628839.777   108405281.384         200.627          46.000    20628829.161    84471606.726         156.317          45.000  
G04  24592787.363   129235954.148        3189.771          37.000    24592785.696   100703357.239        2485.788          40.000  
C33  22483738.102   117078720.169        -599.520          48.000                                                                  
C06  36567903.961   190418672.529        -167.411          45.000    36567886.966   147243725.429        -129.595          47.000  
C14  22600864.647   117688617.096       -2175.576          47.000    22600849.632    91004250.524       -1682.272          50.000  
C16  36994789.321   192641572.690        -199.877          47.000    36994777.214   148962636.277        -154.632          47.000  
C24  21815600.927   113599560.483        -821.767          49.000                                                                  
C26  24347181.390   126782157.846       -2554.773          44.000                                                                  
G03  22886640.575   120270109.605          -4.370          36.000    22886634.224    93716948.047          -3.959          32.000  
G16  22525538.119   118372505.981        3041.911          44.000                                                                  
C09  37719724.703   196416505.285        -157.401          42.000    37719710.304   151881643.334        -121.563          45.000  
C25  23699515.027   123409598.236        1607.422          43.000                                                                  
C13  38292537.605   199399288.325       -2246.142          44.000    38292532.040   154188157.259       -1736.883          45.000  
C08  39115762.854   203686030.469       -2449.823          35.000    39115751.523   157502897.757       -1894.474          45.000  
C10  40526685.616   211033089.635         930.152          36.000    40526686.767   163184230.102         718.515          37.000  
C35  25967622.609   135220245.070         464.896          39.000                                                                  
G25  24272067.813   127550565.016       -3908.722          37.000    24272059.383    99390025.561       -3045.827          34.000  
> 2025 10 30 06 17 26.0400000  0 21                     
G32  21929474.448   115240164.212       -2846.315          45.000    21929467.505    89797502.341       -2217.729          42.000  
G29  23055564.268   121157825.282        -478.137          41.000    23055556.278    94408659.629        -372.787          42.000  
G28  21215801.813   111489791.831       -1151.124          45.000    21215791.585    86875121.546        -897.051          46.000  
G26  20367490.011   107031879.283         779.683          46.000    20367482.825    83401445.320         607.489          45.000  
G31  20628838.212   108405273.350         200.763          46.000    20628827.623    84471600.464         156.521          45.000  
G04  24592763.080   129235826.541        3190.013          37.000    24592761.403   100703257.811        2485.714          41.000  
C33  22483742.729   117078744.142        -599.442          48.000                                                                  
C06  36567905.232   190418679.219        -167.274          45.000    36567888.264   147243730.602        -129.427          47.000  
C14  22600881.364   117688704.118       -2175.632          46.000    22600866.354    91004317.821       -1682.418          50.000  
C16  36994790.865   192641580.681        -199.764          47.000    36994778.774   148962642.461        -154.621          47.000  
C24  21815607.224   113599593.358        -821.847          49.000                                                                  
C26  24347201.011   126782260.034       -2554.698          44.000                                                                  
G03  22886640.630   120270109.790          -4.531          35.000    22886634.263    93716948.190          -3.790          32.000  
G16  22525514.958   118372384.301        3042.003          44.000                                                                  
C09  37719725.897   196416511.566        -157.166          42.000    37719711.503   151881648.206        -121.735          45.000  
C25  23699502.665   123409533.937        1607.452          43.000                                                                  
C13  38292554.847   199399378.165       -2246.006          44.000    38292549.308   154188226.734       -1736.897          45.000  
C08  39115781.682   203686128.496       -2450.152          35.000    39115770.321   157502973.531       -1894.374          45.000  
C10  40526678.494   211033052.443         929.972          36.000    40526679.647   163184201.370         718.240          37.000  
C35  25967619.062   135220226.494         464.537          39.000                                                                  
G25  24272097.576   127550721.376       -3908.978          37.000    24272089.147    99390147.366       -3045.340          34.000  
> 2025 10 30 06 17 26.0800000  0 21                     
G32  21929496.071   115240278.061       -2846.244          45.000    21929489.162    89797591.060       -2217.896          42.000  
G29  23055567.906   121157844.419        -478.338          41.000    23055559.921    94408674.530        -372.591          42.000  
G28  21215810.588   111489837.873       -1151.112          45.000    21215800.342    86875157.421        -896.972          46.000  
G26  20367484.066   107031848.098         779.650          47.000    20367476.879    83401421.019         607.513          45.000  
G31  20628836.691   108405265.315         200.868          46.000    20628826.082    84471594.204         156.550          45.000  
G04  24592738.778   129235698.926        3190.242          37.000    24592737.122   100703158.386        2485.647          42.000  
C33  22483747.366   117078768.113        -599.334          48.000                                                                  
C06  36567906.517   190418685.907        -167.216          45.000    36567889.527   147243735.771        -129.293          47.000  
C14  22600898.094   117688791.143       -2175.712          46.000    22600883.103    91004385.115       -1682.409          50.000  
C16  36994792.382   192641588.664        -199.569          47.000    36994780.325   148962648.634        -154.435          47.000  
C24  21815613.556   113599626.221        -821.689          49.000                                                                  
C26  24347220.639   126782362.226       -2554.740          44.000                                                                  
G03  22886640.651   120270109.965          -4.437          35.000    22886634.293    93716948.330          -3.599          32.000  
G16  22525491.793   118372262.616        3042.108          44.000                                                                  
C09  37719727.103   196416517.859        -157.251          42.000    37719712.708   151881653.073        -121.714          45.000  
C25  23699490.347   123409469.625        1607.684          43.000                                                                  
C13  38292572.106   199399468.008       -2246.032          44.000    38292566.584   154188296.215       -1737.003          44.000  
C08  39115800.485   203686226.502       -2450.041          35.000    39115789.117   157503049.298       -1894.214          46.000  
C10  40526671.350   211033015.269         929.404          36.000    40526672.497   163184172.641         718.056          37.000  
C35  25967615.472   135220207.906         464.576          39.000                                                                  
G25  24272127.306   127550877.715       -3908.765          37.000    24272118.886    99390269.177       -3045.273          34.000  
> 2025 10 30 06 17 26.1200000  0 21                     
G32  21929517.760   115240391.915       -2846.337          45.000    21929510.842    89797679.778       -2217.953          42.000  
G29  23055571.545   121157863.554        -478.457          41.000    23055563.581    94408689.435        -372.561          42.000  
G28  21215819.328   111489883.913       -1151.066          46.000    21215809.096    86875193.291        -896.875          46.000  
G26  20367478.137   107031816.916         779.544          47.000    20367470.976    83401396.728         607.326          45.000  
G31  20628835.161   108405257.283         200.843          46.000    20628824.555    84471587.948         156.438          44.000  
G04  24592714.492   129235571.338        3189.994          37.000    24592712.847   100703058.940        2485.981          42.000  
C33  22483751.920   117078792.084        -599.310          48.000                                                                  
C06  36567907.800   190418692.598        -167.219          45.000    36567890.808   147243740.944        -129.292          47.000  
C14  22600914.807   117688878.175       -2175.855          45.000    22600899.834    91004452.410       -1682.401          49.000  
C16  36994793.921   192641596.649        -199.578          47.000    36994781.886   148962654.817        -154.490          47.000  
C24  21815619.843   113599659.087        -821.645          49.000                                                                  
C26  24347240.259   126782464.418       -2554.775          44.000                                                                  
G03  22886640.674   120270110.146          -4.508          35.000    22886634.322    93716948.451          -3.213          33.000  
G16  22525468.650   118372140.935        3042.079          44.000                                                                  
C09  37719728.288   196416524.146        -157.175          42.000    37719713.931   151881657.928        -121.504          45.000  
C25  23699477.991   123409405.314        1607.751          43.000                                                                  
C13  38292589.349   199399557.855       -2246.164          44.000    38292583.823   154188365.688       -1736.896          44.000  
C08  39115819.311   203686324.498       -2449.854          35.000    39115807.921   157503125.075       -1894.309          46.000  
C10  40526664.213   211032978.050         930.003          36.000    40526665.361   163184143.915         717.981          37.000  
C35  25967611.934   135220189.316         464.653          39.000                                                                  
G25  24272157.043   127551034.037       -3908.275          37.000    24272148.651    99390391.044       -3046.201          34.000  
> 2025 10 30 06 17 26.1600000  0 21                     
G32  21929539.425   115240505.769       -2846.348          45.000    21929532.516    89797768.495       -2217.977          42.000  
G29  23055575.179   121157882.693        -478.510          41.000    23055567.219    94408704.342        -372.620          42.000  
G28  21215828.093   111489929.957       -1151.122          46.000    21215817.875    86875229.166        -896.890          46.000  
G26  20367472.217   107031785.737         779.464          47.000    20367465.043    83401372.433         607.302          45.000  
G31  20628833.645   108405249.251         200.818          46.000    20628823.001    84471581.692         156.395          44.000  
G04  24592690.208   129235443.706        3190.574          37.000    24592688.563   100702959.509        2485.870          42.000  
C33  22483756.528   117078816.058        -599.316          49.000                                                                  
C06  36567909.110   190418699.285        -167.156          44.000    36567892.110   147243746.117        -129.310          47.000  
C14  22600931.523   117688965.207       -2175.935          45.000    22600916.551    91004519.699       -1682.311          49.000  
C16  36994795.412   192641604.645        -199.775          47.000    36994783.429   148962661.002        -154.596          47.000  
C24  21815626.161   113599691.951        -821.602          49.000                                                                  
C26  24347259.900   126782566.615       -2554.938          44.000                                                                  
G03  22886640.712   120270110.339          -4.816          36.000    22886634.343    93716948.583          -3.153          35.000  
G16  22525445.509   118372019.264        3041.849          44.000                                                                  
C09  37719729.490   196416530.433        -157.152          42.000    37719715.156   151881662.782        -121.348          45.000  
C25  23699465.610   123409341.018        1607.495          43.000                                                                  
C13  38292606.589   199399647.700       -2246.144          44.000    38292601.105   154188435.164       -1736.877          44.000  
C08  39115838.153   203686422.506       -2450.025          37.000    39115826.753   157503200.846       -1894.292          46.000  
C10  40526657.087   211032940.849         930.012          36.000    40526658.256   163184115.167         718.407          36.000  
C35  25967608.338   135220170.729         464.685          39.000                                                                  
G25  24272186.809   127551190.372       -3908.286          37.000    24272178.407    99390512.878       -3046.109          34.000  
> 2025 10 30 06 17 26.2000000  0 21                     
G32  21929561.086   115240619.625       -2846.412          45.000    21929554.201    89797857.211       -2217.996          42.000  
G29  23055578.847   121157901.839        -478.672          41.000    23055570.868    94408719.250        -372.684          41.000  
G28  21215836.856   111489976.007       -1151.239          46.000    21215826.643    86875265.043        -896.946          46.000  
G26  20367466.304   107031754.552         779.502          47.000    20367459.116    83401348.125         607.571          45.000  
G31  20628832.103   108405241.219         200.805          46.000    20628821.467    84471575.438         156.353          44.000  
G04  24592665.941   129235316.137        3189.788          35.000    24592664.295   100702860.078        2485.790          42.000  
C33  22483761.118   117078840.034        -599.388          49.000                                                                  
C06  36567910.411   190418705.973        -167.153          44.000    36567893.378   147243751.292        -129.379          47.000  
C14  22600948.227   117689052.235       -2175.835          45.000    22600933.265    91004586.996       -1682.408          49.000  
C16  36994796.914   192641612.641        -199.876          47.000    36994784.966   148962667.179        -154.498          47.000  
C24  21815632.453   113599724.813        -821.575          49.000                                                                  
C26  24347279.550   126782668.804       -2554.869          44.000                                                                  
G03  22886640.710   120270110.509          -4.550          36.000    22886634.366    93716948.762          -4.055          35.000  
G16  22525422.376   118371897.594        3041.706          43.000                                                                  
C09  37719730.685   196416536.722        -157.203          42.000    37719716.366   151881667.637        -121.320          45.000  
C25  23699453.250   123409276.731        1607.196          43.000                                                                  
C13  38292623.845   199399737.547       -2246.194          44.000    38292618.362   154188504.647       -1737.027          43.000  
C08  39115856.966   203686520.505       -2450.006          38.000    39115845.551   157503276.623       -1894.381          46.000  
C10  40526649.920   211032903.658         929.734          36.000    40526651.116   163184086.405         718.872          36.000  
C35  25967604.794   135220152.143         464.627          39.000                                                                  
G25  24272216.579   127551346.721       -3908.521          37.000    24272208.152    99390634.682       -3045.457          34.000  
> 2025 10 30 06 17 26.2400000  0 21                     
G32  21929582.741   115240733.478       -2846.378          45.000    21929575.875    89797945.935       -2218.138          42.000  
G29  23055582.483   121157920.969        -478.455          41.000    23055574.505    94408734.176        -373.034          41.000  
G28  21215845.633   111490022.054       -1151.224          46.000    21215835.422    86875300.921        -896.978          46.000  
G26  20367460.353   107031723.366         779.577          47.000    20367453.176    83401323.830         607.470          45.000  
G31  20628830.579   108405233.192         200.681          46.000    20628819.921    84471569.179         156.446          44.000  
G04  24592641.638   129235188.481        3190.875          35.000    24592640.025   100702760.643        2485.817          42.000  
C33  22483765.693   117078864.011        -599.426          49.000                                                                  
C06  36567911.688   190418712.660        -167.156          44.000    36567894.647   147243756.472        -129.502          47.000  
C14  22600964.928   117689139.264       -2175.790          44.000    22600949.989    91004654.294       -1682.477          49.000  
C16  36994798.466   192641620.628        -199.749          47.000    36994786.494   148962673.368        -154.666          47.000  
C24  21815638.739   113599757.676        -821.563          49.000                                                                  
C26  24347299.177   126782770.992       -2554.802          44.000                                                                  
G03  22886640.711   120270110.700          -4.789          36.000    22886634.394    93716948.904          -3.808          35.000  
G16  22525399.220   118371775.926        3041.673          43.000                                                                  
C09  37719731.885   196416542.992        -156.881          41.000    37719717.581   151881672.503        -121.558          45.000  
C25  23699440.887   123409212.414        1607.642          43.000                                                                  
C13  38292641.108   199399827.394       -2246.193          43.000    38292635.647   154188574.138       -1737.257          43.000  
C08  39115875.772   203686618.488       -2449.702          39.000    39115864.388   157503352.397       -1894.393          46.000  
C10  40526642.764   211032866.515         928.774          34.000    40526643.971   163184057.654         718.888          36.000  
C35  25967601.225   135220133.557         464.615          39.000                                                                  
G25  24272246.324   127551503.059       -3908.546          37.000    24272237.906    99390756.503       -3045.420          35.000  
> 2025 10 30 06 17 26.2800000  0 21                     
G32  21929604.391   115240847.333       -2846.384          45.000    21929597.562    89798034.663       -2218.256          42.000  
G29  23055586.130   121157940.099        -478.311          41.000    23055578.128    94408749.077        -372.767          41.000  
G28  21215854.380   111490068.102       -1151.237          46.000    21215844.183    86875336.796        -896.927          46.000  
G26  20367454.427   107031692.181         779.583          47.000    20367447.237    83401299.528         607.501          45.000  
G31  20628829.050   108405225.156         200.836          46.000    20628818.396    84471562.922         156.464          44.000  
G04  24592617.347   129235060.885        3190.122          35.000    24592615.754   100702661.207        2485.898          42.000  
C33  22483770.293   117078887.987        -599.464          49.000                                                                  
C06  36567912.983   190418719.336        -166.993          44.000    36567895.912   147243761.637        -129.272          47.000  
C14  22600981.668   117689226.285       -2175.599          44.000    22600966.711    91004721.583       -1682.324          49.000  
C16  36994800.018   192641628.611        -199.614          47.000    36994788.007   148962679.537        -154.399          47.000  
C24  21815645.050   113599790.532        -821.461          48.000                                                                  
C26  24347318.821   126782873.180       -2554.750          44.000                                                                  
G03  22886640.732   120270110.896          -5.046          36.000    22886634.427    93716949.052          -3.859          35.000  
G16  22525376.056   118371654.245        3041.879          43.000                                                                  
C09  37719733.082   196416549.269        -156.867          41.000    37719718.800   151881677.361        -121.538          45.000  
C25  23699428.544   123409148.108        1607.672          42.000                                                                  
C13  38292658.355   199399917.235       -2246.106          43.000    38292652.908   154188643.627       -1737.298          42.000  
C08  39115894.593   203686716.474       -2449.658          39.000    39115883.195   157503428.174       -1894.438          46.000  
C10  40526635.622   211032829.294         929.670          33.000    40526636.844   163184028.884         719.192          37.000  
C35  25967597.678   135220114.972         464.493          39.000                                                                  
G25  24272276.067   127551659.395       -3908.475          37.000    24272267.668    99390878.333       -3045.572          35.000  
> 2025 10 30 06 17 26.3200000  0 21                     
G32  21929626.038   115240961.180       -2846.269          45.000    21929619.240    89798123.375       -2217.977          42.000  
G29  23055589.773   121157959.233        -478.345          42.000    23055581.760    94408763.985        -372.755          41.000  
G28  21215863.119   111490114.135       -1150.977          46.000    21215852.939    86875372.675        -896.960          47.000  
G26  20367448.498   107031660.997         779.570          47.000    20367441.312    83401275.226         607.532          45.000  
G31  20628827.506   108405217.129         200.713          46.000    20628816.871    84471556.672         156.341          44.000  
G04  24592593.067   129234933.237        3190.836          31.000    24592591.459   100702561.786        2485.607          42.000  
C33  22483774.919   117078911.961        -599.417          49.000                                                                  
C06  36567914.287   190418726.019        -167.013          44.000    36567897.182   147243766.801        -129.138          47.000  
C14  22600998.406   117689313.319       -2175.800          44.000    22600983.427    91004788.874       -1682.293          49.000  
C16  36994801.563   192641636.593        -199.554          47.000    36994789.515   148962685.717        -154.456          47.000  
C24  21815651.371   113599823.389        -821.413          48.000                                                                  
C26  24347338.435   126782975.367       -2554.690          44.000                                                                  
G03  22886640.749   120270111.085          -4.888          36.000    22886634.499    93716949.221          -4.196          35.000  
G16  22525352.907   118371532.573        3041.819          42.000                                                                  
C09  37719734.266   196416555.557        -157.113          41.000    37719720.014   151881682.231        -121.741          45.000  
C25  23699416.215   123409083.802        1607.660          42.000                                                                  
C13  38292675.624   199400007.077       -2246.114          43.000    38292670.187   154188713.113       -1737.234          42.000  
C08  39115913.389   203686814.453       -2449.536          39.000    39115902.015   157503503.944       -1894.337          46.000  
C10  40526628.488   211032792.128         929.249          33.000    40526629.701   163184000.125         719.149          37.000  
C35  25967594.109   135220096.375         464.753          39.000                                                                  
G25  24272305.808   127551815.726       -3908.358          37.000    24272297.414    99391000.157       -3045.553          35.000  
> 2025 10 30 06 17 26.3600000  0 21                     
G32  21929647.712   115241075.039       -2846.427          45.000    21929640.903    89798212.083       -2217.787          42.000  
G29  23055593.426   121157978.380        -478.597          42.000    23055585.416    94408778.892        -372.731          41.000  
G28  21215871.900   111490160.180       -1151.056          46.000    21215861.708    86875408.545        -896.854          47.000  
G26  20367442.548   107031629.814         779.564          47.000    20367435.373    83401250.931         607.387          45.000  
G31  20628825.967   108405209.104         200.590          46.000    20628815.346    84471550.415         156.359          44.000  
G04  24592568.784   129234805.603        3190.828          31.000    24592567.182   100702462.344        2485.840          42.000  
C33  22483779.539   117078935.937        -599.437          49.000                                                                  
C06  36567915.579   190418732.716        -167.299          44.000    36567898.472   147243771.975        -129.263          47.000  
C14  22601015.101   117689400.351       -2175.850          44.000    22601000.172    91004856.170       -1682.377          49.000  
C16  36994803.107   192641644.597        -199.906          47.000    36994791.050   148962691.906        -154.672          47.000  
C24  21815657.670   113599856.261        -821.663          48.000                                                                  
C26  24347358.059   126783077.564       -2554.865          44.000                                                                  
G03  22886640.782   120270111.279          -4.899          36.000    22886634.539    93716949.357          -3.784          35.000  
G16  22525329.733   118371410.910        3041.562          42.000                                                                  
C09  37719735.464   196416561.844        -157.244          41.000    37719721.221   151881687.095        -121.737          45.000  
C25  23699403.838   123409019.493        1607.678          42.000                                                                  
C13  38292692.888   199400096.943       -2246.568          41.000    38292687.432   154188782.592       -1737.109          42.000  
C08  39115932.214   203686912.464       -2450.057          39.000    39115920.827   157503579.719       -1894.407          46.000  
C10  40526621.352   211032754.937         929.553          33.000    40526622.528   163183971.360         719.197          39.000  
C35  25967590.531   135220077.795         464.629          39.000                                                                  
G25  24272335.570   127551972.052       -3908.179          37.000    24272327.162    99391121.973       -3045.385          35.000  
> 2025 10 30 06 17 26.4000000  0 21                     
G32  21929669.383   115241188.901       -2846.553          45.000    21929662.571    89798300.805       -2217.976          42.000  
G29  23055597.104   121157997.535        -478.878          42.000    23055589.045    94408793.810        -372.920          41.000  
G28  21215880.677   111490206.226       -1151.131          46.000    21215870.494    86875444.427        -896.989          47.000  
G26  20367436.629   107031598.631         779.545          47.000    20367429.439    83401226.633         607.357          45.000  
G31  20628824.418   108405201.080         200.535          47.000    20628813.823    84471544.154         156.464          44.000  
G04  24592544.499   129234677.983        3190.580          31.000    24592542.880   100702362.898        2486.060          42.000  
C33  22483784.135   117078959.918        -599.532          49.000                                                                  
C06  36567916.870   190418739.405        -167.285          44.000    36567899.731   147243777.145        -129.277          47.000  
C14  22601031.817   117689487.373       -2175.664          44.000    22601016.855    91004923.464       -1682.389          49.000  
C16  36994804.607   192641652.602        -200.140          47.000    36994792.579   148962698.093        -154.738          47.000  
C24  21815663.919   113599889.136        -821.868          48.000                                                                  
C26  24347377.652   126783179.764       -2555.013          44.000                                                                  
G03  22886640.799   120270111.461          -4.653          36.000    22886634.572    93716949.485          -3.409          35.000  
G16  22525306.577   118371289.242        3041.528          41.000                                                                  
C09  37719736.663   196416568.135        -157.316          41.000    37719722.415   151881691.951        -121.519          45.000  
C25  23699391.486   123408955.193        1607.507          42.000                                                                  
C13  38292710.145   199400186.802       -2246.602          41.000    38292704.681   154188852.076       -1737.123          42.000  
C08  39115951.041   203687010.472       -2450.262          39.000    39115939.646   157503655.504       -1894.597          46.000  
C10  40526614.198   211032717.784         928.981          33.000    40526615.402   163183942.600         719.078          39.000  
C35  25967586.960   135220059.221         464.377          39.000                                                                  
G25  24272365.307   127552128.391       -3908.340          37.000    24272356.921    99391243.826       -3046.058          35.000  
> 2025 10 30 06 17 26.4400000  0 21                     
G32  21929691.064   115241302.762       -2846.581          46.000    21929684.245    89798389.535       -2218.207          42.000  
G29  23055600.746   121158016.669        -478.603          42.000    23055592.685    94408808.730        -372.991          41.000  
G28  21215889.416   111490252.273       -1151.176          46.000    21215879.272    86875480.310        -897.085          47.000  
G26  20367430.711   107031567.455         779.434          47.000    20367423.497    83401202.347         607.172          45.000  
G31  20628822.879   108405193.056         200.560          47.000    20628812.300    84471537.904         156.328          44.000  
G04  24592520.207   129234550.343        3190.958          31.000    24592518.600   100702263.472        2485.779          42.000  
C33  22483788.743   117078983.896        -599.532          49.000                                                                  
C06  36567918.161   190418746.089        -167.211          44.000    36567901.044   147243782.322        -129.381          47.000  
C14  22601048.520   117689574.400       -2175.665          44.000    22601033.607    91004990.761       -1682.439          49.000  
C16  36994806.159   192641660.604        -200.157          48.000    36994794.113   148962704.274        -154.664          47.000  
C24  21815670.206   113599922.014        -822.030          49.000                                                                  
C26  24347397.276   126783281.955       -2554.922          44.000                                                                  
G03  22886640.840   120270111.655          -4.697          36.000    22886634.614    93716949.641          -3.741          35.000  
G16  22525283.439   118371167.580        3041.442          41.000                                                                  
C09  37719737.857   196416574.418        -157.166          41.000    37719723.617   151881696.810        -121.444          45.000  
C25  23699379.146   123408890.885        1607.630          42.000                                                                  
C13  38292727.413   199400276.650       -2246.362          41.000    38292721.915   154188921.557       -1737.054          42.000  
C08  39115969.863   203687108.464       -2450.076          39.000    39115958.473   157503731.287       -1894.642          45.000  
C10  40526607.053   211032680.586         929.393          33.000    40526608.242   163183913.855         718.762          39.000  
C35  25967583.380   135220040.640         464.359          39.000                                                                  
G25  24272395.045   127552284.743       -3908.693          37.000    24272386.697    99391365.667       -3046.180          35.000  
> 2025 10 30 06 17 26.4800000  0 21                     
G32  21929712.718   115241416.624       -2846.589          46.000    21929705.911    89798478.253       -2218.083          42.000  
G29  23055604.391   121158035.797        -478.313          42.000    23055596.326    94408823.651        -373.007          41.000  
G28  21215898.172   111490298.318       -1151.165          46.000    21215888.032    86875516.192        -897.087          47.000  
G26  20367424.756   107031536.281         779.329          47.000    20367417.557    83401178.047         607.316          45.000  
G31  20628821.324   108405185.032         200.561          47.000    20628810.786    84471531.658         156.156          44.000  
G04  24592495.917   129234422.739        3190.243          31.000    24592494.311   100702164.024        2486.065          42.000  
C33  22483793.316   117079007.880        -599.639          49.000                                                                  
C06  36567919.429   190418752.776        -167.181          44.000    36567902.334   147243787.500        -129.443          47.000  
C14  22601065.220   117689661.432       -2175.768          44.000    22601050.331    91005058.056       -1682.432          49.000  
C16  36994807.703   192641668.597        -199.969          48.000    36994795.643   148962710.459        -154.677          47.000  
C24  21815676.544   113599954.888        -821.995          49.000                                                                  
C26  24347416.927   126783384.148       -2554.895          44.000                                                                  
G03  22886640.880   120270111.847          -4.775          36.000    22886634.690    93716949.811          -4.135          35.000  
G16  22525260.280   118371045.916        3041.504          41.000                                                                  
C09  37719739.063   196416580.695        -156.956          41.000    37719724.834   151881701.673        -121.529          45.000  
C25  23699366.778   123408826.583        1607.544          42.000                                                                  
C13  38292744.653   199400366.513       -2246.499          41.000    38292739.174   154188991.038       -1736.928          42.000  
C08  39115988.688   203687206.473       -2450.217          39.000    39115977.268   157503807.079       -1894.823          45.000  
C10  40526599.913   211032643.406         929.388          33.000    40526601.118   163183885.102         718.774          39.000  
C35  25967579.793   135220022.050         464.536          39.000                                                                  
G25  24272424.798   127552441.098       -3908.841          37.000    24272416.456    99391487.483       -3045.760          35.000  
> 2025 10 30 06 17 26.5200000  0 21                     
G32  21929734.372   115241530.476       -2846.386          46.000    21929727.582    89798566.973       -2218.045          42.000  
G29  23055608.036   121158054.938        -478.444          42.000    23055599.970    94408838.566        -372.925          41.000  
G28  21215906.928   111490344.359       -1151.073          46.000    21215896.779    86875552.070        -897.031          47.000  
G26  20367418.811   107031505.101         779.393          47.000    20367411.625    83401153.753         607.348          45.000  
G31  20628819.803   108405177.009         200.561          47.000    20628809.244    84471525.404         156.243          44.000  
G04  24592471.632   129234295.128        3190.041          31.000    24592470.031   100702064.569        2486.332          42.000  
C33  22483797.921   117079031.857        -599.540          49.000                                                                  
C06  36567920.702   190418759.466        -167.207          44.000    36567903.639   147243792.672        -129.387          47.000  
C14  22601081.936   117689748.453       -2175.595          44.000    22601067.029    91005125.342       -1682.241          49.000  
C16  36994809.243   192641676.584        -199.737          48.000    36994797.205   148962716.644        -154.662          47.000  
C24  21815682.909   113599987.756        -821.860          49.000                                                                  
C26  24347436.562   126783486.335       -2554.713          44.000                                                                  
G03  22886640.904   120270112.020          -4.416          36.000    22886634.738    93716949.935          -3.567          35.000  
G16  22525237.104   118370924.250        3041.582          41.000                                                                  
C09  37719740.237   196416586.986        -157.144          41.000    37719726.031   151881706.543        -121.720          45.000  
C25  23699354.436   123408762.276        1607.605          42.000                                                                  
C13  38292761.935   199400456.369       -2246.518          41.000    38292756.394   154189060.512       -1736.831          41.000  
C08  39116007.496   203687304.474       -2450.153          39.000    39115996.077   157503882.853       -1894.583          45.000  
C10  40526592.749   211032606.213         929.648          29.000    40526593.954   163183856.349         718.743          39.000  
C35  25967576.216   135220003.470         464.479          39.000                                                                  
G25  24272454.535   127552597.438       -3908.614          37.000    24272446.188    99391609.258       -3044.739          35.000  
> 2025 10 30 06 17 26.5600000  0 21                     
G32  21929756.022   115241644.326       -2846.254          46.000    21929749.263    89798655.697       -2218.130          42.000  
G29  23055611.693   121158074.088        -478.689          42.000    23055603.597    94408853.476        -372.819          41.000  
G28  21215915.674   111490390.397       -1151.004          46.000    21215905.528    86875587.941        -896.859          47.000  
G26  20367412.889   107031473.925         779.368          47.000    20367405.676    83401129.462         607.305          45.000  
G31  20628818.278   108405168.985         200.548          47.000    20628807.702    84471519.150         156.342          44.000  
G04  24592447.365   129234167.546        3189.657          31.000    24592445.747   100701965.124        2486.243          42.000  
C33  22483802.545   117079055.840        -599.592          49.000                                                                  
C06  36567921.951   190418766.166        -167.404          44.000    36567904.922   147243797.846        -129.388          47.000  
C14  22601098.655   117689835.470       -2175.457          44.000    22601083.752    91005192.631       -1682.206          49.000  
C16  36994810.752   192641684.576        -199.751          48.000    36994798.762   148962722.824        -154.565          47.000  
C24  21815689.240   113600020.628        -821.820          49.000                                                                  
C26  24347456.182   126783588.517       -2554.553          44.000                                                                  
G03  22886640.964   120270112.224          -4.828          36.000    22886634.769    93716950.078          -3.570          35.000  
G16  22525213.962   118370802.596        3041.410          41.000                                                                  
C09  37719741.471   196416593.282        -157.405          41.000    37719727.211   151881711.397        -121.521          45.000  
C25  23699342.075   123408697.968        1607.648          42.000                                                                  
C13  38292779.180   199400546.214       -2246.218          41.000    38292773.640   154189129.989       -1736.839          41.000  
C08  39116026.318   203687402.479       -2450.207          39.000    39116014.910   157503958.630       -1894.479          45.000  
C10  40526585.597   211032568.990         930.276          29.000    40526586.826   163183827.579         719.054          39.000  
C35  25967572.644   135219984.860         465.040          39.000                                                                  
G25  24272484.270   127552753.760       -3908.228          37.000    24272475.949    99391731.091       -3045.295          35.000  
> 2025 10 30 06 17 26.6000000  0 21                     
G32  21929777.699   115241758.180       -2846.286          46.000    21929770.941    89798744.417       -2218.076          42.000  
G29  23055615.338   121158093.219        -478.435          42.000    23055607.226    94408868.388        -372.795          41.000  
G28  21215924.451   111490436.434       -1150.947          46.000    21215914.271    86875623.805        -896.655          47.000  
G26  20367406.931   107031442.740         779.542          47.000    20367399.730    83401105.164         607.423          45.000  
G31  20628816.767   108405160.956         200.684          47.000    20628806.158    84471512.893         156.428          44.000  
G04  24592423.051   129234039.878        3190.944          31.000    24592421.444   100701865.681        2486.114          42.000  
C33  22483807.173   117079079.821        -599.583          49.000                                                                  
C06  36567923.255   190418772.855        -167.313          44.000    36567906.200   147243803.018        -129.333          47.000  
C14  22601115.352   117689922.490       -2175.474          44.000    22601100.468    91005259.925       -1682.302          49.000  
C16  36994812.249   192641692.569        -199.801          48.000    36994800.316   148962729.000        -154.476          47.000  
C24  21815695.529   113600053.505        -821.893          49.000                                                                  
C26  24347475.814   126783690.707       -2554.634          44.000                                                                  
G03  22886641.013   120270112.421          -4.958          36.000    22886634.808    93716950.224          -3.679          35.000  
G16  22525190.820   118370680.924        3041.654          41.000                                                                  
C09  37719742.689   196416599.576        -157.432          41.000    37719728.443   151881716.255        -121.445          45.000  
C25  23699329.716   123408633.654        1607.807          42.000                                                                  
C13  38292796.435   199400636.061       -2246.107          41.000    38292790.870   154189199.474       -1737.026          41.000  
C08  39116045.128   203687500.481       -2450.207          40.000    39116033.708   157504034.406       -1894.430          45.000  
C10  40526578.471   211032531.799         930.151          29.000    40526579.676   163183798.799         719.426          39.000  
C35  25967569.079   135219966.289         464.595          39.000                                                                  
G25  24272514.030   127552910.093       -3908.267          36.000    24272505.728    99391852.906       -3045.339          35.000  
> 2025 10 30 06 17 26.6400000  0 21                     
G32  21929799.390   115241872.045       -2846.535          46.000    21929792.577    89798833.124       -2217.804          42.000  
G29  23055619.001   121158112.353        -478.361          42.000    23055610.891    94408883.307        -372.916          41.000  
G28  21215933.210   111490482.470       -1150.883          46.000    21215923.031    86875659.683        -896.822          47.000  
G26  20367400.999   107031411.563         779.454          47.000    20367393.786    83401080.863         607.503          45.000  
G31  20628815.228   108405152.935         200.554          47.000    20628804.645    84471506.639         156.372          44.000  
G04  24592398.752   129233912.297        3190.128          31.000    24592397.163   100701766.230        2486.184          42.000  
C33  22483811.787   117079103.798        -599.493          49.000                                                                  
C06  36567924.554   190418779.550        -167.389          44.000    36567907.496   147243808.189        -129.318          47.000  
C14  22601132.053   117690009.509       -2175.482          44.000    22601117.185    91005327.222       -1682.390          49.000  
C16  36994813.764   192641700.565        -199.891          48.000    36994801.878   148962735.179        -154.452          47.000  
C24  21815701.848   113600086.378        -821.879          49.000                                                                  
C26  24347495.434   126783792.898       -2554.717          44.000                                                                  
G03  22886641.058   120270112.604          -4.709          36.000    22886634.827    93716950.371          -3.690          35.000  
G16  22525167.662   118370559.259        3041.638          41.000                                                                  
C09  37719743.906   196416605.870        -157.441          41.000    37719729.636   151881721.126        -121.688          45.000  
C25  23699317.382   123408569.342        1607.868          42.000                                                                  
C13  38292813.660   199400725.911       -2246.179          41.000    38292808.131   154189268.953       -1737.008          41.000  
C08  39116063.958   203687598.481       -2450.079          40.000    39116052.536   157504110.195       -1894.626          45.000  
C10  40526571.316   211032494.528         931.202          29.000    40526572.520   163183770.043         719.153          39.000  
C35  25967565.512   135219947.710         464.470          39.000                                                                  
G25  24272543.769   127553066.412       -3908.099          36.000    24272535.493    99391974.739       -3045.744          35.000  
> 2025 10 30 06 17 26.6800000  0 21                     
G32  21929821.057   115241985.904       -2846.537          46.000    21929814.232    89798921.839       -2217.831          42.000  
G29  23055622.635   121158131.493        -478.443          42.000    23055614.528    94408898.219        -372.864          41.000  
G28  21215942.000   111490528.514       -1151.015          46.000    21215931.795    86875695.567        -897.037          47.000  
G26  20367395.061   107031380.386         779.405          47.000    20367387.844    83401056.572         607.333          45.000  
G31  20628813.703   108405144.911         200.554          47.000    20628803.109    84471500.399         156.113          44.000  
G04  24592374.467   129233784.699        3189.928          31.000    24592372.865   100701666.779        2486.202          42.000  
C33  22483816.391   117079127.777        -599.494          49.000                                                                  
C06  36567925.838   190418786.250        -167.511          44.000    36567908.808   147243813.365        -129.357          47.000  
C14  22601148.780   117690096.531       -2175.507          44.000    22601133.874    91005394.514       -1682.357          49.000  
C16  36994815.288   192641708.558        -199.885          47.000    36994803.421   148962741.357        -154.443          47.000  
C24  21815708.167   113600119.256        -821.971          49.000                                                                  
C26  24347515.082   126783895.088       -2554.755          44.000                                                                  
G03  22886641.081   120270112.792          -4.706          36.000    22886634.875    93716950.531          -3.979          35.000  
G16  22525144.540   118370437.607        3041.384          41.000                                                                  
C09  37719745.152   196416612.161        -157.370          41.000    37719730.868   151881725.999        -121.851          45.000  
C25  23699305.027   123408505.042        1607.648          42.000                                                                  
C13  38292830.899   199400815.771       -2246.422          41.000    38292825.361   154189338.415       -1736.690          41.000  
C08  39116082.776   203687696.508       -2450.455          40.000    39116071.367   157504185.980       -1894.675          45.000  
C10  40526564.172   211032457.335         930.341          29.000    40526565.363   163183741.288         718.922          39.000  
C35  25967561.943   135219929.128         464.402          39.000                                                                  
G25  24272573.511   127553222.756       -3908.374          36.000    24272565.240    99392096.536       -3045.279          35.000  
> 2025 10 30 06 17 26.7200000  0 21                     
G32  21929842.732   115242099.764       -2846.568          46.000    21929835.896    89799010.559       -2217.958          42.000  
G29  23055626.296   121158150.633        -478.507          42.000    23055618.210    94408913.144        -373.060          41.000  
G28  21215950.765   111490574.541       -1150.793          46.000    21215940.551    86875731.444        -897.038          47.000  
G26  20367389.103   107031349.207         779.429          47.000    20367381.898    83401032.280         607.278          45.000  
G31  20628812.152   108405136.882         200.690          47.000    20628801.583    84471494.152         156.127          44.000  
G04  24592350.145   129233657.062        3190.576          31.000    24592348.581   100701567.329        2486.180          42.000  
C33  22483821.002   117079151.755        -599.456          49.000                                                                  
C06  36567927.124   190418792.933        -167.269          44.000    36567910.084   147243818.537        -129.349          47.000  
C14  22601165.496   117690183.547       -2175.425          44.000    22601150.571    91005461.800       -1682.217          49.000  
C16  36994816.827   192641716.544        -199.708          47.000    36994804.952   148962747.537        -154.489          47.000  
C24  21815714.494   113600152.130        -821.910          49.000                                                                  
C26  24347534.705   126783997.276       -2554.728          44.000                                                                  
G03  22886641.121   120270112.988          -4.934          36.000    22886634.928    93716950.681          -3.887          35.000  
G16  22525121.376   118370315.946        3041.412          41.000                                                                  
C09  37719746.378   196416618.455        -157.349          41.000    37719732.071   151881730.856        -121.619          45.000  
C25  23699292.652   123408440.732        1607.697          42.000                                                                  
C13  38292848.142   199400905.629       -2246.483          41.000    38292842.598   154189407.897       -1736.884          41.000  
C08  39116101.586   203687794.511       -2450.246          40.000    39116090.199   157504261.765       -1894.647          46.000  
C10  40526557.058                         929.666          29.000    40526558.219   163183712.543         718.694          39.000  
C35  25967558.391   135219910.540         464.549          39.000                                                                  
G25  24272603.272   127553379.111       -3908.727          36.000    24272594.996    99392218.333       -3044.941          35.000  
> 2025 10 30 06 17 26.7600000  0 21                     
G32  21929864.385   115242213.617       -2846.421          46.000    21929857.557    89799099.285       -2218.131          42.000  
G29  23055629.947   121158169.777        -478.580          42.000    23055621.854    94408928.060        -373.008          41.000  
G28  21215959.536   111490620.580       -1150.879          46.000    21215949.289    86875767.322        -897.020          47.000  
G26  20367383.169   107031318.026         779.467          47.000    20367375.953    83401007.979         607.416          45.000  
G31  20628810.624   108405128.862         200.573          46.000    20628800.038    84471487.893         156.317          44.000  
G04  24592325.840   129233529.432        3190.681          31.000    24592324.293   100701467.873        2486.299          42.000  
C33  22483825.571   117079175.735        -599.470          49.000                                                                  
C06  36567928.404   190418799.630        -167.385          44.000    36567911.314   147243823.705        -129.230          47.000  
C14  22601182.226   117690270.559       -2175.319          44.000    22601167.283    91005529.082       -1682.080          49.000  
C16  36994818.365   192641724.539        -199.808          47.000    36994806.483   148962753.713        -154.430          47.000  
C24  21815720.828   113600185.000        -821.826          48.000                                                                  
C26  24347554.334   126784099.452       -2554.484          44.000                                                                  
G03  22886641.139   120270113.169          -4.667          36.000    22886634.958    93716950.804          -3.346          35.000  
G16  22525098.223   118370194.284        3041.458          42.000                                                                  
C09  37719747.579   196416624.738        -157.166          41.000    37719733.283   151881735.711        -121.409          44.000  
C25  23699280.313   123408376.422        1607.782          42.000                                                                  
C13  38292865.387   199400995.492       -2246.612          41.000    38292859.836   154189477.369       -1736.879          42.000  
C08  39116120.424   203687892.517       -2450.201          40.000    39116109.022   157504337.547       -1894.585          46.000  
C10  40526549.890                         930.041          30.000    40526551.046   163183683.779         718.960          39.000  
C35  25967554.814   135219891.954         464.605          39.000                                                                  
G25  24272633.016   127553535.431       -3908.251          36.000    24272624.750    99392340.155       -3045.260          35.000  
