     3.04           OBSERVATION DATA    M: Mixed            RINEX VERSION / TYPE
RTKCONV 2.4.3 b34                       20251030 063952 UTC PGM / RUN BY / DATE 
format: u-blox UBX                                          COMMENT             
log: D:\GPdata\10_30\fingure_290_200_10_30_1.ubx            COMMENT             
                                                            MARKER NAME         
                                                            MARKER NUMBER       
                                                            MARKER TYPE         
                                                            OBSERVER / AGENCY   
                                                            REC # / TYPE / VERS 
                                                            ANT # / TYPE        
        0.0000        0.0000        0.0000                  APPROX POSITION XYZ 
        0.0000        0.0000        0.0000                  ANTENNA: DELTA H/E/N
G    8 C1C L1C D1C S1C C2L L2L D2L S2L                      SYS / # / OBS TYPES 
C    8 C2I L2I D2I S2I C7I L7I D7I S7I                      SYS / # / OBS TYPES 
  2025    10    30    06    23   30.6000000     GPS         TIME OF FIRST OBS   
  2025    10    30    06    23   57.5600000     GPS         TIME OF LAST OBS    
G L1C                                                       SYS / PHASE SHIFT   
G L2L  0.00000                                              SYS / PHASE SHIFT   
C L2I                                                       SYS / PHASE SHIFT   
C L7I                                                       SYS / PHASE SHIFT   
  0                                                         GLONASS SLOT / FRQ #
 C1C    0.000 C1P    0.000 C2C    0.000 C2P    0.000        GLONASS COD/PHS/BIS 
                                                            END OF HEADER       
> 2025 10 30 06 23 30.6000000  0 23                     
G32  22132266.273   116305839.9831      -2999.316          45.000    22132260.639    90627891.3971      -2337.250          42.000  
G29  23096711.029   121374049.7731       -708.585          41.000    23096702.548    94577151.7831       -552.093          40.000  
G28  21298494.291   111924344.2411      -1233.464          45.000    21298483.883    87213733.9521       -961.325          46.000  
G26  20320254.079   106783657.7481        581.791          48.000    20320247.570    83208026.6361        453.305          46.000  
G31  20618387.686   108350354.4661        100.054          47.000    20618376.558    84428806.7261         77.873          45.000  
G04  24372222.548   128076873.0401       3165.323          36.000    24372218.824    99800189.8271       2466.707          41.000  
C33  22533092.285   117335719.2431       -810.809          50.000                                                                  
C06  36579118.902   190477071.0661       -153.468          45.000    36579101.067   147288883.0651       -118.692          48.000  
C14  22759148.244   118512841.9431      -2344.853          46.000    22759133.819    91641592.9811      -1813.259          50.000  
C16  37008163.025   192711213.8361       -182.549          47.000    37008150.982   149016487.3021       -141.139          48.000  
C24  21876141.907   113914817.7051       -907.330          50.000                                                                  
C26  24526617.778   127716536.0231      -2570.703          43.000                                                                  
G03  22895402.258   120316175.0761       -248.042          39.000    22895398.617    93752827.5041       -193.326          41.000  
G16  22318829.633   117286315.4181       2914.940          42.000                                                                  
C09  37730188.571   196470970.8201       -141.970          43.000    37730174.665   151923779.1901       -109.739          48.000  
C25  23589474.382   122836597.1421       1535.309          44.000                                                                  
C08  39288072.931   204583278.9111      -2471.749          37.000    39288061.179   158196741.6641      -1911.117          41.000  
C07  39518360.721   205782460.7451       1118.414          36.000    39518349.934   159124013.6751        864.520          41.000  
C10  40461338.815   210692840.2251        935.683          34.000    40461339.449   162921071.2031        723.596          38.000  
C35  25940775.628   135080429.5451        300.534          39.000                                                                  
C13  38451094.899   200224948.6751      -2282.340          40.000    38451088.753   154826607.9891      -1765.009          42.000  
C12  26367680.962   137303461.2581       2319.823          35.000    26367678.437   106171742.6151       1793.724          45.000  
G25  24543639.164   128977696.9791      -3918.884          34.000    24543634.725   100502065.3441      -3053.490          36.000  
> 2025 10 30 06 23 30.6400000  0 23                     
G32  22132289.119   116305959.948       -2999.162          45.000    22132283.470    90627984.878       -2337.143          42.000  
G29  23096716.407   121374078.110        -708.541          41.000    23096707.914    94577173.854        -551.870          40.000  
G28  21298503.684   111924393.576       -1233.392          45.000    21298493.260    87213772.391        -961.113          46.000  
G26  20320249.623   106783634.473         581.829          48.000    20320243.141    83208008.504         453.269          46.000  
G31  20618386.921   108350350.463         100.042          47.000    20618375.786    84428803.599          78.046          45.000  
G04  24372198.445   128076746.406        3165.606          36.000    24372194.750    99800091.172        2466.520          41.000  
C33  22533098.534   117335751.666        -810.675          50.000                                                                  
C06  36579120.078   190477077.199        -153.409          45.000    36579102.238   147288887.805        -118.567          48.000  
C14  22759166.279   118512935.736       -2344.836          46.000    22759151.828    91641665.500       -1813.075          50.000  
C16  37008164.452   192711221.133        -182.489          47.000    37008152.389   149016492.939        -140.998          48.000  
C24  21876148.887   113914853.989        -907.192          50.000                                                                  
C26  24526637.544   127716638.821       -2570.208          43.000                                                                  
G03  22895404.170   120316185.000        -248.038          39.000    22895400.500    93752835.235        -193.306          41.000  
G16  22318807.429   117286198.808        2915.157          42.000                                                                  
C09  37730189.649   196470976.498        -142.032          43.000    37730175.774   151923783.574        -109.643          48.000  
C25  23589462.575   122836535.732        1535.284          44.000                                                                  
C08  39288091.921   204583377.776       -2471.660          37.000    39288080.162   158196818.105       -1910.986          41.000  
C07  39518352.110   205782415.991        1118.689          36.000    39518341.342   159123979.067         864.944          41.000  
C10  40461331.649   210692802.808         935.454          34.000    40461332.228   162921042.244         723.827          38.000  
C35  25940773.291   135080417.525         300.446          39.000                                                                  
C13  38451112.452   200225039.961       -2282.125          40.000    38451106.273   154826678.585       -1764.948          42.000  
C12  26367663.165   137303368.477        2319.549          35.000    26367660.642   106171670.856        1793.918          45.000  
G25  24543668.984   128977853.722       -3918.677          34.000    24543664.551   100502187.484       -3053.468          36.000  
> 2025 10 30 06 23 30.6800000  0 23                     
G32  22132311.942   116306079.911       -2999.104          45.000    22132306.285    90628078.361       -2337.098          42.000  
G29  23096721.778   121374106.447        -708.440          41.000    23096713.308    94577195.936        -551.965          40.000  
G28  21298513.073   111924442.909       -1233.337          45.000    21298502.638    87213810.834        -961.100          46.000  
G26  20320245.187   106783611.197         581.854          48.000    20320238.716    83207990.367         453.337          46.000  
G31  20618386.159   108350346.458         100.066          47.000    20618375.021    84428800.479          78.015          45.000  
G04  24372174.359   128076619.779        3165.685          37.000    24372170.650    99799992.505        2466.623          41.000  
C33  22533104.786   117335784.090        -810.613          50.000                                                                  
C06  36579121.278   190477083.329        -153.311          45.000    36579103.369   147288892.542        -118.427          48.000  
C14  22759184.306   118513029.529       -2344.811          46.000    22759169.821    91641738.030       -1813.172          50.000  
C16  37008165.882   192711228.421        -182.292          47.000    37008153.787   149016498.575        -140.932          48.000  
C24  21876155.884   113914890.271        -907.072          50.000                                                                  
C26  24526657.278   127716741.638       -2570.298          43.000                                                                  
G03  22895406.057   120316194.925        -248.090          39.000    22895402.392    93752842.967        -193.312          41.000  
G16  22318785.266   117286082.212        2915.032          42.000                                                                  
C09  37730190.754   196470982.171        -141.934          43.000    37730176.834   151923787.953        -109.531          48.000  
C25  23589450.788   122836474.329        1535.118          44.000                                                                  
C08  39288110.887   204583476.616       -2471.267          37.000    39288099.162   158196894.546       -1910.975          41.000  
C07  39518343.524   205782371.258        1118.467          36.000    39518332.766   159123944.472         864.943          41.000  
C10  40461324.466   210692765.357         936.055          34.000    40461325.045   162921013.298         723.741          38.000  
C35  25940770.956   135080405.500         300.503          39.000                                                                  
C13  38451129.980   200225131.274       -2282.577          40.000    38451123.813   154826749.177       -1764.818          42.000  
C12  26367645.344   137303275.694        2319.457          35.000    26367642.865   106171599.098        1793.979          45.000  
G25  24543698.830   128978010.484       -3918.928          33.000    24543694.380   100502309.635       -3053.655          36.000  
> 2025 10 30 06 23 30.7200000  0 23                     
G32  22132334.781   116306199.891       -2999.393          45.000    22132329.106    90628171.848       -2337.135          42.000  
G29  23096727.162   121374134.801        -708.739          41.000    23096718.725    94577218.028        -552.190          40.000  
G28  21298522.476   111924492.248       -1233.406          45.000    21298512.038    87213849.276        -961.063          46.000  
G26  20320240.778   106783587.927         581.767          48.000    20320234.272    83207972.234         453.332          46.000  
G31  20618385.381   108350342.457         100.042          47.000    20618374.254    84428797.357          78.039          45.000  
G04  24372150.270   128076493.162        3165.492          36.000    24372146.545    99799893.854        2466.377          41.000  
C33  22533110.968   117335816.523        -810.765          50.000                                                                  
C06  36579122.438   190477089.456        -153.225          46.000    36579104.514   147288897.278        -118.362          48.000  
C14  22759202.332   118513123.325       -2344.882          46.000    22759187.817    91641810.561       -1813.269          50.000  
C16  37008167.263   192711235.715        -182.309          47.000    37008155.226   149016504.217        -141.007          48.000  
C24  21876162.823   113914926.566        -907.259          50.000                                                                  
C26  24526676.993   127716844.465       -2570.511          43.000                                                                  
G03  22895407.966   120316204.857        -248.299          39.000    22895404.286    93752850.706        -193.431          41.000  
G16  22318763.087   117285965.619        2914.851          42.000                                                                  
C09  37730191.854   196470987.834        -141.713          43.000    37730177.925   151923792.337        -109.591          48.000  
C25  23589438.993   122836412.915        1535.235          44.000                                                                  
C08  39288129.877   204583575.493       -2471.687          37.000    39288118.176   158196970.994       -1911.085          41.000  
C07  39518334.916   205782326.538        1118.064          36.000    39518324.190   159123909.872         865.020          41.000  
C10  40461317.257   210692727.905         936.287          34.000    40461317.851   162920984.365         723.421          38.000  
C35  25940768.637   135080393.467         300.724          39.000                                                                  
C13  38451147.497   200225222.576       -2282.644          40.000    38451141.357   154826819.791       -1765.245          42.000  
C12  26367627.547   137303182.896        2319.854          35.000    26367625.029   106171527.350        1793.790          45.000  
G25  24543728.630   128978167.214       -3918.506          34.000    24543724.221   100502431.777       -3053.553          36.000  
> 2025 10 30 06 23 30.7600000  0 23                     
G32  22132357.633   116306319.874       -2999.608          45.000    22132351.928    90628265.331       -2337.069          42.000  
G29  23096732.546   121374163.133        -708.490          41.000    23096724.120    94577240.116        -552.269          40.000  
G28  21298531.873   111924541.597       -1233.652          45.000    21298521.431    87213887.721        -961.091          46.000  
G26  20320236.371   106783564.663         581.618          48.000    20320229.825    83207954.098         453.369          46.000  
G31  20618384.598   108350338.452         100.073          47.000    20618373.500    84428794.239          77.984          45.000  
G04  24372126.178   128076366.555        3165.282          37.000    24372122.468    99799795.196        2466.391          41.000  
C33  22533117.200   117335848.957        -810.840          50.000                                                                  
C06  36579123.582   190477095.590        -153.280          45.000    36579105.703   147288902.019        -118.458          48.000  
C14  22759220.336   118513217.127       -2345.028          46.000    22759205.810    91641883.092       -1813.298          50.000  
C16  37008168.640   192711243.012        -182.403          47.000    37008156.641   149016509.865        -141.176          48.000  
C24  21876169.798   113914962.858        -907.329          50.000                                                                  
C26  24526696.774   127716947.277       -2570.398          43.000                                                                  
G03  22895409.843   120316214.790        -248.398          39.000    22895406.199    93752858.460        -193.762          41.000  
G16  22318740.895   117285849.022        2914.814          42.000                                                                  
C09  37730192.944   196470993.510        -141.817          43.000    37730179.015   151923796.726        -109.711          48.000  
C25  23589427.194   122836351.508        1535.211          44.000                                                                  
C08  39288148.882   204583674.355       -2471.661          37.000    39288137.197   158197047.434       -1911.047          41.000  
C07  39518326.351   205782281.804        1118.251          36.000    39518315.594   159123875.287         864.749          41.000  
C10  40461310.076   210692690.482         935.828          34.000    40461310.650   162920955.412         723.666          38.000  
C35  25940766.333   135080381.440         300.702          39.000                                                                  
C13  38451165.041   200225313.880       -2282.649          40.000    38451158.890   154826890.398       -1765.262          42.000  
C12  26367609.714   137303090.104        2319.914          35.000    26367607.212   106171455.602        1793.729          45.000  
G25  24543758.450   128978323.946       -3918.333          34.000    24543754.065   100502553.920       -3053.600          37.000  
> 2025 10 30 06 23 30.8000000  0 23                     
G32  22132380.443   116306439.849       -2999.523          45.000    22132374.747    90628358.824       -2337.274          42.000  
G29  23096737.920   121374191.474        -708.521          41.000    23096729.516    94577262.200        -552.167          40.000  
G28  21298541.260   111924590.934       -1233.552          45.000    21298530.815    87213926.171        -961.204          46.000  
G26  20320231.933   106783541.385         581.837          48.000    20320225.392    83207935.963         453.369          46.000  
G31  20618383.828   108350334.451         100.017          47.000    20618372.745    84428791.121          77.916          45.000  
G04  24372102.083   128076239.951        3165.176          37.000    24372098.369    99799696.528        2466.577          41.000  
C33  22533123.436   117335881.391        -810.896          50.000                                                                  
C06  36579124.750   190477101.732        -153.516          45.000    36579106.889   147288906.771        -118.720          48.000  
C14  22759238.354   118513310.922       -2344.962          46.000    22759223.821    91641955.622       -1813.284          50.000  
C16  37008170.029   192711250.318        -182.608          47.000    37008158.060   149016515.512        -141.256          48.000  
C24  21876176.767   113914999.155        -907.444          50.000                                                                  
C26  24526716.504   127717050.096       -2570.422          43.000                                                                  
G03  22895411.728   120316224.711        -248.226          39.000    22895408.102    93752866.189        -193.443          41.000  
G16  22318718.715   117285732.433        2914.682          42.000                                                                  
C09  37730194.057   196470999.180        -141.765          43.000    37730180.088   151923801.115        -109.741          48.000  
C25  23589415.402   122836290.098        1535.204          44.000                                                                  
C08  39288167.862   204583773.226       -2471.769          37.000    39288156.203   158197123.887       -1911.239          41.000  
C07  39518317.761   205782237.048        1118.778          36.000    39518307.047   159123840.706         864.543          41.000  
C10  40461302.892   210692653.032         936.116          34.000    40461303.464   162920926.453         723.900          38.000  
C35  25940764.008   135080369.427         300.406          39.000                                                                  
C13  38451182.582   200225405.188       -2282.741          40.000    38451176.409   154826960.990       -1765.015          42.000  
C12  26367591.906   137302997.300        2320.111          35.000    26367589.370   106171383.853        1793.718          45.000  
G25  24543788.287   128978480.739       -3919.320          34.000    24543783.895   100502676.062       -3053.644          36.000  
> 2025 10 30 06 23 30.8400000  0 23                     
G32  22132403.265   116306559.817       -2999.359          45.000    22132397.573    90628452.307       -2337.167          42.000  
G29  23096743.304   121374219.819        -708.564          41.000    23096734.912    94577284.285        -552.181          40.000  
G28  21298550.621   111924640.275       -1233.558          45.000    21298540.203    87213964.619        -961.228          46.000  
G26  20320227.500   106783518.108         581.911          48.000    20320220.955    83207917.829         453.344          46.000  
G31  20618383.052   108350330.441         100.165          47.000    20618371.990    84428787.997          78.065          45.000  
G04  24372077.976   128076113.325        3165.426          37.000    24372074.275    99799597.857        2466.700          41.000  
C33  22533129.666   117335913.817        -810.754          50.000                                                                  
C06  36579125.919   190477107.861        -153.374          45.000    36579108.075   147288911.511        -118.622          48.000  
C14  22759256.389   118513404.718       -2344.948          46.000    22759241.821    91642028.150       -1813.240          50.000  
C16  37008171.422   192711257.602        -182.307          47.000    37008159.479   149016521.150        -141.077          48.000  
C24  21876183.746   113915035.439        -907.256          50.000                                                                  
C26  24526736.236   127717152.913       -2570.431          43.000                                                                  
G03  22895413.609   120316234.638        -248.175          39.000    22895409.987    93752873.916        -193.244          41.000  
G16  22318696.524   117285615.830        2914.905          42.000                                                                  
C09  37730195.140   196471004.848        -141.735          43.000    37730181.160   151923805.500        -109.696          48.000  
C25  23589403.626   122836228.683        1535.353          44.000                                                                  
C08  39288186.838   204583872.082       -2471.545          37.000    39288175.181   158197200.339       -1911.305          41.000  
C07  39518309.158   205782192.309        1118.688          36.000    39518298.450   159123806.096         864.988          41.000  
C10  40461295.682   210692615.590         936.194          34.000    40461296.250   162920897.507         723.766          38.000  
C35  25940761.686   135080357.404         300.452          39.000                                                                  
C13  38451200.127   200225496.475       -2282.346          40.000    38451193.951   154827031.580       -1764.793          42.000  
C12  26367574.076   137302904.482        2320.495          35.000    26367571.561   106171312.088        1794.030          45.000  
G25  24543818.093   128978637.477       -3918.909          34.000    24543813.716   100502798.200       -3053.478          37.000  
> 2025 10 30 06 23 30.8800000  0 23                     
G32  22132426.088   116306679.778       -2999.094          45.000    22132420.405    90628545.780       -2336.921          42.000  
G29  23096748.704   121374248.159        -708.533          41.000    23096740.301    94577306.357        -551.951          40.000  
G28  21298560.026   111924689.606       -1233.386          45.000    21298549.574    87214003.061        -961.140          46.000  
G26  20320223.094   106783494.840         581.779          48.000    20320216.543    83207899.695         453.293          46.000  
G31  20618382.290   108350326.428         100.269          47.000    20618371.230    84428784.870          78.163          45.000  
G04  24372053.876   128075986.675        3165.945          37.000    24372050.191    99799499.186        2466.740          41.000  
C33  22533135.908   117335946.241        -810.661          50.000                                                                  
C06  36579127.095   190477113.986        -153.224          45.000    36579109.281   147288916.248        -118.504          48.000  
C14  22759274.407   118513498.510       -2344.880          46.000    22759259.818    91642100.676       -1813.170          50.000  
C16  37008172.833   192711264.888        -182.161          47.000    37008160.891   149016526.781        -140.877          48.000  
C24  21876190.752   113915071.715        -906.998          50.000                                                                  
C26  24526755.968   127717255.718       -2570.199          43.000                                                                  
G03  22895415.505   120316244.562        -248.126          39.000    22895411.879    93752881.649        -193.285          41.000  
G16  22318674.322   117285499.222        2915.122          42.000                                                                  
C09  37730196.212   196471010.512        -141.615          43.000    37730182.221   151923809.874        -109.474          48.000  
C25  23589391.861   122836167.268        1535.377          44.000                                                                  
C08  39288205.798   204583970.921       -2471.150          37.000    39288194.170   158197276.778       -1911.118          41.000  
C07  39518300.560   205782147.547        1119.025          36.000    39518289.868   159123771.491         865.123          41.000  
C10  40461288.467   210692578.150         936.139          34.000    40461289.080   162920868.531         724.300          38.000  
C35  25940759.368   135080345.376         300.599          39.000                                                                  
C13  38451217.645   200225587.763       -2282.150          40.000    38451211.466   154827102.162       -1764.535          42.000  
C12  26367556.257   137302811.671        2320.491          35.000    26367553.745   106171240.334        1793.971          45.000  
G25  24543847.936   128978794.215       -3918.757          33.000    24543843.550   100502920.331       -3053.346          37.000  
> 2025 10 30 06 23 30.9200000  0 23                     
G32  22132448.913   116306799.753       -2999.249          45.000    22132443.239    90628639.266       -2337.084          42.000  
G29  23096754.093   121374276.491        -708.365          41.000    23096745.686    94577328.437        -551.958          40.000  
G28  21298569.415   111924738.941       -1233.357          45.000    21298558.968    87214041.499        -961.011          46.000  
G26  20320218.655   106783471.571         581.686          48.000    20320212.110    83207881.561         453.306          46.000  
G31  20618381.590   108350322.421         100.207          47.000    20618370.496    84428781.747          78.144          45.000  
G04  24372029.799   128075860.055        3165.738          37.000    24372026.096    99799400.523        2466.625          41.000  
C33  22533142.110   117335978.670        -810.695          50.000                                                                  
C06  36579128.262   190477120.106        -153.058          45.000    36579110.505   147288920.983        -118.409          48.000  
C14  22759292.443   118513592.307       -2344.932          46.000    22759277.817    91642173.205       -1813.216          50.000  
C16  37008174.203   192711272.178        -182.193          47.000    37008162.297   149016532.411        -140.748          48.000  
C24  21876197.676   113915108.003        -907.096          50.000                                                                  
C26  24526775.692   127717358.537       -2570.380          43.000                                                                  
G03  22895417.389   120316254.483        -248.058          39.000    22895413.765    93752889.397        -193.601          41.000  
G16  22318652.126   117285382.617        2915.188          42.000                                                                  
C09  37730197.309   196471016.185        -141.750          43.000    37730183.303   151923814.261        -109.611          48.000  
C25  23589380.085   122836105.861        1535.265          44.000                                                                  
C08  39288224.763   204584069.780       -2471.294          37.000    39288213.172   158197353.214       -1910.985          41.000  
C07  39518291.971   205782102.817        1118.588          36.000    39518281.252   159123736.901         864.990          41.000  
C10  40461281.271   210692540.711         936.005          34.000    40461281.871   162920839.580         724.044          38.000  
C35  25940757.045   135080333.348         300.680          39.000                                                                  
C13  38451235.172   200225679.074       -2282.565          40.000    38451228.994   154827172.768       -1764.937          42.000  
C12  26367538.457   137302718.896        2319.778          35.000    26367535.936   106171168.572        1794.032          45.000  
G25  24543877.775   128978950.943       -3918.302          33.000    24543873.413   100503042.487       -3053.693          36.000  
> 2025 10 30 06 23 30.9600000  0 23                     
G32  22132471.742   116306919.728       -2999.341          45.000    22132466.081    90628732.752       -2337.147          42.000  
G29  23096759.518   121374304.841        -708.603          41.000    23096751.085    94577350.536        -552.313          40.000  
G28  21298578.828   111924788.280       -1233.446          45.000    21298568.371    87214079.946        -961.127          46.000  
G26  20320214.215   106783448.295         581.792          48.000    20320207.681    83207863.432         453.219          46.000  
G31  20618380.848   108350318.422         100.022          47.000    20618369.753    84428778.625          78.094          45.000  
G04  24372005.718   128075733.452        3165.248          37.000    24372002.021    99799301.868        2466.423          41.000  
C33  22533148.298   117336011.104        -810.822          50.000                                                                  
C06  36579129.434   190477126.239        -153.228          45.000    36579111.698   147288925.722        -118.439          48.000  
C14  22759310.475   118513686.101       -2344.900          46.000    22759295.854    91642245.733       -1813.223          50.000  
C16  37008175.600   192711279.473        -182.312          47.000    37008163.690   149016538.049        -140.864          48.000  
C24  21876204.589   113915144.294        -907.210          50.000                                                                  
C26  24526795.446   127717461.363       -2570.596          43.000                                                                  
G03  22895419.280   120316264.423        -248.379          39.000    22895415.650    93752897.129        -193.485          41.000  
G16  22318629.928   117285266.015        2915.139          42.000                                                                  
C09  37730198.410   196471021.853        -141.725          43.000    37730184.393   151923818.649        -109.699          48.000  
C25  23589368.258   122836044.449        1535.272          44.000                                                                  
C08  39288243.736   204584168.640       -2471.401          37.000    39288232.173   158197429.660       -1911.118          41.000  
C07  39518283.383   205782058.079        1118.381          36.000    39518272.653   159123702.305         864.940          41.000  
C10  40461274.099   210692503.261         936.146          34.000    40461274.681   162920810.640         723.653          38.000  
C35  25940754.750   135080321.316         300.830          39.000                                                                  
C13  38451252.688   200225770.372       -2282.552          40.000    38451246.542   154827243.369       -1765.079          42.000  
C12  26367520.634   137302626.107        2319.569          35.000    26367518.124   106171096.812        1794.012          45.000  
G25  24543907.596   128979107.697       -3918.550          34.000    24543903.254   100503164.630       -3053.608          36.000  
> 2025 10 30 06 23 31.0000000  0 23                     
G32  22132494.580   116307039.701       -2999.347          45.000    22132488.904    90628826.243       -2337.289          42.000  
G29  23096764.891   121374333.189        -708.727          41.000    23096756.468    94577372.630        -552.417          40.000  
G28  21298588.225   111924837.622       -1233.510          45.000    21298577.750    87214118.392        -961.172          46.000  
G26  20320209.776   106783425.029         581.668          48.000    20320203.257    83207845.303         453.190          46.000  
G31  20618380.103   108350314.416         100.060          47.000    20618368.995    84428775.508          77.958          45.000  
G04  24371981.621   128075606.841        3165.162          37.000    24371977.914    99799203.191        2466.726          41.000  
C33  22533154.527   117336043.542        -810.953          50.000                                                                  
C06  36579130.613   190477132.371        -153.327          45.000    36579112.894   147288930.458        -118.419          48.000  
C14  22759328.487   118513779.906       -2345.063          46.000    22759313.877    91642318.268       -1813.356          50.000  
C16  37008177.022   192711286.766        -182.329          47.000    37008165.054   149016543.689        -140.962          48.000  
C24  21876211.533   113915180.588        -907.359          50.000                                                                  
C26  24526815.183   127717564.189       -2570.695          43.000                                                                  
G03  22895421.161   120316274.359        -248.471          39.000    22895417.515    93752904.877        -193.699          41.000  
G16  22318607.757   117285149.425        2914.856          42.000                                                                  
C09  37730199.498   196471027.518        -141.695          43.000    37730185.485   151923823.031        -109.620          48.000  
C25  23589356.437   122835983.043        1535.179          44.000                                                                  
C08  39288262.729   204584267.501       -2471.508          37.000    39288251.132   158197506.108       -1911.223          41.000  
C07  39518274.775   205782013.362        1117.939          36.000    39518264.073   159123667.716         864.753          41.000  
C10  40461266.930   210692465.820         936.075          34.000    40461267.505   162920781.704         723.416          38.000  
C35  25940752.437   135080309.283         300.890          39.000                                                                  
C13  38451270.239   200225861.678       -2282.668          40.000    38451264.074   154827313.977       -1765.207          42.000  
C12  26367502.814   137302533.334        2319.243          35.000    26367500.310   106171025.065        1793.738          45.000  
G25  24543937.429   128979264.429       -3918.407          34.000    24543933.071   100503286.755       -3053.241          37.000  
> 2025 10 30 06 23 31.0400000  0 23                     
G32  22132517.421   116307159.677       -2999.417          45.000    22132511.745    90628919.738       -2337.406          42.000  
G29  23096770.259   121374361.540        -708.837          41.000    23096761.850    94577394.707        -552.154          40.000  
G28  21298597.611   111924886.959       -1233.483          45.000    21298587.124    87214156.842        -961.285          46.000  
G26  20320205.336   106783401.758         581.706          48.000    20320198.819    83207827.165         453.326          46.000  
G31  20618379.338   108350310.408         100.128          47.000    20618368.253    84428772.388          77.990          45.000  
G04  24371957.541   128075480.201        3165.602          37.000    24371953.811    99799104.516        2466.846          41.000  
C33  22533160.779   117336075.979        -810.988          50.000                                                                  
C06  36579131.799   190477138.499        -153.306          45.000    36579114.072   147288935.195        -118.442          48.000  
C14  22759346.513   118513873.702       -2345.005          46.000    22759331.871    91642390.797       -1813.296          50.000  
C16  37008178.426   192711294.064        -182.430          47.000    37008166.428   149016549.335        -141.149          48.000  
C24  21876218.543   113915216.877        -907.316          50.000                                                                  
C26  24526834.929   127717667.007       -2570.587          43.000                                                                  
G03  22895423.037   120316284.294        -248.493          39.000    22895419.422    93752912.626        -193.776          41.000  
G16  22318585.547   117285032.839        2914.675          42.000                                                                  
C09  37730200.571   196471033.193        -141.881          43.000    37730186.561   151923827.420        -109.697          48.000  
C25  23589344.617   122835921.639        1535.125          44.000                                                                  
C08  39288281.728   204584366.374       -2471.781          37.000    39288270.094   158197582.558       -1911.282          41.000  
C07  39518266.166   205781968.595        1118.685          36.000    39518255.490   159123633.108         864.987          41.000  
C10  40461259.719   210692428.383         935.940          34.000    40461260.308   162920752.768         723.322          38.000  
C35  25940750.121   135080297.273         300.454          39.000                                                                  
C13  38451287.779   200225952.974       -2282.551          40.000    38451281.603   154827384.574       -1765.058          42.000  
C12  26367484.985   137302440.525        2319.871          35.000    26367482.494   106170953.310        1793.752          45.000  
G25  24543967.269   128979421.160       -3918.230          34.000    24543962.894   100503408.884       -3053.196          36.000  
> 2025 10 30 06 23 31.0800000  0 23                     
G32  22132540.280   116307279.654       -2999.453          45.000    22132534.566    90629013.215       -2337.097          42.000  
G29  23096775.644   121374389.891        -708.848          41.000    23096767.247    94577416.792        -552.092          40.000  
G28  21298606.996   111924936.295       -1233.435          45.000    21298596.540    87214195.286        -961.215          46.000  
G26  20320200.892   106783378.489         581.694          48.000    20320194.377    83207809.036         453.264          46.000  
G31  20618378.602   108350306.404         100.122          47.000    20618367.479    84428769.266          78.033          45.000  
G04  24371933.439   128075353.578        3165.603          36.000    24371929.748    99799005.863        2466.496          41.000  
C33  22533167.004   117336108.407        -810.841          50.000                                                                  
C06  36579132.980   190477144.630        -153.288          45.000    36579115.269   147288939.940        -118.565          48.000  
C14  22759364.537   118513967.500       -2344.972          46.000    22759349.872    91642463.327       -1813.276          50.000  
C16  37008179.840   192711301.356        -182.363          47.000    37008167.807   149016554.976        -141.130          48.000  
C24  21876225.566   113915253.165        -907.268          50.000                                                                  
C26  24526854.664   127717769.815       -2570.309          43.000                                                                  
G03  22895424.922   120316294.234        -248.567          39.000    22895421.312    93752920.357        -193.460          41.000  
G16  22318563.336   117284916.234        2914.984          42.000                                                                  
C09  37730201.652   196471038.862        -141.827          43.000    37730187.672   151923831.798        -109.531          48.000  
C25  23589332.849   122835860.225        1535.292          44.000                                                                  
C08  39288300.711   204584465.228       -2471.563          37.000    39288289.082   158197659.004       -1911.216          41.000  
C07  39518257.560   205781923.873        1118.264          36.000    39518246.892   159123598.519         864.807          41.000  
C10  40461252.528   210692390.968         935.483          34.000    40461253.094   162920723.798         723.910          38.000  
C35  25940747.827   135080285.245         300.603          39.000                                                                  
C13  38451305.320   200226044.275       -2282.545          40.000    38451299.126   154827455.162       -1764.774          42.000  
C12  26367467.161   137302347.711        2320.337          35.000    26367464.671   106170881.560        1793.698          45.000  
G25  24543997.098   128979577.925       -3918.782          34.000    24543992.734   100503531.015       -3053.204          36.000  
> 2025 10 30 06 23 31.1200000  0 23                     
G32  22132563.086   116307399.625       -2999.355          45.000    22132557.397    90629106.702       -2337.140          42.000  
G29  23096781.034   121374418.231        -708.642          41.000    23096772.640    94577438.880        -552.174          40.000  
G28  21298616.375   111924985.623       -1233.259          45.000    21298605.921    87214233.729        -961.149          46.000  
G26  20320196.489   106783355.223         581.638          48.000    20320189.960    83207790.903         453.295          46.000  
G31  20618377.824   108350302.395         100.189          47.000    20618366.709    84428766.148          77.959          45.000  
G04  24371909.346   128075226.960        3165.488          36.000    24371905.656    99798907.206        2466.349          41.000  
C33  22533173.239   117336140.839        -810.816          50.000                                                                  
C06  36579134.202   190477150.753        -153.144          45.000    36579116.426   147288944.679        -118.529          48.000  
C14  22759382.553   118514061.300       -2345.004          46.000    22759367.883    91642535.860       -1813.322          50.000  
C16  37008181.276   192711308.643        -182.215          47.000    37008169.200   149016560.616        -141.076          48.000  
C24  21876232.553   113915289.451        -907.210          50.000                                                                  
C26  24526874.421   127717872.613       -2570.022          43.000                                                                  
G03  22895426.801   120316304.154        -248.206          39.000    22895423.223    93752928.098        -193.539          41.000  
G16  22318541.122   117284799.639        2914.909          42.000                                                                  
C09  37730202.760   196471044.530        -141.801          43.000    37730188.746   151923836.176        -109.462          48.000  
C25  23589321.066   122835798.817        1535.260          44.000                                                                  
C08  39288319.701   204584564.090       -2471.588          37.000    39288308.097   158197735.443       -1911.057          41.000  
C07  39518248.955   205781879.104        1118.853          36.000    39518238.299   159123563.936         864.657          41.000  
C10  40461245.340   210692353.517         935.901          34.000    40461245.900   162920694.835         724.216          38.000  
C35  25940745.504   135080273.234         300.371          39.000                                                                  
C13  38451322.830   200226135.565       -2282.323          40.000    38451316.659   154827525.764       -1764.936          42.000  
C12  26367449.326   137302254.904        2320.363          35.000    26367446.846   106170809.793        1794.047          45.000  
G25  24544026.931   128979734.693       -3919.255          33.000    24544022.553   100503653.186       -3053.930          36.000  
> 2025 10 30 06 23 31.1600000  0 23                     
G32  22132585.891   116307519.601       -2999.414          45.000    22132580.230    90629200.195       -2337.297          42.000  
G29  23096786.426   121374446.582        -708.736          41.000    23096778.026    94577460.969        -552.230          40.000  
G28  21298625.767   111925034.967       -1233.477          45.000    21298615.306    87214272.172        -961.090          46.000  
G26  20320192.072   106783331.956         581.639          48.000    20320185.543    83207772.775         453.215          46.000  
G31  20618377.070   108350298.390         100.134          47.000    20618365.944    84428763.027          77.971          45.000  
G04  24371885.260   128075100.357        3165.189          36.000    24371881.546    99798808.532        2466.613          41.000  
C33  22533179.473   117336173.274        -810.881          50.000                                                                  
C06  36579135.370   190477156.880        -153.155          45.000    36579117.621   147288949.419        -118.529          48.000  
C14  22759400.545   118514155.101       -2345.048          46.000    22759385.909    91642608.393       -1813.392          50.000  
C16  37008182.711   192711315.939        -182.335          47.000    37008170.600   149016566.249        -140.934          48.000  
C24  21876239.505   113915325.744        -907.288          50.000                                                                  
C26  24526894.144   127717975.426       -2570.167          43.000                                                                  
G03  22895428.698   120316314.087        -248.299          39.000    22895425.112    93752935.831        -193.394          41.000  
G16  22318518.943   117284683.049        2914.773          42.000                                                                  
C09  37730203.862   196471050.199        -141.755          43.000    37730189.784   151923840.556        -109.465          48.000  
C25  23589309.277   122835737.407        1535.241          44.000                                                                  
C08  39288338.700   204584662.946       -2471.470          37.000    39288327.088   158197811.882       -1910.969          41.000  
C07  39518240.367   205781834.370        1118.558          36.000    39518229.702   159123529.338         864.806          41.000  
C10  40461238.136   210692316.064         936.208          34.000    40461238.683   162920665.888         723.887          38.000  
C35  25940743.202   135080261.221         300.292          39.000                                                                  
C13  38451340.342   200226226.867       -2282.509          40.000    38451334.186   154827596.361       -1764.936          42.000  
C12  26367431.531   137302162.120        2319.931          35.000    26367429.039   106170738.032        1794.045          45.000  
G25  24544056.754   128979891.445       -3919.214          34.000    24544052.392   100503775.324       -3053.721          36.000  
> 2025 10 30 06 23 31.2000000  0 23                     
G32  22132608.722   116307639.585       -2999.568          45.000    22132603.073    90629293.687       -2337.360          42.000  
G29  23096791.823   121374474.923        -708.636          41.000    23096783.407    94577483.060        -552.253          40.000  
G28  21298635.183   111925084.312       -1233.605          45.000    21298624.705    87214310.625        -961.292          46.000  
G26  20320187.650   106783308.689         581.633          48.000    20320181.129    83207754.646         453.202          46.000  
G31  20618376.321   108350294.383         100.152          47.000    20618365.172    84428759.903          78.033          45.000  
G04  24371861.156   128074973.718        3165.643          36.000    24371857.450    99798709.876        2466.461          41.000  
C33  22533185.676   117336205.714        -811.013          50.000                                                                  
C06  36579136.528   190477163.013        -153.322          46.000    36579118.765   147288954.155        -118.464          48.000  
C14  22759418.550   118514248.901       -2345.041          46.000    22759403.937    91642680.927       -1813.403          50.000  
C16  37008184.134   192711323.227        -182.269          47.000    37008172.017   149016571.887        -140.936          48.000  
C24  21876246.491   113915362.031        -907.228          50.000                                                                  
C26  24526913.883   127718078.252       -2570.479          43.000                                                                  
G03  22895430.575   120316324.023        -248.373          39.000    22895427.021    93752943.567        -193.389          41.000  
G16  22318496.760   117284566.460        2914.673          42.000                                                                  
C09  37730204.959   196471055.861        -141.623          43.000    37730190.860   151923844.944        -109.619          48.000  
C25  23589297.473   122835675.999        1535.192          44.000                                                                  
C08  39288357.691   204584761.797       -2471.334          37.000    39288346.060   158197888.332       -1911.118          41.000  
C07  39518231.777   205781789.648        1118.145          36.000    39518221.115   159123494.734         864.972          41.000  
C10  40461230.944   210692278.625         936.124          34.000    40461231.540   162920636.945         723.636          38.000  
C35  25940740.896   135080249.198         300.452          39.000                                                                  
C13  38451357.883   200226318.167       -2282.552          40.000    38451351.723   154827666.953       -1764.887          42.000  
C12  26367413.684   137302069.283        2320.622          35.000    26367411.221   106170666.275        1793.956          45.000  
G25  24544086.593   128980048.204       -3919.115          34.000    24544082.225   100503897.467       -3053.671          36.000  
> 2025 10 30 06 23 31.2400000  0 23                     
G32  22132631.527   116307759.559       -2999.474          45.000    22132625.900    90629387.165       -2337.110          42.000  
G29  23096797.241   121374503.272        -708.737          41.000    23096788.813    94577505.160        -552.465          40.000  
G28  21298644.561   111925133.651       -1233.579          45.000    21298634.122    87214349.074        -961.311          46.000  
G26  20320183.232   106783285.422         581.620          48.000    20320176.726    83207736.524         453.066          46.000  
G31  20618375.591   108350290.381         100.066          47.000    20618364.407    84428756.786          77.947          45.000  
G04  24371837.054   128074847.097        3165.591          37.000    24371833.341    99798611.194        2466.866          41.000  
C33  22533191.921   117336238.154        -811.035          50.000                                                                  
C06  36579137.697   190477169.139        -153.255          46.000    36579119.919   147288958.891        -118.433          48.000  
C14  22759436.562   118514342.706       -2345.117          46.000    22759421.963    91642753.461       -1813.388          50.000  
C16  37008185.550   192711330.512        -182.154          47.000    37008173.418   149016577.528        -141.021          48.000  
C24  21876253.455   113915398.322        -907.274          50.000                                                                  
C26  24526933.629   127718181.069       -2570.505          43.000                                                                  
G03  22895432.441   120316333.961        -248.454          39.000    22895428.902    93752951.306        -193.479          41.000  
G16  22318474.561   117284449.858        2914.855          42.000                                                                  
C09  37730206.037   196471061.526        -141.612          43.000    37730191.941   151923849.330        -109.668          48.000  
C25  23589285.674   122835614.595        1535.100          44.000                                                                  
C08  39288376.679   204584860.667       -2471.560          37.000    39288365.028   158197964.781       -1911.202          41.000  
C07  39518223.187   205781744.914        1118.170          36.000    39518212.510   159123460.118         865.304          41.000  
C10  40461223.742   210692241.160         936.452          34.000    40461224.336   162920607.995         723.662          38.000  
C35  25940738.609   135080237.177         300.527          39.000                                                                  
C13  38451375.420   200226409.468       -2282.620          40.000    38451369.258   154827737.558       -1765.072          42.000  
C12  26367395.857   137301976.488        2320.188          35.000    26367393.407   106170594.516        1793.963          45.000  
G25  24544116.408   128980204.949       -3918.800          34.000    24544112.041   100504019.601       -3053.492          36.000  
> 2025 10 30 06 23 31.2800000  0 23                     
G32  22132654.355   116307879.537       -2999.500          45.000    22132648.725    90629480.654       -2337.130          42.000  
G29  23096802.641   121374531.619        -708.743          41.000    23096794.208    94577527.260        -552.576          40.000  
G28  21298653.941   111925182.995       -1233.623          45.000    21298643.524    87214387.516        -961.178          46.000  
G26  20320178.812   106783262.159         581.552          48.000    20320172.318    83207718.395         453.148          46.000  
G31  20618374.847   108350286.381          99.980          47.000    20618363.665    84428753.670          77.879          45.000  
G04  24371812.949   128074720.479        3165.497          37.000    24371809.257    99798512.536        2466.635          41.000  
C33  22533198.189   117336270.590        -810.969          50.000                                                                  
C06  36579138.886   190477175.266        -153.214          46.000    36579121.082   147288963.633        -118.498          48.000  
C14  22759454.571   118514436.511       -2345.140          46.000    22759439.979    91642825.995       -1813.387          50.000  
C16  37008186.937   192711337.805        -182.275          47.000    37008174.847   149016583.166        -140.995          48.000  
C24  21876260.437   113915434.614        -907.320          50.000                                                                  
C26  24526953.369   127718283.885       -2570.525          43.000                                                                  
G03  22895434.335   120316343.903        -248.541          39.000    22895430.803    93752959.063        -193.836          41.000  
G16  22318452.364   117284333.257        2914.976          42.000                                                                  
C09  37730207.103   196471067.196        -141.723          43.000    37730193.028   151923853.713        -109.647          48.000  
C25  23589273.859   122835553.188        1535.131          44.000                                                                  
C08  39288395.663   204584959.540       -2471.781          37.000    39288384.005   158198041.216       -1910.955          41.000  
C07  39518214.597   205781700.161        1118.517          36.000    39518203.902   159123425.536         864.851          41.000  
C10  40461216.558   210692203.721         936.271          34.000    40461217.156   162920579.040         723.786          38.000  
C35  25940736.309   135080225.161         300.476          39.000                                                                  
C13  38451392.974   200226500.766       -2282.563          40.000    38451386.803   154827808.164       -1765.213          42.000  
C12  26367378.049   137301883.714        2319.548          35.000    26367375.570   106170522.762        1793.850          45.000  
G25  24544146.245   128980361.698       -3918.686          34.000    24544141.881   100504141.742       -3053.553          36.000  
> 2025 10 30 06 23 31.3200000  0 23                     
G32  22132677.186   116307999.526       -2999.712          45.000    22132671.558    90629574.153       -2337.337          42.000  
G29  23096808.033   121374559.987        -709.160          41.000    23096799.592    94577549.353        -552.456          40.000  
G28  21298663.326   111925232.334       -1233.568          45.000    21298652.912    87214425.964        -961.212          46.000  
G26  20320174.399   106783238.904         581.365          48.000    20320167.903    83207700.268         453.142          46.000  
G31  20618374.094   108350282.384          99.882          47.000    20618362.905    84428750.555          77.799          45.000  
G04  24371788.831   128074593.854        3165.593          36.000    24371785.173    99798413.880        2466.464          41.000  
C33  22533204.432   117336303.030        -810.988          50.000                                                                  
C06  36579140.059   190477181.401        -153.323          46.000    36579122.258   147288968.370        -118.479          48.000  
C14  22759472.601   118514530.312       -2345.101          46.000    22759458.007    91642898.532       -1813.432          50.000  
C16  37008188.336   192711345.103        -182.422          47.000    37008176.266   149016588.803        -140.976          48.000  
C24  21876267.396   113915470.909        -907.389          50.000                                                                  
C26  24526973.123   127718386.700       -2570.515          43.000                                                                  
G03  22895436.223   120316353.852        -248.715          39.000    22895432.715    93752966.817        -193.990          41.000  
G16  22318430.208   117284216.676        2914.639          42.000                                                                  
C09  37730208.206   196471072.860        -141.671          43.000    37730194.103   151923858.096        -109.608          48.000  
C25  23589262.065   122835491.784        1535.076          44.000                                                                  
C08  39288414.648   204585058.391       -2471.492          37.000    39288402.984   158198117.663       -1911.102          41.000  
C07  39518205.991   205781655.422        1118.485          36.000    39518195.333   159123390.950         864.630          41.000  
C10  40461209.412   210692166.291         935.903          34.000    40461210.001   162920550.089         723.826          38.000  
C35  25940733.995   135080213.138         300.544          39.000                                                                  
C13  38451410.513   200226592.056       -2282.341          40.000    38451404.308   154827878.766       -1765.175          42.000  
C12  26367360.217   137301790.913        2319.803          35.000    26367357.745   106170451.011        1793.732          45.000  
G25  24544176.045   128980518.411       -3918.102          34.000    24544171.724   100504263.886       -3053.575          36.000  
> 2025 10 30 06 23 31.3600000  0 23                     
G32  22132700.011   116308119.503       -2999.564          45.000    22132694.382    90629667.644       -2337.356          42.000  
G29  23096813.419   121374588.337        -709.013          41.000    23096805.008    94577571.447        -552.481          40.000  
G28  21298672.731   111925281.684       -1233.719          45.000    21298662.314    87214464.410        -961.199          46.000  
G26  20320169.958   106783215.648         581.274          48.000    20320163.492    83207682.142         453.136          46.000  
G31  20618373.342   108350278.386          99.889          47.000    20618362.151    84428747.439          77.824          45.000  
G04  24371764.737   128074467.246        3165.298          36.000    24371761.083    99798315.217        2466.496          41.000  
C33  22533210.638   117336335.477        -811.154          50.000                                                                  
C06  36579141.229   190477187.530        -153.295          46.000    36579123.428   147288973.114        -118.584          48.000  
C14  22759490.608   118514624.119       -2345.157          46.000    22759476.025    91642971.066       -1813.405          50.000  
C16  37008189.683   192711352.406        -182.594          47.000    37008177.699   149016594.443        -140.988          48.000  
C24  21876274.356   113915507.203        -907.393          50.000                                                                  
C26  24526992.863   127718489.523       -2570.576          43.000                                                                  
G03  22895438.114   120316363.793        -248.623          39.000    22895434.612    93752974.573        -194.054          41.000  
G16  22318408.021   117284100.077        2914.778          42.000                                                                  
C09  37730209.290   196471078.534        -141.855          43.000    37730195.166   151923862.487        -109.736          48.000  
C25  23589250.287   122835430.379        1535.088          44.000                                                                  
C08  39288433.631   204585157.246       -2471.340          37.000    39288421.963   158198194.109       -1911.147          41.000  
C07  39518197.396   205781610.686        1118.354          36.000    39518186.746   159123356.360         864.536          40.000  
C10  40461202.225   210692128.887         935.244          34.000    40461202.814   162920521.146         723.656          38.000  
C35  25940731.684   135080201.116         300.510          39.000                                                                  
C13  38451428.039   200226683.352       -2282.330          40.000    38451421.848   154827949.362       -1765.040          42.000  
C12  26367342.388   137301698.135        2319.512          35.000    26367339.919   106170379.259        1793.722          45.000  
G25  24544205.876   128980675.178       -3918.860          34.000    24544201.538   100504386.019       -3053.468          36.000  
> 2025 10 30 06 23 31.4000000  0 23                     
G32  22132722.838   116308239.493       -2999.719          45.000    22132717.212    90629761.132       -2337.284          42.000  
G29  23096818.824   121374616.691        -708.912          41.000    23096810.406    94577593.533        -552.326          40.000  
G28  21298682.133   111925331.021       -1233.535          45.000    21298671.726    87214502.861        -961.271          46.000  
G26  20320165.521   106783192.386         581.394          48.000    20320159.075    83207664.015         453.149          46.000  
G31  20618372.579   108350274.393          99.828          47.000    20618361.394    84428744.325          77.806          45.000  
G04  24371740.633   128074340.623        3165.375          36.000    24371736.975    99798216.549        2466.609          41.000  
C33  22533216.883   117336367.922        -811.190          50.000                                                                  
C06  36579142.394   190477193.660        -153.318          46.000    36579124.598   147288977.859        -118.659          48.000  
C14  22759508.616   118514717.925       -2345.201          46.000    22759494.065    91643043.607       -1813.520          50.000  
C16  37008191.092   192711359.694        -182.414          47.000    37008179.126   149016600.083        -141.006          48.000  
C24  21876281.319   113915543.502        -907.483          50.000                                                                  
C26  24527012.613   127718592.345       -2570.599          43.000                                                                  
G03  22895440.015   120316373.747        -248.837          39.000    22895436.511    93752982.315        -193.748          41.000  
G16  22318385.854   117283983.497        2914.574          42.000                                                                  
C09  37730210.376   196471084.204        -141.840          43.000    37730196.271   151923866.872        -109.703          48.000  
C25  23589238.485   122835368.974        1535.082          44.000                                                                  
C08  39288452.638   204585256.117       -2471.663          37.000    39288440.962   158198270.574       -1911.520          41.000  
C07  39518188.768   205781565.937        1118.585          36.000    39518178.167   159123321.772         864.584          41.000  
C10  40461195.074   210692091.442         935.701          34.000    40461195.626   162920492.185         723.868          38.000  
C35  25940729.389   135080189.110         300.157          39.000                                                                  
C13  38451445.538   200226774.669       -2282.743          40.000    38451439.369   154828019.958       -1764.953          42.000  
C12  26367324.565   137301605.327        2319.899          35.000    26367322.124   106170307.504        1793.785          45.000  
G25  24544235.681   128980831.899       -3918.371          34.000    24544231.380   100504508.168       -3053.625          36.000  
> 2025 10 30 06 23 31.4400000  0 23                     
G32  22132745.651   116308359.472       -2999.607          45.000    22132740.058    90629854.635       -2337.537          42.000  
G29  23096824.220   121374645.054        -709.061          41.000    23096815.795    94577615.631        -552.521          40.000  
G28  21298691.519   111925380.368       -1233.623          45.000    21298681.135    87214541.321        -961.458          46.000  
G26  20320161.089   106783169.125         581.464          48.000    20320154.652    83207645.896         453.031          46.000  
G31  20618371.813   108350270.395          99.883          47.000    20618360.628    84428741.215          77.751          45.000  
G04  24371716.550   128074214.015        3165.199          36.000    24371712.890    99798117.889        2466.542          41.000  
C33  22533223.112   117336400.371        -811.263          50.000                                                                  
C06  36579143.547   190477199.793        -153.361          46.000    36579125.799   147288982.599        -118.611          48.000  
C14  22759526.632   118514811.740       -2345.366          46.000    22759512.073    91643116.148       -1813.556          50.000  
C16  37008192.493   192711366.991        -182.454          47.000    37008180.511   149016605.723        -141.013          48.000  
C24  21876288.259   113915579.800        -907.520          50.000                                                                  
C26  24527032.355   127718695.170       -2570.632          43.000                                                                  
G03  22895441.911   120316383.698        -248.846          39.000    22895438.387    93752990.057        -193.573          41.000  
G16  22318363.687   117283866.916        2914.477          42.000                                                                  
C09  37730211.472   196471089.880        -141.934          43.000    37730197.365   151923871.249        -109.525          48.000  
C25  23589226.710   122835307.576        1534.947          44.000                                                                  
C08  39288471.623   204585354.978       -2471.614          37.000    39288459.923   158198347.014       -1911.273          41.000  
C07  39518180.190   205781521.196        1118.683          36.000    39518169.574   159123287.169         864.871          40.000  
C10  40461187.869   210692053.988         936.156          34.000    40461188.438   162920463.255         723.392          38.000  
C35  25940727.095   135080177.108         299.935          39.000                                                                  
C13  38451463.079   200226865.989       -2283.025          40.000    38451456.903   154828090.567       -1765.145          42.000  
C12  26367306.751   137301512.541        2319.749          35.000    26367304.286   106170235.749        1793.816          45.000  
G25  24544265.501   128980988.661       -3918.761          34.000    24544261.208   100504630.306       -3053.514          36.000  
> 2025 10 30 06 23 31.4800000  0 23                     
G32  22132768.489   116308479.456       -2999.592          45.000    22132762.888    90629948.131       -2337.510          42.000  
G29  23096829.597   121374673.413        -709.004          41.000    23096821.200    94577637.737        -552.649          40.000  
G28  21298700.916   111925429.715       -1233.677          45.000    21298690.523    87214579.769        -961.327          46.000  
G26  20320156.631   106783145.866         581.482          48.000    20320150.227    83207627.771         453.050          46.000  
G31  20618371.057   108350266.402          99.822          47.000    20618359.872    84428738.099          77.813          45.000  
G04  24371692.465   128074087.414        3165.002          36.000    24371688.795    99798019.234        2466.418          41.000  
C33  22533229.371   117336432.820        -811.273          50.000                                                                  
C06  36579144.743   190477205.923        -153.319          46.000    36579127.003   147288987.343        -118.616          48.000  
C14  22759544.646   118514905.550       -2345.350          46.000    22759530.111    91643188.688       -1813.554          50.000  
C16  37008193.912   192711374.280        -182.309          47.000    37008181.905   149016611.369        -141.136          48.000  
C24  21876295.274   113915616.090        -907.386          50.000                                                                  
C26  24527052.102   127718797.981       -2570.408          43.000                                                                  
G03  22895443.806   120316393.640        -248.707          39.000    22895440.302    93752997.818        -193.891          41.000  
G16  22318341.480   117283750.335        2914.429          42.000                                                                  
C09  37730212.578   196471095.550        -141.848          43.000    37730198.444   151923875.627        -109.477          48.000  
C25  23589214.926   122835246.174        1534.984          44.000                                                                  
C08  39288490.604   204585453.859       -2471.842          37.000    39288478.915   158198423.461       -1911.255          41.000  
C07  39518171.599   205781476.445        1118.835          36.000    39518160.975   159123252.572         864.902          40.000  
C10  40461180.684   210692016.528         936.407          34.000    40461181.248   162920434.298         723.701          38.000  
C35  25940724.799   135080165.108         299.833          39.000                                                                  
C13  38451480.625   200226957.289       -2282.796          40.000    38451474.421   154828161.160       -1764.978          42.000  
C12  26367288.935   137301419.743        2319.874          35.000    26367286.459   106170163.996        1793.835          45.000  
G25  24544295.314   128981145.400       -3918.552          34.000    24544291.033   100504752.453       -3053.594          36.000  
> 2025 10 30 06 23 31.5200000  0 23                     
G32  22132791.315   116308599.448       -2999.769          45.000    22132785.708    90630041.633       -2337.621          42.000  
G29  23096835.016   121374701.775        -709.003          41.000    23096826.581    94577659.838        -552.641          40.000  
G28  21298710.313   111925479.059       -1233.661          45.000    21298699.923    87214618.229        -961.456          46.000  
G26  20320152.211   106783122.619         581.251          48.000    20320145.797    83207609.653         452.932          46.000  
G31  20618370.286   108350262.408          99.797          47.000    20618359.124    84428734.986          77.807          45.000  
G04  24371668.375   128073960.793        3165.267          36.000    24371664.681    99797920.577        2466.361          41.000  
C33  22533235.630   117336465.269        -811.271          50.000                                                                  
C06  36579145.921   190477212.053        -153.265          46.000    36579128.204   147288992.086        -118.628          48.000  
C14  22759562.688   118514999.358       -2345.305          46.000    22759548.133    91643261.227       -1813.528          50.000  
C16  37008195.331   192711381.575        -182.371          47.000    37008183.306   149016617.006        -141.010          48.000  
C24  21876302.178   113915652.394        -907.538          50.000                                                                  
C26  24527071.838   127718900.810       -2570.609          43.000                                                                  
G03  22895445.707   120316403.587        -248.675          40.000    22895442.199    93753005.562        -193.732          41.000  
G16  22318319.283   117283633.740        2914.673          42.000                                                                  
C09  37730213.656   196471101.236        -142.056          43.000    37730199.530   151923880.014        -109.618          48.000  
C25  23589203.172   122835184.777        1534.935          44.000                                                                  
C08  39288509.602   204585552.723       -2471.704          37.000    39288497.909   158198499.911       -1911.232          41.000  
C07  39518163.018   205781431.734        1118.225          36.000    39518152.399   159123217.983         864.758          40.000  
C10  40461173.490   210691979.112         935.799          34.000    40461174.082   162920405.341         723.873          38.000  
C35  25940722.475   135080153.092         300.088          39.000                                                                  
C13  38451498.159   200227048.590       -2282.623          40.000    38451491.936   154828231.756       -1764.935          42.000  
C12  26367271.106   137301326.945        2319.999          35.000    26367268.642   106170092.246        1793.716          45.000  
G25  24544325.164   128981302.198       -3919.551          34.000    24544320.854   100504874.590       -3053.480          36.000  
> 2025 10 30 06 23 31.5600000  0 23                     
G32  22132814.137   116308719.437       -2999.783          45.000    22132808.529    90630135.131       -2337.591          42.000  
G29  23096840.435   121374730.133        -708.940          41.000    23096831.994    94577681.936        -552.578          40.000  
G28  21298719.699   111925528.410       -1233.751          45.000    21298709.311    87214656.674        -961.255          46.000  
G26  20320147.786   106783099.367         581.190          48.000    20320141.362    83207591.533         452.927          46.000  
G31  20618369.500   108350258.410          99.871          47.000    20618358.383    84428731.878          77.684          45.000  
G04  24371644.260   128073834.161        3165.571          36.000    24371640.586    99797821.907        2466.625          41.000  
C33  22533241.868   117336497.718        -811.278          50.000                                                                  
C06  36579147.103   190477218.181        -153.213          46.000    36579129.389   147288996.824        -118.538          48.000  
C14  22759580.678   118515093.171       -2345.355          46.000    22759566.117    91643333.766       -1813.490          50.000  
C16  37008196.742   192711388.869        -182.371          47.000    37008184.690   149016622.649        -141.036          48.000  
C24  21876309.149   113915688.685        -907.396          50.000                                                                  
C26  24527091.600   127719003.627       -2570.529          43.000                                                                  
G03  22895447.599   120316413.538        -248.829          40.000    22895444.101    93753013.316        -193.821          41.000  
G16  22318297.092   117283517.149        2914.736          42.000                                                                  
C09  37730214.742   196471106.901        -141.787          43.000    37730200.639   151923884.405        -109.762          48.000  
C25  23589191.387   122835123.369        1535.114          44.000                                                                  
C08  39288528.573   204585651.592       -2471.718          37.000    39288516.882   158198576.354       -1911.097          41.000  
C07  39518154.416   205781387.001        1118.226          36.000    39518143.784   159123183.386         864.855          40.000  
C10  40461166.295   210691941.667         936.011          34.000    40461166.885   162920376.374         724.111          38.000  
C35  25940720.154   135080141.084         300.119          39.000                                                                  
C13  38451515.709   200227139.884       -2282.414          40.000    38451509.475   154828302.370       -1765.256          42.000  
C12  26367253.285   137301234.126        2320.427          35.000    26367250.808   106170020.488        1793.828          45.000  
G25  24544354.979   128981458.946       -3919.214          34.000    24544350.675   100504996.754       -3053.870          36.000  
> 2025 10 30 06 23 31.6000000  0 23                     
G32  22132836.966   116308839.425       -2999.741          45.000    22132831.371    90630228.622       -2337.428          42.000  
G29  23096845.824   121374758.484        -708.804          41.000    23096837.392    94577704.040        -552.653          40.000  
G28  21298729.087   111925577.760       -1233.776          45.000    21298718.692    87214695.126        -961.251          46.000  
G26  20320143.360   106783076.109         581.328          48.000    20320136.933    83207573.415         452.908          46.000  
G31  20618368.729   108350254.407         100.020          47.000    20618357.623    84428728.757          77.906          45.000  
G04  24371620.173   128073707.559        3165.164          36.000    24371616.497    99797723.233        2466.786          41.000  
C33  22533248.116   117336530.162        -811.181          50.000                                                                  
C06  36579148.270   190477224.310        -153.208          46.000    36579130.591   147289001.563        -118.520          48.000  
C14  22759598.699   118515186.982       -2345.334          46.000    22759584.091    91643406.304       -1813.484          50.000  
C16  37008198.165   192711396.162        -182.344          47.000    37008186.071   149016628.286        -140.971          48.000  
C24  21876316.125   113915724.980        -907.379          50.000                                                                  
C26  24527111.349   127719106.440       -2570.370          43.000                                                                  
G03  22895449.507   120316423.479        -248.599          40.000    22895445.997    93753021.070        -193.876          41.000  
G16  22318274.896   117283400.549        2914.939          42.000                                                                  
C09  37730215.810   196471112.565        -141.644          43.000    37730201.709   151923888.797        -109.862          48.000  
C25  23589179.611   122835061.960        1535.206          44.000                                                                  
C08  39288547.574   204585750.442       -2471.411          37.000    39288535.862   158198652.798       -1911.071          41.000  
C07  39518145.819   205781342.258        1118.417          36.000    39518135.195   159123148.788         864.849          40.000  
C10  40461159.115   210691904.231         936.021          34.000    40461159.699   162920347.443         723.552          38.000  
C35  25940717.848   135080129.060         300.433          39.000                                                                  
C13  38451533.266   200227231.188       -2282.513          40.000    38451527.013   154828372.977       -1765.292          42.000  
C12  26367235.456   137301141.316        2320.397          35.000    26367232.953   106169948.727        1793.914          45.000  
G25  24544384.818   128981615.644       -3918.043          34.000    24544380.494   100505118.877       -3053.503          36.000  
> 2025 10 30 06 23 31.6400000  0 23                     
G32  22132859.780   116308959.404       -2999.573          45.000    22132854.196    90630322.117       -2337.404          42.000  
G29  23096851.212   121374786.870        -709.479          41.000    23096842.781    94577726.136        -552.508          40.000  
G28  21298738.470   111925627.100       -1233.607          45.000    21298728.073    87214733.574        -961.215          46.000  
G26  20320138.935   106783052.856         581.309          48.000    20320132.512    83207555.302         452.810          46.000  
G31  20618367.955   108350250.412          99.926          47.000    20618356.868    84428725.644          77.856          45.000  
G04  24371596.081   128073580.941        3165.235          36.000    24371592.414    99797624.575        2466.567          41.000  
C33  22533254.360   117336562.607        -811.151          50.000                                                                  
C06  36579149.466   190477230.436        -153.166          46.000    36579131.776   147289006.302        -118.501          48.000  
C14  22759616.696   118515280.789       -2345.265          46.000    22759602.091    91643478.847       -1813.593          50.000  
C16  37008199.577   192711403.453        -182.313          47.000    37008187.492   149016633.923        -140.921          48.000  
C24  21876323.080   113915761.277        -907.426          50.000                                                                  
C26  24527131.085   127719209.262       -2570.482          43.000                                                                  
G03  22895451.419   120316433.429        -248.702          40.000    22895447.866    93753028.822        -193.837          41.000  
G16  22318252.704   117283283.969        2914.639          42.000                                                                  
C09  37730216.898   196471118.229        -141.598          43.000    37730202.790   151923893.179        -109.707          48.000  
C25  23589167.819   122835000.564        1535.027          44.000                                                                  
C08  39288566.566   204585849.305       -2471.478          37.000    39288554.843   158198729.239       -1910.980          41.000  
C07  39518137.218   205781297.525        1118.348          36.000    39518126.593   159123114.201         864.719          40.000  
C10  40461151.929   210691866.786         936.115          34.000    40461152.492   162920318.491         723.589          38.000  
C35  25940715.533   135080117.046         300.399          39.000                                                                  
C13  38451550.805   200227322.494       -2282.625          40.000    38451544.527   154828443.579       -1765.162          42.000  
C12  26367217.625   137301048.562        2319.179          35.000    26367215.121   106169876.968        1793.951          45.000  
G25  24544414.641   128981772.399       -3918.419          34.000    24544410.333   100505241.022       -3053.553          36.000  
> 2025 10 30 06 23 31.6800000  0 23                     
G32  22132882.626   116309079.398       -2999.784          45.000    22132877.036    90630415.616       -2337.490          42.000  
G29  23096856.611   121374815.239        -709.482          41.000    23096848.182    94577748.244        -552.696          40.000  
G28  21298747.862   111925676.445       -1233.604          45.000    21298737.473    87214772.026        -961.265          46.000  
G26  20320134.490   106783029.600         581.347          48.000    20320128.091    83207537.182         452.891          46.000  
G31  20618367.207   108350246.421          99.778          47.000    20618356.097    84428722.530          77.856          45.000  
G04  24371571.985   128073454.326        3165.231          36.000    24371568.302    99797525.917        2466.403          41.000  
C33  22533260.550   117336595.063        -811.342          50.000                                                                  
C06  36579150.640   190477236.574        -153.377          46.000    36579132.949   147289011.038        -118.444          48.000  
C14  22759634.699   118515374.606       -2345.366          46.000    22759620.098    91643551.393       -1813.668          50.000  
C16  37008200.989   192711410.747        -182.354          47.000    37008188.876   149016639.569        -141.092          48.000  
C24  21876330.041   113915797.576        -907.472          50.000                                                                  
C26  24527150.799   127719312.078       -2570.443          43.000                                                                  
G03  22895453.325   120316443.379        -248.778          40.000    22895449.729    93753036.580        -193.937          41.000  
G16  22318230.524   117283167.390        2914.475          42.000                                                                  
C09  37730217.974   196471123.907        -141.881          43.000    37730203.862   151923897.559        -109.581          48.000  
C25  23589156.024   122834939.169        1534.860          44.000                                                                  
C08  39288585.554   204585948.191       -2471.886          37.000    39288573.814   158198805.688       -1911.124          41.000  
C07  39518128.622   205781252.780        1118.611          36.000    39518118.017   159123079.615         864.624          40.000  
C10  40461144.749   210691829.355         935.866          34.000    40461145.315   162920289.544         723.586          38.000  
C35  25940713.217   135080105.042         300.203          39.000                                                                  
C13  38451568.321   200227413.806       -2282.791          40.000    38451562.081   154828514.173       -1764.940          42.000  
C12  26367199.799   137300955.763        2319.371          35.000    26367197.281   106169805.214        1793.864          45.000  
G25  24544444.463   128981929.175       -3919.176          34.000    24544440.159   100505363.152       -3053.364          36.000  
> 2025 10 30 06 23 31.7200000  0 23                     
G32  22132905.478   116309199.399       -2999.975          45.000    22132899.870    90630509.108       -2337.399          42.000  
G29  23096861.991   121374843.600        -709.216          41.000    23096853.595    94577770.363        -552.944          40.000  
G28  21298757.267   111925725.801       -1233.810          45.000    21298746.865    87214810.487        -961.512          46.000  
G26  20320130.100   106783006.357         581.123          48.000    20320123.673    83207519.064         452.903          46.000  
G31  20618366.438   108350242.433          99.686          47.000    20618355.341    84428719.423          77.702          45.000  
G04  24371547.883   128073327.701        3165.452          36.000    24371544.223    99797427.262        2466.345          41.000  
C33  22533266.773   117336627.523        -811.498          50.000                                                                  
C06  36579151.827   190477242.715        -153.522          46.000    36579134.123   147289015.785        -118.595          48.000  
C14  22759652.719   118515468.424       -2345.480          46.000    22759638.096    91643623.935       -1813.634          50.000  
C16  37008202.385   192711418.051        -182.580          47.000    37008190.288   149016645.219        -141.244          48.000  
C24  21876336.991   113915833.880        -907.594          50.000                                                                  
C26  24527170.547   127719414.908       -2570.659          43.000                                                                  
G03  22895455.219   120316453.348        -249.109          40.000    22895451.624    93753044.340        -193.985          41.000  
G16  22318208.339   117283050.816        2914.327          42.000                                                                  
C09  37730219.035   196471129.577        -141.879          43.000    37730204.939   151923901.947        -109.665          48.000  
C25  23589144.216   122834877.772        1534.830          44.000                                                                  
C08  39288604.554   204586047.041       -2471.533          37.000    39288592.783   158198882.156       -1911.575          41.000  
C07  39518120.020   205781208.026        1118.939          36.000    39518109.414   159123045.016         864.800          40.000  
C10  40461137.565   210691791.900         936.168          34.000    40461138.135   162920260.606         723.429          38.000  
C35  25940710.886   135080093.041         300.009          39.000                                                                  
C13  38451585.866   200227505.116       -2282.808          40.000    38451579.621   154828584.781       -1765.120          42.000  
C12  26367181.992   137300862.969        2319.639          35.000    26367179.434   106169733.467        1793.646          45.000  
G25  24544474.291   128982085.932       -3919.163          34.000    24544469.960   100505485.275       -3053.170          36.000  
> 2025 10 30 06 23 31.7600000  0 23                     
G32  22132928.311   116309319.395       -2999.981          45.000    22132922.731    90630602.621       -2337.721          42.000  
G29  23096867.363   121374871.978        -709.385          41.000    23096858.981    94577792.465        -552.780          40.000  
G28  21298766.675   111925775.161       -1233.997          45.000    21298756.264    87214848.950        -961.628          46.000  
G26  20320125.704   106782983.117         580.950          48.000    20320119.267    83207500.954         452.754          46.000  
G31  20618365.692   108350238.448          99.582          47.000    20618354.592    84428716.323          77.468          45.000  
G04  24371523.790   128073201.098        3165.164          36.000    24371520.122    99797328.606        2466.304          41.000  
C33  22533273.031   117336659.980        -811.520          50.000                                                                  
C06  36579153.038   190477248.855        -153.588          46.000    36579135.291   147289020.538        -118.830          48.000  
C14  22759670.725   118515562.251       -2345.700          46.000    22759656.106    91643696.485       -1813.773          50.000  
C16  37008203.795   192711425.357        -182.724          47.000    37008191.686   149016650.865        -141.252          48.000  
C24  21876343.916   113915870.187        -907.708          50.000                                                                  
C26  24527190.284   127719517.724       -2570.529          43.000                                                                  
G03  22895457.107   120316463.318        -249.286          40.000    22895453.523    93753052.103        -194.059          41.000  
G16  22318186.178   117282934.246        2914.178          42.000                                                                  
C09  37730220.123   196471135.258        -142.048          43.000    37730206.045   151923906.333        -109.697          48.000  
C25  23589132.422   122834816.374        1534.874          44.000                                                                  
C08  39288623.525   204586145.922       -2471.880          37.000    39288611.785   158198958.622       -1911.752          41.000  
C07  39518111.414   205781163.316        1118.225          36.000    39518100.800   159123010.431         864.680          40.000  
C10  40461130.371   210691754.452         936.204          34.000    40461130.939   162920231.672         723.252          38.000  
C35  25940708.594   135080081.056         299.693          39.000                                                                  
C13  38451603.416   200227596.439       -2283.030          40.000    38451597.167   154828655.388       -1765.231          42.000  
C12  26367164.166   137300770.194        2319.523          35.000    26367161.625   106169661.711        1793.785          45.000  
G25  24544504.089   128982242.684       -3919.005          34.000    24544499.793   100505607.457       -3054.063          36.000  
> 2025 10 30 06 23 31.8000000  0 23                     
G32  22132951.130   116309439.391       -2999.958          45.000    22132945.562    90630696.129       -2337.771          42.000  
G29  23096872.767   121374900.356        -709.445          41.000    23096864.404    94577814.581        -552.853          40.000  
G28  21298776.069   111925824.520       -1234.039          45.000    21298765.659    87214887.408        -961.580          46.000  
G26  20320121.299   106782959.883         580.784          48.000    20320114.837    83207482.846         452.637          46.000  
G31  20618364.925   108350234.466          99.503          47.000    20618353.850    84428713.226          77.346          45.000  
G04  24371499.697   128073074.489        3165.176          36.000    24371496.018    99797229.956        2466.189          41.000  
C33  22533279.261   117336692.442        -811.580          50.000                                                                  
C06  36579154.225   190477254.992        -153.517          46.000    36579136.461   147289025.286        -118.821          48.000  
C14  22759688.745   118515656.073       -2345.676          46.000    22759674.147    91643769.039       -1813.896          50.000  
C16  37008205.218   192711432.655        -182.606          47.000    37008193.111   149016656.513        -141.256          48.000  
C24  21876350.867   113915906.502        -907.872          50.000                                                                  
C26  24527210.040   127719620.561       -2570.825          43.000                                                                  
G03  22895459.003   120316473.271        -249.082          40.000    22895455.407    93753059.859        -193.983          41.000  
G16  22318163.975   117282817.678        2914.094          42.000                                                                  
C09  37730221.214   196471140.940        -142.146          43.000    37730207.145   151923910.726        -109.803          48.000  
C25  23589120.616   122834754.985        1534.751          44.000                                                                  
C08  39288642.518   204586244.812       -2472.257          37.000    39288630.753   158199035.071       -1911.523          41.000  
C07  39518102.829   205781118.582        1118.195          36.000    39518092.185   159122975.845         864.618          40.000  
C10  40461123.165   210691717.036         935.691          34.000    40461123.744   162920202.735         723.244          38.000  
C35  25940706.288   135080069.060         299.755          39.000                                                                  
C13  38451620.946   200227687.743       -2282.794          40.000    38451614.738   154828725.996       -1765.242          42.000  
C12  26367146.350   137300677.378        2320.235          35.000    26367143.786   106169589.967        1793.668          45.000  
G25  24544533.925   128982399.407       -3918.407          34.000    24544529.636   100505729.624       -3054.305          36.000  
> 2025 10 30 06 23 31.8400000  0 23                     
G32  22132973.958   116309559.385       -2999.904          45.000    22132968.420    90630789.630       -2337.690          42.000  
G29  23096878.150   121374928.727        -709.351          41.000    23096869.794    94577836.679        -552.553          40.000  
G28  21298785.460   111925873.872       -1233.901          45.000    21298775.049    87214925.861        -961.445          46.000  
G26  20320116.882   106782936.641         580.918          48.000    20320110.411    83207464.739         452.608          46.000  
G31  20618364.148   108350230.477          99.602          47.000    20618353.080    84428710.114          77.588          45.000  
G04  24371475.591   128072947.872        3165.393          36.000    24371471.927    99797131.303        2466.215          41.000  
C33  22533285.503   117336724.907        -811.679          50.000                                                                  
C06  36579155.436   190477261.121        -153.311          46.000    36579137.619   147289030.025        -118.621          48.000  
C14  22759706.775   118515749.889       -2345.520          46.000    22759692.164    91643841.585       -1813.785          50.000  
C16  37008206.624   192711439.949        -182.449          47.000    37008194.506   149016662.150        -141.060          48.000  
C24  21876357.853   113915942.801        -907.668          50.000                                                                  
C26  24527229.789   127719723.393       -2570.889          43.000                                                                  
G03  22895460.916   120316483.241        -249.259          40.000    22895457.309    93753067.628        -194.152          41.000  
G16  22318141.788   117282701.099        2914.293          42.000                                                                  
C09  37730222.290   196471146.617        -142.086          43.000    37730208.241   151923915.114        -109.757          48.000  
C25  23589108.816   122834693.590        1534.795          44.000                                                                  
C08  39288661.493   204586343.666       -2471.776          37.000    39288649.748   158199111.512       -1911.218          41.000  
C07  39518094.235   205781073.866        1117.914          36.000    39518083.581   159122941.257         864.677          40.000  
C10  40461115.969   210691679.606         935.615          34.000    40461116.527   162920173.788         723.480          38.000  
C35  25940704.005   135080057.058         299.907          39.000                                                                  
C13  38451638.465   200227779.043       -2282.635          40.000    38451632.279   154828796.603       -1765.229          42.000  
C12  26367128.541   137300584.568        2320.441          35.000    26367125.969   106169518.227        1793.500          45.000  
G25  24544563.728   128982556.187       -3919.170          34.000    24544559.469   100505851.760       -3053.843          36.000  
> 2025 10 30 06 23 31.8800000  0 23                     
G32  22132996.772   116309679.380       -2999.919          45.000    22132991.258    90630883.135       -2337.676          42.000  
G29  23096883.563   121374957.102        -709.370          41.000    23096875.199    94577858.792        -552.666          40.000  
G28  21298794.838   111925923.220       -1233.784          45.000    21298784.434    87214964.317        -961.442          46.000  
G26  20320112.422   106782913.402         580.925          48.000    20320105.990    83207446.623         452.771          46.000  
G31  20618363.366   108350226.490          99.658          47.000    20618352.326    84428707.002          77.748          45.000  
G04  24371451.501   128072821.287        3164.880          36.000    24371447.850    99797032.637        2466.469          41.000  
C33  22533291.792   117336757.372        -811.689          50.000                                                                  
C06  36579156.624   190477267.252        -153.271          46.000    36579138.768   147289034.769        -118.596          48.000  
C14  22759724.816   118515843.707       -2345.469          46.000    22759710.193    91643914.136       -1813.804          50.000  
C16  37008208.027   192711447.247        -182.431          47.000    37008195.952   149016667.796        -141.129          48.000  
C24  21876364.855   113915979.101        -907.571          50.000                                                                  
C26  24527249.551   127719826.233       -2571.012          43.000                                                                  
G03  22895462.841   120316493.212        -249.298          40.000    22895459.197    93753075.393        -194.188          41.000  
G16  22318119.600   117282584.523        2914.362          42.000                                                                  
C09  37730223.368   196471152.286        -141.848          43.000    37730209.308   151923919.498        -109.641          48.000  
C25  23589097.052   122834632.189        1534.949          44.000                                                                  
C08  39288680.477   204586442.529       -2471.598          37.000    39288668.726   158199187.970       -1911.349          41.000  
C07  39518085.629   205781029.126        1118.224          36.000    39518075.004   159122906.670         864.678          40.000  
C10  40461108.798   210691642.207         935.112          35.000    40461109.354   162920144.830         723.778          38.000  
C35  25940701.709   135080045.053         300.038          39.000                                                                  
C13  38451655.988   200227870.358       -2282.845          40.000    38451649.811   154828867.202       -1765.082          42.000  
C12  26367110.762   137300491.812        2319.434          35.000    26367108.151   106169446.485        1793.483          45.000  
G25  24544593.537   128982712.965       -3919.594          34.000    24544589.313   100505973.916       -3053.875          36.000  
> 2025 10 30 06 23 31.9200000  0 23                     
G32  22133019.584   116309799.375       -2999.885          45.000    22133014.102    90630976.640       -2337.670          42.000  
G29  23096888.958   121374985.490        -709.656          41.000    23096880.600    94577880.911        -552.891          40.000  
G28  21298804.244   111925972.576       -1233.861          45.000    21298793.818    87215002.779        -961.519          46.000  
G26  20320108.007   106782890.165         580.900          48.000    20320101.567    83207428.516         452.696          46.000  
G31  20618362.603   108350222.505          99.627          47.000    20618351.559    84428703.890          77.796          45.000  
G04  24371427.394   128072694.672        3165.176          36.000    24371423.746    99796933.976        2466.515          41.000  
C33  22533298.053   117336789.830        -811.560          50.000                                                                  
C06  36579157.829   190477273.397        -153.510          46.000    36579139.947   147289039.513        -118.590          48.000  
C14  22759742.821   118515937.539       -2345.686          46.000    22759728.209    91643986.691       -1813.899          50.000  
C16  37008209.371   192711454.552        -182.563          47.000    37008197.338   149016673.439        -141.109          48.000  
C24  21876371.811   113916015.408        -907.645          50.000                                                                  
C26  24527269.307   127719929.053       -2570.743          43.000                                                                  
G03  22895464.720   120316503.174        -249.177          40.000    22895461.095    93753083.151        -194.049          41.000  
G16  22318097.394   117282467.942        2914.482          42.000                                                                  
C09  37730224.454   196471157.964        -141.888          43.000    37730210.379   151923923.889        -109.758          48.000  
C25  23589085.259   122834570.802        1534.745          44.000                                                                  
C08  39288699.460   204586541.385       -2471.371          37.000    39288687.703   158199264.423       -1911.387          41.000  
C07  39518077.053   205780984.418        1117.841          36.000    39518066.389   159122872.067         864.924          40.000  
C10  40461101.609   210691604.763         935.714          35.000    40461102.177   162920115.880         723.704          38.000  
C35  25940699.417   135080033.078         299.521          39.000                                                                  
C13  38451673.546   200227961.670       -2282.894          40.000    38451667.371   154828937.817       -1765.304          42.000  
C12  26367092.947   137300399.028        2319.381          35.000    26367090.318   106169374.732        1793.677          45.000  
G25  24544623.366   128982869.699       -3918.886          34.000    24544619.125   100506096.063       -3053.776          36.000  
> 2025 10 30 06 23 31.9600000  0 23                     
G32  22133042.426   116309919.383       -3000.083          45.000    22133036.943    90631070.140       -2337.586          42.000  
G29  23096894.371   121375013.867        -709.542          41.000    23096886.002    94577903.024        -552.903          40.000  
G28  21298813.647   111926021.937       -1233.984          45.000    21298803.227    87215041.250        -961.735          46.000  
G26  20320103.564   106782866.918         581.100          48.000    20320097.121    83207410.406         452.696          46.000  
G31  20618361.851   108350218.521          99.602          47.000    20618350.813    84428700.788          77.635          45.000  
G04  24371403.292   128072568.050        3165.400          36.000    24371399.663    99796835.321        2466.483          41.000  
C33  22533304.294   117336822.293        -811.573          50.000                                                                  
C06  36579159.017   190477279.529        -153.416          46.000    36579141.129   147289044.262        -118.698          48.000  
C14  22759760.826   118516031.366       -2345.742          46.000    22759746.203    91644059.243       -1813.878          50.000  
C16  37008210.792   192711461.855        -182.587          47.000    37008198.758   149016679.090        -141.239          48.000  
C24  21876378.761   113916051.719        -907.751          50.000                                                                  
C26  24527289.070   127720031.868       -2570.463          43.000                                                                  
G03  22895466.619   120316513.125        -248.876          40.000    22895462.977    93753090.921        -194.181          41.000  
G16  22318075.215   117282351.367        2914.415          42.000                                                                  
C09  37730225.554   196471163.643        -141.972          43.000    37730211.456   151923928.288        -109.954          48.000  
C25  23589073.471   122834509.413        1534.697          44.000                                                                  
C08  39288718.443   204586640.251       -2471.488          37.000    39288706.713   158199340.867       -1911.221          41.000  
C07  39518068.439   205780939.665        1118.457          36.000    39518057.776   159122837.476         864.850          40.000  
C10  40461094.410   210691567.297         936.460          35.000    40461094.982   162920086.940         723.589          38.000  
C35  25940697.102   135080021.072         299.769          39.000                                                                  
C13  38451691.080   200228052.990       -2283.054          40.000    38451684.918   154829008.433       -1765.458          42.000  
C12  26367075.132   137300306.250        2319.215          35.000    26367072.492   106169302.972        1793.931          45.000  
G25  24544653.191   128983026.436       -3918.545          34.000    24544648.961   100506218.182       -3053.236          36.000  
> 2025 10 30 06 23 32.0000000  0 23                     
G32  22133065.253   116310039.378       -2999.977          45.000    22133059.778    90631163.649       -2337.712          42.000  
G29  23096899.756   121375042.240        -709.335          41.000    23096891.395    94577925.134        -552.827          40.000  
G28  21298823.042   111926071.296       -1234.015          45.000    21298812.608    87215079.700        -961.458          46.000  
G26  20320099.118   106782843.676         581.073          48.000    20320092.704    83207392.296         452.734          46.000  
G31  20618361.101   108350214.534          99.646          47.000    20618350.037    84428697.679          77.666          45.000  
G04  24371379.221   128072441.466        3164.924          36.000    24371375.558    99796736.665        2466.428          41.000  
C33  22533310.536   117336854.755        -811.574          50.000                                                                  
C06  36579160.164   190477285.674        -153.599          46.000    36579142.308   147289049.002        -118.584          48.000  
C14  22759778.851   118516125.194       -2345.764          46.000    22759764.226    91644131.789       -1813.730          50.000  
C16  37008212.205   192711469.149        -182.437          47.000    37008200.148   149016684.734        -141.157          48.000  
C24  21876385.747   113916088.023        -907.690          50.000                                                                  
C26  24527308.822   127720134.691       -2570.470          43.000                                                                  
G03  22895468.536   120316523.086        -248.910          40.000    22895464.878    93753098.695        -194.286          41.000  
G16  22318053.025   117282234.795        2914.298          42.000                                                                  
C09  37730226.647   196471169.317        -141.921          43.000    37730212.570   151923932.681        -109.919          48.000  
C25  23589061.691   122834448.015        1534.845          44.000                                                                  
C08  39288737.422   204586739.142       -2471.976          37.000    39288725.703   158199417.326       -1911.425          41.000  
C07  39518059.846   205780894.927        1118.461          36.000    39518049.191   159122802.895         864.639          40.000  
C10  40461087.210   210691529.885         935.776          34.000    40461087.785   162920057.984         723.723          38.000  
C35  25940694.800   135080009.061         300.129          39.000                                                                  
C13  38451708.619   200228144.300       -2282.893          40.000    38451702.490   154829079.043       -1765.376          42.000  
C12  26367057.299   137300213.451        2319.635          35.000    26367054.667   106169231.213        1794.016          45.000  
G25  24544683.012   128983183.193       -3918.763          34.000    24544678.789   100506340.340       -3053.654          36.000  
> 2025 10 30 06 23 32.0400000  0 23                     
G32  22133088.085   116310159.385       -3000.126          45.000    22133082.610    90631257.152       -2337.685          42.000  
G29  23096905.129   121375070.616        -709.324          41.000    23096896.808    94577947.248        -552.858          40.000  
G28  21298832.433   111926120.650       -1233.960          45.000    21298821.992    87215118.159        -961.470          46.000  
G26  20320094.703   106782820.448         580.799          48.000    20320088.303    83207374.192         452.616          46.000  
G31  20618360.356   108350210.550          99.584          47.000    20618349.271    84428694.582          77.463          45.000  
G04  24371355.127   128072314.852        3165.071          36.000    24371351.460    99796638.016        2466.255          41.000  
C33  22533316.721   117336887.226        -811.733          50.000                                                                  
C06  36579161.339   190477291.816        -153.614          46.000    36579143.509   147289053.748        -118.626          48.000  
C14  22759796.853   118516219.017       -2345.675          46.000    22759782.205    91644204.337       -1813.695          50.000  
C16  37008213.588   192711476.455        -182.601          47.000    37008201.521   149016690.375        -141.068          48.000  
C24  21876392.705   113916124.335        -907.801          50.000                                                                  
C26  24527328.566   127720237.519       -2570.603          43.000                                                                  
G03  22895470.452   120316533.064        -249.302          40.000    22895466.766    93753106.463        -194.246          41.000  
G16  22318030.867   117282118.220        2914.320          42.000                                                                  
C09  37730227.731   196471174.984        -141.750          43.000    37730213.647   151923937.066        -109.753          48.000  
C25  23589049.878   122834386.621        1534.826          44.000                                                                  
C08  39288756.418   204586838.006       -2471.796          37.000    39288744.689   158199493.790       -1911.625          41.000  
C07  39518051.267   205780850.201        1118.185          36.000    39518040.594   159122768.311         864.558          40.000  
C10  40461080.046   210691492.445         935.866          34.000    40461080.588   162920029.040         723.606          38.000  
C35  25940692.496   135079997.074         299.842          39.000                                                                  
C13  38451726.162   200228235.608       -2282.763          40.000    38451720.075   154829149.650       -1765.259          42.000  
C12  26367039.461   137300120.639        2320.094          35.000    26367036.833   106169159.461        1793.871          45.000  
G25  24544712.867   128983339.970       -3919.275          34.000    24544708.643   100506462.490       -3053.815          36.000  
> 2025 10 30 06 23 32.0800000  0 23                     
G32  22133110.893   116310279.385       -3000.072          45.000    22133105.445    90631350.664       -2337.806          42.000  
G29  23096910.538   121375098.994        -709.387          41.000    23096902.206    94577969.379        -553.143          40.000  
G28  21298841.828   111926170.010       -1234.033          45.000    21298831.386    87215156.619        -961.497          46.000  
G26  20320090.293   106782797.219         580.683          48.000    20320083.895    83207356.094         452.479          46.000  
G31  20618359.617   108350206.570          99.491          47.000    20618348.531    84428691.481          77.446          45.000  
G04  24371331.031   128072188.238        3165.244          36.000    24371327.396    99796539.376        2466.033          41.000  
C33  22533322.952   117336919.696        -811.800          50.000                                                                  
C06  36579162.534   190477297.953        -153.518          46.000    36579144.687   147289058.494        -118.678          48.000  
C14  22759814.860   118516312.844       -2345.693          46.000    22759800.247    91644276.891       -1813.817          50.000  
C16  37008214.977   192711483.758        -182.611          47.000    37008202.924   149016696.021        -141.109          48.000  
C24  21876399.729   113916160.642        -907.759          50.000                                                                  
C26  24527348.305   127720340.349       -2570.729          43.000                                                                  
G03  22895472.367   120316543.035        -249.323          40.000    22895468.641    93753114.230        -194.228          41.000  
G16  22318008.704   117282001.655        2914.194          42.000                                                                  
C09  37730228.815   196471180.665        -141.910          43.000    37730214.702   151923941.456        -109.792          48.000  
C25  23589038.100   122834325.231        1534.789          44.000                                                                  
C08  39288775.417   204586936.886       -2471.909          37.000    39288763.669   158199570.238       -1911.418          41.000  
C07  39518042.694   205780805.490        1117.780          36.000    39518032.038   159122733.735         864.392          40.000  
C10  40461072.855   210691455.032         935.477          34.000    40461073.389   162920000.096         723.598          38.000  
C35  25940690.200   135079985.087         299.694          39.000                                                                  
C13  38451743.685   200228326.929       -2282.911          40.000    38451737.597   154829220.268       -1765.438          42.000  
C12  26367021.645   137300027.848        2319.910          35.000    26367018.996   106169087.713        1793.715          45.000  
G25  24544742.708   128983496.710       -3918.930          34.000    24544738.477   100506584.646       -3053.986          36.000  
> 2025 10 30 06 23 32.1200000  0 23                     
G32  22133133.712   116310399.390       -3000.129          45.000    22133128.296    90631444.179       -2337.933          42.000  
G29  23096915.930   121375127.387        -709.775          41.000    23096907.607    94577991.501        -553.160          40.000  
G28  21298851.223   111926219.368       -1234.026          45.000    21298840.793    87215195.085        -961.628          46.000  
G26  20320085.870   106782773.987         580.678          48.000    20320079.477    83207337.991         452.468          46.000  
G31  20618358.885   108350202.598          99.301          47.000    20618347.772    84428688.384          77.403          45.000  
G04  24371306.940   128072061.631        3165.223          36.000    24371303.284    99796440.726        2466.113          41.000  
C33  22533329.165   117336952.170        -811.893          50.000                                                                  
C06  36579163.705   190477304.087        -153.416          46.000    36579145.883   147289063.243        -118.750          48.000  
C14  22759832.884   118516406.665       -2345.579          46.000    22759818.255    91644349.448       -1813.931          50.000  
C16  37008216.388   192711491.061        -182.617          47.000    37008204.295   149016701.668        -141.188          48.000  
C24  21876406.716   113916196.953        -907.796          50.000                                                                  
C26  24527368.064   127720443.183       -2570.870          43.000                                                                  
G03  22895474.284   120316553.024        -249.673          40.000    22895470.532    93753121.991        -194.109          41.000  
G16  22317986.503   117281885.093        2914.070          42.000                                                                  
C09  37730229.873   196471186.351        -142.113          43.000    37730215.807   151923945.843        -109.710          48.000  
C25  23589026.311   122834263.842        1534.709          44.000                                                                  
C08  39288794.403   204587035.764       -2471.927          37.000    39288782.668   158199646.692       -1911.392          41.000  
C07  39518034.094   205780760.766        1117.871          36.000    39518023.452   159122699.137         864.689          40.000  
C10  40461065.649   210691417.584         935.879          34.000    40461066.206   162919971.172         723.133          38.000  
C35  25940687.895   135079973.105         299.572          39.000                                                                  
C13  38451761.258   200228418.235       -2282.732          40.000    38451755.113   154829290.881       -1765.425          42.000  
C12  26367003.830   137299935.056        2319.771          35.000    26367001.185   106169015.974        1793.474          45.000  
G25  24544772.549   128983653.472       -3919.004          34.000    24544768.318   100506706.808       -3054.155          36.000  
> 2025 10 30 06 23 32.1600000  0 23                     
G32  22133156.541   116310519.399       -3000.224          45.000    22133151.136    90631537.691       -2337.901          42.000  
G29  23096921.339   121375155.778        -709.890          41.000    23096913.006    94578013.612        -552.948          40.000  
G28  21298860.602   111926268.724       -1233.962          45.000    21298850.179    87215233.547        -961.589          46.000  
G26  20320081.445   106782750.756         580.717          48.000    20320075.070    83207319.894         452.376          46.000  
G31  20618358.124   108350198.616          99.394          47.000    20618347.003    84428685.276          77.589          45.000  
G04  24371282.849   128071935.023        3165.135          36.000    24371279.178    99796342.061        2466.416          41.000  
C33  22533335.417   117336984.638        -811.814          50.000                                                                  
C06  36579164.889   190477310.218        -153.314          46.000    36579147.067   147289067.992        -118.785          48.000  
C14  22759850.896   118516500.500       -2345.797          46.000    22759836.304    91644422.005       -1813.999          50.000  
C16  37008217.853   192711498.360        -182.545          47.000    37008205.717   149016707.313        -141.160          48.000  
C24  21876413.672   113916233.264        -907.801          50.000                                                                  
C26  24527387.833   127720546.010       -2570.791          43.000                                                                  
G03  22895476.175   120316562.995        -249.498          40.000    22895472.414    93753129.757        -194.141          41.000  
G16  22317964.329   117281768.513        2914.309          42.000                                                                  
C09  37730230.970   196471192.034        -142.141          43.000    37730216.882   151923950.236        -109.807          48.000  
C25  23589014.513   122834202.460        1534.568          44.000                                                                  
C08  39288813.388   204587134.636       -2471.880          37.000    39288801.635   158199723.143       -1911.298          41.000  
C07  39518025.495   205780716.011        1118.539          36.000    39518014.866   159122664.556         864.624          40.000  
C10  40461058.477   210691380.169         935.445          34.000    40461059.014   162919942.230         723.285          38.000  
C35  25940685.583   135079961.105         299.825          39.000                                                                  
C13  38451778.792   200228509.550       -2282.807          40.000    38451772.652   154829361.484       -1765.203          42.000  
C12  26366986.021   137299842.271        2319.610          35.000    26366983.382   106168944.229        1793.514          45.000  
G25  24544802.370   128983810.250       -3919.354          34.000    24544798.137   100506828.931       -3053.484          36.000  
> 2025 10 30 06 23 32.2000000  0 23                     
G32  22133179.375   116310639.397       -3000.073          45.000    22133173.977    90631631.202       -2337.853          42.000  
G29  23096926.729   121375184.173        -709.987          41.000    23096918.385    94578035.717        -552.686          40.000  
G28  21298870.018   111926318.093       -1234.147          45.000    21298859.547    87215272.013        -961.670          46.000  
G26  20320076.997   106782727.521         580.811          48.000    20320070.624    83207301.789         452.470          46.000  
G31  20618357.356   108350194.637          99.401          47.000    20618346.233    84428682.168          77.680          45.000  
G04  24371258.768   128071808.435        3164.785          36.000    24371255.106    99796243.403        2466.421          41.000  
C33  22533341.704   117337017.109        -811.821          50.000                                                                  
C06  36579166.057   190477316.359        -153.484          46.000    36579148.257   147289072.736        -118.691          48.000  
C14  22759868.927   118516594.336       -2345.894          46.000    22759854.310    91644494.559       -1813.945          50.000  
C16  37008219.260   192711505.668        -182.662          47.000    37008207.119   149016712.965        -141.288          48.000  
C24  21876420.646   113916269.581        -907.924          50.000                                                                  
C26  24527407.591   127720648.847       -2570.900          43.000                                                                  
G03  22895478.064   120316572.958        -249.208          40.000    22895474.323    93753137.548        -194.594          41.000  
G16  22317942.165   117281651.940        2914.368          42.000                                                                  
C09  37730232.076   196471197.717        -142.152          43.000    37730217.964   151923954.628        -109.824          48.000  
C25  23589002.713   122834141.072        1534.618          44.000                                                                  
C08  39288832.380   204587233.512       -2471.963          37.000    39288820.631   158199799.592       -1911.222          41.000  
C07  39518016.897   205780671.270        1118.658          36.000    39518006.268   159122629.969         864.669          40.000  
C10  40461051.311   210691342.716         935.910          34.000    40461051.782   162919913.271         723.656          38.000  
C35  25940683.293   135079949.113         299.810          39.000                                                                  
C13  38451796.306   200228600.875       -2283.066          40.000    38451790.185   154829432.095       -1765.240          42.000  
C12  26366968.204   137299749.505        2319.259          35.000    26366965.554   106168872.478        1793.658          45.000  
G25  24544832.171   128983967.029       -3919.556          34.000    24544827.962   100506951.083       -3053.606          36.000  
> 2025 10 30 06 23 32.2400000  0 23                     
G32  22133202.220   116310759.412       -3000.287          45.000    22133196.803    90631724.710       -2337.740          42.000  
G29  23096932.141   121375212.561        -709.847          41.000    23096923.786    94578057.847        -553.031          40.000  
G28  21298879.415   111926367.456       -1234.148          45.000    21298868.931    87215310.478        -961.666          46.000  
G26  20320072.564   106782704.289         580.798          48.000    20320066.190    83207283.685         452.539          46.000  
G31  20618356.608   108350190.662          99.326          47.000    20618345.480    84428679.073          77.470          45.000  
G04  24371234.680   128071681.834        3164.869          36.000    24371231.029    99796144.758        2466.213          41.000  
C33  22533347.917   117337049.589        -811.972          50.000                                                                  
C06  36579167.213   190477322.508        -153.697          46.000    36579149.457   147289077.492        -118.855          48.000  
C14  22759886.954   118516688.169       -2345.853          46.000    22759872.366    91644567.118       -1813.989          50.000  
C16  37008220.688   192711512.966        -182.532          47.000    37008208.486   149016718.617        -141.337          48.000  
C24  21876427.622   113916305.894        -907.914          50.000                                                                  
C26  24527427.342   127720751.679       -2570.863          43.000                                                                  
G03  22895479.963   120316582.946        -249.531          40.000    22895476.216    93753145.326        -194.640          41.000  
G16  22317920.019   117281535.386        2914.039          42.000                                                                  
C09  37730233.172   196471203.393        -141.998          43.000    37730219.037   151923959.023        -109.894          48.000  
C25  23588990.937   122834079.687        1534.618          44.000                                                                  
C08  39288851.370   204587332.389       -2472.034          37.000    39288839.641   158199876.056       -1911.455          41.000  
C07  39518008.318   205780626.554        1118.231          36.000    39517997.672   159122595.380         864.733          40.000  
C10  40461044.094   210691305.315         935.287          34.000    40461044.608   162919884.339         723.383          38.000  
C35  25940681.006   135079937.130         299.615          39.000                                                                  
C13  38451813.852   200228692.198       -2283.151          40.000    38451807.719   154829502.709       -1765.352          42.000  
C12  26366950.386   137299656.717        2319.544          35.000    26366947.741   106168800.727        1793.713          45.000  
G25  24544861.991   128984123.759       -3918.734          34.000    24544857.802   100507073.253       -3054.023          36.000  
> 2025 10 30 06 23 32.2800000  0 23                     
G32  22133225.065   116310879.429       -3000.438          45.000    22133219.630    90631818.230       -2337.904          42.000  
G29  23096937.542   121375240.949        -709.766          41.000    23096929.202    94578079.968        -553.093          40.000  
G28  21298888.826   111926416.828       -1234.290          45.000    21298878.291    87215348.945        -961.725          46.000  
G26  20320068.144   106782681.064         580.629          48.000    20320061.783    83207265.581         452.557          46.000  
G31  20618355.865   108350186.682          99.401          47.000    20618344.729    84428675.985          77.230          45.000  
G04  24371210.571   128071555.218        3165.204          36.000    24371206.937    99796046.098        2466.384          41.000  
C33  22533354.121   117337082.071        -812.097          50.000                                                                  
C06  36579168.431   190477328.654        -153.755          46.000    36579150.643   147289082.243        -118.844          48.000  
C14  22759904.996   118516782.004       -2345.910          46.000    22759890.401    91644639.678       -1814.058          50.000  
C16  37008222.089   192711520.276        -182.708          47.000    37008209.851   149016724.266        -141.295          48.000  
C24  21876434.620   113916342.212        -907.984          50.000                                                                  
C26  24527447.094   127720854.507       -2570.791          43.000                                                                  
G03  22895481.853   120316592.936        -249.800          40.000    22895478.111    93753153.106        -194.617          41.000  
G16  22317897.822   117281418.822        2913.983          42.000                                                                  
C09  37730234.254   196471209.069        -141.943          43.000    37730220.132   151923963.411        -109.797          48.000  
C25  23588979.188   122834018.300        1534.612          44.000                                                                  
C08  39288870.363   204587431.289       -2472.432          37.000    39288858.619   158199952.519       -1911.578          41.000  
C07  39517999.728   205780581.855        1117.649          36.000    39517989.092   159122560.807         864.440          40.000  
C10  40461036.904   210691267.894         935.336          34.000    40461037.404   162919855.399         723.324          38.000  
C35  25940678.700   135079925.155         299.384          39.000                                                                  
C13  38451831.414   200228783.525       -2283.255          40.000    38451825.234   154829573.314       -1765.235          42.000  
C12  26366932.575   137299563.924        2319.786          35.000    26366929.929   106168728.980        1793.682          45.000  
G25  24544891.809   128984280.512       -3918.805          34.000    24544887.618   100507195.390       -3053.680          36.000  
> 2025 10 30 06 23 32.3200000  0 23                     
G32  22133247.901   116310999.446       -3000.511          45.000    22133242.471    90631911.750       -2337.999          42.000  
G29  23096942.935   121375269.350        -709.946          41.000    23096934.624    94578102.106        -553.421          40.000  
G28  21298898.241   111926466.205       -1234.420          45.000    21298887.707    87215387.421        -961.901          46.000  
G26  20320063.758   106782657.843         580.474          48.000    20320057.386    83207247.487         452.388          46.000  
G31  20618355.120   108350182.716          99.198          47.000    20618343.978    84428672.892          77.225          45.000  
G04  24371186.470   128071428.616        3165.168          36.000    24371182.853    99795947.455        2466.193          41.000  
C33  22533360.356   117337114.556        -812.194          50.000                                                                  
C06  36579169.637   190477334.803        -153.800          46.000    36579151.848   147289086.989        -118.718          48.000  
C14  22759923.000   118516875.843       -2345.991          46.000    22759908.435    91644712.246       -1814.208          50.000  
C16  37008223.469   192711527.592        -182.911          47.000    37008211.258   149016729.917        -141.307          48.000  
C24  21876441.574   113916378.536        -908.110          50.000                                                                  
C26  24527466.830   127720957.347       -2570.999          43.000                                                                  
G03  22895483.727   120316602.928        -249.896          40.000    22895480.016    93753160.889        -194.647          41.000  
G16  22317875.652   117281302.268        2913.840          42.000                                                                  
C09  37730235.327   196471214.753        -142.077          43.000    37730221.201   151923967.811        -109.943          48.000  
C25  23588967.384   122833956.920        1534.501          44.000                                                                  
C08  39288889.360   204587530.154       -2471.987          37.000    39288877.569   158200028.991       -1911.804          41.000  
C07  39517991.141   205780537.135        1117.761          36.000    39517980.491   159122526.228         864.399          40.000  
C10  40461029.722   210691230.463         935.537          34.000    40461030.214   162919826.442         723.708          38.000  
C35  25940676.396   135079913.180         299.249          39.000                                                                  
C13  38451848.927   200228874.832       -2282.866          40.000    38451842.767   154829643.932       -1765.414          42.000  
C12  26366914.750   137299471.136        2319.708          35.000    26366912.116   106168657.240        1793.513          45.000  
G25  24544921.651   128984437.277       -3918.990          34.000    24544917.461   100507317.568       -3054.219          36.000  
> 2025 10 30 06 23 32.3600000  0 23                     
G32  22133270.753   116311119.465       -3000.523          45.000    22133265.298    90632005.272       -2338.127          42.000  
G29  23096948.318   121375297.745        -709.945          41.000    23096940.041    94578124.247        -553.591          40.000  
G28  21298907.617   111926515.566       -1234.197          45.000    21298897.095    87215425.891        -961.859          46.000  
G26  20320059.344   106782634.623         580.402          48.000    20320052.978    83207229.401         452.178          46.000  
G31  20618354.375   108350178.743          99.223          47.000    20618343.212    84428669.795          77.350          45.000  
G04  24371162.373   128071302.035        3164.738          36.000    24371158.755    99795848.807        2466.150          41.000  
C33  22533366.626   117337147.037        -812.140          50.000                                                                  
C06  36579170.846   190477340.944        -153.664          46.000    36579153.060   147289091.738        -118.719          48.000  
C14  22759940.998   118516969.686       -2346.097          46.000    22759926.474    91644784.811       -1814.211          50.000  
C16  37008224.894   192711534.898        -182.802          47.000    37008212.662   149016735.568        -141.293          48.000  
C24  21876448.576   113916414.853        -908.041          50.000                                                                  
C26  24527486.566   127721060.191       -2571.145          43.000                                                                  
G03  22895485.621   120316612.905        -249.609          40.000    22895481.926    93753168.667        -194.578          41.000  
G16  22317853.462   117281185.709        2913.843          42.000                                                                  
C09  37730236.414   196471220.440        -142.183          43.000    37730222.295   151923972.211        -110.017          48.000  
C25  23588955.595   122833895.543        1534.403          44.000                                                                  
C08  39288908.342   204587629.030       -2471.938          37.000    39288896.533   158200105.452       -1911.680          41.000  
C07  39517982.540   205780492.402        1118.022          36.000    39517971.876   159122491.643         864.503          40.000  
C10  40461022.539   210691193.055         935.194          34.000    40461023.020   162919797.521         723.182          38.000  
C35  25940674.105   135079901.206         299.267          39.000                                                                  
C13  38451866.431   200228966.151       -2282.891          40.000    38451860.296   154829714.557       -1765.647          42.000  
C12  26366896.913   137299378.363        2319.409          35.000    26366894.321   106168585.501        1793.434          45.000  
G25  24544951.489   128984594.063       -3919.502          34.000    24544947.295   100507439.719       -3053.984          36.000  
> 2025 10 30 06 23 32.4000000  0 23                     
G32  22133293.587   116311239.479       -3000.429          45.000    22133288.146    90632098.797       -2338.192          42.000  
G29  23096953.734   121375326.150        -710.094          41.000    23096945.451    94578146.376        -553.465          40.000  
G28  21298917.000   111926564.935       -1234.240          45.000    21298906.472    87215464.349        -961.598          46.000  
G26  20320054.902   106782611.401         580.422          48.000    20320048.560    83207211.312         452.131          46.000  
G31  20618353.613   108350174.777          99.131          47.000    20618342.446    84428666.704          77.263          45.000  
G04  24371138.290   128071175.448        3164.601          36.000    24371134.644    99795750.164        2466.105          41.000  
C33  22533372.881   117337179.519        -812.120          50.000                                                                  
C06  36579172.068   190477347.083        -153.507          46.000    36579154.223   147289096.489        -118.774          48.000  
C14  22759959.038   118517063.528       -2346.152          46.000    22759944.463    91644857.374       -1814.138          50.000  
C16  37008226.286   192711542.200        -182.672          47.000    37008214.084   149016741.223        -141.371          48.000  
C24  21876455.543   113916451.175        -908.091          50.000                                                                  
C26  24527506.348   127721163.028       -2571.104          43.000                                                                  
G03  22895487.541   120316622.899        -249.824          40.000    22895483.811    93753176.461        -194.802          41.000  
G16  22317831.261   117281069.145        2913.962          42.000                                                                  
C09  37730237.505   196471226.133        -142.353          43.000    37730223.401   151923976.613        -110.111          48.000  
C25  23588943.808   122833834.168        1534.330          44.000                                                                  
C08  39288927.315   204587727.920       -2472.096          37.000    39288915.502   158200181.912       -1911.580          41.000  
C07  39517973.969   205780447.686        1118.008          36.000    39517963.271   159122457.057         864.617          40.000  
C10  40461015.381   210691155.631         935.367          34.000    40461015.820   162919768.573         723.366          38.000  
C35  25940671.807   135079889.220         299.475          39.000                                                                  
C13  38451883.977   200229057.472       -2282.978          40.000    38451877.838   154829785.170       -1765.504          42.000  
C12  26366879.109   137299285.585        2319.348          35.000    26366876.518   106168513.760        1793.473          45.000  
G25  24544981.327   128984750.849       -3919.706          34.000    24544977.122   100507561.873       -3053.911          36.000  
> 2025 10 30 06 23 32.4400000  0 23                     
G32  22133316.409   116311359.488       -3000.281          45.000    22133310.990    90632192.313       -2338.018          42.000  
G29  23096959.140   121375354.552        -710.041          41.000    23096950.867    94578168.513        -553.501          40.000  
G28  21298926.385   111926614.304       -1234.253          45.000    21298915.870    87215502.826        -961.794          46.000  
G26  20320050.499   106782588.184         580.361          48.000    20320044.132    83207193.219         452.207          46.000  
G31  20618352.848   108350170.809          99.125          47.000    20618341.693    84428663.612          77.263          45.000  
G04  24371114.217   128071048.835        3165.084          36.000    24371110.555    99795651.530        2465.883          41.000  
C33  22533379.129   117337212.002        -812.126          50.000                                                                  
C06  36579173.245   190477353.238        -153.761          46.000    36579155.375   147289101.247        -118.937          48.000  
C14  22759977.070   118517157.377       -2346.243          46.000    22759962.482    91644929.941       -1814.169          50.000  
C16  37008227.663   192711549.515        -182.808          47.000    37008215.493   149016746.873        -141.351          48.000  
C24  21876462.499   113916487.499        -908.142          50.000                                                                  
C26  24527526.107   127721265.865       -2571.007          43.000                                                                  
G03  22895489.446   120316632.876        -249.577          40.000    22895485.704    93753184.244        -194.712          41.000  
G16  22317809.096   117280952.588        2913.924          42.000                                                                  
C09  37730238.606   196471231.823        -142.348          43.000    37730224.510   151923981.016        -110.146          48.000  
C25  23588932.023   122833772.787        1534.436          44.000                                                                  
C08  39288946.317   204587826.814       -2472.327          37.000    39288934.481   158200258.368       -1911.492          41.000  
C07  39517965.386   205780402.976        1117.919          36.000    39517954.672   159122422.470         864.637          40.000  
C10  40461008.157   210691118.181         936.039          34.000    40461008.649   162919739.650         723.039          38.000  
C35  25940669.521   135079877.245         299.406          39.000                                                                  
C13  38451901.523   200229148.809       -2283.323          40.000    38451895.365   154829855.784       -1765.399          42.000  
C12  26366861.316   137299192.786        2319.793          35.000    26366858.688   106168442.010        1793.673          45.000  
G25  24545011.169   128984907.617       -3919.482          34.000    24545006.939   100507684.031       -3053.961          36.000  
> 2025 10 30 06 23 32.4800000  0 23                     
G32  22133339.258   116311479.502       -3000.324          45.000    22133333.823    90632285.831       -2337.980          42.000  
G29  23096964.567   121375382.951        -710.023          41.000    23096956.250    94578190.629        -553.140          40.000  
G28  21298935.798   111926663.682       -1234.403          45.000    21298925.263    87215541.297        -961.814          46.000  
G26  20320046.089   106782564.969         580.331          48.000    20320039.691    83207175.120         452.338          46.000  
G31  20618352.093   108350166.842          99.126          47.000    20618340.929    84428660.523          77.214          45.000  
G04  24371090.118   128070922.237        3165.089          36.000    24371086.464    99795552.876        2466.162          41.000  
C33  22533385.333   117337244.492        -812.252          50.000                                                                  
C06  36579174.430   190477359.385        -153.766          46.000    36579156.534   147289106.009        -119.068          48.000  
C14  22759995.091   118517251.225       -2346.266          46.000    22759980.521    91645002.508       -1814.175          50.000  
C16  37008229.072   192711556.824        -182.808          47.000    37008216.918   149016752.522        -141.278          48.000  
C24  21876469.508   113916523.818        -908.074          50.000                                                                  
C26  24527545.844   127721368.714       -2571.184          43.000                                                                  
G03  22895491.334   120316642.873        -249.811          40.000    22895487.598    93753192.020        -194.504          41.000  
G16  22317786.904   117280836.031        2913.927          42.000                                                                  
C09  37730239.721   196471237.505        -142.200          43.000    37730225.593   151923985.408        -109.915          48.000  
C25  23588920.249   122833711.411        1534.386          44.000                                                                  
C08  39288965.322   204587925.694       -2472.159          37.000    39288953.492   158200334.830       -1911.547          41.000  
C07  39517956.809   205780358.243        1118.236          36.000    39517946.089   159122387.903         864.321          40.000  
C10  40461000.976   210691080.750         936.056          34.000    40461001.474   162919710.721         723.048          38.000  
C35  25940667.222   135079865.253         299.676          39.000                                                                  
C13  38451919.069   200229240.133       -2283.285          40.000    38451912.884   154829926.409       -1765.559          42.000  
C12  26366843.517   137299100.016        2319.366          35.000    26366840.870   106168370.262        1793.753          45.000  
G25  24545041.003   128985064.382       -3919.268          34.000    24545036.775   100507806.194       -3054.015          36.000  
> 2025 10 30 06 23 32.5200000  0 23                     
G32  22133362.111   116311599.532       -3000.628          45.000    22133356.654    90632379.353       -2338.035          42.000  
G29  23096969.993   121375411.356        -710.110          41.000    23096961.657    94578212.756        -553.161          40.000  
G28  21298945.194   111926713.055       -1234.406          45.000    21298934.640    87215579.773        -961.902          46.000  
G26  20320041.661   106782541.751         580.357          48.000    20320035.274    83207157.027         452.324          46.000  
G31  20618351.337   108350162.870          99.212          47.000    20618340.187    84428657.439          77.116          45.000  
G04  24371066.030   128070795.627        3165.319          36.000    24371062.352    99795454.234        2466.099          41.000  
C33  22533391.543   117337276.983        -812.326          50.000                                                                  
C06  36579175.619   190477365.532        -153.762          46.000    36579157.677   147289110.767        -119.035          48.000  
C14  22760013.130   118517345.069       -2346.188          46.000    22759998.525    91645075.074       -1814.200          50.000  
C16  37008230.443   192711564.139        -182.897          47.000    37008218.316   149016758.173        -141.294          48.000  
C24  21876476.498   113916560.136        -907.995          50.000                                                                  
C26  24527565.601   127721471.539       -2570.858          43.000                                                                  
G03  22895493.232   120316652.859        -249.759          40.000    22895489.484    93753199.808        -194.599          41.000  
G16  22317764.737   117280719.479        2913.858          42.000                                                                  
C09  37730240.797   196471243.196        -142.305          43.000    37730226.684   151923989.801        -109.821          48.000  
C25  23588908.470   122833650.030        1534.448          44.000                                                                  
C08  39288984.319   204588024.576       -2472.159          37.000    39288972.488   158200411.299       -1911.721          41.000  
C07  39517948.231   205780313.534        1118.008          36.000    39517937.504   159122353.322         864.373          40.000  
C10  40460993.802   210691043.343         935.455          34.000    40460994.284   162919681.768         723.554          38.000  
C35  25940664.894   135079853.288         299.348          39.000                                                                  
C13  38451936.588   200229331.454       -2283.155          40.000    38451930.456   154829997.027       -1765.541          42.000  
C12  26366825.718   137299007.247        2319.188          35.000    26366823.085   106168298.522        1793.608          45.000  
G25  24545070.839   128985221.128       -3918.790          34.000    24545066.603   100507928.322       -3053.398          36.000  
> 2025 10 30 06 23 32.5600000  0 23                     
G32  22133384.947   116311719.558       -3000.718          45.000    22133379.512    90632472.882       -2338.210          42.000  
G29  23096975.400   121375439.756        -710.040          41.000    23096967.073    94578234.890        -553.350          40.000  
G28  21298954.563   111926762.429       -1234.402          45.000    21298944.060    87215618.248        -961.890          46.000  
G26  20320037.229   106782518.533         580.420          48.000    20320030.857    83207138.948         452.064          46.000  
G31  20618350.578   108350158.907          99.101          47.000    20618339.421    84428654.346          77.202          45.000  
G04  24371041.927   128070669.050        3164.736          36.000    24371038.274    99795355.589        2466.097          41.000  
C33  22533397.771   117337309.476        -812.393          50.000                                                                  
C06  36579176.777   190477371.689        -153.896          46.000    36579158.827   147289115.519        -118.921          48.000  
C14  22760031.155   118517438.911       -2346.105          46.000    22760016.551    91645147.644       -1814.238          50.000  
C16  37008231.832   192711571.449        -182.828          47.000    37008219.722   149016763.829        -141.390          48.000  
C24  21876483.449   113916596.463        -908.141          50.000                                                                  
C26  24527585.312   127721574.384       -2571.050          43.000                                                                  
G03  22895495.129   120316662.855        -249.904          40.000    22895491.373    93753207.587        -194.537          41.000  
G16  22317742.558   117280602.923        2913.898          42.000                                                                  
C09  37730241.899   196471248.887        -142.328          43.000    37730227.761   151923994.201        -109.899          48.000  
C25  23588896.686   122833588.660        1534.287          44.000                                                                  
C08  39289003.297   204588123.463       -2472.224          37.000    39288991.471   158200487.768       -1911.802          41.000  
C07  39517939.651   205780268.825        1117.858          36.000    39517928.936   159122318.752         864.216          40.000  
C10  40460986.572   210691005.922         935.335          34.000    40460987.094   162919652.842         723.304          38.000  
C35  25940662.597   135079841.307         299.418          39.000                                                                  
C13  38451954.138   200229422.789       -2283.402          40.000    38451947.995   154830067.643       -1765.467          42.000  
C12  26366807.930   137298914.475        2319.191          35.000    26366805.258   106168226.790        1793.328          45.000  
G25  24545100.666   128985377.913       -3919.235          34.000    24545096.430   100508050.489       -3053.832          36.000  
> 2025 10 30 06 23 32.6000000  0 23                     
G32  22133407.786   116311839.588       -3000.830          45.000    22133402.339    90632566.408       -2338.225          42.000  
G29  23096980.823   121375468.177        -710.383          41.000    23096972.489    94578257.029        -553.523          40.000  
G28  21298963.958   111926811.807       -1234.467          45.000    21298953.473    87215656.723        -961.896          46.000  
G26  20320032.845   106782495.327         580.233          48.000    20320026.428    83207120.858         452.140          46.000  
G31  20618349.818   108350154.944          99.015          47.000    20618338.659    84428651.251          77.307          45.000  
G04  24371017.839   128070542.478        3164.307          36.000    24371014.216    99795256.944        2466.062          41.000  
C33  22533404.025   117337341.971        -812.449          50.000                                                                  
C06  36579177.962   190477377.834        -153.741          46.000    36579159.993   147289120.268        -118.801          48.000  
C14  22760049.192   118517532.765       -2346.304          46.000    22760034.554    91645220.216       -1814.332          50.000  
C16  37008233.236   192711578.758        -182.777          47.000    37008221.137   149016769.486        -141.440          48.000  
C24  21876490.421   113916632.798        -908.353          50.000                                                                  
C26  24527605.083   127721677.223       -2571.040          43.000                                                                  
G03  22895497.045   120316672.869        -250.245          40.000    22895493.269    93753215.379        -194.739          41.000  
G16  22317720.378   117280486.377        2913.718          42.000                                                                  
C09  37730243.011   196471254.569        -142.175          43.000    37730228.858   151923998.601        -109.983          48.000  
C25  23588884.921   122833527.281        1534.362          44.000                                                                  
C08  39289022.305   204588222.352       -2472.223          37.000    39289010.467   158200564.244       -1911.968          41.000  
C07  39517931.058   205780224.084        1118.240          36.000    39517920.344   159122284.169         864.415          40.000  
C10  40460979.351   210690968.528         934.890          35.000    40460979.886   162919623.905         723.308          38.000  
C35  25940660.283   135079829.352         298.965          39.000                                                                  
C13  38451971.675   200229514.122       -2283.444          40.000    38451965.514   154830138.271       -1765.652          42.000  
C12  26366790.114   137298821.677        2319.677          35.000    26366787.430   106168155.055        1793.249          45.000  
G25  24545130.499   128985534.664       -3918.978          33.000    24545126.264   100508172.647       -3053.923          36.000  
> 2025 10 30 06 23 32.6400000  0 23                     
G32  22133430.590   116311959.614       -3000.773          45.000    22133425.176    90632659.939       -2338.313          42.000  
G29  23096986.253   121375496.599        -710.598          41.000    23096977.910    94578279.182        -553.793          40.000  
G28  21298973.326   111926861.188       -1234.557          45.000    21298962.880    87215695.205        -962.026          46.000  
G26  20320028.455   106782472.122         580.122          48.000    20320022.007    83207102.773         452.084          46.000  
G31  20618349.066   108350150.987          98.899          47.000    20618337.913    84428648.169          77.104          45.000  
G04  24370993.727   128070415.888        3164.462          36.000    24370990.124    99795158.304        2465.984          41.000  
C33  22533410.252   117337374.468        -812.497          50.000                                                                  
C06  36579179.146   190477383.990        -153.868          46.000    36579161.160   147289125.024        -118.876          48.000  
C14  22760067.221   118517626.624       -2346.466          46.000    22760052.579    91645292.799       -1814.572          50.000  
C16  37008234.631   192711586.073        -182.849          47.000    37008222.510   149016775.146        -141.528          48.000  
C24  21876497.387   113916669.133        -908.457          50.000                                                                  
C26  24527624.812   127721780.073       -2571.226          43.000                                                                  
G03  22895498.938   120316682.874        -250.272          40.000    22895495.158    93753223.179        -194.995          41.000  
G16  22317698.204   117280369.834        2913.567          42.000                                                                  
C09  37730244.116   196471260.259        -142.200          43.000    37730229.954   151924003.008        -110.140          48.000  
C25  23588873.116   122833465.916        1534.146          44.000                                                                  
C08  39289041.307   204588321.237       -2472.169          37.000    39289029.478   158200640.702       -1911.715          41.000  
C07  39517922.455   205780179.355        1118.301          36.000    39517911.764   159122249.588         864.458          40.000  
C10  40460972.154   210690931.098         935.329          35.000    40460972.717   162919594.976         723.214          38.000  
C35  25940657.974   135079817.387         298.906          39.000                                                                  
C13  38451989.224   200229605.452       -2283.375          40.000    38451983.053   154830208.892       -1765.595          42.000  
C12  26366772.318   137298728.910        2319.344          35.000    26366769.611   106168083.310        1793.469          45.000  
G25  24545160.353   128985691.446       -3919.359          34.000    24545156.092   100508294.838       -3054.551          36.000  
> 2025 10 30 06 23 32.6800000  0 23                     
G32  22133453.446   116312079.630       -3000.551          45.000    22133447.999    90632753.464       -2338.231          42.000  
G29  23096991.645   121375524.999        -710.253          41.000    23096983.310    94578301.322        -553.679          40.000  
G28  21298982.742   111926910.570       -1234.589          45.000    21298972.271    87215733.683        -962.042          46.000  
G26  20320024.052   106782448.916         580.086          48.000    20320017.586    83207084.693         451.960          46.000  
G31  20618348.304   108350147.027          98.912          47.000    20618337.159    84428645.081          77.104          45.000  
G04  24370969.614   128070289.311        3164.399          36.000    24370966.038    99795059.674        2465.792          41.000  
C33  22533416.487   117337406.963        -812.450          50.000                                                                  
C06  36579180.324   190477390.139        -153.820          46.000    36579162.358   147289129.782        -118.948          48.000  
C14  22760085.243   118517720.482       -2346.492          46.000    22760070.627    91645365.371       -1814.471          50.000  
C16  37008236.076   192711593.393        -182.957          47.000    37008223.900   149016780.800        -141.440          48.000  
C24  21876504.357   113916705.458        -908.293          50.000                                                                  
C26  24527644.547   127721882.917       -2571.196          43.000                                                                  
G03  22895500.834   120316692.853        -249.735          40.000    22895497.078    93753230.982        -195.141          41.000  
G16  22317676.018   117280253.287        2913.564          42.000                                                                  
C09  37730245.197   196471265.951        -142.283          43.000    37730231.047   151924007.405        -110.036          48.000  
C25  23588861.330   122833404.542        1534.252          44.000                                                                  
C08  39289060.321   204588420.127       -2472.173          37.000    39289048.460   158200717.152       -1911.437          41.000  
C07  39517913.887   205780134.648        1117.913          36.000    39517903.169   159122215.000         864.573          40.000  
C10  40460964.983   210690893.674         935.503          35.000    40460965.557   162919566.026         723.550          38.000  
C35  25940655.686   135079805.411         299.188          39.000                                                                  
C13  38452006.771   200229696.781       -2283.314          40.000    38452000.616   154830279.507       -1765.453          42.000  
C12  26366754.513   137298636.152        2318.997          35.000    26366751.807   106168011.567        1793.575          45.000  
G25  24545190.181   128985848.195       -3918.927          34.000    24545185.921   100508416.984       -3054.036          36.000  
> 2025 10 30 06 23 32.7200000  0 23                     
G32  22133476.271   116312199.653       -3000.526          45.000    22133470.835    90632846.989       -2338.199          42.000  
G29  23096997.021   121375553.406        -710.198          41.000    23096988.714    94578323.458        -553.547          40.000  
G28  21298992.120   111926959.940       -1234.359          45.000    21298981.652    87215772.160        -962.014          46.000  
G26  20320019.592   106782425.702         580.236          48.000    20320013.171    83207066.606         452.067          46.000  
G31  20618347.537   108350143.067          98.937          47.000    20618336.399    84428641.990          77.184          45.000  
G04  24370945.529   128070162.717        3164.647          36.000    24370941.950    99794961.025        2466.030          41.000  
C33  22533422.749   117337439.458        -812.437          50.000                                                                  
C06  36579181.484   190477396.286        -153.756          46.000    36579163.560   147289134.544        -119.050          48.000  
C14  22760103.264   118517814.332       -2346.357          46.000    22760088.642    91645437.941       -1814.349          50.000  
C16  37008237.492   192711600.705        -182.870          47.000    37008225.292   149016786.454        -141.388          48.000  
C24  21876511.343   113916741.783        -908.182          50.000                                                                  
C26  24527664.322   127721985.765       -2571.240          43.000                                                                  
G03  22895502.748   120316702.864        -250.072          40.000    22895498.988    93753238.772        -194.916          41.000  
G16  22317653.848   117280136.734        2913.728          42.000                                                                  
C09  37730246.299   196471271.642        -142.347          43.000    37730232.116   151924011.798        -109.884          48.000  
C25  23588849.562   122833343.170        1534.277          44.000                                                                  
C08  39289079.305   204588519.010       -2472.059          37.000    39289067.468   158200793.621       -1911.636          41.000  
C07  39517905.298   205780089.934        1117.821          36.000    39517894.597   159122180.424         864.451          40.000  
C10  40460957.768   210690856.251         935.555          34.000    40460958.356   162919537.097         723.341          38.000  
C35  25940653.409   135079793.443         299.213          39.000                                                                  
C13  38452024.322   200229788.098       -2283.018          40.000    38452018.183   154830350.114       -1765.214          42.000  
C12  26366736.701   137298543.362        2319.404          35.000    26366733.979   106167939.832        1793.469          45.000  
G25  24545220.035   128986005.004       -3919.774          34.000    24545215.746   100508539.123       -3053.596          36.000  
> 2025 10 30 06 23 32.7600000  0 23                     
G32  22133499.148   116312319.685       -3000.738          45.000    22133493.658    90632940.519       -2338.265          42.000  
G29  23097002.438   121375581.828        -710.473          41.000    23096994.118    94578345.601        -553.578          40.000  
G28  21299001.534   111927009.315       -1234.358          45.000    21298991.035    87215810.632        -961.896          46.000  
G26  20320015.181   106782402.492         580.224          48.000    20320008.759    83207048.523         452.043          46.000  
G31  20618346.767   108350139.108          98.943          47.000    20618335.661    84428638.913          76.987          45.000  
G04  24370921.425   128070036.113        3164.914          36.000    24370917.844    99794862.389        2465.970          41.000  
C33  22533428.937   117337471.960        -812.544          50.000                                                                  
C06  36579182.639   190477402.443        -153.914          46.000    36579164.760   147289139.306        -119.119          48.000  
C14  22760121.289   118517908.189       -2346.401          46.000    22760106.673    91645510.512       -1814.312          50.000  
C16  37008238.933   192711608.017        -182.839          47.000    37008226.671   149016792.109        -141.370          48.000  
C24  21876518.301   113916778.112        -908.211          50.000                                                                  
C26  24527684.080   127722088.603       -2571.095          43.000                                                                  
G03  22895504.648   120316712.869        -250.211          40.000    22895500.899    93753246.568        -194.923          41.000  
G16  22317631.666   117280020.180        2913.802          42.000                                                                  
C09  37730247.396   196471277.345        -142.574          43.000    37730233.214   151924016.197        -109.924          48.000  
C25  23588837.774   122833281.796        1534.308          44.000                                                                  
C08  39289098.272   204588617.895       -2472.051          37.000    39289086.454   158200870.100       -1911.897          41.000  
C07  39517896.734   205780045.234        1117.582          36.000    39517886.006   159122145.855         864.276          40.000  
C10  40460950.576   210690818.839         935.313          34.000    40460951.171   162919508.172         723.150          38.000  
C35  25940651.097   135079781.477         299.182          39.000                                                                  
C13  38452041.871   200229879.423       -2283.037          40.000    38452035.737   154830420.748       -1765.658          42.000  
C12  26366718.887   137298450.589        2319.404          35.000    26366716.145   106167868.093        1793.488          45.000  
G25  24545249.851   128986161.771       -3919.530          34.000    24545245.569   100508661.277       -3053.672          36.000  
> 2025 10 30 06 23 32.8000000  0 23                     
G32  22133522.018   116312439.723       -3000.955          45.000    22133516.490    90633034.038       -2338.096          42.000  
G29  23097007.843   121375610.248        -710.577          41.000    23096999.529    94578367.740        -553.598          40.000  
G28  21299010.939   111927058.700       -1234.540          45.000    21299000.448    87215849.111        -961.970          46.000  
G26  20320010.778   106782379.289         580.118          48.000    20320004.364    83207030.435         452.168          46.000  
G31  20618345.981   108350135.141          99.079          47.000    20618334.894    84428635.831          77.007          45.000  
G04  24370897.326   128069909.505        3165.140          36.000    24370893.736    99794763.742        2466.115          41.000  
C33  22533435.190   117337504.461        -812.580          50.000                                                                  
C06  36579183.813   190477408.594        -153.907          46.000    36579165.955   147289144.062        -119.004          48.000  
C14  22760139.319   118518002.047       -2346.446          46.000    22760124.694    91645583.087       -1814.378          50.000  
C16  37008240.350   192711615.329        -182.813          47.000    37008228.044   149016797.764        -141.371          48.000  
C24  21876525.271   113916814.443        -908.271          50.000                                                                  
C26  24527703.814   127722191.456       -2571.289          43.000                                                                  
G03  22895506.563   120316722.878        -250.321          40.000    22895502.796    93753254.365        -194.904          41.000  
G16  22317609.483   117279903.639        2913.622          42.000                                                                  
C09  37730248.516   196471283.030        -142.335          43.000    37730234.315   151924020.612        -110.275          48.000  
C25  23588825.984   122833220.430        1534.153          44.000                                                                  
C08  39289117.248   204588716.791       -2472.272          37.000    39289105.429   158200946.573       -1911.912          41.000  
C07  39517888.153   205780000.510        1117.883          36.000    39517877.413   159122111.287         864.199          40.000  
C10  40460943.398   210690781.403         935.682          34.000    40460944.015   162919479.242         723.099          38.000  
C35  25940648.790   135079769.518         298.998          39.000                                                                  
C13  38452059.409   200229970.761       -2283.396          40.000    38452053.272   154830491.391       -1766.058          42.000  
C12  26366701.075   137298357.828        2319.136          34.000    26366698.342   106167796.356        1793.431          45.000  
G25  24545279.669   128986318.542       -3919.399          33.000    24545275.407   100508783.455       -3054.242          36.000  
> 2025 10 30 06 23 32.8400000  0 23                     
G32  22133544.848   116312559.758       -3000.994          44.000    22133539.342    90633127.577       -2338.369          42.000  
G29  23097013.235   121375638.665        -710.532          41.000    23097004.948    94578389.885        -553.730          40.000  
G28  21299020.341   111927108.085       -1234.635          45.000    21299009.843    87215887.591        -962.002          46.000  
G26  20320006.368   106782356.084         580.081          48.000    20319999.946    83207012.361         451.975          46.000  
G31  20618345.232   108350131.184          98.980          47.000    20618334.143    84428632.741          77.136          45.000  
G04  24370873.235   128069782.930        3164.670          36.000    24370869.639    99794665.098        2466.088          41.000  
C33  22533441.466   117337536.962        -812.598          50.000                                                                  
C06  36579185.001   190477414.748        -153.896          46.000    36579167.180   147289148.812        -118.862          48.000  
C14  22760157.338   118518095.904       -2346.464          46.000    22760142.737    91645655.666       -1814.485          50.000  
C16  37008241.719   192711622.648        -182.923          47.000    37008229.457   149016803.426        -141.500          48.000  
C24  21876532.247   113916850.776        -908.313          50.000                                                                  
C26  24527723.568   127722294.294       -2571.097          43.000                                                                  
G03  22895508.466   120316732.885        -250.286          40.000    22895504.683    93753262.147        -194.640          41.000  
G16  22317587.313   117279787.096        2913.560          42.000                                                                  
C09  37730249.617   196471288.727        -142.425          43.000    37730235.391   151924025.017        -110.244          48.000  
C25  23588814.174   122833159.064        1534.080          44.000                                                                  
C08  39289136.221   204588815.671       -2472.202          37.000    39289124.436   158201023.040       -1911.838          41.000  
C07  39517879.560   205779955.799        1117.826          36.000    39517868.843   159122076.711         864.268          40.000  
C10  40460936.223   210690744.011         935.118          34.000    40460936.794   162919450.309         723.160          38.000  
C35  25940646.494   135079757.556         299.007          39.000                                                                  
C13  38452076.952   200230062.108       -2283.635          40.000    38452070.805   154830562.017       -1765.884          42.000  
C12  26366683.275   137298265.049        2319.356          35.000    26366680.523   106167724.615        1793.475          45.000  
G25  24545309.484   128986475.316       -3919.325          33.000    24545305.251   100508905.646       -3054.692          36.000  
> 2025 10 30 06 23 32.8800000  0 23                     
G32  22133567.678   116312679.788       -3000.926          45.000    22133562.191    90633221.112       -2338.442          42.000  
G29  23097018.633   121375667.091        -710.700          41.000    23097010.343    94578412.037        -553.896          40.000  
G28  21299029.739   111927157.474       -1234.783          45.000    21299019.236    87215926.077        -962.139          46.000  
G26  20320001.962   106782332.887         579.958          48.000    20319995.540    83206994.282         451.969          46.000  
G31  20618344.498   108350127.226          98.968          47.000    20618333.404    84428629.662          77.012          45.000  
G04  24370849.143   128069656.352        3164.448          36.000    24370845.549    99794566.462        2465.985          41.000  
C33  22533447.667   117337569.467        -812.653          50.000                                                                  
C06  36579186.202   190477420.895        -153.777          46.000    36579168.350   147289153.568        -118.870          48.000  
C14  22760175.365   118518189.761       -2346.437          46.000    22760160.765    91645728.245       -1814.548          50.000  
C16  37008243.144   192711629.964        -182.955          47.000    37008230.875   149016809.086        -141.503          48.000  
C24  21876539.196   113916887.113        -908.417          50.000                                                                  
C26  24527743.327   127722397.138       -2571.088          43.000                                                                  
G03  22895510.374   120316742.888        -250.165          40.000    22895506.593    93753269.945        -194.813          41.000  
G16  22317565.157   117279670.564        2913.305          42.000                                                                  
C09  37730250.725   196471294.410        -142.196          43.000    37730236.462   151924029.417        -110.108          48.000  
C25  23588802.401   122833097.699        1534.055          44.000                                                                  
C08  39289155.202   204588914.574       -2472.482          37.000    39289143.439   158201099.499       -1911.656          41.000  
C07  39517870.974   205779911.094        1117.596          36.000    39517860.235   159122042.133         864.375          40.000  
C10  40460929.037   210690706.604         935.053          34.000    40460929.593   162919421.373         723.278          38.000  
C35  25940644.188   135079745.600         298.863          39.000                                                                  
C13  38452094.507   200230153.434       -2283.424          40.000    38452088.340   154830632.634       -1765.587          42.000  
C12  26366665.466   137298172.261        2319.666          34.000    26366662.690   106167652.880        1793.381          45.000  
G25  24545339.324   128986632.102       -3919.675          33.000    24545335.079   100509027.808       -3054.437          36.000  
> 2025 10 30 06 23 32.9200000  0 23                     
G32  22133590.515   116312799.816       -3000.808          44.000    22133585.032    90633314.641       -2338.348          42.000  
G29  23097024.057   121375695.516        -710.723          41.000    23097015.738    94578434.171        -553.525          40.000  
G28  21299039.117   111927206.856       -1234.653          45.000    21299028.635    87215964.556        -962.101          46.000  
G26  20319997.530   106782309.683         580.028          48.000    20319991.120    83206976.204         451.895          46.000  
G31  20618343.755   108350123.271          98.900          47.000    20618332.647    84428626.575          77.087          45.000  
G04  24370825.049   128069529.760        3164.565          36.000    24370821.457    99794467.825        2465.942          41.000  
C33  22533453.917   117337601.974        -812.695          50.000                                                                  
C06  36579187.394   190477427.048        -153.806          46.000    36579169.560   147289158.332        -119.023          48.000  
C14  22760193.395   118518283.609       -2346.272          46.000    22760178.832    91645800.825       -1814.577          50.000  
C16  37008244.516   192711637.282        -182.999          47.000    37008232.286   149016814.739        -141.412          48.000  
C24  21876546.210   113916923.442        -908.323          50.000                                                                  
C26  24527763.089   127722499.985       -2571.119          43.000                                                                  
G03  22895512.288   120316752.893        -250.102          40.000    22895508.495    93753277.744        -194.971          41.000  
G16  22317542.983   117279554.020        2913.448          42.000                                                                  
C09  37730251.795   196471300.104        -142.274          43.000    37730237.541   151924033.816        -110.013          48.000  
C25  23588790.627   122833036.328        1534.167          44.000                                                                  
C08  39289174.176   204589013.458       -2472.311          37.000    39289162.431   158201175.967       -1911.707          41.000  
C07  39517862.402   205779866.381        1117.706          36.000    39517851.653   159122007.563         864.230          40.000  
C10  40460921.849   210690669.191         935.167          34.000    40460922.406   162919392.455         723.021          38.000  
C35  25940641.893   135079733.636         299.005          39.000                                                                  
C13  38452112.042   200230244.767       -2283.387          40.000    38452105.881   154830703.244       -1765.286          42.000  
C12  26366647.640   137298079.468        2319.932          34.000    26366644.872   106167581.141        1793.419          45.000  
G25  24545369.191   128986788.867       -3919.359          33.000    24545364.903   100509149.953       -3053.905          36.000  
> 2025 10 30 06 23 32.9600000  0 23                     
G32  22133613.355   116312919.832       -3000.538          45.000    22133607.858    90633408.160       -2338.095          42.000  
G29  23097029.466   121375723.926        -710.460          41.000    23097021.133    94578456.297        -553.197          40.000  
G28  21299048.511   111927256.228       -1234.381          45.000    21299038.038    87216003.026        -961.875          46.000  
G26  20319993.090   106782286.472         580.209          48.000    20319986.683    83206958.122         451.977          46.000  
G31  20618343.008   108350119.305          99.092          47.000    20618331.897    84428623.485          77.210          45.000  
G04  24370800.954   128069403.154        3164.862          36.000    24370797.386    99794369.191        2465.843          41.000  
C33  22533460.179   117337634.466        -812.440          50.000                                                                  
C06  36579188.579   190477433.189        -153.603          46.000    36579170.763   147289163.082        -118.871          48.000  
C14  22760211.398   118518377.465       -2346.378          46.000    22760196.904    91645873.398       -1814.435          50.000  
C16  37008245.911   192711644.587        -182.777          47.000    37008233.714   149016820.386        -141.260          48.000  
C24  21876553.196   113916959.768        -908.192          50.000                                                                  
C26  24527782.825   127722602.821       -2570.968          43.000                                                                  
G03  22895514.187   120316762.898        -250.084          40.000    22895510.408    93753285.540        -194.956          41.000  
G16  22317520.790   117279437.464        2913.755          42.000                                                                  
C09  37730252.881   196471305.792        -142.236          43.000    37730238.635   151924038.210        -109.855          48.000  
C25  23588778.834   122832974.951        1534.327          44.000                                                                  
C08  39289193.180   204589112.335       -2472.107          37.000    39289181.438   158201252.430       -1911.641          41.000  
C07  39517853.819   205779821.658        1117.964          36.000    39517843.069   159121972.979         864.403          40.000  
C10  40460914.639   210690631.752         935.760          34.000    40460915.226   162919363.519         723.223          38.000  
C35  25940639.589   135079721.661         299.326          39.000                                                                  
C13  38452129.560   200230336.087       -2283.103          40.000    38452123.394   154830773.848       -1765.097          42.000  
C12  26366629.798   137297986.679        2319.884          34.000    26366627.052   106167509.399        1793.469          45.000  
G25  24545399.013   128986945.647       -3919.502          33.000    24545394.724   100509272.094       -3053.541          36.000  
> 2025 10 30 06 23 33.0000000  0 23                     
G32  22133636.216   116313039.848       -3000.408          44.000    22133630.690    90633501.686       -2338.120          42.000  
G29  23097034.855   121375752.332        -710.238          41.000    23097026.522    94578478.444        -553.468          40.000  
G28  21299057.913   111927305.591       -1234.072          45.000    21299047.409    87216041.489        -961.630          46.000  
G26  20319988.652   106782263.258         580.331          48.000    20319982.264    83206940.030         452.188          46.000  
G31  20618342.270   108350115.342          99.104          47.000    20618331.151    84428620.391          77.314          45.000  
G04  24370776.854   128069276.554        3164.976          36.000    24370773.280    99794270.530        2466.273          41.000  
C33  22533466.415   117337666.961        -812.373          50.000                                                                  
C06  36579189.770   190477439.330        -153.517          46.000    36579171.929   147289167.826        -118.685          48.000  
C14  22760229.404   118518471.320       -2346.396          46.000    22760214.914    91645945.967       -1814.265          50.000  
C16  37008247.317   192711651.886        -182.570          47.000    37008235.136   149016826.030        -141.141          48.000  
C24  21876560.204   113916996.089        -908.058          50.000                                                                  
C26  24527802.594   127722705.652       -2570.789          43.000                                                                  
G03  22895516.116   120316772.896        -249.914          40.000    22895512.312    93753293.345        -195.073          41.000  
G16  22317498.583   117279320.908        2913.944          42.000                                                                  
C09  37730253.984   196471311.471        -142.047          43.000    37730239.725   151924042.596        -109.636          48.000  
C25  23588767.069   122832913.573        1534.412          44.000                                                                  
C08  39289212.145   204589211.234       -2472.334          37.000    39289200.445   158201328.890       -1911.593          41.000  
C07  39517845.246   205779776.922        1118.339          36.000    39517834.471   159121938.393         864.614          40.000  
C10  40460907.440   210690594.275         936.797          34.000    40460908.058   162919334.552         723.941          38.000  
C35  25940637.269   135079709.691         299.366          39.000                                                                  
C13  38452147.090   200230427.419       -2283.166          40.000    38452140.930   154830844.470       -1765.388          42.000  
C12  26366612.009   137297893.900        2319.595          34.000    26366609.218   106167437.652        1793.599          45.000  
G25  24545428.847   128987102.395       -3918.973          33.000    24545424.550   100509394.240       -3053.509          36.000  
> 2025 10 30 06 23 33.0400000  0 23                     
G32  22133659.093   116313159.885       -3000.738          45.000    22133653.526    90633595.216       -2338.199          42.000  
G29  23097040.261   121375780.733        -710.016          41.000    23097031.938    94578500.593        -553.692          40.000  
G28  21299067.307   111927354.959       -1234.054          45.000    21299056.803    87216079.962        -961.713          46.000  
G26  20319984.244   106782240.053         580.199          48.000    20319977.846    83206921.950         452.042          46.000  
G31  20618341.537   108350111.380          99.084          47.000    20618330.388    84428617.302          77.258          45.000  
G04  24370752.768   128069149.957        3165.021          36.000    24370749.184    99794171.880        2466.323          41.000  
C33  22533472.630   117337699.458        -812.382          50.000                                                                  
C06  36579190.985   190477445.465        -153.387          46.000    36579173.089   147289172.574        -118.650          48.000  
C14  22760247.407   118518565.171       -2346.300          46.000    22760232.933    91646018.538       -1814.255          50.000  
C16  37008248.679   192711659.197        -182.685          47.000    37008236.537   149016831.679        -141.158          48.000  
C24  21876567.172   113917032.410        -908.004          50.000                                                                  
C26  24527822.335   127722808.484       -2570.723          43.000                                                                  
G03  22895518.022   120316782.903        -250.081          40.000    22895514.207    93753301.126        -194.676          41.000  
G16  22317476.388   117279204.351        2914.014          42.000                                                                  
C09  37730255.076   196471317.154        -142.065          43.000    37730240.780   151924046.988        -109.700          48.000  
C25  23588755.286   122832852.197        1534.393          44.000                                                                  
C08  39289231.134   204589310.096       -2471.902          37.000    39289219.420   158201405.356       -1911.661          41.000  
C07  39517836.655   205779732.189        1118.466          36.000    39517825.902   159121903.809         864.618          40.000  
C10  40460900.227   210690556.877         935.845          34.000    40460900.860   162919305.619         723.611          38.000  
C35  25940634.958   135079697.733         299.079          39.000                                                                  
C13  38452164.668   200230518.738       -2283.006          40.000    38452158.444   154830915.092       -1765.542          42.000  
C12  26366594.229   137297801.144        2319.055          34.000    26366591.362   106167365.898        1793.797          45.000  
G25  24545458.687   128987259.151       -3918.856          34.000    24545454.399   100509516.395       -3053.677          36.000  
> 2025 10 30 06 23 33.0800000  0 23                     
G32  22133681.968   116313279.923       -3000.956          45.000    22133676.373    90633688.748       -2338.316          42.000  
G29  23097045.666   121375809.147        -710.180          41.000    23097037.348    94578522.744        -553.802          40.000  
G28  21299076.729   111927404.340       -1234.305          45.000    21299066.193    87216118.445        -961.946          46.000  
G26  20319979.842   106782216.852         580.037          48.000    20319973.451    83206903.871         451.943          46.000  
G31  20618340.802   108350107.414          99.158          47.000    20618329.623    84428614.217          77.159          45.000  
G04  24370728.671   128069023.366        3164.897          36.000    24370725.086    99794073.235        2466.224          41.000  
C33  22533478.832   117337731.958        -812.453          50.000                                                                  
C06  36579192.166   190477451.607        -153.465          46.000    36579174.259   147289177.327        -118.753          48.000  
C14  22760265.430   118518659.023       -2346.288          46.000    22760250.955    91646091.111       -1814.295          50.000  
C16  37008250.068   192711666.500        -182.623          47.000    37008237.935   149016837.336        -141.375          48.000  
C24  21876574.114   113917068.738        -908.121          50.000                                                                  
C26  24527842.073   127722911.325       -2570.881          43.000                                                                  
G03  22895519.932   120316792.905        -250.048          40.000    22895516.117    93753308.919        -194.730          41.000  
G16  22317454.217   117279087.800        2913.893          42.000                                                                  
C09  37730256.169   196471322.832        -142.010          43.000    37730241.862   151924051.383        -109.798          48.000  
C25  23588743.492   122832790.829        1534.264          44.000                                                                  
C08  39289250.111   204589408.991       -2472.163          37.000    39289238.397   158201481.808       -1911.486          41.000  
C07  39517828.069   205779687.479        1118.099          36.000    39517817.315   159121869.242         864.297          40.000  
C10  40460893.070   210690519.462         935.451          34.000    40460893.660   162919276.671         723.646          38.000  
C35  25940632.664   135079685.755         299.293          39.000                                                                  
C13  38452182.205   200230610.042       -2282.637          40.000    38452175.979   154830985.715       -1765.659          42.000  
C12  26366576.416   137297708.359        2319.327          34.000    26366573.536   106167294.152        1793.720          45.000  
G25  24545488.510   128987415.918       -3919.082          34.000    24545484.223   100509638.549       -3053.790          36.000  
> 2025 10 30 06 23 33.1200000  0 23                     
G32  22133704.812   116313399.952       -3000.871          44.000    22133699.207    90633782.277       -2338.274          43.000  
G29  23097051.067   121375837.570        -710.467          41.000    23097042.775    94578544.890        -553.744          40.000  
G28  21299086.122   111927453.723       -1234.553          45.000    21299075.599    87216156.932        -962.167          46.000  
G26  20319975.432   106782193.648         580.038          48.000    20319969.028    83206885.786         452.044          46.000  
G31  20618340.094   108350103.454          99.041          47.000    20618328.858    84428611.125          77.202          45.000  
G04  24370704.560   128068896.757        3165.126          36.000    24370701.005    99793974.583        2466.317          41.000  
C33  22533485.062   117337764.459        -812.530          50.000                                                                  
C06  36579193.331   190477457.753        -153.597          46.000    36579175.423   147289182.081        -118.826          48.000  
C14  22760283.447   118518752.884       -2346.460          46.000    22760268.958    91646163.687       -1814.365          50.000  
C16  37008251.468   192711673.809        -182.703          47.000    37008239.322   149016842.983        -141.274          48.000  
C24  21876581.037   113917105.067        -908.220          50.000                                                                  
C26  24527861.816   127723014.167       -2571.022          43.000                                                                  
G03  22895521.841   120316802.924        -250.421          40.000    22895518.015    93753316.726        -195.065          41.000  
G16  22317432.062   117278971.254        2913.725          42.000                                                                  
C09  37730257.240   196471328.518        -142.099          43.000    37730242.930   151924055.783        -109.963          48.000  
C25  23588731.707   122832729.458        1534.252          44.000                                                                  
C08  39289269.105   204589507.883       -2472.301          37.000    39289257.381   158201558.287       -1911.830          41.000  
C07  39517819.469   205779642.764        1117.908          36.000    39517808.747   159121834.657         864.484          40.000  
C10  40460885.908   210690482.046         935.286          34.000    40460886.434   162919247.726         723.611          38.000  
C35  25940630.362   135079673.783         299.318          39.000                                                                  
C13  38452199.756   200230701.372       -2282.972          40.000    38452193.553   154831056.329       -1765.466          42.000  
C12  26366558.598   137297615.559        2319.813          34.000    26366555.715   106167222.411        1793.589          45.000  
G25  24545518.334   128987572.685       -3919.274          34.000    24545514.058   100509760.699       -3053.812          36.000  
> 2025 10 30 06 23 33.1600000  0 23                     
G32  22133727.643   116313519.975       -3000.680          44.000    22133722.055    90633875.807       -2338.273          43.000  
G29  23097056.474   121375866.002        -710.833          41.000    23097048.197    94578567.042        -553.799          40.000  
G28  21299095.532   111927503.101       -1234.572          45.000    21299084.994    87216195.401        -961.927          46.000  
G26  20319971.012   106782170.445         580.046          48.000    20319964.616    83206867.709         451.945          46.000  
G31  20618339.358   108350099.491          99.072          47.000    20618328.112    84428608.050          76.950          45.000  
G04  24370680.461   128068770.184        3164.572          36.000    24370676.916    99793875.940        2466.167          41.000  
C33  22533491.294   117337796.962        -812.605          50.000                                                                  
C06  36579194.505   190477463.905        -153.799          46.000    36579176.578   147289186.833        -118.830          48.000  
C14  22760301.464   118518846.742       -2346.510          46.000    22760286.988    91646236.263       -1814.428          50.000  
C16  37008252.851   192711681.112        -182.629          47.000    37008240.689   149016848.630        -141.204          48.000  
C24  21876588.015   113917141.394        -908.230          50.000                                                                  
C26  24527881.548   127723117.020       -2571.281          43.000                                                                  
G03  22895523.748   120316812.909        -249.928          40.000    22895519.907    93753324.532        -195.214          41.000  
G16  22317409.908   117278854.712        2913.548          42.000                                                                  
C09  37730258.332   196471334.206        -142.207          43.000    37730244.030   151924060.176        -109.883          48.000  
C25  23588719.950   122832668.075        1534.486          44.000                                                                  
C08  39289288.090   204589606.777       -2472.366          37.000    39289276.370   158201634.742       -1911.563          41.000  
C07  39517810.860   205779598.058        1117.662          36.000    39517800.169   159121800.075         864.542          40.000  
C10  40460878.714   210690444.634         935.265          34.000    40460879.259   162919218.813         723.003          38.000  
C35  25940628.059   135079661.832         298.959          39.000                                                                  
C13  38452217.279   200230792.703       -2283.206          40.000    38452211.092   154831126.950       -1765.503          42.000  
C12  26366540.797   137297522.778        2319.730          34.000    26366537.898   106167150.669        1793.514          45.000  
G25  24545548.203   128987729.478       -3919.700          34.000    24545543.911   100509882.885       -3054.355          36.000  
> 2025 10 30 06 23 33.2000000  0 23                     
G32  22133750.491   116313639.992       -3000.490          44.000    22133744.877    90633969.323       -2338.007          43.000  
G29  23097061.892   121375894.436        -710.953          41.000    23097053.608    94578589.171        -553.375          40.000  
G28  21299104.925   111927552.467       -1234.333          45.000    21299094.392    87216233.867        -961.738          46.000  
G26  20319966.576   106782147.236         580.146          48.000    20319960.175    83206849.627         451.982          46.000  
G31  20618338.602   108350095.527          99.078          47.000    20618327.360    84428604.954          77.210          45.000  
G04  24370656.383   128068643.585        3164.755          37.000    24370652.815    99793777.293        2466.156          41.000  
C33  22533497.587   117337829.465        -812.628          50.000                                                                  
C06  36579195.684   190477470.049        -153.712          46.000    36579177.725   147289191.574        -118.618          48.000  
C14  22760319.520   118518940.595       -2346.386          46.000    22760305.017    91646308.838       -1814.420          50.000  
C16  37008254.261   192711688.416        -182.604          47.000    37008242.052   149016854.283        -141.316          48.000  
C24  21876595.010   113917177.716        -908.110          50.000                                                                  
C26  24527901.286   127723219.854       -2571.046          43.000                                                                  
G03  22895525.638   120316822.922        -250.201          40.000    22895521.791    93753332.325        -194.989          41.000  
G16  22317387.704   117278738.168        2913.520          42.000                                                                  
C09  37730259.455   196471339.885        -142.104          43.000    37730245.150   151924064.567        -109.820          48.000  
C25  23588708.159   122832606.695        1534.535          44.000                                                                  
C08  39289307.074   204589705.632       -2471.598          37.000    39289295.367   158201711.193       -1911.376          41.000  
C07  39517802.279   205779553.345        1117.687          36.000    39517791.587   159121765.478         864.807          40.000  
C10  40460871.518   210690407.176         936.050          34.000    40460872.091   162919189.894         722.842          38.000  
C35  25940625.744   135079649.886         298.622          39.000                                                                  
C13  38452234.817   200230884.037       -2283.340          40.000    38452228.614   154831197.564       -1765.411          42.000  
C12  26366522.990   137297429.996        2319.629          34.000    26366520.052   106167078.912        1793.770          45.000  
G25  24545578.017   128987886.233       -3919.285          34.000    24545573.749   100510005.043       -3054.174          36.000  
> 2025 10 30 06 23 33.2400000  0 23                     
G32  22133773.327   116313760.010       -3000.425          44.000    22133767.714    90634062.833       -2337.788          43.000  
G29  23097067.299   121375922.849        -710.557          41.000    23097059.021    94578611.301        -553.260          40.000  
G28  21299114.307   111927601.841       -1234.325          45.000    21299103.794    87216272.335        -961.685          46.000  
G26  20319962.165   106782124.031         580.132          48.000    20319955.741    83206831.543         452.025          46.000  
G31  20618337.843   108350091.558          99.189          47.000    20618326.592    84428601.858          77.357          45.000  
G04  24370632.281   128068517.001        3164.582          37.000    24370628.746    99793678.662        2465.890          41.000  
C33  22533503.817   117337861.964        -812.556          50.000                                                                  
C06  36579196.839   190477476.189        -153.588          46.000    36579178.907   147289196.319        -118.584          48.000  
C14  22760337.538   118519034.448       -2346.343          46.000    22760323.023    91646381.412       -1814.375          50.000  
C16  37008255.645   192711695.723        -182.671          47.000    37008243.444   149016859.928        -141.198          48.000  
C24  21876601.998   113917214.041        -908.118          50.000                                                                  
C26  24527921.050   127723322.687       -2570.881          43.000                                                                  
G03  22895527.542   120316832.934        -250.377          40.000    22895523.687    93753340.130        -195.065          41.000  
G16  22317365.522   117278621.628        2913.427          42.000                                                                  
C09  37730260.527   196471345.568        -142.098          43.000    37730246.255   151924068.957        -109.750          48.000  
C25  23588696.370   122832545.317        1534.472          44.000                                                                  
C08  39289326.044   204589804.492       -2471.364          37.000    39289314.349   158201787.642       -1911.232          41.000  
C07  39517793.686   205779508.583        1118.636          36.000    39517783.003   159121730.894         864.719          40.000  
C10  40460864.340   210690369.759         935.731          34.000    40460864.907   162919160.941         723.395          38.000  
C35  25940623.483   135079637.917         298.949          39.000                                                                  
C13  38452252.349   200230975.355       -2283.093          40.000    38452246.144   154831268.173       -1765.282          42.000  
C12  26366505.166   137297337.197        2319.883          34.000    26366502.227   106167007.161        1793.807          45.000  
G25  24545607.833   128988042.980       -3918.886          34.000    24545603.585   100510127.189       -3053.799          36.000  
> 2025 10 30 06 23 33.2800000  0 23                     
G32  22133796.175   116313880.040       -3000.636          44.000    22133790.555    90634156.355       -2337.953          43.000  
G29  23097072.684   121375951.245        -709.991          41.000    23097064.448    94578633.442        -553.431          40.000  
G28  21299123.710   111927651.216       -1234.388          45.000    21299113.190    87216310.808        -961.757          46.000  
G26  20319957.764   106782100.822         580.219          48.000    20319951.319    83206813.454         452.131          46.000  
G31  20618337.076   108350087.592          99.176          47.000    20618325.839    84428598.765          77.344          45.000  
G04  24370608.175   128068390.374        3165.272          37.000    24370604.643    99793579.997        2466.353          41.000  
C33  22533510.103   117337894.460        -812.442          50.000                                                                  
C06  36579198.014   190477482.318        -153.343          46.000    36579180.038   147289201.066        -118.627          48.000  
C14  22760355.570   118519128.298       -2346.262          46.000    22760341.040    91646453.985       -1814.349          50.000  
C16  37008257.044   192711703.022        -182.548          47.000    37008244.841   149016865.571        -141.108          48.000  
C24  21876608.960   113917250.366        -908.126          50.000                                                                  
C26  24527940.794   127723425.511       -2570.643          43.000                                                                  
G03  22895529.426   120316842.934        -250.172          40.000    22895525.589    93753347.919        -194.845          41.000  
G16  22317343.333   117278505.067        2913.802          42.000                                                                  
C09  37730261.609   196471351.246        -142.022          43.000    37730247.326   151924073.353        -109.835          48.000  
C25  23588684.575   122832483.945        1534.337          44.000                                                                  
C08  39289345.050   204589903.354       -2471.372          37.000    39289333.338   158201864.104       -1911.403          41.000  
C07  39517785.091   205779463.860        1118.416          36.000    39517774.375   159121696.313         864.563          40.000  
C10  40460857.151   210690332.311         936.034          34.000    40460857.715   162919131.985         723.781          38.000  
C35  25940621.172   135079625.923         299.576          39.000                                                                  
C13  38452269.915   200231066.659       -2282.730          40.000    38452263.680   154831338.783       -1765.252          42.000  
C12  26366487.359   137297244.413        2319.732          34.000    26366484.403   106166935.405        1793.899          45.000  
G25  24545637.648   128988199.731       -3918.680          34.000    24545633.405   100510249.313       -3053.259          36.000  
> 2025 10 30 06 23 33.3200000  0 23                     
G32  22133819.025   116314000.078       -3000.905          44.000    22133813.387    90634249.894       -2338.308          43.000  
G29  23097078.089   121375979.654        -710.034          41.000    23097069.865    94578655.584        -553.525          40.000  
G28  21299133.103   111927700.583       -1234.283          45.000    21299122.596    87216349.280        -961.824          46.000  
G26  20319953.351   106782077.614         580.193          48.000    20319946.906    83206795.373         452.017          46.000  
G31  20618336.301   108350083.622          99.237          47.000    20618325.089    84428595.672          77.331          45.000  
G04  24370584.109   128068263.773        3165.214          37.000    24370580.540    99793481.340        2466.439          41.000  
C33  22533516.359   117337926.954        -812.343          50.000                                                                  
C06  36579199.190   190477488.451        -153.292          46.000    36579181.222   147289205.808        -118.571          48.000  
C14  22760373.595   118519222.147       -2346.246          46.000    22760359.061    91646526.554       -1814.255          50.000  
C16  37008258.477   192711710.314        -182.368          47.000    37008246.246   149016871.216        -141.119          48.000  
C24  21876615.981   113917286.683        -907.990          50.000                                                                  
C26  24527960.529   127723528.329       -2570.416          43.000                                                                  
G03  22895531.334   120316852.937        -250.083          40.000    22895527.486    93753355.710        -194.798          41.000  
G16  22317321.145   117278388.513        2913.888          42.000                                                                  
C09  37730262.706   196471356.917        -141.846          43.000    37730248.419   151924077.737        -109.683          48.000  
C25  23588672.792   122832422.565        1534.436          44.000                                                                  
C08  39289364.046   204590002.255       -2472.085          37.000    39289352.356   158201940.568       -1911.548          41.000  
C07  39517776.507   205779419.139        1118.290          36.000    39517765.790   159121661.728         864.567          40.000  
C10  40460849.928   210690294.889         935.708          34.000    40460850.505   162919103.043         723.688          38.000  
C35  25940618.876   135079613.945         299.659          39.000                                                                  
C13  38452287.453   200231157.979       -2282.842          40.000    38452281.199   154831409.395       -1765.290          42.000  
C12  26366469.555   137297151.625        2319.708          34.000    26366466.566   106166863.661        1793.680          45.000  
G25  24545667.475   128988356.514       -3919.309          34.000    24545663.231   100510371.469       -3053.597          36.000  
> 2025 10 30 06 23 33.3600000  0 23                     
G32  22133841.851   116314120.102       -3000.770          44.000    22133836.206    90634343.416       -2338.217          43.000  
G29  23097083.507   121376008.060        -710.050          41.000    23097075.283    94578677.735        -553.748          40.000  
G28  21299142.489   111927749.959       -1234.363          45.000    21299131.978    87216387.751        -961.824          46.000  
G26  20319948.935   106782054.401         580.299          48.000    20319942.499    83206777.283         452.167          46.000  
G31  20618335.545   108350079.652          99.249          47.000    20618324.333    84428592.577          77.343          45.000  
G04  24370560.020   128068137.162        3165.306          36.000    24370556.455    99793382.697        2466.194          41.000  
C33  22533522.606   117337959.446        -812.269          50.000                                                                  
C06  36579200.380   190477494.579        -153.188          46.000    36579182.386   147289210.558        -118.689          48.000  
C14  22760391.624   118519316.001       -2346.336          46.000    22760377.089    91646599.119       -1814.156          50.000  
C16  37008259.908   192711717.611        -182.368          47.000    37008247.675   149016876.861        -141.135          48.000  
C24  21876622.962   113917323.005        -908.019          50.000                                                                  
C26  24527980.269   127723631.154       -2570.497          43.000                                                                  
G03  22895533.252   120316862.934        -249.934          40.000    22895529.392    93753363.502        -194.793          41.000  
G16  22317298.966   117278271.948        2914.087          42.000                                                                  
C09  37730263.819   196471362.585        -141.677          43.000    37730249.516   151924082.120        -109.576          48.000  
C25  23588661.011   122832361.185        1534.479          44.000                                                                  
C08  39289383.042   204590101.160       -2472.559          37.000    39289371.342   158202017.024       -1911.494          41.000  
C07  39517767.915   205779374.402        1118.496          36.000    39517757.180   159121627.157         864.390          40.000  
C10  40460842.752   210690257.475         935.451          34.000    40460843.299   162919074.082         723.946          38.000  
C35  25940616.560   135079601.968         299.616          39.000                                                                  
C13  38452304.997   200231249.297       -2282.880          40.000    38452298.718   154831480.017       -1765.518          42.000  
C12  26366451.749   137297058.831        2319.788          34.000    26366448.756   106166791.914        1793.637          45.000  
G25  24545697.304   128988513.259       -3918.966          34.000    24545693.080   100510493.627       -3053.816          36.000  
> 2025 10 30 06 23 33.4000000  0 23                     
G32  22133864.688   116314240.122       -3000.581          44.000    22133859.065    90634436.951       -2338.342          43.000  
G29  23097088.899   121376036.470        -710.252          41.000    23097080.691    94578699.879        -553.797          40.000  
G28  21299151.881   111927799.328       -1234.277          45.000    21299141.381    87216426.224        -961.848          46.000  
G26  20319944.518   106782031.199         580.111          48.000    20319938.079    83206759.203         452.055          46.000  
G31  20618334.792   108350075.690          99.107          47.000    20618323.571    84428589.491          77.208          45.000  
G04  24370535.921   128068010.539        3165.547          36.000    24370532.384    99793284.050        2466.138          41.000  
C33  22533528.797   117337991.952        -812.539          50.000                                                                  
C06  36579201.527   190477500.714        -153.290          46.000    36579183.582   147289215.301        -118.642          48.000  
C14  22760409.647   118519409.856       -2346.373          46.000    22760395.116    91646671.690       -1814.216          50.000  
C16  37008261.321   192711724.914        -182.514          47.000    37008249.082   149016882.501        -141.037          48.000  
C24  21876629.901   113917359.327        -908.034          50.000                                                                  
C26  24527999.989   127723733.989       -2570.740          43.000                                                                  
G03  22895535.183   120316872.954        -250.320          40.000    22895531.312    93753371.301        -194.926          41.000  
G16  22317276.788   117278155.387        2914.101          42.000                                                                  
C09  37730264.902   196471368.269        -141.942          43.000    37730250.618   151924086.509        -109.670          48.000  
C25  23588649.217   122832299.802        1534.571          44.000                                                                  
C08  39289402.021   204590200.001       -2471.675          37.000    39289390.316   158202093.487       -1911.570          41.000  
C07  39517759.323   205779329.693        1118.002          36.000    39517748.584   159121592.563         864.685          40.000  
C10  40460835.578   210690220.059         935.309          34.000    40460836.106   162919045.140         723.695          38.000  
C35  25940614.257   135079590.004         299.325          39.000                                                                  
C13  38452322.541   200231340.624       -2283.170          40.000    38452316.291   154831550.627       -1765.375          42.000  
C12  26366433.937   137296966.029        2320.031          34.000    26366430.908   106166720.160        1793.743          45.000  
G25  24545727.168   128988670.003       -3918.642          34.000    24545722.904   100510615.786       -3053.949          36.000  
> 2025 10 30 06 23 33.4400000  0 23                     
G32  22133887.512   116314360.141       -3000.487          44.000    22133881.896    90634530.466       -2338.054          43.000  
G29  23097094.312   121376064.898        -710.656          41.000    23097086.087    94578722.024        -553.752          40.000  
G28  21299161.284   111927848.696       -1234.240          45.000    21299150.766    87216464.694        -961.801          46.000  
G26  20319940.105   106782007.991         580.119          48.000    20319933.652    83206741.125         451.968          46.000  
G31  20618334.006   108350071.722          99.157          47.000    20618322.830    84428586.405          77.122          45.000  
G04  24370511.839   128067883.967        3164.789          36.000    24370508.294    99793185.391        2466.332          41.000  
C33  22533535.023   117338024.457        -812.657          50.000                                                                  
C06  36579202.684   190477506.857        -153.507          46.000    36579184.779   147289220.045        -118.596          48.000  
C14  22760427.678   118519503.712       -2346.422          46.000    22760413.140    91646744.266       -1814.376          50.000  
C16  37008262.714   192711732.214        -182.532          47.000    37008250.512   149016888.142        -141.020          48.000  
C24  21876636.899   113917395.645        -907.982          50.000                                                                  
C26  24528019.725   127723836.834       -2571.108          43.000                                                                  
G03  22895537.086   120316882.968        -250.411          40.000    22895533.213    93753379.107        -195.152          41.000  
G16  22317254.619   117278038.854        2913.551          42.000                                                                  
C09  37730265.969   196471373.939        -141.820          43.000    37730251.691   151924090.905        -109.867          48.000  
C25  23588637.437   122832238.414        1534.706          44.000                                                                  
C08  39289421.006   204590298.894       -2472.059          37.000    39289409.302   158202169.954       -1911.594          41.000  
C07  39517750.748   205779284.969        1118.009          36.000    39517739.978   159121557.981         864.575          40.000  
C10  40460828.351   210690182.605         935.974          34.000    40460828.924   162919016.203         723.479          38.000  
C35  25940611.964   135079578.053         298.880          39.000                                                                  
C13  38452340.089   200231431.925       -2282.800          40.000    38452333.825   154831621.243       -1765.400          42.000  
C12  26366416.112   137296873.238        2319.892          34.000    26366413.072   106166648.406        1793.824          45.000  
G25  24545756.987   128988826.775       -3919.081          34.000    24545752.747   100510737.941       -3054.012          36.000  
> 2025 10 30 06 23 33.4800000  0 23                     
G32  22133910.351   116314480.159       -3000.446          44.000    22133904.743    90634623.991       -2338.077          43.000  
G29  23097099.734   121376093.334        -710.969          41.000    23097091.485    94578744.167        -553.669          40.000  
G28  21299170.643   111927898.052       -1233.999          45.000    21299160.145    87216503.164        -961.791          46.000  
G26  20319935.696   106781984.780         580.212          48.000    20319929.228    83206723.034         452.143          46.000  
G31  20618333.233   108350067.752          99.219          47.000    20618322.079    84428583.313          77.196          45.000  
G04  24370487.746   128067757.371        3164.750          36.000    24370484.207    99793086.733        2466.439          41.000  
C33  22533541.303   117338056.953        -812.553          50.000                                                                  
C06  36579203.844   190477512.999        -153.580          46.000    36579185.983   147289224.783        -118.501          48.000  
C14  22760445.717   118519597.569       -2346.453          46.000    22760431.158    91646816.840       -1814.438          50.000  
C16  37008264.098   192711739.516        -182.582          47.000    37008251.888   149016893.787        -141.107          48.000  
C24  21876643.873   113917431.965        -908.005          50.000                                                                  
C26  24528039.459   127723939.675       -2571.189          43.000                                                                  
G03  22895538.976   120316892.972        -250.240          40.000    22895535.112    93753386.903        -195.048          41.000  
G16  22317232.453   117277922.301        2913.624          42.000                                                                  
C09  37730267.066   196471379.618        -141.962          43.000    37730252.777   151924095.295        -109.838          48.000  
C25  23588625.630   122832177.040        1534.484          44.000                                                                  
C08  39289440.002   204590397.757       -2471.775          37.000    39289428.263   158202246.393       -1911.150          41.000  
C07  39517742.163   205779240.229        1118.396          36.000    39517731.391   159121523.394         864.630          40.000  
C10  40460821.161   210690145.171         936.012          34.000    40460821.729   162918987.252         723.611          38.000  
C35  25940609.656   135079566.091         298.833          39.000                                                                  
C13  38452357.593   200231523.250       -2283.047          40.000    38452351.379   154831691.853       -1765.295          42.000  
C12  26366398.328   137296780.435        2319.926          34.000    26366395.251   106166576.656        1793.774          45.000  
G25  24545786.825   128988983.539       -3919.153          34.000    24545782.574   100510860.087       -3053.851          36.000  
> 2025 10 30 06 23 33.5200000  0 23                     
G32  22133933.189   116314600.175       -3000.384          44.000    22133927.602    90634717.522       -2338.209          43.000  
G29  23097105.146   121376121.751        -710.703          41.000    23097096.892    94578766.304        -553.514          40.000  
G28  21299180.052   111927947.432       -1234.316          45.000    21299169.541    87216541.636        -961.810          46.000  
G26  20319931.285   106781961.573         580.206          48.000    20319924.797    83206704.948         452.161          46.000  
G31  20618332.467   108350063.784          99.206          47.000    20618321.308    84428580.214          77.400          45.000  
G04  24370463.636   128067630.752        3165.223          36.000    24370460.114    99792988.078        2466.438          41.000  
C33  22533547.550   117338089.454        -812.578          50.000                                                                  
C06  36579205.030   190477519.130        -153.398          46.000    36579187.198   147289229.528        -118.590          48.000  
C14  22760463.714   118519691.412       -2346.211          46.000    22760449.184    91646889.418       -1814.492          50.000  
C16  37008265.479   192711746.806        -182.368          47.000    37008253.301   149016899.434        -141.183          48.000  
C24  21876650.812   113917468.287        -908.050          50.000                                                                  
C26  24528059.222   127724042.497       -2570.848          43.000                                                                  
G03  22895540.846   120316902.966        -249.963          40.000    22895537.019    93753394.690        -194.795          41.000  
G16  22317210.282   117277805.753        2913.654          42.000                                                                  
C09  37730268.172   196471385.290        -141.871          43.000    37730253.864   151924099.675        -109.608          48.000  
C25  23588613.857   122832115.662        1534.428          44.000                                                                  
C08  39289459.026   204590496.647       -2472.039          37.000    39289447.236   158202322.850       -1911.243          41.000  
C07  39517733.556   205779195.506        1118.290          36.000    39517722.792   159121488.802         864.761          40.000  
C10  40460813.977   210690107.711         936.307          34.000    40460814.558   162918958.301         723.741          38.000  
C35  25940607.371   135079554.133         298.825          39.000                                                                  
C13  38452375.141   200231614.561       -2282.873          40.000    38452368.913   154831762.461       -1765.222          42.000  
C12  26366380.499   137296687.644        2319.764          35.000    26366377.431   106166504.900        1793.867          45.000  
G25  24545816.651   128989140.311       -3919.210          34.000    24545812.400   100510982.232       -3053.783          36.000  
> 2025 10 30 06 23 33.5600000  0 23                     
G32  22133956.037   116314720.201       -3000.543          44.000    22133950.443    90634811.039       -2338.059          43.000  
G29  23097110.558   121376150.158        -710.341          41.000    23097102.283    94578788.442        -553.453          40.000  
G28  21299189.450   111927996.801       -1234.313          45.000    21299178.922    87216580.099        -961.671          46.000  
G26  20319926.848   106781938.365         580.187          48.000    20319920.389    83206686.865         452.073          46.000  
G31  20618331.698   108350059.810          99.323          47.000    20618320.539    84428577.118          77.418          45.000  
G04  24370439.540   128067504.147        3165.171          36.000    24370436.019    99792889.434        2466.187          41.000  
C33  22533553.818   117338121.946        -812.374          50.000                                                                  
C06  36579206.204   190477525.252        -153.146          46.000    36579188.400   147289234.269        -118.564          48.000  
C14  22760481.739   118519785.249       -2345.999          46.000    22760467.233    91646961.989       -1814.408          50.000  
C16  37008266.872   192711754.094        -182.241          47.000    37008254.682   149016905.078        -141.162          48.000  
C24  21876657.796   113917504.609        -908.075          50.000                                                                  
C26  24528078.971   127724145.318       -2570.642          43.000                                                                  
G03  22895542.745   120316912.977        -250.174          40.000    22895538.929    93753402.499        -195.106          41.000  
G16  22317188.086   117277689.188        2913.970          42.000                                                                  
C09  37730269.284   196471390.958        -141.758          43.000    37730254.953   151924104.056        -109.529          48.000  
C25  23588602.038   122832054.280        1534.509          44.000                                                                  
C08  39289477.971   204590595.504       -2471.592          37.000    39289466.226   158202399.299       -1911.189          41.000  
C07  39517724.992   205779150.742        1118.903          36.000    39517714.189   159121454.203         864.933          40.000  
C10  40460806.830   210690070.268         936.285          34.000    40460807.371   162918929.355         723.714          38.000  
C35  25940605.092   135079542.151         299.358          39.000                                                                  
C13  38452392.680   200231705.881       -2282.979          40.000    38452386.474   154831833.072       -1765.259          42.000  
C12  26366362.687   137296594.864        2319.511          35.000    26366359.626   106166433.149        1793.810          45.000  
G25  24545846.437   128989297.032       -3918.445          34.000    24545842.226   100511104.374       -3053.695          36.000  
> 2025 10 30 06 23 33.6000000  0 23                     
G32  22133978.872   116314840.223       -3000.587          44.000    22133973.288    90634904.562       -2338.055          43.000  
G29  23097115.984   121376178.571        -710.268          41.000    23097107.685    94578810.579        -553.430          40.000  
G28  21299198.824   111928046.168       -1234.280          45.000    21299188.295    87216618.560        -961.572          46.000  
G26  20319922.431   106781915.156         580.212          48.000    20319916.001    83206668.779         452.092          46.000  
G31  20618330.918   108350055.843          99.212          47.000    20618319.778    84428574.025          77.374          45.000  
G04  24370415.457   128067377.544        3165.101          36.000    24370411.921    99792790.780        2466.251          41.000  
C33  22533560.033   117338154.443        -812.383          50.000                                                                  
C06  36579207.370   190477531.375        -153.043          46.000    36579189.574   147289239.010        -118.558          48.000  
C14  22760499.732   118519879.103       -2346.200          46.000    22760485.282    91647034.562       -1814.389          50.000  
C16  37008268.254   192711761.386        -182.247          47.000    37008256.099   149016910.716        -141.011          48.000  
C24  21876664.805   113917540.923        -907.923          50.000                                                                  
C26  24528098.713   127724248.134       -2570.439          43.000                                                                  
G03  22895544.648   120316922.989        -250.293          40.000    22895540.840    93753410.300        -195.105          41.000  
G16  22317165.907   117277572.631        2914.010          42.000                                                                  
C09  37730270.375   196471396.622        -141.673          43.000    37730256.036   151924108.441        -109.589          48.000  
C25  23588590.240   122831992.897        1534.521          44.000                                                                  
C08  39289496.944   204590694.380       -2471.759          37.000    39289485.229   158202475.754       -1911.252          41.000  
C07  39517716.395   205779106.008        1118.657          36.000    39517705.613   159121419.626         864.589          40.000  
C10  40460799.653   210690032.846         935.805          34.000    40460800.183   162918900.425         723.373          38.000  
C35  25940602.790   135079530.157         299.805          39.000                                                                  
C13  38452410.218   200231797.190       -2282.799          40.000    38452404.017   154831903.685       -1765.302          42.000  
C12  26366344.873   137296502.065        2319.775          35.000    26366341.797   106166361.390        1793.909          45.000  
G25  24545876.260   128989453.753       -3918.108          34.000    24545872.065   100511226.519       -3053.650          36.000  
> 2025 10 30 06 23 33.6400000  0 23                     
G32  22134001.712   116314960.249       -3000.650          44.000    22133996.153    90634998.088       -2338.148          43.000  
G29  23097121.391   121376206.989        -710.370          41.000    23097113.101    94578832.730        -553.711          40.000  
G28  21299208.244   111928095.541       -1234.336          45.000    21299197.686    87216657.030        -961.709          46.000  
G26  20319918.018   106781891.953         580.099          48.000    20319911.578    83206650.701         451.923          46.000  
G31  20618330.180   108350051.872          99.243          47.000    20618319.053    84428570.939          77.208          45.000  
G04  24370391.363   128067250.930        3165.245          36.000    24370387.834    99792692.131        2466.185          41.000  
C33  22533566.225   117338186.948        -812.569          50.000                                                                  
C06  36579208.568   190477537.505        -153.142          45.000    36579190.732   147289243.753        -118.590          48.000  
C14  22760517.763   118519972.966       -2346.505          46.000    22760503.318    91647107.130       -1814.275          50.000  
C16  37008269.621   192711768.687        -182.430          47.000    37008257.478   149016916.351        -140.912          48.000  
C24  21876671.787   113917577.244        -907.979          50.000                                                                  
C26  24528118.418   127724350.954       -2570.393          43.000                                                                  
G03  22895546.531   120316932.990        -250.146          39.000    22895542.737    93753418.091        -194.947          41.000  
G16  22317143.732   117277456.078        2913.909          42.000                                                                  
C09  37730271.448   196471402.287        -141.650          43.000    37730257.113   151924112.833        -109.755          48.000  
C25  23588578.435   122831931.513        1534.558          44.000                                                                  
C08  39289515.932   204590793.256       -2471.918          37.000    39289504.198   158202552.216       -1911.466          41.000  
C07  39517707.809   205779061.292        1118.252          36.000    39517697.045   159121385.032         864.718          40.000  
C10  40460792.497   210689995.426         935.470          34.000    40460793.004   162918871.475         723.543          38.000  
C35  25940600.491   135079518.182         299.699          39.000                                                                  
C13  38452427.774   200231888.512       -2282.929          40.000    38452421.549   154831974.280       -1764.994          42.000  
C12  26366327.067   137296409.289        2319.514          35.000    26366323.992   106166289.630        1793.958          45.000  
G25  24545906.094   128989610.519       -3918.771          34.000    24545901.888   100511348.650       -3053.404          36.000  
> 2025 10 30 06 23 33.6800000  0 23                     
G32  22134024.543   116315080.276       -3000.707          44.000    22134018.981    90635091.615       -2338.184          43.000  
G29  23097126.795   121376235.406        -710.376          41.000    23097118.514    94578854.875        -553.702          40.000  
G28  21299217.635   111928144.914       -1234.332          44.000    21299207.080    87216695.507        -961.863          46.000  
G26  20319913.624   106781868.747         580.094          47.000    20319907.156    83206632.624         451.882          46.000  
G31  20618329.438   108350047.906          99.163          47.000    20618318.299    84428567.850          77.152          45.000  
G04  24370367.284   128067124.325        3165.147          36.000    24370363.742    99792593.497        2465.900          41.000  
C33  22533572.477   117338219.452        -812.649          50.000                                                                  
C06  36579209.746   190477543.646        -153.417          45.000    36579191.918   147289248.490        -118.478          48.000  
C14  22760535.795   118520066.824       -2346.550          46.000    22760521.366    91647179.699       -1814.225          50.000  
C16  37008271.011   192711775.981        -182.402          47.000    37008258.856   149016921.985        -140.859          48.000  
C24  21876678.774   113917613.562        -907.947          50.000                                                                  
C26  24528138.152   127724453.788       -2570.685          43.000                                                                  
G03  22895548.417   120316942.992        -250.110          39.000    22895544.655    93753425.883        -194.854          41.000  
G16  22317121.565   117277339.527        2913.813          42.000                                                                  
C09  37730272.518   196471407.970        -141.955          43.000    37730258.235   151924117.216        -109.651          48.000  
C25  23588566.664   122831870.122        1534.712          44.000                                                                  
C08  39289534.920   204590892.128       -2471.848          37.000    39289523.173   158202628.667       -1911.368          41.000  
C07  39517699.195   205779016.565        1118.143          36.000    39517688.456   159121350.440         864.801          40.000  
C10  40460785.304   210689957.993         935.609          34.000    40460785.840   162918842.538         723.550          38.000  
C35  25940598.185   135079506.224         299.230          39.000                                                                  
C13  38452445.321   200231979.812       -2282.658          40.000    38452439.105   154832044.892       -1765.162          42.000  
C12  26366309.253   137296316.455        2320.493          35.000    26366306.178   106166217.879        1793.833          45.000  
G25  24545935.937   128989767.308       -3919.637          34.000    24545931.721   100511470.804       -3053.707          36.000  
> 2025 10 30 06 23 33.7200000  0 23                     
G32  22134047.382   116315200.298       -3000.659          44.000    22134041.837    90635185.143       -2338.173          43.000  
G29  23097132.197   121376263.832        -710.588          41.000    23097123.931    94578877.036        -553.982          40.000  
G28  21299227.022   111928194.275       -1234.149          44.000    21299216.466    87216733.970        -961.680          46.000  
G26  20319909.196   106781845.540         580.144          47.000    20319902.722    83206614.541         451.983          46.000  
G31  20618328.675   108350043.928          99.304          47.000    20618317.550    84428564.748          77.424          45.000  
G04  24370343.179   128066997.699        3165.428          36.000    24370339.636    99792494.823        2466.489          41.000  
C33  22533578.726   117338251.955        -812.646          50.000                                                                  
C06  36579210.944   190477549.770        -153.242          45.000    36579193.078   147289253.224        -118.383          48.000  
C14  22760553.839   118520160.673       -2346.395          46.000    22760539.382    91647252.271       -1814.291          50.000  
C16  37008272.410   192711783.268        -182.225          47.000    37008260.230   149016927.620        -140.856          48.000  
C24  21876685.740   113917649.878        -907.916          50.000                                                                  
C26  24528157.886   127724556.627       -2570.909          43.000                                                                  
G03  22895550.329   120316953.014        -250.450          39.000    22895546.558    93753433.676        -194.849          41.000  
G16  22317099.370   117277222.973        2913.828          42.000                                                                  
C09  37730273.612   196471413.635        -141.819          43.000    37730259.320   151924121.600        -109.620          48.000  
C25  23588554.858   122831808.742        1534.588          44.000                                                                  
C08  39289553.896   204590990.980       -2471.445          37.000    39289542.162   158202705.122       -1911.437          41.000  
C07  39517690.611   205778971.824        1118.326          36.000    39517679.873   159121315.844         864.911          40.000  
C10  40460778.141   210689920.557         935.746          34.000    40460778.641   162918813.576         723.931          38.000  
C35  25940595.890   135079494.278         298.710          39.000                                                                  
C13  38452462.843   200232071.131       -2282.869          40.000    38452456.628   154832115.502       -1765.254          42.000  
C12  26366291.442   137296223.664        2320.094          35.000    26366288.348   106166146.115        1794.008          45.000  
G25  24545965.797   128989924.087       -3919.772          34.000    24545961.537   100511592.939       -3053.477          36.000  
> 2025 10 30 06 23 33.7600000  0 23                     
G32  22134070.230   116315320.317       -3000.582          44.000    22134064.681    90635278.664       -2338.063          43.000  
G29  23097137.612   121376292.248        -710.486          41.000    23097129.339    94578899.166        -553.587          40.000  
G28  21299236.390   111928243.631       -1233.964          44.000    21299225.885    87216772.437        -961.682          46.000  
G26  20319904.767   106781822.334         580.132          47.000    20319898.292    83206596.458         452.064          46.000  
G31  20618327.923   108350039.957          99.292          47.000    20618316.795    84428561.648          77.498          45.000  
G04  24370319.077   128066871.106        3165.021          36.000    24370315.533    99792396.159        2466.587          41.000  
C33  22533584.998   117338284.448        -812.436          50.000                                                                  
C06  36579212.104   190477555.898        -153.224          45.000    36579194.235   147289257.962        -118.407          48.000  
C14  22760571.857   118520254.517       -2346.192          46.000    22760557.398    91647324.846       -1814.360          50.000  
C16  37008273.845   192711790.558        -182.210          47.000    37008261.610   149016933.259        -140.962          48.000  
C24  21876692.675   113917686.204        -908.081          50.000                                                                  
C26  24528177.638   127724659.435       -2570.466          43.000                                                                  
G03  22895552.230   120316963.016        -250.259          39.000    22895548.468    93753441.484        -195.133          41.000  
G16  22317077.199   117277106.421        2913.816          42.000                                                                  
C09  37730274.704   196471419.308        -141.864          43.000    37730260.408   151924125.973        -109.417          48.000  
C25  23588543.049   122831747.361        1534.539          44.000                                                                  
C08  39289572.882   204591089.867       -2471.855          37.000    39289561.150   158202781.555       -1911.027          41.000  
C07  39517682.028   205778927.066        1118.853          36.000    39517671.292   159121281.247         864.962          40.000  
C10  40460770.953   210689883.102         936.227          34.000    40460771.445   162918784.601         724.264          38.000  
C35  25940593.581   135079482.301         299.049          39.000                                                                  
C13  38452480.374   200232162.441       -2282.770          40.000    38452474.173   154832186.113       -1765.291          42.000  
C12  26366273.611   137296130.873        2319.818          35.000    26366270.533   106166074.347        1794.144          45.000  
G25  24545995.608   128990080.806       -3918.783          34.000    24545991.387   100511715.099       -3053.807          36.000  
> 2025 10 30 06 23 33.8000000  0 23                     
G32  22134093.095   116315440.340       -3000.590          44.000    22134087.513    90635372.184       -2338.036          43.000  
G29  23097143.027   121376320.678        -710.679          41.000    23097134.737    94578921.300        -553.440          40.000  
G28  21299245.785   111928292.998       -1234.077          44.000    21299235.296    87216810.907        -961.744          46.000  
G26  20319900.358   106781799.126         580.163          47.000    20319893.884    83206578.373         452.119          46.000  
G31  20618327.199   108350035.991          99.162          47.000    20618316.053    84428558.551          77.478          45.000  
G04  24370294.989   128066744.511        3164.830          36.000    24370291.438    99792297.500        2466.561          41.000  
C33  22533591.223   117338316.947        -812.444          50.000                                                                  
C06  36579213.271   190477562.031        -153.302          45.000    36579195.431   147289262.703        -118.508          48.000  
C14  22760589.903   118520348.362       -2346.099          46.000    22760575.411    91647397.417       -1814.347          50.000  
C16  37008275.260   192711797.847        -182.226          47.000    37008263.005   149016938.895        -140.941          48.000  
C24  21876699.688   113917722.519        -907.988          50.000                                                                  
C26  24528197.377   127724762.255       -2570.449          43.000                                                                  
G03  22895554.142   120316973.023        -250.267          39.000    22895550.401    93753449.284        -195.111          41.000  
G16  22317055.002   117276989.873        2913.698          42.000                                                                  
C09  37730275.789   196471424.972        -141.677          43.000    37730261.513   151924130.353        -109.447          48.000  
C25  23588531.253   122831685.971        1534.656          44.000                                                                  
C08  39289591.877   204591188.748       -2472.054          37.000    39289580.128   158202858.001       -1911.050          41.000  
C07  39517673.415   205778882.316        1118.884          36.000    39517662.703   159121246.644         865.043          40.000  
C10  40460763.766   210689845.625         936.832          34.000    40460764.239   162918755.650         724.006          38.000  
C35  25940591.261   135079470.331         299.170          39.000                                                                  
C13  38452497.890   200232253.744       -2282.603          40.000    38452491.693   154832256.716       -1765.198          42.000  
C12  26366255.793   137296038.069        2319.938          35.000    26366252.719   106166002.591        1793.999          45.000  
G25  24546025.438   128990237.557       -3918.665          34.000    24546021.226   100511837.253       -3053.887          36.000  
> 2025 10 30 06 23 33.8400000  0 23                     
G32  22134115.947   116315560.367       -3000.680          44.000    22134110.345    90635465.714       -2338.194          43.000  
G29  23097148.437   121376349.094        -710.503          41.000    23097140.149    94578943.453        -553.722          40.000  
G28  21299255.179   111928342.367       -1234.197          44.000    21299244.684    87216849.375        -961.743          46.000  
G26  20319895.955   106781775.928         579.982          47.000    20319889.471    83206560.295         452.025          46.000  
G31  20618326.452   108350032.022          99.131          47.000    20618315.309    84428555.466          77.244          45.000  
G04  24370270.906   128066617.902        3164.861          36.000    24370267.345    99792198.845        2466.451          41.000  
C33  22533597.413   117338349.451        -812.567          50.000                                                                  
C06  36579214.423   190477568.159        -153.248          45.000    36579196.595   147289267.446        -118.597          48.000  
C14  22760607.910   118520442.219       -2346.306          46.000    22760593.417    91647469.991       -1814.359          50.000  
C16  37008276.654   192711805.143        -182.344          47.000    37008264.404   149016944.546        -141.219          48.000  
C24  21876706.646   113917758.840        -908.033          50.000                                                                  
C26  24528217.106   127724865.085       -2570.675          43.000                                                                  
G03  22895556.050   120316983.044        -250.498          39.000    22895552.311    93753457.088        -195.153          41.000  
G16  22317032.848   117276873.326        2913.592          42.000                                                                  
C09  37730276.908   196471430.638        -141.654          43.000    37730262.602   151924134.737        -109.549          48.000  
C25  23588519.454   122831624.593        1534.495          44.000                                                                  
C08  39289610.886   204591287.621       -2471.993          37.000    39289599.099   158202934.463       -1911.362          41.000  
C07  39517664.837   205778837.586        1118.577          36.000    39517654.091   159121212.058         864.801          40.000  
C10  40460756.564   210689808.199         936.217          34.000    40460757.043   162918726.737         723.038          38.000  
C35  25940588.957   135079458.368         299.100          39.000                                                                  
C13  38452515.425   200232345.067       -2282.943          40.000    38452509.236   154832327.330       -1765.322          42.000  
C12  26366237.956   137295945.273        2319.813          35.000    26366234.892   106165930.834        1793.924          45.000  
G25  24546055.250   128990394.305       -3918.728          34.000    24546051.056   100511959.404       -3053.820          36.000  
> 2025 10 30 06 23 33.8800000  0 23                     
G32  22134138.787   116315680.404       -3000.884          44.000    22134133.194    90635559.245       -2338.259          43.000  
G29  23097153.825   121376377.518        -710.630          41.000    23097145.563    94578965.615        -554.000          40.000  
G28  21299264.582   111928391.743       -1234.363          44.000    21299254.092    87216887.845        -961.760          46.000  
G26  20319891.541   106781752.728         579.947          47.000    20319885.057    83206542.218         451.912          46.000  
G31  20618325.695   108350028.061          99.009          47.000    20618314.584    84428552.390          76.930          45.000  
G04  24370246.847   128066491.285        3165.184          36.000    24370243.245    99792100.202        2466.167          41.000  
C33  22533603.637   117338381.959        -812.705          50.000                                                                  
C06  36579215.615   190477574.295        -153.333          45.000    36579197.751   147289272.198        -118.790          48.000  
C14  22760625.926   118520536.089       -2346.673          46.000    22760611.433    91647542.570       -1814.492          50.000  
C16  37008278.033   192711812.440        -182.432          47.000    37008265.794   149016950.183        -141.095          48.000  
C24  21876713.631   113917795.162        -908.057          50.000                                                                  
C26  24528236.837   127724967.917       -2570.851          43.000                                                                  
G03  22895557.950   120316993.061        -250.500          39.000    22895554.204    93753464.891        -195.120          41.000  
G16  22317010.694   117276756.786        2913.495          42.000                                                                  
C09  37730277.987   196471436.310        -141.752          43.000    37730263.725   151924139.132        -109.808          48.000  
C25  23588507.687   122831563.209        1534.539          44.000                                                                  
C08  39289629.871   204591386.505       -2472.119          37.000    39289618.086   158203010.922       -1911.498          41.000  
C07  39517656.243   205778792.862        1118.198          36.000    39517645.492   159121177.488         864.370          40.000  
C10  40460749.348   210689770.766         935.916          34.000    40460749.852   162918697.785         723.326          38.000  
C35  25940586.645   135079446.412         298.937          39.000                                                                  
C13  38452532.967   200232436.386       -2283.035          40.000    38452526.758   154832397.947       -1765.438          42.000  
C12  26366220.141   137295852.492        2319.509          35.000    26366217.066   106165859.087        1793.739          45.000  
G25  24546085.079   128990551.061       -3918.836          34.000    24546080.877   100512081.521       -3053.221          36.000  
> 2025 10 30 06 23 33.9200000  0 23                     
G32  22134161.645   116315800.436       -3000.904          44.000    22134156.024    90635652.776       -2338.303          43.000  
G29  23097159.252   121376405.944        -710.710          41.000    23097150.957    94578987.753        -553.680          40.000  
G28  21299273.982   111928441.123       -1234.515          44.000    21299263.501    87216926.322        -961.885          46.000  
G26  20319887.130   106781729.533         579.879          47.000    20319880.638    83206524.145         451.808          46.000  
G31  20618324.937   108350024.097          99.022          47.000    20618313.824    84428549.296          77.148          45.000  
G04  24370222.756   128066364.706        3164.764          36.000    24370219.143    99792001.558        2466.038          41.000  
C33  22533609.831   117338414.474        -812.899          50.000                                                                  
C06  36579216.778   190477580.424        -153.251          45.000    36579198.936   147289276.931        -118.534          48.000  
C14  22760643.939   118520629.947       -2346.624          46.000    22760629.472    91647615.149       -1814.541          50.000  
C16  37008279.430   192711819.739        -182.507          47.000    37008267.186   149016955.825        -141.081          48.000  
C24  21876720.617   113917831.485        -908.095          50.000                                                                  
C26  24528256.573   127725070.743       -2570.803          43.000                                                                  
G03  22895559.878   120317003.079        -250.453          39.000    22895556.114    93753472.699        -195.182          41.000  
G16  22316988.527   117276640.228        2913.788          42.000                                                                  
C09  37730279.064   196471441.984        -141.866          43.000    37730264.804   151924143.520        -109.785          48.000  
C25  23588495.939   122831501.825        1534.570          44.000                                                                  
C08  39289648.867   204591485.375       -2471.924          37.000    39289637.043   158203087.384       -1911.628          41.000  
C07  39517647.656   205778748.133        1118.104          36.000    39517636.897   159121142.910         864.249          40.000  
C10  40460742.150   210689733.338         935.570          34.000    40460742.645   162918668.826         723.671          38.000  
C35  25940584.352   135079434.428         299.404          39.000                                                                  
C13  38452550.516   200232527.709       -2283.133          40.000    38452544.293   154832468.566       -1765.511          42.000  
C12  26366202.324   137295759.699        2319.688          35.000    26366199.233   106165787.334        1793.734          45.000  
G25  24546114.885   128990707.845       -3919.559          34.000    24546110.703   100512203.667       -3053.453          36.000  
> 2025 10 30 06 23 33.9600000  0 23                     
G32  22134184.465   116315920.465       -3000.823          44.000    22134178.869    90635746.297       -2338.165          43.000  
G29  23097164.647   121376434.367        -710.658          41.000    23097156.358    94579009.909        -553.823          40.000  
G28  21299283.375   111928490.494       -1234.421          44.000    21299272.902    87216964.795        -961.895          46.000  
G26  20319882.678   106781706.336         579.881          47.000    20319876.187    83206506.068         451.829          46.000  
G31  20618324.161   108350020.132          99.059          47.000    20618313.070    84428546.205          77.209          45.000  
G04  24370198.654   128066238.108        3164.819          36.000    24370195.047    99791902.903        2466.200          41.000  
C33  22533616.078   117338446.984        -812.861          50.000                                                                  
C06  36579217.961   190477586.551        -153.208          45.000    36579200.097   147289281.668        -118.438          48.000  
C14  22760661.969   118520723.801       -2346.479          46.000    22760647.475    91647687.728       -1814.557          50.000  
C16  37008280.848   192711827.033        -182.431          47.000    37008268.623   149016961.470        -141.133          48.000  
C24  21876727.620   113917867.803        -908.021          50.000                                                                  
C26  24528276.320   127725173.573       -2570.820          43.000                                                                  
G03  22895561.782   120317013.088        -250.276          39.000    22895558.003    93753480.502        -195.125          41.000  
G16  22316966.363   117276523.680        2913.759          42.000                                                                  
C09  37730280.140   196471447.655        -141.864          43.000    37730265.901   151924147.904        -109.688          48.000  
C25  23588484.131   122831440.444        1534.521          44.000                                                                  
C08  39289667.834   204591584.233       -2471.495          37.000    39289655.994   158203163.843       -1911.571          42.000  
C07  39517639.082   205778703.423        1117.744          36.000    39517628.292   159121108.317         864.553          40.000  
C10  40460734.915   210689695.893         935.751          34.000    40460735.460   162918639.877         723.720          38.000  
C35  25940582.059   135079422.474         299.036          39.000                                                                  
C13  38452568.044   200232619.027       -2283.101          40.000    38452561.798   154832539.175       -1765.363          42.000  
C12  26366184.483   137295666.902        2319.832          35.000    26366181.404   106165715.578        1793.848          46.000  
G25  24546144.725   128990864.638       -3920.103          34.000    24546140.538   100512325.829       -3053.926          36.000  
> 2025 10 30 06 23 34.0000000  0 23                     
G32  22134207.302   116316040.495       -3000.796          44.000    22134201.732    90635839.836       -2338.415          43.000  
G29  23097170.062   121376462.792        -710.652          41.000    23097161.763    94579032.062        -553.847          40.000  
G28  21299292.757   111928539.866       -1234.380          45.000    21299282.300    87217003.262        -961.773          46.000  
G26  20319878.254   106781683.134         579.968          48.000    20319871.767    83206487.986         451.985          46.000  
G31  20618323.402   108350016.166          99.096          47.000    20618312.292    84428543.114          77.208          45.000  
G04  24370174.551   128066111.472        3165.559          36.000    24370170.956    99791804.241        2466.402          41.000  
C33  22533622.327   117338479.486        -812.688          50.000                                                                  
C06  36579219.099   190477592.683        -153.290          45.000    36579201.281   147289286.404        -118.404          48.000  
C14  22760679.993   118520817.652       -2346.353          46.000    22760665.497    91647760.312       -1814.632          50.000  
C16  37008282.217   192711834.319        -182.223          47.000    37008270.044   149016967.102        -140.939          48.000  
C24  21876734.623   113917904.127        -908.073          50.000                                                                  
C26  24528296.087   127725276.405       -2570.841          43.000                                                                  
G03  22895563.680   120317023.108        -250.417          39.000    22895559.887    93753488.290        -194.804          41.000  
G16  22316944.171   117276407.125        2913.840          42.000                                                                  
C09  37730281.230   196471453.320        -141.736          43.000    37730266.996   151924152.284        -109.575          48.000  
C25  23588472.338   122831379.064        1534.459          44.000                                                                  
C08  39289686.814   204591683.089       -2471.335          37.000    39289674.954   158203240.288       -1911.320          42.000  
C07  39517630.489   205778658.678        1118.115          36.000    39517619.687   159121073.707         865.033          40.000  
C10  40460727.770   210689658.485         935.175          34.000    40460728.261   162918610.941         723.482          38.000  
C35  25940579.735   135079410.515         298.963          39.000                                                                  
C13  38452585.581   200232710.333       -2282.805          40.000    38452579.319   154832609.778       -1765.234          42.000  
C12  26366166.645   137295574.101        2319.935          35.000    26366163.578   106165643.815        1794.021          46.000  
G25  24546174.590   128991021.356       -3918.812          34.000    24546170.358   100512447.969       -3053.721          36.000  
> 2025 10 30 06 23 34.0400000  0 23                     
G32  22134230.132   116316160.521       -3000.685          44.000    22134224.579    90635933.358       -2338.193          43.000  
G29  23097175.491   121376491.215        -710.640          41.000    23097167.162    94579054.213        -553.854          40.000  
G28  21299302.133   111928589.235       -1234.281          45.000    21299291.664    87217041.725        -961.630          46.000  
G26  20319873.816   106781659.931         580.030          48.000    20319867.362    83206469.908         451.984          46.000  
G31  20618322.672   108350012.199          99.152          47.000    20618311.531    84428540.021          77.245          45.000  
G04  24370150.465   128065984.862        3165.481          36.000    24370146.866    99791705.587        2466.367          41.000  
C33  22533628.585   117338511.995        -812.695          50.000                                                                  
C06  36579220.246   190477598.810        -153.224          45.000    36579202.456   147289291.142        -118.406          48.000  
C14  22760698.004   118520911.509       -2346.400          46.000    22760683.516    91647832.889       -1814.542          50.000  
C16  37008283.607   192711841.609        -182.189          47.000    37008271.461   149016972.735        -140.844          48.000  
C24  21876741.597   113917940.449        -908.074          50.000                                                                  
C26  24528315.826   127725379.229       -2570.707          43.000                                                                  
G03  22895565.573   120317033.118        -250.362          39.000    22895561.796    93753496.089        -194.871          41.000  
G16  22316921.988   117276290.577        2913.741          42.000                                                                  
C09  37730282.320   196471458.987        -141.693          43.000    37730268.085   151924156.660        -109.456          48.000  
C25  23588460.563   122831317.688        1534.367          44.000                                                                  
C08  39289705.814   204591781.943       -2471.288          37.000    39289693.961   158203316.750       -1911.456          42.000  
C07  39517621.935   205778613.959        1117.950          36.000    39517611.076   159121039.111         865.068          40.000  
C10  40460720.575   210689621.026         935.927          34.000    40460721.098   162918581.993         723.552          38.000  
C35  25940577.433   135079398.553         298.970          39.000                                                                  
C13  38452603.116   200232801.652       -2282.898          40.000    38452596.850   154832680.386       -1765.216          42.000  
C12  26366148.816   137295481.291        2320.101          35.000    26366145.783   106165572.055        1793.994          46.000  
G25  24546204.430   128991178.067       -3917.936          34.000    24546200.189   100512570.119       -3053.771          36.000  
> 2025 10 30 06 23 34.0800000  0 23                     
G32  22134252.984   116316280.554       -3000.751          45.000    22134247.444    90636026.892       -2338.306          43.000  
G29  23097180.920   121376519.649        -710.833          41.000    23097172.580    94579076.365        -553.841          40.000  
G28  21299311.520   111928638.603       -1234.219          45.000    21299301.052    87217080.193        -961.663          46.000  
G26  20319869.412   106781636.732         579.966          48.000    20319862.957    83206451.830         451.952          46.000  
G31  20618321.933   108350008.233          99.158          47.000    20618310.787    84428536.939          77.091          45.000  
G04  24370126.393   128065858.253        3165.353          36.000    24370122.774    99791606.948        2466.077          41.000  
C33  22533634.842   117338544.499        -812.626          50.000                                                                  
C06  36579221.419   190477604.945        -153.355          45.000    36579203.647   147289295.883        -118.500          48.000  
C14  22760716.001   118521005.366       -2346.433          46.000    22760701.527    91647905.466       -1814.458          50.000  
C16  37008284.998   192711848.895        -182.161          47.000    37008272.881   149016978.379        -141.010          48.000  
C24  21876748.563   113917976.774        -908.140          50.000                                                                  
C26  24528335.594   127725482.051       -2570.599          43.000                                                                  
G03  22895567.475   120317043.151        -250.700          39.000    22895563.723    93753503.920        -195.519          41.000  
G16  22316899.793   117276174.034        2913.568          42.000                                                                  
C09  37730283.398   196471464.662        -141.807          43.000    37730269.156   151924161.047        -109.592          48.000  
C25  23588448.773   122831256.316        1534.262          44.000                                                                  
C08  39289724.785   204591880.827       -2471.824          37.000    39289712.960   158203393.192       -1911.193          42.000  
C07  39517613.353   205778569.197        1118.606          36.000    39517602.494   159121004.534         864.618          40.000  
C10  40460713.389   210689583.566         936.417          34.000    40460713.887   162918553.036         723.724          38.000  
C35  25940575.131   135079386.580         299.190          39.000                                                                  
C13  38452620.654   200232892.971       -2283.010          40.000    38452614.384   154832751.010       -1765.493          42.000  
C12  26366130.997   137295388.490        2320.043          36.000    26366127.933   106165500.295        1794.044          46.000  
G25  24546234.242   128991334.840       -3918.657          34.000    24546229.999   100512692.287       -3054.182          36.000  
> 2025 10 30 06 23 34.1200000  0 23                     
G32  22134275.839   116316400.591       -3000.881          45.000    22134270.264    90636120.418       -2338.241          43.000  
G29  23097186.326   121376548.083        -710.893          41.000    23097178.015    94579098.517        -553.815          40.000  
G28  21299320.916   111928687.972       -1234.242          45.000    21299310.458    87217118.670        -961.851          46.000  
G26  20319865.009   106781613.536         579.911          48.000    20319858.537    83206433.758         451.853          46.000  
G31  20618321.165   108350004.264          99.213          47.000    20618310.027    84428533.850          77.110          45.000  
G04  24370102.302   128065731.660        3165.002          36.000    24370098.685    99791508.300        2466.063          41.000  
C33  22533641.043   117338577.013        -812.780          50.000                                                                  
C06  36579222.613   190477611.077        -153.374          45.000    36579204.845   147289300.626        -118.563          48.000  
C14  22760734.021   118521099.237       -2346.725          46.000    22760719.543    91647978.041       -1814.396          50.000  
C16  37008286.374   192711856.191        -182.319          47.000    37008274.302   149016984.021        -141.074          48.000  
C24  21876755.533   113918013.098        -908.150          50.000                                                                  
C26  24528355.321   127725584.872       -2570.510          43.000                                                                  
G03  22895569.384   120317053.172        -250.634          39.000    22895565.643    93753511.736        -195.595          41.000  
G16  22316877.617   117276057.494        2913.470          42.000                                                                  
C09  37730284.495   196471470.334        -141.878          43.000    37730270.229   151924165.437        -109.744          48.000  
C25  23588436.983   122831194.936        1534.393          44.000                                                                  
C08  39289743.785   204591979.711       -2472.097          37.000    39289731.927   158203469.639       -1911.152          42.000  
C07  39517604.761   205778524.464        1118.539          36.000    39517593.925   159120969.938         864.731          40.000  
C10  40460706.216   210689546.121         936.301          34.000    40460706.719   162918524.085         723.756          38.000  
C35  25940572.854   135079374.624         299.014          39.000                                                                  
C13  38452638.190   200232984.286       -2282.954          40.000    38452631.923   154832821.630       -1765.567          42.000  
C12  26366113.160   137295295.698        2319.850          36.000    26366110.099   106165428.544        1793.831          46.000  
G25  24546264.066   128991491.623       -3919.197          34.000    24546259.833   100512814.412       -3053.590          36.000  
> 2025 10 30 06 23 34.1600000  0 23                     
G32  22134298.701   116316520.619       -3000.796          45.000    22134293.098    90636213.945       -2338.203          43.000  
G29  23097191.736   121376576.512        -710.798          41.000    23097183.424    94579120.682        -554.065          40.000  
G28  21299330.321   111928737.345       -1234.294          45.000    21299319.861    87217157.146        -961.945          46.000  
G26  20319860.594   106781590.339         579.861          48.000    20319854.121    83206415.682         451.834          46.000  
G31  20618320.398   108350000.299          99.176          47.000    20618309.272    84428530.758          77.190          45.000  
G04  24370078.218   128065605.051        3165.127          36.000    24370074.594    99791409.645        2466.191          41.000  
C33  22533647.275   117338609.528        -812.879          50.000                                                                  
C06  36579223.790   190477617.201        -153.234          45.000    36579206.021   147289305.379        -118.789          48.000  
C14  22760752.071   118521193.097       -2346.650          46.000    22760737.570    91648050.621       -1814.448          50.000  
C16  37008287.778   192711863.489        -182.440          47.000    37008275.699   149016989.660        -141.060          48.000  
C24  21876762.522   113918049.422        -908.141          50.000                                                                  
C26  24528375.059   127725687.694       -2570.494          43.000                                                                  
G03  22895571.281   120317063.181        -250.407          39.000    22895567.545    93753519.563        -195.740          41.000  
G16  22316855.423   117275940.955        2913.403          42.000                                                                  
C09  37730285.591   196471475.990        -141.552          43.000    37730271.322   151924169.824        -109.754          48.000  
C25  23588425.204   122831133.547        1534.664          44.000                                                                  
C08  39289762.788   204592078.587       -2472.090          37.000    39289750.938   158203546.093       -1911.228          42.000  
C07  39517596.190   205778479.759        1117.969          36.000    39517585.355   159120935.357         864.558          40.000  
C10  40460699.025   210689508.683         936.078          34.000    40460699.519   162918495.116         724.214          38.000  
C35  25940570.575   135079362.656         299.147          39.000                                                                  
C13  38452655.725   200233075.592       -2282.806          40.000    38452649.470   154832892.241       -1765.430          42.000  
C12  26366095.339   137295202.893        2319.944          36.000    26366092.288   106165356.793        1793.752          46.000  
G25  24546293.872   128991648.384       -3919.165          34.000    24546289.659   100512936.555       -3053.535          36.000  
> 2025 10 30 06 23 34.2000000  0 23                     
G32  22134321.561   116316640.649       -3000.756          45.000    22134315.957    90636307.482       -2338.378          43.000  
G29  23097197.148   121376604.943        -710.747          41.000    23097188.832    94579142.834        -553.919          40.000  
G28  21299339.734   111928786.723       -1234.413          45.000    21299329.252    87217195.623        -961.985          46.000  
G26  20319856.200   106781567.152         579.688          48.000    20319849.719    83206397.612         451.742          46.000  
G31  20618319.646   108349996.344          98.929          47.000    20618308.500    84428527.670          77.184          45.000  
G04  24370054.116   128065478.459        3164.912          36.000    24370050.486    99791310.974        2466.544          41.000  
C33  22533653.521   117338642.043        -812.921          50.000                                                                  
C06  36579224.969   190477623.329        -153.217          45.000    36579207.214   147289310.120        -118.658          48.000  
C14  22760770.143   118521286.965       -2346.724          46.000    22760755.592    91648123.203       -1814.531          50.000  
C16  37008289.182   192711870.785        -182.463          47.000    37008277.098   149016995.299        -141.025          48.000  
C24  21876769.485   113918085.754        -908.265          50.000                                                                  
C26  24528394.779   127725790.519       -2570.573          43.000                                                                  
G03  22895573.199   120317073.215        -250.716          39.000    22895569.451    93753527.371        -195.415          41.000  
G16  22316833.251   117275824.400        2913.688          42.000                                                                  
C09  37730286.670   196471481.664        -141.734          43.000    37730272.427   151924174.195        -109.442          48.000  
C25  23588413.401   122831072.167        1534.589          44.000                                                                  
C08  39289781.790   204592177.481       -2472.366          37.000    39289769.925   158203622.553       -1911.400          42.000  
C07  39517587.627   205778435.016        1118.336          36.000    39517576.769   159120900.766         864.647          40.000  
C10  40460691.857   210689471.256         935.786          34.000    40460692.294   162918466.183         723.759          37.000  
C35  25940568.287   135079350.694         299.064          39.000                                                                  
C13  38452673.272   200233166.919       -2283.053          40.000    38452666.976   154832962.845       -1765.190          42.000  
C12  26366077.515   137295110.100        2319.813          36.000    26366074.470   106165285.036        1793.859          46.000  
G25  24546323.698   128991805.106       -3918.479          34.000    24546319.485   100513058.710       -3053.831          36.000  
> 2025 10 30 06 23 34.2400000  0 23                     
G32  22134344.401   116316760.685       -3000.847          45.000    22134338.792    90636401.014       -2338.335          43.000  
G29  23097202.557   121376633.385        -710.928          41.000    23097194.244    94579165.003        -554.162          40.000  
G28  21299349.139   111928836.105       -1234.562          45.000    21299338.634    87217234.108        -962.131          46.000  
G26  20319851.765   106781543.966         579.597          48.000    20319845.320    83206379.549         451.563          46.000  
G31  20618318.913   108349992.388          98.837          47.000    20618307.758    84428524.584          77.154          45.000  
G04  24370030.028   128065351.884        3164.441          36.000    24370026.397    99791212.324        2466.400          41.000  
C33  22533659.752   117338674.565        -813.053          50.000                                                                  
C06  36579226.146   190477629.470        -153.440          45.000    36579208.387   147289314.861        -118.578          48.000  
C14  22760788.152   118521380.833       -2346.747          46.000    22760773.623    91648195.784       -1814.554          51.000  
C16  37008290.584   192711878.079        -182.434          47.000    37008278.482   149017000.946        -141.155          48.000  
C24  21876776.427   113918122.088        -908.399          50.000                                                                  
C26  24528414.549   127725893.355       -2570.801          43.000                                                                  
G03  22895575.133   120317083.247        -250.865          39.000    22895571.350    93753535.179        -195.259          41.000  
G16  22316811.056   117275707.857        2913.628          42.000                                                                  
C09  37730287.778   196471487.343        -141.942          43.000    37730273.504   151924178.584        -109.623          48.000  
C25  23588401.612   122831010.809        1534.126          44.000                                                                  
C08  39289800.761   204592276.332       -2471.693          37.000    39289788.880   158203699.021       -1911.667          42.000  
C07  39517579.038   205778390.280        1118.383          36.000    39517568.209   159120866.179         864.663          40.000  
C10  40460684.666   210689433.864         934.890          33.000    40460685.092   162918437.254         723.410          37.000  
C35  25940565.985   135079338.772         298.285          39.000                                                                  
C13  38452690.829   200233258.233       -2282.966          40.000    38452684.532   154833033.458       -1765.246          42.000  
C12  26366059.697   137295017.335        2319.186          36.000    26366056.636   106165213.286        1793.772          46.000  
G25  24546353.500   128991961.848       -3918.400          34.000    24546349.310   100513180.860       -3053.844          36.000  
> 2025 10 30 06 23 34.2800000  0 23                     
G32  22134367.229   116316880.727       -3001.048          45.000    22134361.630    90636494.548       -2338.393          43.000  
G29  23097207.976   121376661.818        -710.865          41.000    23097199.656    94579187.160        -554.073          40.000  
G28  21299358.547   111928885.484       -1234.581          45.000    21299348.043    87217272.581        -961.973          46.000  
G26  20319847.382   106781520.778         579.617          48.000    20319840.889    83206361.484         451.533          46.000  
G31  20618318.141   108349988.430          98.844          47.000    20618307.002    84428521.499          77.073          45.000  
G04  24370005.914   128065225.250        3165.241          36.000    24370002.305    99791113.676        2466.248          41.000  
C33  22533666.022   117338707.083        -813.031          50.000                                                                  
C06  36579227.350   190477635.612        -153.565          45.000    36579209.561   147289319.597        -118.451          48.000  
C14  22760806.179   118521474.696       -2346.663          46.000    22760791.630    91648268.372       -1814.674          51.000  
C16  37008292.013   192711885.375        -182.419          47.000    37008279.879   149017006.583        -141.035          48.000  
C24  21876783.417   113918158.416        -908.314          50.000                                                                  
C26  24528434.283   127725996.193       -2570.909          43.000                                                                  
G03  22895577.023   120317093.282        -251.007          39.000    22895573.269    93753542.974        -194.929          41.000  
G16  22316788.906   117275591.320        2913.454          42.000                                                                  
C09  37730288.872   196471493.018        -141.931          43.000    37730274.572   151924182.967        -109.609          48.000  
C25  23588389.822   122830949.443        1534.035          44.000                                                                  
C08  39289819.740   204592375.191       -2471.517          37.000    39289807.890   158203775.480       -1911.617          42.000  
C07  39517570.436   205778345.533        1118.574          36.000    39517559.639   159120831.589         864.658          40.000  
C10  40460677.525   210689396.391         935.973          33.000    40460677.889   162918408.299         723.644          35.000  
C35  25940563.688   135079326.830         298.275          39.000                                                                  
C13  38452708.357   200233349.559       -2283.089          40.000    38452702.076   154833104.071       -1765.321          42.000  
C12  26366041.879   137294924.541        2319.528          36.000    26366038.785   106165141.533        1793.792          46.000  
G25  24546383.343   128992118.595       -3918.488          34.000    24546379.145   100513303.013       -3053.899          36.000  
> 2025 10 30 06 23 34.3200000  0 23                     
G32  22134390.091   116317000.775       -3001.224          45.000    22134384.478    90636588.095       -2338.677          43.000  
G29  23097213.393   121376690.268        -711.189          41.000    23097205.051    94579209.304        -553.730          40.000  
G28  21299367.947   111928934.868       -1234.663          45.000    21299357.444    87217311.064        -962.058          46.000  
G26  20319842.979   106781497.595         579.581          48.000    20319836.482    83206343.415         451.641          46.000  
G31  20618317.376   108349984.473          98.833          47.000    20618306.255    84428518.418          76.981          45.000  
G04  24369981.829   128065098.669        3164.807          36.000    24369978.204    99791015.040        2465.948          41.000  
C33  22533672.275   117338739.600        -812.992          50.000                                                                  
C06  36579228.549   190477641.746        -153.494          45.000    36579210.743   147289324.339        -118.500          48.000  
C14  22760824.175   118521568.570       -2346.809          46.000    22760809.651    91648340.952       -1814.596          51.000  
C16  37008293.436   192711892.672        -182.445          47.000    37008281.256   149017012.215        -140.882          48.000  
C24  21876790.419   113918194.742        -908.223          50.000                                                                  
C26  24528454.035   127726099.018       -2570.787          43.000                                                                  
G03  22895578.925   120317103.303        -250.745          40.000    22895575.172    93753550.792        -195.223          41.000  
G16  22316766.740   117275474.777        2913.516          42.000                                                                  
C09  37730289.965   196471498.692        -141.910          43.000    37730275.645   151924187.362        -109.813          48.000  
C25  23588378.033   122830888.071        1534.160          44.000                                                                  
C08  39289838.721   204592474.086       -2472.031          37.000    39289826.871   158203851.938       -1911.520          42.000  
C07  39517561.875   205778300.827        1117.992          36.000    39517551.051   159120797.006         864.525          40.000  
C10  40460670.326   210689358.969         935.866          33.000    40460670.696   162918379.368         723.402          35.000  
C35  25940561.404   135079314.878         298.493          38.000                                                                  
C13  38452725.864   200233440.883       -2283.163          40.000    38452719.627   154833174.693       -1765.536          42.000  
C12  26366024.056   137294831.741        2319.846          36.000    26366020.957   106165069.783        1793.723          46.000  
G25  24546413.164   128992275.409       -3919.603          34.000    24546408.996   100513425.170       -3053.986          36.000  
> 2025 10 30 06 23 34.3600000  0 23                     
G32  22134412.926   116317120.805       -3000.923          45.000    22134407.316    90636681.625       -2338.477          43.000  
G29  23097218.791   121376718.704        -711.043          41.000    23097210.458    94579231.476        -554.157          40.000  
G28  21299377.357   111928984.241       -1234.493          45.000    21299366.847    87217349.544        -962.021          46.000  
G26  20319838.565   106781474.405         579.656          48.000    20319832.069    83206325.342         451.766          46.000  
G31  20618316.604   108349980.515          98.895          47.000    20618305.474    84428515.325          77.191          45.000  
G04  24369957.738   128064972.062        3165.032          36.000    24369954.114    99790916.399        2465.863          41.000  
C33  22533678.555   117338772.115        -812.933          50.000                                                                  
C06  36579229.746   190477647.872        -153.276          45.000    36579211.905   147289329.081        -118.542          48.000  
C14  22760842.168   118521662.442       -2346.859          46.000    22760827.682    91648413.529       -1814.487          51.000  
C16  37008294.873   192711899.961        -182.302          47.000    37008282.647   149017017.851        -140.894          48.000  
C24  21876797.385   113918231.068        -908.186          50.000                                                                  
C26  24528473.780   127726201.850       -2570.798          43.000                                                                  
G03  22895580.837   120317113.332        -250.746          40.000    22895577.086    93753558.600        -195.204          41.000  
G16  22316744.554   117275358.244        2913.344          42.000                                                                  
C09  37730291.050   196471504.360        -141.763          43.000    37730276.752   151924191.750        -109.823          48.000  
C25  23588366.261   122830826.695        1534.321          44.000                                                                  
C08  39289857.705   204592572.940       -2471.624          37.000    39289845.876   158203928.385       -1911.241          42.000  
C07  39517553.278   205778256.080        1118.420          36.000    39517542.452   159120762.423         864.498          40.000  
C10  40460663.122   210689321.555         935.699          33.000    40460663.487   162918350.428         723.392          35.000  
C35  25940559.081   135079302.913         298.876          38.000                                                                  
C13  38452743.401   200233532.219       -2283.377          40.000    38452737.151   154833245.312       -1765.591          42.000  
C12  26366006.242   137294738.934        2320.150          36.000    26366003.155   106164998.029        1793.767          46.000  
G25  24546442.968   128992432.124       -3918.728          34.000    24546438.814   100513547.298       -3053.517          36.000  
> 2025 10 30 06 23 34.4000000  0 23                     
G32  22134435.771   116317240.829       -3000.666          45.000    22134430.145    90636775.149       -2338.271          43.000  
G29  23097224.187   121376747.138        -710.899          41.000    23097215.892    94579253.628        -554.019          40.000  
G28  21299386.766   111929033.612       -1234.349          45.000    21299376.240    87217388.003        -961.654          46.000  
G26  20319834.150   106781451.209         579.830          48.000    20319827.659    83206307.268         451.833          46.000  
G31  20618315.826   108349976.549          99.086          47.000    20618304.736    84428512.240          77.148          45.000  
G04  24369933.645   128064845.456        3165.154          36.000    24369930.036    99790817.746        2466.112          41.000  
C33  22533684.808   117338804.634        -812.960          50.000                                                                  
C06  36579230.934   190477653.989        -153.000          45.000    36579213.083   147289333.821        -118.549          48.000  
C14  22760860.188   118521756.304       -2346.691          46.000    22760845.699    91648486.110       -1814.509          51.000  
C16  37008296.303   192711907.249        -182.214          47.000    37008284.028   149017023.492        -140.992          48.000  
C24  21876804.373   113918267.389        -908.076          50.000                                                                  
C26  24528493.545   127726304.674       -2570.688          43.000                                                                  
G03  22895582.756   120317123.360        -250.676          40.000    22895578.992    93753566.408        -195.216          41.000  
G16  22316722.369   117275241.690        2913.660          42.000                                                                  
C09  37730292.143   196471510.027        -141.657          43.000    37730277.848   151924196.133        -109.681          48.000  
C25  23588354.496   122830765.312        1534.536          44.000                                                                  
C08  39289876.695   204592671.799       -2471.451          37.000    39289864.843   158204004.826       -1911.019          42.000  
C07  39517544.705   205778211.373        1117.886          36.000    39517533.877   159120727.834         864.615          40.000  
C10  40460655.909   210689284.068         936.837          33.000    40460656.291   162918321.475         723.738          35.000  
C35  25940556.783   135079290.955         298.999          38.000                                                                  
C13  38452760.946   200233623.540       -2283.216          40.000    38452754.700   154833315.935       -1765.640          42.000  
C12  26365988.410   137294646.113        2320.456          36.000    26365985.324   106164926.272        1793.866          46.000  
G25  24546472.820                       -3919.474          34.000    24546468.635   100513669.427       -3053.262          36.000  
