     3.04           OBSERVATION DATA    M: Mixed            RINEX VERSION / TYPE
RTKCONV 2.4.3 b34                       20251103 075503 UTC PGM / RUN BY / DATE 
format: u-blox UBX                                          COMMENT             
log: D:\GPdata\11_3\fingure_190_11_33_2.ubx                 COMMENT             
                                                            MARKER NAME         
                                                            MARKER NUMBER       
                                                            MARKER TYPE         
                                                            OBSERVER / AGENCY   
                                                            REC # / TYPE / VERS 
                                                            ANT # / TYPE        
        0.0000        0.0000        0.0000                  APPROX POSITION XYZ 
        0.0000        0.0000        0.0000                  ANTENNA: DELTA H/E/N
G    8 C1C L1C D1C S1C C2L L2L D2L S2L                      SYS / # / OBS TYPES 
C    8 C2I L2I D2I S2I C7I L7I D7I S7I                      SYS / # / OBS TYPES 
  2025    11    03    07    40   20.6000000     GPS         TIME OF FIRST OBS   
  2025    11    03    07    40   38.4800000     GPS         TIME OF LAST OBS    
G L1C                                                       SYS / PHASE SHIFT   
G L2L  0.00000                                              SYS / PHASE SHIFT   
C L2I                                                       SYS / PHASE SHIFT   
C L7I                                                       SYS / PHASE SHIFT   
  0                                                         GLONASS SLOT / FRQ #
 C1C    0.000 C1P    0.000 C2C    0.000 C2P    0.000        GLONASS COD/PHS/BIS 
                                                            END OF HEADER       
> 2025 11 03 07 40 20.6000000  0 26                     
G04  21433667.706   112634693.2901       1220.995          44.000    21433656.903    87767240.6801        951.420          46.000  
G16  20196550.379   106133596.2541        269.648          46.000                                                                  
G28  22985994.635   120792209.7531      -2650.792          41.000    22985984.638    94123753.4791      -2065.448          43.000  
G31  21041224.529   110572384.7481      -1628.431          47.000    21041211.323    86160241.6051      -1269.225          44.000  
G03  24468791.877                       -2903.788          34.000    24468787.188   100195585.2371      -2261.889          35.000  
G18  25205811.650                1       1411.365          27.000    25205802.490   103213548.6961       1099.773          34.000  
C16  36733284.038   191279823.9631          9.299          48.000    36733269.759   147909653.8631          7.197          49.000  
C19  23728756.483   123561869.2751      -2076.569          47.000                                                                  
C27  23634928.969   123073343.2481       1209.913          47.000                                                                  
C06  36291053.212   188977013.4171          6.866          47.000    36291032.562   146128951.5871          5.221          49.000  
C09  37376797.253   194630773.4991        119.974          45.000    37376780.354   150500807.7091         92.665          48.000  
C22  24652649.577   128372846.8181        743.581          42.000                                                                  
G26  20794870.885   109277789.9301      -1891.333          48.000    20794860.391    85151480.2211      -1473.877          45.000  
G27  22002304.465   115622897.5221       3042.782          43.000    22002295.988    90095736.4731       2370.794          43.000  
G09  23978711.758   126008984.5731       2815.210          39.000    23978705.130    98188798.8771       2193.872          40.000  
C28  24716178.638   128703635.9421       -960.358          45.000                                                                  
C07  38065574.540   198217431.7401        811.867          42.000    38065555.663   153274223.2621        627.834          45.000  
C20  25459545.976   132574531.1481      -3607.131          44.000                                                                  
C36  23901793.606   124462912.0581       1428.955          44.000                                                                  
C37  24946528.993   129903125.4061      -2382.023          44.000                                                                  
C10  39193124.976   204088885.0811        747.040          39.000    39193110.955   157814481.4831        577.753          43.000  
G08  24287507.265   127631731.1911       3617.156          37.000    24287510.249    99453337.3671       2818.794          37.000  
G29  25202132.197   132438092.3561      -3540.124          34.000    25202121.487   103198471.6651      -2758.750          35.000  
C30  25224778.989   131352083.8831       2767.972          40.000                                                                  
C13                                                                  40686158.421   163826246.7131      -1884.685          37.000  
C08                                                                  41604188.288   167522818.4681      -1837.846          41.000  
> 2025 11 03 07 40 20.6400000  0 26                     
G04  21433658.416   112634644.454        1220.938          44.000    21433647.605    87767202.616         951.539          46.000  
G16  20196548.351   106133585.475         269.535          46.000                                                                  
G28  22986014.818   120792315.787       -2650.851          41.000    22986004.812    94123836.103       -2065.533          43.000  
G31  21041236.935   110572449.898       -1628.588          47.000    21041223.719    86160292.363       -1269.056          44.000  
G03  24468813.978                       -2902.432          34.000    24468809.286   100195675.722       -2261.946          35.000  
G18  25205800.902                        1411.267          27.000    25205791.701   103213504.707        1099.716          34.000  
C16  36733283.951   191279823.597           9.193          48.000    36733269.664   147909653.576           7.212          49.000  
C19  23728772.415   123561952.348       -2076.740          47.000                                                                  
C27  23634919.666   123073294.860        1209.752          47.000                                                                  
C06  36291053.156   188977013.157           6.656          47.000    36291032.517   146128951.382           5.170          49.000  
C09  37376796.328   194630768.709         119.854          45.000    37376779.427   150500804.006          92.606          48.000  
C22  24652643.883   128372817.088         743.378          42.000                                                                  
G26  20794885.305   109277865.600       -1891.626          48.000    20794874.807    85151539.181       -1473.987          45.000  
G27  22002281.288   115622775.809        3042.838          43.000    22002272.811    90095641.638        2370.793          43.000  
G09  23978690.327   126008871.960        2815.247          39.000    23978683.694    98188711.127        2193.848          40.000  
C28  24716186.024   128703674.358        -960.351          45.000                                                                  
C07  38065568.305   198217399.263         811.822          42.000    38065549.426   153274198.144         627.927          45.000  
C20  25459573.658   132574675.436       -3607.163          44.000                                                                  
C36  23901782.607   124462854.907        1428.882          44.000                                                                  
C37  24946547.287   129903220.688       -2381.968          44.000                                                                  
C10  39193119.224   204088855.196         747.060          39.000    39193105.222   157814458.381         577.615          43.000  
G08  24287479.730   127631586.501        3617.084          37.000    24287482.716    99453224.617        2818.792          37.000  
G29  25202159.169   132438233.951       -3539.852          34.000    25202148.433   103198581.997       -2758.502          35.000  
C30  25224757.738   131351973.166        2767.957          40.000                                                                  
C13                                                                  40686177.168   163826322.099       -1884.599          37.000  
C08                                                                  41604206.524   167522891.982       -1837.829          41.000  
> 2025 11 03 07 40 20.6800000  0 26                     
G04  21433649.135   112634595.633        1220.607          44.000    21433638.306    87767164.576         951.166          46.000  
G16  20196546.295   106133574.704         269.337          46.000                                                                  
G28  22986035.020   120792421.838       -2651.216          41.000    22986024.995    94123918.745       -2065.917          43.000  
G31  21041249.326   110572515.058       -1628.846          47.000    21041236.112    86160343.139       -1269.286          44.000  
G03  24468836.109                       -2902.437          34.000    24468831.390   100195766.190       -2261.719          35.000  
G18  25205790.170                        1410.935          27.000    25205780.958   103213460.719        1099.543          34.000  
C16  36733283.850   191279823.242           8.966          48.000    36733269.599   147909653.299           7.028          49.000  
C19  23728788.343   123562035.433       -2077.045          47.000                                                                  
C27  23634910.389   123073246.484        1209.450          47.000                                                                  
C06  36291053.114   188977012.900           6.455          47.000    36291032.477   146128951.177           5.135          49.000  
C09  37376795.393   194630763.923         119.719          45.000    37376778.531   150500800.305          92.536          48.000  
C22  24652638.168   128372787.358         743.233          42.000                                                                  
G26  20794899.740   109277941.275       -1891.852          48.000    20794889.196    85151598.150       -1474.194          45.000  
G27  22002258.152   115622654.120        3042.426          43.000    22002249.654    90095546.816        2370.589          43.000  
G09  23978668.867   126008759.346        2815.314          39.000    23978662.274    98188623.384        2193.634          40.000  
C28  24716193.403   128703712.790        -960.689          45.000                                                                  
C07  38065562.081   198217366.805         811.524          42.000    38065543.168   153274173.037         627.755          45.000  
C20  25459601.347   132574819.736       -3607.389          44.000                                                                  
C36  23901771.627   124462797.772        1428.485          44.000                                                                  
C37  24946565.605   129903315.979       -2382.102          43.000                                                                  
C10  39193113.497   204088825.311         747.092          39.000    39193099.494   157814435.286         577.394          43.000  
G08  24287452.182   127631441.815        3617.020          37.000    24287455.176    99453111.885        2818.450          37.000  
G29  25202186.119   132438375.583       -3540.404          34.000    25202175.390   103198692.349       -2758.658          35.000  
C30  25224736.477   131351862.456        2767.842          40.000                                                                  
C13                                                                  40686195.901   163826397.502       -1884.967          37.000  
C08                                                                  41604224.786   167522965.515       -1838.218          41.000  
> 2025 11 03 07 40 20.7200000  0 26                     
G04  21433639.845   112634546.808        1220.531          44.000    21433629.030    87767126.536         950.956          46.000  
G16  20196544.262   106133563.933         269.220          46.000                                                                  
G28  22986055.203   120792527.892       -2651.418          41.000    22986045.175    94124001.376       -2065.920          43.000  
G31  21041261.755   110572580.222       -1629.059          47.000    21041248.491    86160393.912       -1269.367          44.000  
G03  24468858.187                       -2903.162          34.000    24468853.483   100195856.655       -2261.578          35.000  
G18  25205779.441                        1411.364          28.000    25205770.225   103213416.750        1099.210          34.000  
C16  36733283.776   191279822.882           8.920          48.000    36733269.542   147909653.022           6.886          49.000  
C19  23728804.306   123562118.514       -2077.100          47.000                                                                  
C27  23634901.114   123073198.109        1209.273          47.000                                                                  
C06  36291053.084   188977012.643           6.398          47.000    36291032.438   146128950.980           4.971          49.000  
C09  37376794.467   194630759.139         119.601          45.000    37376777.619   150500796.612          92.338          48.000  
C22  24652632.456   128372757.637         743.031          42.000                                                                  
G26  20794914.118   109278016.949       -1891.937          48.000    20794903.583    85151657.112       -1474.158          45.000  
G27  22002235.017   115622532.435        3042.122          43.000    22002226.490    90095451.992        2370.510          43.000  
G09  23978647.443   126008646.744        2815.094          39.000    23978640.857    98188535.651        2193.329          40.000  
C28  24716200.776   128703751.227        -960.903          45.000                                                                  
C07  38065555.845   198217334.334         811.571          42.000    38065536.913   153274147.929         627.706          45.000  
C20  25459629.069   132574964.049       -3607.717          44.000                                                                  
C36  23901760.649   124462740.623        1428.601          44.000                                                                  
C37  24946583.897   129903411.299       -2382.757          43.000                                                                  
C10  39193107.775   204088795.461         746.535          39.000    39193093.786   157814412.193         577.280          43.000  
G08  24287424.665   127631297.130        3616.989          37.000    24287427.641    99452999.142        2818.480          37.000  
G29  25202213.043   132438517.188       -3540.334          34.000    25202202.337   103198802.685       -2758.444          35.000  
C30  25224715.190   131351751.744        2767.765          40.000                                                                  
C13                                                                  40686214.651   163826472.912       -1885.242          37.000  
C08                                                                  41604243.047   167523039.045       -1838.334          41.000  
> 2025 11 03 07 40 20.7600000  0 26                     
G04  21433630.556   112634497.974        1220.679          44.000    21433619.729    87767088.484         951.099          46.000  
G16  20196542.212   106133553.157         269.291          46.000                                                                  
G28  22986075.375   120792633.933       -2651.257          41.000    22986065.345    94124083.999       -2065.761          43.000  
G31  21041274.135   110572645.373       -1628.942          47.000    21041260.894    86160444.679       -1269.258          44.000  
G03  24468880.280                       -2903.375          34.000    24468875.576   100195947.160       -2262.248          35.000  
G18  25205768.697                        1410.802          28.000    25205759.481   103213372.757        1099.526          34.000  
C16  36733283.682   191279822.513           9.073          48.000    36733269.472   147909652.746           6.846          49.000  
C19  23728820.263   123562201.590       -2077.008          47.000                                                                  
C27  23634891.847   123073149.719        1209.527          47.000                                                                  
C06  36291053.041   188977012.382           6.443          47.000    36291032.409   146128950.775           5.021          49.000  
C09  37376793.555   194630754.348         119.675          45.000    37376776.704   150500792.904          92.548          48.000  
C22  24652626.748   128372727.917         742.880          42.000                                                                  
G26  20794928.501   109278092.622       -1891.931          48.000    20794917.983    85151716.079       -1474.231          45.000  
G27  22002211.841   115622410.745        3042.127          43.000    22002203.327    90095357.167        2370.494          43.000  
G09  23978626.021   126008534.142        2814.990          39.000    23978619.434    98188447.907        2193.433          40.000  
C28  24716208.169   128703789.654        -960.849          45.000                                                                  
C07  38065549.626   198217301.861         811.660          42.000    38065530.643   153274122.818         627.708          45.000  
C20  25459656.801   132575108.344       -3607.535          44.000                                                                  
C36  23901749.672   124462683.478        1428.571          44.000                                                                  
C37  24946602.217   129903506.611       -2382.917          43.000                                                                  
C10  39193102.030   204088765.605         746.271          39.000    39193088.024   157814389.084         577.500          43.000  
G08  24287397.108   127631152.428        3617.247          37.000    24287400.107    99452886.403        2818.439          37.000  
G29  25202239.958   132438658.769       -3539.741          34.000    25202229.292   103198913.064       -2759.220          35.000  
C30  25224693.932   131351641.024        2767.868          40.000                                                                  
C13                                                                  40686233.369   163826548.296       -1884.866          37.000  
C08                                                                  41604261.288   167523112.561       -1838.092          41.000  
> 2025 11 03 07 40 20.8000000  0 26                     
G04  21433621.272   112634449.138        1220.831          44.000    21433610.408    87767050.440         951.069          46.000  
G16  20196540.127   106133542.382         269.341          46.000                                                                  
G28  22986095.567   120792739.970       -2651.028          41.000    22986085.525    94124166.620       -2065.591          43.000  
G31  21041286.512   110572710.530       -1628.965          47.000    21041273.291    86160495.448       -1269.234          44.000  
G03  24468902.373                       -2902.921          34.000    24468897.687   100196037.632       -2262.053          35.000  
G18  25205757.980                        1411.057          28.000    25205748.735   103213328.778        1099.396          34.000  
C16  36733283.614   191279822.143           9.177          48.000    36733269.398   147909652.457           7.059          49.000  
C19  23728836.223   123562284.667       -2076.996          47.000                                                                  
C27  23634882.545   123073101.328        1209.681          47.000                                                                  
C06  36291053.012   188977012.108           6.702          47.000    36291032.386   146128950.574           4.990          49.000  
C09  37376792.653   194630749.558         119.719          45.000    37376775.756   150500789.200          92.592          48.000  
C22  24652621.031   128372698.198         742.829          42.000                                                                  
G26  20794942.895   109278168.289       -1891.791          48.000    20794932.384    85151775.039       -1474.109          45.000  
G27  22002188.685   115622289.044        3042.347          43.000    22002180.156    90095262.327        2370.808          43.000  
G09  23978604.586   126008421.541        2814.984          39.000    23978598.008    98188360.164        2193.433          40.000  
C28  24716215.541   128703828.077        -960.693          45.000                                                                  
C07  38065543.380   198217269.377         811.975          42.000    38065524.409   153274097.702         627.833          45.000  
C20  25459684.523   132575252.642       -3607.497          44.000                                                                  
C36  23901738.676   124462626.338        1428.522          44.000                                                                  
C37  24946620.522   129903601.904       -2382.587          43.000                                                                  
C10  39193096.294   204088735.706         746.917          39.000    39193082.304   157814365.973         577.671          43.000  
G08  24287369.574   127631007.717        3617.642          37.000    24287372.556    99452773.643        2818.783          37.000  
G29  25202266.906   132438800.423       -3540.713          34.000    25202256.256   103199023.396       -2758.647          35.000  
C30  25224672.693   131351530.298        2768.067          40.000                                                                  
C13                                                                  40686252.076   163826623.663       -1884.375          37.000  
C08                                                                  41604279.538   167523186.075       -1837.907          41.000  
> 2025 11 03 07 40 20.8400000  0 26                     
G04  21433611.970   112634400.323        1220.419          44.000    21433601.130    87767012.397         950.975          46.000  
G16  20196538.080   106133531.633         268.742          46.000                                                                  
G28  22986115.724   120792846.023       -2651.296          41.000    22986105.713    94124249.264       -2065.977          43.000  
G31  21041298.901   110572775.701       -1629.261          47.000    21041285.695    86160546.232       -1269.551          44.000  
G03  24468924.481   128585118.809       -2903.406          34.000    24468919.806   100196128.140       -2262.587          35.000  
G18  25205747.248                        1411.358          28.000    25205737.999   103213284.825        1098.886          34.000  
C16  36733283.538   191279821.799           8.694          48.000    36733269.312   147909652.190           6.753          49.000  
C19  23728852.171   123562367.774       -2077.582          47.000                                                                  
C27  23634873.262   123073052.975        1208.990          47.000                                                                  
C06  36291052.989   188977011.864           6.249          47.000    36291032.355   146128950.379           4.836          49.000  
C09  37376791.762   194630744.803         119.031          45.000    37376774.869   150500785.510          92.287          48.000  
C22  24652615.313   128372668.484         742.689          42.000                                                                  
G26  20794957.289   109278243.975       -1892.133          48.000    20794946.802    85151834.023       -1474.530          45.000  
G27  22002165.526   115622167.363        3042.051          43.000    22002156.986    90095167.518        2370.335          43.000  
G09  23978583.169   126008308.961        2814.520          39.000    23978576.592    98188272.440        2193.054          40.000  
C28  24716222.949   128703866.520        -961.024          45.000                                                                  
C07  38065537.165   198217236.935         811.280          42.000    38065518.143   153274072.618         627.246          45.000  
C20  25459712.237   132575396.956       -3607.827          44.000                                                                  
C36  23901727.699   124462569.213        1428.131          44.000                                                                  
C37  24946638.796   129903697.210       -2382.737          43.000                                                                  
C10  39193090.540   204088705.837         746.747          39.000    39193076.562   157814342.868         577.608          43.000  
G08  24287342.035   127630863.054        3616.943          37.000    24287345.026    99452660.909        2818.434          37.000  
G29  25202293.861   132438942.058       -3541.011          34.000    25202283.205   103199133.756       -2758.841          35.000  
C30  25224651.440   131351419.620        2767.175          40.000                                                                  
C13                                                                  40686270.800   163826699.078       -1885.104          37.000  
C08                                                                  41604297.760   167523259.620       -1838.470          41.000  
> 2025 11 03 07 40 20.8800000  0 26                     
G04  21433602.690   112634351.574        1219.053          44.000    21433591.850    87766974.408         950.013          46.000  
G16  20196536.055   106133520.941         267.471          46.000                                                                  
G28  22986135.901   120792952.130       -2652.412          41.000    22986125.906    94124331.960       -2067.162          43.000  
G31  21041311.329   110572840.933       -1630.484          47.000    21041298.127    86160597.063       -1270.475          44.000  
G03  24468946.599   128585235.008       -2904.636          34.000    24468941.924   100196218.678       -2263.370          35.000  
G18  25205736.530                        1410.607          28.000    25205727.296   103213240.881        1098.556          34.000  
C16  36733283.466   191279821.519           7.342          48.000    36733269.256   147909651.964           5.862          49.000  
C19  23728868.146   123562450.926       -2078.699          47.000                                                                  
C27  23634863.990   123073004.677        1207.630          47.000                                                                  
C06  36291052.960   188977011.682           4.923          47.000    36291032.338   146128950.240           3.792          49.000  
C09  37376790.834   194630740.083         118.084          45.000    37376774.006   150500781.873          91.198          48.000  
C22  24652609.639   128372638.827         741.669          42.000                                                                  
G26  20794971.706   109278319.720       -1893.390          48.000    20794961.221    85151893.051       -1475.549          45.000  
G27  22002142.384   115622045.740        3040.874          43.000    22002133.870    90095072.745        2369.470          43.000  
G09  23978561.744   126008196.437        2813.318          39.000    23978555.175    98188184.749        2192.340          40.000  
C28  24716230.356   128703905.033        -962.460          45.000                                                                  
C07  38065530.963   198217204.540         810.106          42.000    38065511.944   153274047.568         626.336          45.000  
C20  25459739.967   132575541.325       -3608.966          44.000                                                                  
C36  23901716.736   124462512.140        1426.978          44.000                                                                  
C37  24946657.110   129903792.584       -2383.991          43.000                                                                  
C10  39193084.804   204088676.039         745.456          39.000    39193070.843   157814319.832         576.371          43.000  
G08  24287314.515   127630718.425        3615.914          37.000    24287317.516    99452548.235        2817.168          37.000  
G29  25202320.805   132439083.750       -3542.106          34.000    25202310.167   103199244.147       -2759.559          35.000  
C30  25224630.215   131351308.988        2765.922          40.000                                                                  
C13                                                                  40686289.568   163826774.543       -1886.326          37.000  
C08                                                                  41604316.032   167523333.186       -1839.127          41.000  
> 2025 11 03 07 40 20.9200000  0 26                     
G04  21433593.411   112634302.835        1218.281          44.000    21433582.587    87766936.435         949.270          46.000  
G16  20196534.040   106133510.253         266.868          46.000                                                                  
G28  22986156.116   120793058.250       -2653.080          41.000    22986146.130    94124414.662       -2067.741          43.000  
G31  21041323.747   110572906.179       -1631.284          47.000    21041310.545    86160647.901       -1271.061          44.000  
G03  24468968.708   128585351.250       -2905.922          34.000    24468964.060   100196309.224       -2263.862          35.000  
G18  25205725.794                        1410.061          28.000    25205716.563   103213196.977        1097.699          34.000  
C16  36733283.381   191279821.240           6.700          48.000    36733269.202   147909651.754           5.199          49.000  
C19  23728884.161   123562534.089       -2079.327          47.000                                                                  
C27  23634854.724   123072956.383        1207.027          47.000                                                                  
C06  36291052.933   188977011.510           4.136          47.000    36291032.325   146128950.105           3.229          49.000  
C09  37376789.934   194630735.378         117.452          45.000    37376773.086   150500778.240          90.667          48.000  
C22  24652603.941   128372609.193         740.762          42.000                                                                  
G26  20794986.130   109278395.475       -1894.116          48.000    20794975.653    85151952.073       -1475.879          45.000  
G27  22002119.266   115621924.139        3039.965          43.000    22002110.732    90094977.993        2368.722          43.000  
G09  23978540.332   126008083.907        2812.921          39.000    23978533.766    98188097.070        2191.821          40.000  
C28  24716237.761   128703943.550        -963.171          45.000                                                                  
C07  38065524.741   198217172.145         809.583          42.000    38065505.701   153274022.518         625.974          45.000  
C20  25459767.683   132575685.701       -3609.619          44.000                                                                  
C36  23901705.819   124462455.081        1426.245          44.000                                                                  
C37  24946675.435   129903887.959       -2384.600          43.000                                                                  
C10  39193079.092   204088646.238         744.808          39.000    39193065.109   157814296.802         575.650          43.000  
G08  24287287.010   127630573.802        3615.361          37.000    24287289.993    99452435.547        2816.921          37.000  
G29  25202347.772   132439225.428       -3542.241          34.000    25202337.158   103199354.588       -2760.811          35.000  
C30  25224608.991   131351198.348        2765.566          40.000                                                                  
C13                                                                  40686308.297   163826850.015       -1887.099          37.000  
C08                                                                  41604334.301   167523406.765       -1839.598          41.000  
> 2025 11 03 07 40 20.9600000  0 26                     
G04  21433584.132   112634254.064        1218.575          44.000    21433573.320    87766898.431         949.493          46.000  
G16  20196531.994   106133499.527         267.434          46.000                                                                  
G28  22986176.336   120793164.371       -2653.347          41.000    22986166.302    94124497.340       -2067.442          43.000  
G31  21041336.166   110572971.388       -1630.936          47.000    21041322.940    86160698.706       -1270.666          44.000  
G03  24468990.821                       -2904.530          34.000    24468986.160   100196399.763       -2263.844          35.000  
G18  25205715.078                        1409.364          28.000    25205705.823   103213153.016        1098.382          34.000  
C16  36733283.280   191279820.926           7.121          48.000    36733269.153   147909651.514           5.467          49.000  
C19  23728900.106   123562617.222       -2078.912          47.000                                                                  
C27  23634845.431   123072908.053        1207.588          47.000                                                                  
C06  36291052.922   188977011.296           4.623          47.000    36291032.321   146128949.941           3.557          49.000  
C09  37376788.997   194630730.642         117.813          45.000    37376772.168   150500774.576          91.056          48.000  
C22  24652598.248   128372579.520         741.132          42.000                                                                  
G26  20795000.537   109278471.204       -1893.799          48.000    20794990.079    85152011.077       -1475.525          45.000  
G27  22002096.133   115621802.491        3040.435          43.000    22002087.587    90094883.213        2368.976          43.000  
G09  23978518.912   126007971.356        2813.263          39.000    23978512.368    98188009.369        2192.060          40.000  
C28  24716245.159   128703982.032        -962.748          45.000                                                                  
C07  38065518.509   198217139.720         810.020          42.000    38065499.477   153273997.452         626.206          45.000  
C20  25459795.411   132575830.052       -3609.327          44.000                                                                  
C36  23901694.843   124462397.980        1426.819          44.000                                                                  
C37  24946693.750   129903983.301       -2384.174          43.000                                                                  
C10  39193073.380   204088616.401         745.240          39.000    39193059.389   157814273.730         576.094          43.000  
G08  24287259.481   127630429.135        3616.066          37.000    24287262.458    99452322.834        2817.280          37.000  
G29  25202374.727   132439367.108       -3542.374          34.000    25202364.113   103199464.962       -2760.208          35.000  
C30  25224587.733   131351087.689        2765.922          40.000                                                                  
C13                                                                  40686327.023   163826925.418       -1886.080          37.000  
C08                                                                  41604352.576   167523480.323       -1839.347          41.000  
> 2025 11 03 07 40 21.0000000  0 26                     
G04  21433574.842   112634205.260        1219.524          44.000    21433564.036    87766860.398         950.292          46.000  
G16  20196529.940   106133488.767         268.527          46.000                                                                  
G28  22986196.529   120793270.441       -2652.411          41.000    22986186.487    94124579.981       -2066.499          43.000  
G31  21041348.589   110573036.567       -1630.018          47.000    21041335.338    86160749.499       -1270.117          44.000  
G03  24469012.923                       -2903.440          34.000    24469008.243   100196490.258       -2263.003          35.000  
G18  25205704.323                        1409.174          28.000    25205695.086   103213109.053        1098.857          34.000  
C16  36733283.219   191279820.575           8.181          48.000    36733269.106   147909651.248           6.199          49.000  
C19  23728916.068   123562700.316       -2077.771          47.000                                                                  
C27  23634836.138   123072859.694        1208.570          47.000                                                                  
C06  36291052.876   188977011.052           5.570          47.000    36291032.279   146128949.750           4.344          49.000  
C09  37376788.083   194630725.879         118.638          45.000    37376771.244   150500770.885          91.904          48.000  
C22  24652592.520   128372549.819         741.979          42.000                                                                  
G26  20795014.956   109278546.894       -1892.719          48.000    20795004.477    85152070.060       -1474.878          45.000  
G27  22002072.995   115621680.818        3041.364          43.000    22002064.439    90094788.408        2369.640          43.000  
G09  23978497.493   126007858.777        2814.185          39.000    23978490.943    98187921.643        2192.780          40.000  
C28  24716252.524   128704020.486        -961.867          45.000                                                                  
C07  38065512.271   198217107.278         810.705          41.000    38065493.254   153273972.362         626.909          45.000  
C20  25459823.100   132575974.366       -3608.320          44.000                                                                  
C36  23901683.876   124462340.854        1427.783          44.000                                                                  
C37  24946712.057   129904078.630       -2383.558          43.000                                                                  
C10  39193067.646   204088586.553         745.817          39.000    39193053.642   157814250.641         576.778          43.000  
G08  24287231.942   127630284.472        3616.490          37.000    24287234.914    99452210.107        2817.831          37.000  
G29  25202401.680   132439508.761       -3541.836          34.000    25202391.079   103199575.338       -2759.668          35.000  
C30  25224566.504   131350976.996        2766.821          40.000                                                                  
C13                                                                  40686345.758   163827000.836       -1885.652          37.000  
C08                                                                  41604370.829   167523553.866       -1838.822          41.000  
> 2025 11 03 07 40 21.0400000  0 26                     
G04  21433565.549   112634156.414        1220.787          44.000    21433554.743    87766822.324         951.487          46.000  
G16  20196527.888   106133477.981         269.560          46.000                                                                  
G28  22986216.706   120793376.442       -2650.541          41.000    22986206.673    94124662.590       -2065.375          43.000  
G31  21041360.979   110573101.704       -1628.757          47.000    21041347.732    86160800.252       -1269.112          44.000  
G03  24469035.018                       -2902.779          34.000    24469030.320   100196580.719       -2261.912          35.000  
G18  25205693.605                        1409.266          28.000    25205684.339   103213065.036        1100.071          34.000  
C16  36733283.085   191279820.189           9.390          48.000    36733269.037   147909650.939           7.390          49.000  
C19  23728932.019   123562783.376       -2076.599          47.000                                                                  
C27  23634826.841   123072811.292        1209.867          47.000                                                                  
C06  36291052.836   188977010.760           6.941          47.000    36291032.229   146128949.519           5.480          49.000  
C09  37376787.161   194630721.060         120.094          45.000    37376770.331   150500767.166          92.833          48.000  
C22  24652586.786   128372520.072         743.298          42.000                                                                  
G26  20795029.360   109278622.539       -1891.339          48.000    20795018.860    85152129.007       -1473.834          45.000  
G27  22002049.825   115621559.106        3042.573          43.000    22002041.290    90094693.554        2370.968          43.000  
G09  23978476.068   126007746.162        2815.308          39.000    23978469.501    98187833.886        2193.793          40.000  
C28  24716259.894   128704058.892        -960.510          45.000                                                                  
C07  38065506.009   198217074.783         812.050          41.000    38065486.985   153273947.237         627.903          45.000  
C20  25459850.855   132576118.643       -3607.135          44.000                                                                  
C36  23901672.884   124462283.694        1428.918          44.000                                                                  
C37  24946730.322   129904173.901       -2382.184          43.000                                                                  
C10  39193061.896   204088556.655         747.017          39.000    39193047.873   157814227.527         577.600          43.000  
G08  24287204.397   127630139.770        3617.355          37.000    24287207.364    99452097.340        2818.867          37.000  
G29  25202428.657   132439650.376       -3540.714          34.000    25202418.002   103199685.671       -2758.639          35.000  
C30  25224545.225   131350866.257        2768.208          40.000                                                                  
C13                                                                  40686364.495   163827076.214       -1884.726          37.000  
C08                                                                  41604389.064   167523627.358       -1837.628          41.000  
> 2025 11 03 07 40 21.0800000  0 26                     
G04  21433556.248   112634107.551        1221.649          44.000    21433545.446    87766784.254         951.991          46.000  
G16  20196525.848   106133467.178         270.263          46.000                                                                  
G28  22986236.868   120793482.451       -2649.836          41.000    22986226.827    94124745.193       -2064.814          43.000  
G31  21041373.370   110573166.817       -1627.773          47.000    21041360.109    86160851.002       -1268.607          44.000  
G03  24469057.110   128585815.717       -2902.167          34.000    24469052.419   100196671.182       -2261.446          35.000  
G18  25205682.863                        1409.877          28.000    25205673.608   103213021.078        1099.557          34.000  
C16  36733282.986   191279819.788          10.188          48.000    36733268.991   147909650.631           7.940          49.000  
C19  23728947.980   123562866.428       -2075.989          47.000                                                                  
C27  23634817.533   123072762.883        1210.483          47.000                                                                  
C06  36291052.789   188977010.457           7.772          47.000    36291032.191   146128949.287           6.001          49.000  
C09  37376786.249   194630716.241         120.724          45.000    37376769.413   150500763.438          93.391          48.000  
C22  24652581.053   128372490.327         743.836          42.000                                                                  
G26  20795043.769   109278698.180       -1890.716          48.000    20795033.246    85152187.943       -1473.230          45.000  
G27  22002026.635   115621437.380        3043.366          43.000    22002018.112    90094598.688        2371.786          43.000  
G09  23978454.632   126007633.521        2816.211          39.000    23978448.069    98187746.112        2194.519          40.000  
C28  24716267.256   128704097.285        -959.694          45.000                                                                  
C07  38065499.778   198217042.287         812.699          41.000    38065480.737   153273922.098         628.611          45.000  
C20  25459878.545   132576262.897       -3606.225          44.000                                                                  
C36  23901661.895   124462226.517        1429.627          44.000                                                                  
C37  24946748.640   129904269.150       -2381.148          43.000                                                                  
C10  39193056.165   204088526.755         747.670          39.000    39193042.142   157814204.391         578.370          43.000  
G08  24287176.857   127629995.057        3618.066          37.000    24287179.826    99451984.562        2819.470          37.000  
G29  25202455.584   132439791.966       -3539.810          34.000    25202444.972   103199796.004       -2758.208          35.000  
C30  25224523.946   131350755.512        2768.899          40.000                                                                  
C13                                                                  40686383.223   163827151.601       -1884.505          37.000  
C08                                                                  41604407.317   167523700.863       -1837.350          41.000  
> 2025 11 03 07 40 21.1200000  0 26                     
G04  21433546.955   112634058.710        1221.582          44.000    21433536.158    87766746.208         951.642          46.000  
G16  20196523.814   106133456.399         269.976          46.000                                                                  
G28  22986257.055   120793588.481       -2650.077          41.000    22986246.997    94124827.811       -2064.964          43.000  
G31  21041385.771   110573231.957       -1627.887          47.000    21041372.504    86160901.755       -1268.525          44.000  
G03  24469079.237   128585931.837       -2902.474          34.000    24469074.515   100196761.655       -2261.575          35.000  
G18  25205672.097                        1410.939          28.000    25205662.872   103212977.082        1099.844          34.000  
C16  36733282.886   191279819.405          10.068          48.000    36733268.934   147909650.335           7.864          49.000  
C19  23728963.931   123562949.503       -2076.331          47.000                                                                  
C27  23634808.239   123072714.498        1210.137          47.000                                                                  
C06  36291052.723   188977010.179           7.568          47.000    36291032.180   146128949.078           5.756          49.000  
C09  37376785.297   194630711.439         120.570          45.000    37376768.479   150500759.724          93.268          48.000  
C22  24652575.346   128372460.589         743.820          42.000                                                                  
G26  20795058.174   109278773.842       -1891.022          48.000    20795047.625    85152246.898       -1473.492          45.000  
G27  22002003.464   115621315.665        3043.328          43.000    22001994.952    90094503.854        2371.495          43.000  
G09  23978433.185   126007520.919        2815.710          39.000    23978426.648    98187658.355        2194.427          40.000  
C28  24716274.642   128704135.701        -959.815          45.000                                                                  
C07  38065493.535   198217009.794         812.748          42.000    38065474.508   153273896.990         628.236          45.000  
C20  25459906.246   132576407.184       -3606.531          44.000                                                                  
C36  23901650.928   124462169.362        1429.395          44.000                                                                  
C37  24946766.951   129904364.441       -2381.543          43.000                                                                  
C10  39193050.428   204088496.846         747.983          39.000    39193036.375   157814181.267         578.453          43.000  
G08  24287149.319   127629850.357        3618.009          36.000    24287152.285    99451871.808        2819.277          37.000  
G29  25202482.525   132439933.538       -3539.131          34.000    25202471.937   103199906.326       -2757.799          35.000  
C30  25224502.699   131350644.791        2768.661          40.000                                                                  
C13                                                                  40686401.920   163827226.996       -1884.606          37.000  
C08                                                                  41604425.590   167523774.374       -1837.422          41.000  
> 2025 11 03 07 40 21.1600000  0 26                     
G04  21433537.673   112634009.943        1220.021          44.000    21433526.880    87766708.208         950.492          46.000  
G16  20196521.744   106133445.683         268.521          46.000                                                                  
G28  22986277.239   120793694.586       -2651.759          41.000    22986267.186    94124910.492       -2066.388          43.000  
G31  21041398.160   110573297.173       -1629.501          47.000    21041384.908    86160952.566       -1269.649          44.000  
G03  24469101.291   128586047.976       -2903.242          34.000    24469096.610   100196852.166       -2262.419          35.000  
G18  25205661.378                        1411.053          28.000    25205652.146   103212933.114        1099.437          34.000  
C16  36733282.801   191279819.088           8.719          48.000    36733268.877   147909650.095           6.638          49.000  
C19  23728979.928   123563032.651       -2078.027          47.000                                                                  
C27  23634798.970   123072666.179        1208.600          47.000                                                                  
C06  36291052.709   188977009.967           6.108          47.000    36291032.144   146128948.917           4.581          49.000  
C09  37376784.414   194630706.708         119.002          45.000    37376767.587   150500756.053          92.267          48.000  
C22  24652569.669   128372430.920         742.481          42.000                                                                  
G26  20795072.585   109278849.569       -1892.548          48.000    20795062.031    85152305.902       -1474.615          45.000  
G27  22001980.298   115621194.025        3041.775          43.000    22001971.810    90094409.070        2370.249          43.000  
G09  23978411.776   126007408.380        2814.069          39.000    23978405.210    98187570.650        2193.195          40.000  
C28  24716282.032   128704174.194        -961.454          45.000                                                                  
C07  38065487.325   198216977.372         811.289          42.000    38065468.281   153273871.916         627.274          45.000  
C20  25459933.986   132576551.544       -3608.193          44.000                                                                  
C36  23901639.964   124462112.266        1427.954          44.000                                                                  
C37  24946785.293   129904459.790       -2382.915          43.000                                                                  
C10  39193044.661   204088467.007         746.725          39.000    39193030.638   157814158.203         577.290          43.000  
G08  24287121.794   127629705.709        3616.931          36.000    24287124.748    99451759.095        2818.310          37.000  
G29  25202509.490   132440075.202       -3540.649          34.000    25202498.882   103200016.700       -2758.771          35.000  
C30  25224481.442   131350534.127        2767.258          40.000                                                                  
C13                                                                  40686420.650   163827302.427       -1885.451          37.000  
C08                                                                  41604443.841   167523847.917       -1838.176          41.000  
> 2025 11 03 07 40 21.2000000  0 26                     
G04  21433528.384   112633961.186        1219.036          44.000    21433517.587    87766670.218         949.747          46.000  
G16  20196519.680   106133434.974         267.684          46.000                                                                  
G28  22986297.441   120793800.698       -2652.713          41.000    22986287.391    94124993.176       -2067.181          43.000  
G31  21041410.578   110573362.407       -1630.648          47.000    21041397.315    86161003.390       -1270.448          44.000  
G03  24469123.416   128586164.159       -2904.332          34.000    24469118.737   100196942.718       -2263.496          35.000  
G18  25205650.640                        1410.975          28.000    25205641.438   103212889.214        1097.953          34.000  
C16  36733282.717   191279818.791           7.646          48.000    36733268.840   147909649.863           5.870          49.000  
C19  23728995.893   123563115.793       -2078.735          47.000                                                                  
C27  23634789.707   123072617.852        1207.994          47.000                                                                  
C06  36291052.684   188977009.773           5.005          47.000    36291032.124   146128948.762           3.911          49.000  
C09  37376783.521   194630701.979         118.218          45.000    37376766.686   150500752.400          91.447          48.000  
C22  24652563.989   128372401.267         741.466          42.000                                                                  
G26  20795086.982   109278925.297       -1893.274          48.000    20795076.466    85152364.916       -1475.372          45.000  
G27  22001957.141   115621072.405        3040.623          43.000    22001948.671    90094314.314        2369.091          43.000  
G09  23978390.368   126007295.828        2813.537          39.000    23978383.788    98187482.954        2192.432          40.000  
C28  24716289.447   128704212.694        -962.429          45.000                                                                  
C07  38065481.099   198216944.957         810.383          42.000    38065462.063   153273846.841         626.811          45.000  
C20  25459961.712   132576695.888       -3608.746          44.000                                                                  
C36  23901629.013   124462055.167        1427.356          44.000                                                                  
C37  24946803.604   129904555.135       -2383.607          42.000                                                                  
C10  39193038.957   204088437.193         745.596          39.000    39193024.906   157814135.153         576.392          43.000  
G08  24287094.245   127629561.054        3616.375          36.000    24287097.216    99451646.417        2817.126          37.000  
G29  25202536.449   132440216.886       -3541.833          34.000    25202525.853   103200127.108       -2759.815          35.000  
C30  25224460.192   131350423.458        2766.654          40.000                                                                  
C13                                                                  40686439.405   163827377.864       -1885.955          37.000  
C08                                                                  41604462.113   167523921.486       -1839.055          41.000  
> 2025 11 03 07 40 21.2400000  0 26                     
G04  21433519.111   112633912.406        1219.039          44.000    21433508.291    87766632.194         950.071          46.000  
G16  20196517.639   106133424.231         268.031          46.000                                                                  
G28  22986317.657   120793906.780       -2652.530          41.000    22986307.571    94125075.829       -2066.836          43.000  
G31  21041422.981   110573427.599       -1630.411          47.000    21041409.719    86161054.182       -1270.256          44.000  
G03  24469145.522   128586280.300       -2904.037          34.000    24469140.853   100197033.206       -2262.855          35.000  
G18  25205639.866                        1411.432          28.000    25205630.706   103212845.249        1098.537          34.000  
C16  36733282.663   191279818.459           7.763          48.000    36733268.789   147909649.606           6.005          49.000  
C19  23729011.859   123563198.903       -2078.308          47.000                                                                  
C27  23634780.429   123072569.501        1208.290          47.000                                                                  
C06  36291052.660   188977009.534           5.349          47.000    36291032.093   146128948.576           4.176          49.000  
C09  37376782.620   194630697.213         118.597          45.000    37376765.784   150500748.721          91.571          48.000  
C22  24652558.273   128372371.582         741.603          42.000                                                                  
G26  20795101.391   109279000.996       -1892.969          48.000    20795090.859    85152423.909       -1475.232          45.000  
G27  22001933.994   115620950.747        3040.823          43.000    22001925.519    90094219.509        2369.502          43.000  
G09  23978368.935   126007183.244        2814.063          39.000    23978362.358    98187395.240        2192.517          40.000  
C28  24716296.800   128704251.162        -962.264          45.000                                                                  
C07  38065474.885   198216912.518         810.532          42.000    38065455.821   153273821.751         626.973          45.000  
C20  25459989.417   132576840.229       -3608.855          44.000                                                                  
C36  23901618.033   124461998.059        1427.386          44.000                                                                  
C37  24946821.932   129904650.462       -2383.560          42.000                                                                  
C10  39193033.235   204088407.359         745.460          39.000    39193019.197   157814112.081         576.404          43.000  
G08  24287066.713   127629416.382        3616.451          36.000    24287069.682    99451533.679        2817.736          37.000  
G29  25202563.405   132440358.556       -3542.158          34.000    25202552.810   103200237.489       -2759.877          35.000  
C30  25224438.951   131350312.775        2766.663          40.000                                                                  
C13                                                                  40686458.117   163827453.261       -1885.435          37.000  
C08                                                                  41604480.388   167523995.038       -1839.119          41.000  
> 2025 11 03 07 40 21.2800000  0 26                     
G04  21433509.803   112633863.596        1219.663          44.000    21433499.001    87766594.158         950.544          46.000  
G16  20196515.600   106133413.478         268.457          46.000                                                                  
G28  22986337.824   120794012.842       -2652.034          41.000    22986327.747    94125158.483       -2066.592          43.000  
G31  21041435.390   110573492.770       -1629.793          47.000    21041422.135    86161104.972       -1270.057          44.000  
G03  24469167.618   128586396.448       -2903.999          34.000    24469162.936   100197123.693       -2262.535          35.000  
G18  25205629.104                        1411.423          28.000    25205619.958   103212801.276        1099.009          34.000  
C16  36733282.568   191279818.111           8.178          48.000    36733268.695   147909649.326           6.541          49.000  
C19  23729027.836   123563282.006       -2077.905          47.000                                                                  
C27  23634771.161   123072521.152        1208.463          47.000                                                                  
C06  36291052.637   188977009.281           5.880          47.000    36291032.058   146128948.384           4.497          49.000  
C09  37376781.689   194630692.433         119.089          45.000    37376764.860   150500745.031          91.902          48.000  
C22  24652552.552   128372341.884         741.977          42.000                                                                  
G26  20795115.758   109279076.689       -1892.627          48.000    20795105.261    85152482.893       -1474.951          45.000  
G27  22001910.843   115620829.071        3041.344          43.000    22001902.371    90094124.694        2369.960          43.000  
G09  23978347.531   126007070.668        2814.203          39.000    23978340.921    98187307.533        2192.456          40.000  
C28  24716304.190   128704289.603        -961.599          45.000                                                                  
C07  38065468.637   198216880.080         810.684          42.000    38065449.583   153273796.663         627.026          45.000  
C20  25460017.127   132576984.549       -3608.470          44.000                                                                  
C36  23901607.055   124461940.941        1427.673          44.000                                                                  
C37  24946840.240   129904745.773       -2383.213          42.000                                                                  
C10  39193027.489   204088377.490         746.111          39.000    39193013.468   157814088.984         576.926          43.000  
G08  24287039.198   127629271.717        3616.511          36.000    24287042.132    99451420.937        2818.185          37.000  
G29  25202590.375   132440500.195       -3541.657          34.000    25202579.764   103200347.875       -2759.896          35.000  
C30  25224417.672   131350202.081        2766.902          40.000                                                                  
C13                                                                  40686476.846   163827528.663       -1885.299          37.000  
C08                                                                  41604498.637   167524068.565       -1838.592          41.000  
> 2025 11 03 07 40 21.3200000  0 26                     
G04  21433500.519   112633814.816        1219.545          44.000    21433489.720    87766556.143         950.419          46.000  
G16  20196513.540   106133402.754         268.189          46.000                                                                  
G28  22986358.017   120794118.932       -2652.249          41.000    22986347.932    94125241.141       -2066.555          43.000  
G31  21041447.795   110573557.968       -1629.924          47.000    21041434.551    86161155.773       -1270.097          44.000  
G03  24469189.745   128586512.606       -2904.023          34.000    24469185.054   100197214.209       -2262.838          35.000  
G18  25205618.403                        1408.744          29.000    25205609.199   103212757.332        1098.720          34.000  
C16  36733282.476   191279817.784           8.115          48.000    36733268.646   147909649.075           6.368          49.000  
C19  23729043.791   123563365.131       -2078.070          47.000                                                                  
C27  23634761.879   123072472.812        1208.477          47.000                                                                  
C06  36291052.582   188977009.061           5.601          47.000    36291032.019   146128948.210           4.376          49.000  
C09  37376780.766   194630687.681         118.867          45.000    37376763.952   150500741.357          91.839          48.000  
C22  24652546.876   128372312.204         741.908          42.000                                                                  
G26  20795130.168   109279152.403       -1892.798          48.000    20795119.654    85152541.886       -1474.921          45.000  
G27  22001887.696   115620707.421        3041.221          43.000    22001879.203    90094029.885        2370.152          43.000  
G09  23978326.089   126006958.110        2813.946          39.000    23978319.488    98187219.817        2192.639          40.000  
C28  24716311.577   128704328.080        -961.817          45.000                                                                  
C07  38065462.398   198216847.648         810.668          42.000    38065443.365   153273771.587         626.877          45.000  
C20  25460044.874   132577128.874       -3608.289          44.000                                                                  
C36  23901596.077   124461883.830        1427.692          44.000                                                                  
C37  24946858.533   129904841.116       -2383.521          42.000                                                                  
C10  39193021.752   204088347.647         746.052          39.000    39193007.730   157814065.916         576.716          43.000  
G08  24287011.664   127629127.063        3616.348          36.000    24287014.614    99451308.225        2817.917          37.000  
G29  25202617.327   132440641.856       -3541.637          34.000    25202606.712   103200458.240       -2759.498          36.000  
C30  25224396.427   131350091.407        2766.841          40.000                                                                  
C13                                                                  40686495.605   163827604.085       -1885.522          37.000  
C08                                                                  41604516.931   167524142.110       -1838.599          41.000  
> 2025 11 03 07 40 21.3600000  0 26                     
G04  21433491.223   112633766.034        1219.493          44.000    21433480.448    87766518.139         950.156          46.000  
G16  20196511.491   106133392.022         268.222          46.000                                                                  
G28  22986378.214   120794224.999       -2651.888          41.000    22986368.114    94125323.796       -2066.409          43.000  
G31  21041460.197   110573623.158       -1629.813          47.000    21041446.957    86161206.575       -1270.104          44.000  
G03  24469211.856   128586628.757       -2903.918          34.000    24469207.166   100197304.750       -2263.457          35.000  
G18  25205607.673                        1407.191          29.000    25205598.480   103212713.371        1098.855          34.000  
C16  36733282.400   191279817.447           8.282          48.000    36733268.605   147909648.815           6.409          49.000  
C19  23729059.750   123563448.252       -2078.064          47.000                                                                  
C27  23634752.617   123072424.471        1208.496          47.000                                                                  
C06  36291052.521   188977008.829           5.680          47.000    36291031.971   146128948.024           4.530          49.000  
C09  37376779.883   194630682.924         118.844          45.000    37376763.002   150500737.670          92.032          48.000  
C22  24652541.198   128372282.517         742.037          42.000                                                                  
G26  20795144.563   109279228.111       -1892.755          48.000    20795134.067    85152600.881       -1474.927          45.000  
G27  22001864.545   115620585.768        3041.246          43.000    22001856.057    90093935.098        2369.836          43.000  
G09  23978304.678   126006845.526        2814.423          39.000    23978298.081    98187132.103        2192.755          40.000  
C28  24716318.967   128704366.552        -961.866          45.000                                                                  
C07  38065456.168   198216815.205         810.870          41.000    38065437.159   153273746.511         626.824          45.000  
C20  25460072.562   132577273.207       -3608.334          44.000                                                                  
C36  23901585.131   124461826.708        1427.942          44.000                                                                  
C37  24946876.843   129904936.442       -2383.343          42.000                                                                  
C10  39193015.989   204088317.817         745.816          39.000    39193002.012   157814042.832         576.945          43.000  
G08  24286984.129   127628982.406        3616.250          36.000    24286987.083    99451195.495        2818.147          37.000  
G29  25202644.263   132440783.486       -3541.179          34.000    25202633.678   103200568.610       -2759.345          36.000  
C30  25224375.194   131349980.722        2767.072          40.000                                                                  
C13                                                                  40686514.322   163827679.506       -1885.567          37.000  
C08                                                                  41604535.169   167524215.656       -1838.673          41.000  
> 2025 11 03 07 40 21.4000000  0 26                     
G04  21433481.943   112633717.246        1219.603          44.000    21433471.173    87766480.127         950.179          46.000  
G16  20196509.441   106133381.288         268.279          46.000                                                                  
G28  22986398.379   120794331.067       -2651.786          41.000    22986388.287    94125406.447       -2066.285          43.000  
G31  21041472.597   110573688.348       -1629.755          47.000    21041459.335    86161257.367       -1269.923          44.000  
G03  24469233.957   128586744.918       -2904.030          34.000    24469229.261   100197395.272       -2263.354          35.000  
G18  25205597.004                        1407.603          29.000    25205587.772   103212669.448        1098.240          34.000  
C16  36733282.346   191279817.103           8.508          48.000    36733268.573   147909648.555           6.469          49.000  
C19  23729075.727   123563531.372       -2078.064          47.000                                                                  
C27  23634743.332   123072376.133        1208.465          47.000                                                                  
C06  36291052.489   188977008.586           5.916          47.000    36291031.936   146128947.845           4.489          49.000  
C09  37376778.997   194630678.162         118.957          45.000    37376762.096   150500733.991          91.991          48.000  
C22  24652535.517   128372252.824         742.218          42.000                                                                  
G26  20795158.955   109279303.815       -1892.657          48.000    20795148.476    85152659.873       -1474.835          45.000  
G27  22001841.384   115620464.108        3041.390          43.000    22001832.913    90093840.305        2369.775          43.000  
G09  23978283.258   126006732.957        2814.313          39.000    23978276.649    98187044.390        2192.792          40.000  
C28  24716326.384   128704405.021        -961.790          45.000                                                                  
C07  38065449.943   198216782.754         811.158          41.000    38065430.943   153273721.425         626.983          45.000  
C20  25460100.297   132577417.526       -3608.098          44.000                                                                  
C36  23901574.178   124461769.590        1427.991          44.000                                                                  
C37  24946895.164   129905031.771       -2383.305          42.000                                                                  
C10  39193010.256   204088287.958         746.204          39.000    39192996.276   157814019.752         577.010          43.000  
G08  24286956.596   127628837.760        3616.248          36.000    24286959.562    99451082.758        2818.396          37.000  
G29  25202671.223   132440925.112       -3540.741          34.000    25202660.633   103200678.968       -2759.049          36.000  
C30  25224353.935   131349870.026        2767.323          40.000                                                                  
C13                                                                  40686533.059   163827754.931       -1885.667          37.000  
C08                                                                  41604553.438   167524289.192       -1838.537          41.000  
> 2025 11 03 07 40 21.4400000  0 26                     
G04  21433472.657   112633668.464        1219.576          44.000    21433461.872    87766442.115         950.219          46.000  
G16  20196507.392   106133370.554         268.297          46.000                                                                  
G28  22986418.571   120794437.152       -2652.046          41.000    22986408.479    94125489.114       -2066.520          43.000  
G31  21041485.016   110573753.549       -1629.932          47.000    21041471.752    86161308.173       -1270.067          44.000  
G03  24469256.105   128586861.111       -2904.553          34.000    24469251.353   100197485.765       -2262.700          35.000  
G18  25205586.254                        1408.671          29.000    25205577.007   103212625.477        1098.753          34.000  
C16  36733282.242   191279816.767           8.463          48.000    36733268.514   147909648.297           6.435          49.000  
C19  23729091.694   123563614.495       -2078.107          47.000                                                                  
C27  23634734.041   123072327.788        1208.594          47.000                                                                  
C06  36291052.426   188977008.351           5.913          47.000    36291031.917   146128947.664           4.487          49.000  
C09  37376778.107   194630673.403         118.963          45.000    37376761.187   150500730.320          91.837          48.000  
C22  24652529.819   128372223.144         742.070          42.000                                                                  
G26  20795173.360   109279379.524       -1892.712          48.000    20795162.874    85152718.865       -1474.823          45.000  
G27  22001818.247   115620342.455        3041.342          43.000    22001809.750    90093745.508        2369.804          43.000  
G09  23978261.821   126006620.394        2814.129          39.000    23978255.246    98186956.682        2192.706          40.000  
C28  24716333.798   128704443.492        -961.782          45.000                                                                  
C07  38065443.694   198216750.319         810.972          41.000    38065424.708   153273696.336         627.113          45.000  
C20  25460128.026   132577561.856       -3608.179          44.000                                                                  
C36  23901563.195   124461712.491        1427.643          44.000                                                                  
C37  24946913.477   129905127.088       -2383.005          42.000                                                                  
C10  39193004.531   204088258.108         746.241          39.000    39192990.530   157813996.670         577.036          43.000  
G08  24286929.052   127628693.068        3617.014          36.000    24286932.029    99450970.055        2817.878          37.000  
G29  25202698.203   132441066.748       -3540.698          34.000    25202687.589   103200789.346       -2759.300          36.000  
C30  25224332.691   131349759.357        2766.938          40.000                                                                  
C13                                                                  40686551.802   163827830.333       -1885.316          37.000  
C08                                                                  41604571.737   167524362.736       -1838.625          41.000  
> 2025 11 03 07 40 21.4800000  0 26                     
G04  21433463.383   112633619.696        1219.299          44.000    21433452.598    87766404.116         950.015          46.000  
G16  20196505.354   106133359.841         267.930          46.000                                                                  
G28  22986438.770   120794543.256       -2652.495          41.000    22986428.687    94125571.799       -2067.016          43.000  
G31  21041497.440   110573818.759       -1630.225          47.000    21041484.159    86161358.994       -1270.466          44.000  
G03  24469278.195   128586977.269       -2904.248          34.000    24469273.455   100197576.268       -2262.627          35.000  
G18  25205575.516                        1409.229          29.000    25205566.265   103212581.554        1098.240          34.000  
C16  36733282.166   191279816.444           8.144          48.000    36733268.457   147909648.052           6.173          49.000  
C19  23729107.647   123563697.639       -2078.546          47.000                                                                  
C27  23634724.738   123072279.478        1207.928          47.000                                                                  
C06  36291052.383   188977008.137           5.493          47.000    36291031.915   146128947.502           4.150          49.000  
C09  37376777.186   194630668.669         118.487          45.000    37376760.249   150500726.650          91.704          48.000  
C22  24652524.141   128372193.495         741.405          42.000                                                                  
G26  20795187.799   109279455.258       -1893.256          48.000    20795177.299    85152777.867       -1475.006          45.000  
G27  22001795.099   115620220.810        3041.146          43.000    22001786.614    90093650.732        2369.483          43.000  
G09  23978240.400   126006507.878        2813.141          39.000    23978233.839    98186868.982        2192.529          40.000  
C28  24716341.214   128704481.982        -962.162          45.000                                                                  
C07  38065437.448   198216717.899         810.602          42.000    38065418.478   153273671.260         626.967          45.000  
C20  25460155.698   132577706.201       -3608.520          44.000                                                                  
C36  23901552.203   124461655.396        1427.344          44.000                                                                  
C37  24946931.757   129905222.422       -2383.180          42.000                                                                  
C10  39192998.806   204088228.287         745.702          39.000    39192984.832   157813973.603         576.765          43.000  
G08  24286901.520   127628548.413        3616.687          36.000    24286904.498    99450857.327        2818.024          37.000  
G29  25202725.181   132441208.405       -3541.129          34.000    25202714.540   103200899.731       -2759.630          36.000  
C30  25224311.435   131349648.681        2766.859          40.000                                                                  
C13                                                                  40686570.539   163827905.765       -1885.637          37.000  
C08                                                                  41604589.968   167524436.296       -1838.957          41.000  
> 2025 11 03 07 40 21.5200000  0 26                     
G04  21433454.105   112633570.963        1218.497          44.000    21433443.321    87766366.142         949.442          46.000  
G16  20196503.336   106133349.159         267.180          46.000                                                                  
G28  22986458.964   120794649.381       -2653.098          41.000    22986448.897    94125654.489       -2067.349          43.000  
G31  21041509.878   110573883.999       -1630.917          47.000    21041496.598    86161409.833       -1270.948          44.000  
G03  24469300.283   128587093.425       -2904.037          34.000    24469295.561   100197666.800       -2263.054          35.000  
G18  25205564.780                        1409.404          29.000    25205555.534   103212537.653        1097.516          34.000  
C16  36733282.095   191279816.161           7.312          48.000    36733268.427   147909647.831           5.620          49.000  
C19  23729123.617   123563780.797       -2078.979          47.000                                                                  
C27  23634715.440   123072231.182        1207.388          47.000                                                                  
C06  36291052.349   188977007.944           4.883          47.000    36291031.878   146128947.350           3.813          49.000  
C09  37376776.270   194630663.949         118.003          45.000    37376759.344   150500723.005          91.222          48.000  
C22  24652518.443   128372163.859         740.869          42.000                                                                  
G26  20795202.218   109279531.009       -1893.768          48.000    20795191.709    85152836.887       -1475.464          45.000  
G27  22001771.969   115620099.199        3040.400          43.000    22001763.473    90093555.963        2369.174          43.000  
G09  23978218.996   126006395.353        2812.884          39.000    23978212.432    98186781.290        2192.297          40.000  
C28  24716348.609   128704520.493        -962.734          45.000                                                                  
C07  38065431.250   198216685.508         809.884          42.000    38065412.262   153273646.203         626.529          45.000  
C20  25460183.406   132577850.568       -3609.090          44.000                                                                  
C36  23901541.244   124461598.323        1426.825          44.000                                                                  
C37  24946950.048   129905317.790       -2383.903          42.000                                                                  
C10  39192993.071   204088198.484         745.118          39.000    39192979.139   157813950.564         576.114          43.000  
G08  24286874.004   127628403.808        3615.577          36.000    24286876.958    99450744.639        2817.419          37.000  
G29  25202752.136   132441350.128       -3542.598          34.000    25202741.511   103201010.145       -2760.227          36.000  
C30  25224290.199   131349538.059        2765.818          40.000                                                                  
C13                                                                  40686589.306   163827981.217       -1886.191          37.000  
C08                                                                  41604608.254   167524509.869       -1839.381          41.000  
> 2025 11 03 07 40 21.5600000  0 26                     
G04  21433444.836   112633522.201        1218.679          44.000    21433434.026    87766328.145         949.615          46.000  
G16  20196501.284   106133338.440         267.568          46.000                                                                  
G28  22986479.154   120794755.474       -2652.658          41.000    22986469.059    94125737.150       -2066.888          43.000  
G31  21041522.298   110573949.209       -1630.651          47.000    21041509.000    86161460.645       -1270.676          44.000  
G03  24469322.367   128587209.584       -2903.977          34.000    24469317.661   100197757.325       -2263.129          35.000  
G18  25205554.035                        1409.134          29.000    25205544.776   103212493.709        1097.994          34.000  
C16  36733282.033   191279815.847           7.518          48.000    36733268.381   147909647.580           5.940          49.000  
C19  23729139.568   123563863.920       -2078.418          47.000                                                                  
C27  23634706.160   123072182.844        1208.021          47.000                                                                  
C06  36291052.343   188977007.728           5.089          47.000    36291031.868   146128947.176           4.083          49.000  
C09  37376775.359   194630659.197         118.448          45.000    37376758.455   150500719.329          91.588          48.000  
C22  24652512.773   128372134.190         741.297          42.000                                                                  
G26  20795216.636   109279606.724       -1893.243          48.000    20795206.114    85152895.887       -1475.220          45.000  
G27  22001748.820   115619977.559        3040.641          43.000    22001740.326    90093461.173        2369.519          43.000  
G09  23978197.608   126006282.767        2814.124          39.000    23978191.022    98186693.577        2192.651          40.000  
C28  24716356.018   128704558.978        -962.476          45.000                                                                  
C07  38065425.043   198216653.079         810.316          42.000    38065406.024   153273621.128         626.679          45.000  
C20  25460211.128   132577994.913       -3608.901          44.000                                                                  
C36  23901530.299   124461541.218        1427.246          44.000                                                                  
C37  24946968.346   129905413.129       -2383.730          42.000                                                                  
C10  39192987.334   204088168.645         745.519          39.000    39192973.389   157813927.500         576.280          43.000  
G08  24286846.481   127628259.174        3615.599          36.000    24286849.432    99450631.919        2817.695          37.000  
G29  25202779.087   132441491.788       -3542.152          34.000    25202768.481   103201120.542       -2760.132          36.000  
C30  25224268.944   131349427.390        2766.232          40.000                                                                  
C13                                                                  40686608.033   163828056.637       -1885.771          37.000  
C08                                                                  41604626.502   167524583.416       -1839.009          41.000  
> 2025 11 03 07 40 21.6000000  0 26                     
G04  21433435.553   112633473.383        1219.878          44.000    21433424.731    87766290.108         950.465          46.000  
G16  20196499.245   106133327.686         268.497          46.000                                                                  
G28  22986499.312   120794861.510       -2651.376          41.000    22986489.246    94125819.785       -2066.104          43.000  
G31  21041534.694   110574014.377       -1629.690          47.000    21041521.398    86161511.419       -1269.786          44.000  
G03  24469344.465   128587325.731       -2903.696          34.000    24469339.765   100197847.831       -2262.811          35.000  
G18  25205543.257                        1409.356          29.000    25205534.023   103212449.746        1098.656          34.000  
C16  36733281.937   191279815.483           8.597          48.000    36733268.300   147909647.308           6.531          49.000  
C19  23729155.505   123563947.014       -2077.563          47.000                                                                  
C27  23634696.863   123072134.480        1208.877          47.000                                                                  
C06  36291052.286   188977007.469           6.000          47.000    36291031.803   146128946.975           4.742          49.000  
C09  37376774.450   194630654.417         119.185          45.000    37376757.546   150500715.624          92.342          48.000  
C22  24652507.059   128372104.470         742.499          42.000                                                                  
G26  20795231.038   109279682.414       -1892.462          48.000    20795220.513    85152954.871       -1474.756          45.000  
G27  22001725.657   115619855.876        3041.598          43.000    22001717.165    90093366.358        2370.144          43.000  
G09  23978176.189   126006170.170        2814.935          39.000    23978169.593    98186605.853        2193.066          40.000  
C28  24716363.424   128704597.440        -961.870          45.000                                                                  
C07  38065418.814   198216620.627         811.041          42.000    38065399.787   153273596.035         627.134          45.000  
C20  25460238.841   132578139.221       -3608.056          44.000                                                                  
C36  23901519.344   124461484.082        1428.149          44.000                                                                  
C37  24946986.632   129905508.441       -2383.112          42.000                                                                  
C10  39192981.611   204088138.754         746.742          39.000    39192967.654   157813904.396         577.099          43.000  
G08  24286818.952   127628114.491        3616.530          36.000    24286821.922    99450519.180        2818.195          37.000  
G29  25202806.039   132441633.431       -3541.451          34.000    25202795.431   103201230.923       -2759.806          35.000  
C30  25224247.668   131349316.682        2767.255          39.000                                                                  
C13                                                                  40686626.746   163828132.028       -1885.005          37.000  
C08                                                                  41604644.753   167524656.935       -1838.257          41.000  
> 2025 11 03 07 40 21.6400000  0 26                     
G04  21433426.264   112633424.561        1220.563          44.000    21433415.444    87766252.058         951.177          46.000  
G16  20196497.196   106133316.913         269.312          46.000                                                                  
G28  22986519.466   120794967.558       -2650.963          41.000    22986509.406    94125902.407       -2065.535          43.000  
G31  21041547.106   110574079.513       -1628.606          47.000    21041533.799    86161562.181       -1269.090          44.000  
G03  24469366.550   128587441.857       -2903.229          34.000    24469361.846   100197938.332       -2262.539          35.000  
G18  25205532.527                        1410.257          28.000    25205523.270   103212405.745        1099.791          34.000  
C16  36733281.861   191279815.096           9.546          48.000    36733268.231   147909647.015           7.208          49.000  
C19  23729171.454   123564030.107       -2077.179          47.000                                                                  
C27  23634687.554   123072086.101        1209.539          47.000                                                                  
C06  36291052.244   188977007.192           6.792          47.000    36291031.759   146128946.763           5.270          49.000  
C09  37376773.558   194630649.615         119.977          45.000    37376756.623   150500711.913          92.827          48.000  
C22  24652501.338   128372074.748         743.130          42.000                                                                  
G26  20795245.426   109279758.082       -1891.699          48.000    20795234.893    85153013.826       -1474.011          45.000  
G27  22001702.499   115619734.173        3042.438          43.000    22001694.011    90093271.532        2370.647          43.000  
G09  23978154.770   126006057.575        2815.191          39.000    23978148.155    98186518.112        2193.524          40.000  
C28  24716370.815   128704635.889        -961.315          45.000                                                                  
C07  38065412.587   198216588.138         812.070          42.000    38065393.548   153273570.929         627.581          45.000  
C20  25460266.556   132578283.508       -3607.276          44.000                                                                  
C36  23901508.353   124461426.935        1428.723          44.000                                                                  
C37  24947004.954   129905603.733       -2382.447          42.000                                                                  
C10  39192975.856   204088108.879         747.078          39.000    39192961.885   157813881.282         577.716          43.000  
G08  24286791.411   127627969.807        3617.039          36.000    24286794.391    99450406.445        2818.372          37.000  
G29  25202832.978   132441775.062       -3540.808          34.000    25202822.377   103201341.265       -2758.868          35.000  
C30  25224226.378   131349205.955        2768.049          39.000                                                                  
C13                                                                  40686645.450   163828207.399       -1884.274          37.000  
C08                                                                  41604663.015   167524730.442       -1837.674          41.000  
> 2025 11 03 07 40 21.6800000  0 26                     
G04  21433416.954   112633375.752        1220.583          44.000    21433406.167    87766214.014         951.348          46.000  
G16  20196495.142   106133306.147         269.463          46.000                                                                  
G28  22986539.635   120795073.609       -2651.010          41.000    22986529.583    94125985.043       -2065.605          43.000  
G31  21041559.493   110574144.668       -1628.467          47.000    21041546.183    86161612.953       -1269.012          44.000  
G03  24469388.658   128587557.978       -2902.983          34.000    24469383.942   100198028.825       -2262.274          35.000  
G18  25205521.782                        1410.158          28.000    25205512.485   103212361.770        1099.802          34.000  
C16  36733281.792   191279814.724           9.696          48.000    36733268.145   147909646.721           7.533          49.000  
C19  23729187.421   123564113.202       -2077.118          47.000                                                                  
C27  23634678.291   123072037.735        1209.503          46.000                                                                  
C06  36291052.197   188977006.915           7.158          47.000    36291031.685   146128946.550           5.492          49.000  
C09  37376772.634   194630644.813         120.278          45.000    37376755.693   150500708.211          92.782          48.000  
C22  24652495.629   128372045.033         743.226          42.000                                                                  
G26  20795259.798   109279833.749       -1891.412          48.000    20795249.285    85153072.787       -1473.822          45.000  
G27  22001679.366   115619612.477        3042.687          43.000    22001670.859    90093176.714        2370.698          43.000  
G09  23978133.351   126005944.980        2815.161          39.000    23978126.736    98186430.381        2193.500          40.000  
C28  24716378.193   128704674.348        -961.230          44.000                                                                  
C07  38065406.353   198216555.655         812.360          42.000    38065387.302   153273545.818         627.855          45.000  
C20  25460294.268   132578427.802       -3607.049          44.000                                                                  
C36  23901497.386   124461369.790        1428.876          44.000                                                                  
C37  24947023.254   129905699.050       -2382.594          41.000                                                                  
C10  39192970.108   204088079.000         747.252          39.000    39192956.138   157813858.183         577.744          43.000  
G08  24286763.877   127627825.090        3617.792          36.000    24286766.844    99450293.691        2818.738          37.000  
G29  25202859.909   132441916.646       -3539.700          34.000    25202849.331   103201451.613       -2758.548          35.000  
C30  25224205.095   131349095.242        2768.180          39.000                                                                  
C13                                                                  40686664.189   163828282.791       -1884.408          37.000  
C08                                                                  41604681.303   167524803.952       -1837.542          41.000  
> 2025 11 03 07 40 21.7200000  0 26                     
G04  21433407.669   112633326.948        1220.406          44.000    21433396.879    87766175.991         950.994          46.000  
G16  20196493.114   106133295.395         269.157          46.000                                                                  
G28  22986559.823   120795179.664       -2651.220          41.000    22986549.781    94126067.686       -2065.889          43.000  
G31  21041571.909   110574209.844       -1628.929          47.000    21041558.596    86161663.746       -1269.438          44.000  
G03  24469410.762   128587674.115       -2903.339          34.000    24469406.050   100198119.287       -2261.617          35.000  
G18  25205511.013                        1411.012          28.000    25205501.734   103212317.808        1099.440          34.000  
C16  36733281.698   191279814.368           9.330          48.000    36733268.071   147909646.433           7.483          49.000  
C19  23729203.363   123564196.309       -2077.423          47.000                                                                  
C27  23634668.990   123071989.385        1209.075          46.000                                                                  
C06  36291052.152   188977006.652           6.954          47.000    36291031.661   146128946.347           5.349          49.000  
C09  37376771.732   194630640.023         120.113          45.000    37376754.801   150500704.510          92.709          48.000  
C22  24652489.931   128372015.336         742.844          42.000                                                                  
G26  20795274.192   109279909.425       -1891.577          48.000    20795263.690    85153131.757       -1473.993          45.000  
G27  22001656.224   115619490.801        3042.301          43.000    22001647.721    90093081.903        2370.516          43.000  
G09  23978111.945   126005832.407        2814.630          39.000    23978105.317    98186342.643        2193.542          40.000  
C28  24716385.562   128704712.811        -961.357          44.000                                                                  
C07  38065400.115   198216523.188         812.089          42.000    38065381.069   153273520.708         627.879          45.000  
C20  25460321.946   132578572.092       -3606.997          44.000                                                                  
C36  23901486.423   124461312.653        1428.705          44.000                                                                  
C37  24947041.520   129905794.362       -2382.677          41.000                                                                  
C10  39192964.373   204088049.107         747.489          39.000    39192950.375   157813835.076         577.788          43.000  
G08  24286736.359   127627680.383        3617.987          36.000    24286739.311    99450180.942        2818.777          37.000  
G29  25202886.861   132442058.244       -3539.574          34.000    25202876.301   103201561.976       -2758.743          35.000  
C30  25224183.833   131348984.531        2768.106          39.000                                                                  
C13                                                                  40686682.920   163828358.195       -1884.798          37.000  
C08                                                                  41604699.580   167524877.478       -1837.847          41.000  
> 2025 11 03 07 40 21.7600000  0 26                     
G04  21433398.391   112633278.166        1219.829          44.000    21433387.601    87766137.981         950.459          46.000  
G16  20196491.084   106133284.657         268.650          46.000                                                                  
G28  22986580.009   120795285.734       -2651.616          41.000    22986569.971    94126150.343       -2066.304          43.000  
G31  21041584.331   110574275.036       -1629.487          47.000    21041571.031    86161714.539       -1269.706          44.000  
G03  24469432.855   128587790.234       -2903.156          34.000    24469428.148   100198209.755       -2261.454          35.000  
G18  25205500.281                        1410.903          29.000    25205490.997   103212273.848        1099.080          34.000  
C16  36733281.614   191279814.013           9.082          48.000    36733268.003   147909646.159           7.137          49.000  
C19  23729219.305   123564279.411       -2077.496          47.000                                                                  
C27  23634659.688   123071941.040        1208.718          46.000                                                                  
C06  36291052.122   188977006.413           6.354          47.000    36291031.627   146128946.150           5.103          49.000  
C09  37376770.800   194630635.252         119.572          45.000    37376753.868   150500700.821          92.404          48.000  
C22  24652484.231   128371985.657         742.260          42.000                                                                  
G26  20795288.607   109279985.113       -1891.980          48.000    20795278.086    85153190.740       -1474.396          45.000  
G27  22001633.062   115619369.136        3041.816          43.000    22001624.557    90092987.086        2370.466          43.000  
G09  23978090.535   126005719.814        2814.673          39.000    23978083.887    98186254.914        2193.378          40.000  
C28  24716392.962   128704751.272        -961.478          44.000                                                                  
C07  38065393.870   198216490.730         811.683          42.000    38065374.815   153273495.603         627.793          45.000  
C20  25460349.661   132578716.401       -3607.414          44.000                                                                  
C36  23901475.467   124461255.529        1428.314          44.000                                                                  
C37  24947059.822   129905889.683       -2382.900          41.000                                                                  
C10  39192958.651   204088019.246         746.990          39.000    39192944.617   157813811.980         577.561          43.000  
G08  24286708.830   127627535.691        3617.702          37.000    24286711.783    99450068.192        2818.911          37.000  
G29  25202913.803   132442199.877       -3540.254          34.000    25202903.265   103201672.305       -2758.358          35.000  
C30  25224162.590   131348873.823        2767.959          39.000                                                                  
C13                                                                  40686701.659   163828433.595       -1884.957          37.000  
C08                                                                  41604717.824   167524951.011       -1838.199          41.000  
> 2025 11 03 07 40 21.8000000  0 26                     
G04  21433389.085   112633229.364        1219.877          44.000    21433378.324    87766099.969         950.208          46.000  
G16  20196489.050   106133273.918         268.411          46.000                                                                  
G28  22986600.198   120795391.806       -2651.833          41.000    22986590.185    94126232.995       -2066.464          43.000  
G31  21041596.738   110574340.224       -1629.724          46.000    21041583.435    86161765.346       -1270.106          44.000  
G03  24469454.947   128587906.362       -2903.332          34.000    24469450.235   100198300.245       -2261.885          35.000  
G18  25205489.537                        1410.921          29.000    25205480.268   103212229.896        1098.933          34.000  
C16  36733281.549   191279813.649           9.078          48.000    36733267.917   147909645.873           7.124          49.000  
C19  23729235.259   123564362.506       -2077.405          47.000                                                                  
C27  23634650.386   123071892.688        1208.676          46.000                                                                  
C06  36291052.084   188977006.158           6.317          47.000    36291031.597   146128945.945           5.103          49.000  
C09  37376769.889   194630630.470         119.447          45.000    37376752.950   150500697.119          92.465          48.000  
C22  24652478.552   128371955.966         742.202          42.000                                                                  
G26  20795303.024   109280060.807       -1892.316          48.000    20795292.491    85153249.722       -1474.597          45.000  
G27  22001609.923   115619247.475        3041.549          43.000    22001601.395    90092892.264        2370.548          43.000  
G09  23978069.134   126005607.221        2814.716          39.000    23978062.461    98186167.184        2193.262          40.000  
C28  24716400.354   128704789.746        -961.751          44.000                                                                  
C07  38065387.626   198216458.283         811.263          42.000    38065368.588   153273470.499         627.677          45.000  
C20  25460377.385   132578860.709       -3607.650          44.000                                                                  
C36  23901464.496   124461198.390        1428.375          44.000                                                                  
C37  24947078.126   129905985.013       -2383.223          42.000                                                                  
C10  39192952.930   204087989.378         746.790          39.000    39192938.863   157813788.899         577.217          43.000  
G08  24286681.299   127627391.010        3617.264          37.000    24286684.225    99449955.447        2818.759          37.000  
G29  25202940.755   132442341.479       -3539.971          34.000    25202930.213   103201782.674       -2758.886          35.000  
C30  25224141.323   131348763.116        2767.828          40.000                                                                  
C13                                                                  40686720.368   163828508.992       -1884.980          37.000  
C08                                                                  41604736.082   167525024.535       -1838.185          41.000  
> 2025 11 03 07 40 21.8400000  0 26                     
G04  21433379.795   112633180.588        1219.462          44.000    21433369.021    87766061.955         950.176          46.000  
G16  20196487.021   106133263.186         268.202          46.000                                                                  
G28  22986620.381   120795497.879       -2651.947          41.000    22986610.368    94126315.650       -2066.528          43.000  
G31  21041609.135   110574405.419       -1629.963          46.000    21041595.827    86161816.143       -1270.151          44.000  
G03  24469477.040   128588022.508       -2903.605          34.000    24469472.346   100198390.766       -2262.821          35.000  
G18  25205478.822                        1411.043          29.000    25205469.511   103212185.935        1098.983          34.000  
C16  36733281.488   191279813.288           9.032          48.000    36733267.866   147909645.607           6.758          49.000  
C19  23729251.234   123564445.611       -2077.625          47.000                                                                  
C27  23634641.119   123071844.347        1208.461          46.000                                                                  
C06  36291052.048   188977005.903           6.270          47.000    36291031.571   146128945.759           4.734          49.000  
C09  37376768.945   194630625.705         119.113          45.000    37376752.031   150500693.427          92.305          48.000  
C22  24652472.870   128371926.264         742.351          42.000                                                                  
G26  20795317.452   109280136.515       -1892.737          48.000    20795306.902    85153308.715       -1474.890          45.000  
G27  22001586.754   115619125.813        3041.436          43.000    22001578.256    90092797.452        2370.349          43.000  
G09  23978047.730   126005494.659        2814.178          39.000    23978041.032    98186079.458        2193.109          40.000  
C28  24716407.736   128704828.209        -961.726          43.000                                                                  
C07  38065381.372   198216425.837         811.029          42.000    38065362.359   153273445.404         627.427          46.000  
C20  25460405.069   132579005.042       -3608.248          44.000                                                                  
C36  23901453.518   124461141.252        1428.430          44.000                                                                  
C37  24947096.442   129906080.356       -2383.596          42.000                                                                  
C10  39192947.201   204087959.554         745.819          39.000    39192933.141   157813765.820         576.983          43.000  
G08  24286653.772   127627246.359        3616.503          36.000    24286656.716    99449842.751        2817.717          37.000  
G29  25202967.682   132442483.122       -3540.697          34.000    25202957.168   103201893.020       -2758.895          35.000  
C30  25224120.083   131348652.404        2767.782          40.000                                                                  
C13                                                                  40686739.105   163828584.402       -1885.205          37.000  
C08                                                                  41604754.302   167525098.064       -1838.259          41.000  
> 2025 11 03 07 40 21.8800000  0 26                     
G04  21433370.522   112633131.810        1219.301          44.000    21433359.718    87766023.949         950.077          46.000  
G16  20196484.979   106133252.449         268.224          46.000                                                                  
G28  22986640.586   120795603.975       -2652.325          41.000    22986630.549    94126398.313       -2066.630          43.000  
G31  21041621.542   110574470.619       -1630.138          46.000    21041608.210    86161866.938       -1270.063          44.000  
G03  24469499.135   128588138.639       -2903.558          34.000    24469494.434   100198481.276       -2263.018          35.000  
G18  25205468.069                        1410.047          29.000    25205458.764   103212142.003        1098.439          34.000  
C16  36733281.393   191279812.939           8.767          48.000    36733267.792   147909645.351           6.390          49.000  
C19  23729267.191   123564528.740       -2078.149          47.000                                                                  
C27  23634631.817   123071796.009        1208.370          46.000                                                                  
C06  36291052.010   188977005.654           6.183          47.000    36291031.535   146128945.578           4.496          49.000  
C09  37376768.038   194630620.932         119.149          45.000    37376751.119   150500689.730          92.327          48.000  
C22  24652467.174   128371896.583         742.086          42.000                                                                  
G26  20795331.845   109280212.214       -1892.694          47.000    20795321.309    85153367.718       -1475.189          44.000  
G27  22001563.599   115619004.154        3041.362          43.000    22001555.132    90092702.656        2369.986          43.000  
G09  23978026.286   126005382.074        2814.374          39.000    23978019.603    98185991.742        2192.865          40.000  
C28  24716415.132   128704866.691        -961.974          43.000                                                                  
C07  38065375.113   198216393.392         811.013          42.000    38065356.122   153273420.309         627.323          46.000  
C20  25460432.784   132579149.385       -3608.661          44.000                                                                  
C36  23901442.558   124461084.123        1428.302          44.000                                                                  
C37  24947114.746   129906175.693       -2383.619          42.000                                                                  
C10  39192941.481   204087929.714         745.634          39.000    39192927.388   157813742.725         577.114          43.000  
G08  24286626.232   127627101.688        3616.448          36.000    24286629.199    99449730.032        2817.649          37.000  
G29  25202994.640   132442624.773       -3541.186          34.000    25202984.120   103202003.388       -2759.177          35.000  
C30  25224098.825   131348541.682        2767.969          40.000                                                                  
C13                                                                  40686757.834   163828659.837       -1885.745          37.000  
C08                                                                  41604772.575   167525171.604       -1838.492          41.000  
> 2025 11 03 07 40 21.9200000  0 26                     
G04  21433361.240   112633083.017        1219.537          44.000    21433350.446    87765985.920         950.455          47.000  
G16  20196482.916   106133241.703         268.482          46.000                                                                  
G28  22986660.775   120795710.053       -2652.109          41.000    22986650.735    94126480.968       -2066.520          43.000  
G31  21041633.926   110574535.798       -1629.794          46.000    21041620.600    86161917.731       -1269.960          44.000  
G03  24469521.239   128588254.765       -2903.354          34.000    24469516.534   100198571.788       -2263.057          35.000  
G18  25205457.341                        1409.850          29.000    25205448.028   103212098.048        1098.771          34.000  
C16  36733281.313   191279812.575           8.925          48.000    36733267.728   147909645.085           6.433          49.000  
C19  23729283.154   123564611.859       -2078.174          47.000                                                                  
C27  23634622.551   123071747.663        1208.507          46.000                                                                  
C06  36291051.963   188977005.392           6.392          47.000    36291031.494   146128945.383           4.656          49.000  
C09  37376767.134   194630616.141         119.559          45.000    37376750.195   150500686.033          92.380          48.000  
C22  24652461.464   128371866.895         742.093          42.000                                                                  
G26  20795346.233   109280287.904       -1892.462          47.000    20795335.694    85153426.689       -1474.634          44.000  
G27  22001540.443   115618882.466        3041.892          44.000    22001531.977    90092607.849        2369.989          43.000  
G09  23978004.873   126005269.510        2814.142          39.000    23977998.186    98185904.023        2192.804          40.000  
C28  24716422.535   128704905.137        -961.464          42.000                                                                  
C07  38065368.907   198216360.924         811.456          42.000    38065349.892   153273395.202         627.520          46.000  
C20  25460460.491   132579293.686       -3608.030          44.000                                                                  
C36  23901431.610   124461026.993        1428.229          44.000                                                                  
C37  24947133.077   129906271.017       -2383.365          42.000                                                                  
C10  39192935.729   204087899.837         746.336          39.000    39192921.640   157813719.630         577.251          43.000  
G08  24286598.717   127626957.043        3616.057          36.000    24286601.674    99449617.301        2817.921          37.000  
G29  25203021.571   132442766.427       -3541.419          34.000    25203011.089   103202113.753       -2759.185          35.000  
C30  25224077.574   131348430.955        2768.144          41.000                                                                  
C13                                                                  40686776.593   163828735.238       -1885.373          37.000  
C08                                                                  41604790.829   167525245.135       -1838.417          41.000  
> 2025 11 03 07 40 21.9600000  0 26                     
G04  21433351.960   112633034.219        1219.769          44.000    21433341.152    87765947.889         950.719          47.000  
G16  20196480.848   106133230.940         268.929          46.000                                                                  
G28  22986680.950   120795816.125       -2651.965          39.000    22986670.925    94126563.601       -2066.003          43.000  
G31  21041646.328   110574600.966       -1629.396          46.000    21041633.012    86161968.513       -1269.678          44.000  
G03  24469543.336   128588370.895       -2903.309          34.000    24469538.618   100198662.270       -2262.445          35.000  
G18  25205446.643                        1410.095          29.000    25205437.325   103212054.076        1099.165          34.000  
C16  36733281.250   191279812.212           9.017          48.000    36733267.676   147909644.798           6.877          48.000  
C19  23729299.105   123564694.964       -2077.832          47.000                                                                  
C27  23634613.267   123071699.305        1208.846          45.000                                                                  
C06  36291051.932   188977005.132           6.454          47.000    36291031.459   146128945.175           5.001          49.000  
C09  37376766.211   194630611.347         119.816          46.000    37376749.276   150500682.327          92.553          48.000  
C22  24652455.785   128371837.193         742.406          42.000                                                                  
G26  20795360.629   109280363.577       -1891.998          47.000    20795350.089    85153485.664       -1474.390          44.000  
G27  22001517.283   115618760.772        3042.305          44.000    22001508.810    90092513.032        2370.241          43.000  
G09  23977983.450   126005156.919        2814.557          39.000    23977976.752    98185816.295        2193.005          40.000  
C28  24716429.891   128704943.578        -961.052          42.000                                                                  
C07  38065362.669   198216328.440         811.968          42.000    38065343.656   153273370.091         627.689          46.000  
C20  25460488.195   132579437.985       -3607.616          44.000                                                                  
C36  23901420.645   124460969.861        1428.253          44.000                                                                  
C37  24947151.399   129906366.307       -2382.578          42.000                                                                  
C10  39192929.961   204087869.937         747.197          39.000    39192915.854   157813696.514         577.715          43.000  
G08  24286571.190   127626812.322        3617.384          36.000    24286574.138    99449504.528        2818.860          37.000  
G29  25203048.470   132442908.080       -3541.504          35.000    25203038.052   103202224.112       -2759.065          35.000  
C30  25224056.295   131348320.236        2768.062          41.000                                                                  
C13                                                                  40686795.329   163828810.630       -1884.960          37.000  
C08                                                                  41604809.073   167525318.655       -1838.183          41.000  
> 2025 11 03 07 40 22.0000000  0 26                     
G04  21433342.651   112632985.410        1220.128          44.000    21433331.862    87765909.847         951.039          47.000  
G16  20196478.798   106133220.179         269.093          46.000                                                                  
G28  22986701.130   120795922.188       -2651.696          39.000    22986691.091    94126646.235       -2065.821          43.000  
G31  21041658.739   110574666.132       -1629.166          46.000    21041645.391    86162019.294       -1269.543          44.000  
G03  24469565.427   128588487.014       -2903.059          34.000    24469560.708   100198752.740       -2261.830          35.000  
G18  25205435.900                        1410.363          28.000    25205426.561   103212010.069        1100.021          34.000  
C16  36733281.170   191279811.851           9.014          48.000    36733267.628   147909644.507           7.205          48.000  
C19  23729315.080   123564778.056       -2077.429          47.000                                                                  
C27  23634603.991   123071650.947        1208.975          45.000                                                                  
C06  36291051.897   188977004.863           6.649          47.000    36291031.417   146128944.965           5.204          49.000  
C09  37376765.288   194630606.540         120.161          46.000    37376748.333   150500678.619          92.697          48.000  
C22  24652450.074   128371807.506         742.249          42.000                                                                  
G26  20795375.041   109280439.255       -1891.876          47.000    20795364.480    85153544.622       -1473.981          44.000  
G27  22001494.132   115618639.081        3042.379          44.000    22001485.657    90092418.211        2370.446          43.000  
G09  23977962.003   126005044.322        2814.917          39.000    23977955.336    98185728.554        2193.408          40.000  
C28  24716437.257   128704982.009        -960.738          41.000                                                                  
C07  38065356.442   198216295.966         812.042          42.000    38065337.409   153273344.983         627.718          45.000  
C20  25460515.927   132579582.271       -3607.202          44.000                                                                  
C36  23901409.681   124460912.715        1428.522          44.000                                                                  
C37  24947169.686   129906461.613       -2382.478          42.000                                                                  
C10  39192924.239   204087840.046         747.403          39.000    39192910.110   157813673.396         577.962          43.000  
G08  24286543.657   127626667.616        3617.723          37.000    24286546.593    99449391.770        2819.028          37.000  
G29  25203075.397   132443049.702       -3540.878          37.000    25203065.015   103202334.472       -2758.981          35.000  
C30  25224035.022   131348209.509        2768.157          41.000                                                                  
C13                                                                  40686814.069   163828886.023       -1884.756          37.000  
C08                                                                  41604827.331   167525392.157       -1837.703          41.000  
> 2025 11 03 07 40 22.0400000  0 26                     
G04  21433333.377   112632936.593        1220.417          44.000    21433322.595    87765871.810         951.047          47.000  
G16  20196476.750   106133209.419         269.096          46.000                                                                  
G28  22986721.300   120796028.249       -2651.557          39.000    22986711.267    94126728.883       -2066.067          43.000  
G31  21041671.156   110574731.294       -1628.989          46.000    21041657.791    86162070.067       -1269.333          44.000  
G03  24469587.545   128588603.136       -2903.008          34.000    24469582.796   100198843.220       -2261.719          35.000  
G18  25205425.136                        1411.832          28.000    25205415.823   103211966.068        1100.430          33.000  
C16  36733281.088   191279811.485           9.104          47.000    36733267.571   147909644.209           7.480          48.000  
C19  23729331.037   123564861.145       -2077.191          47.000                                                                  
C27  23634594.673   123071602.587        1209.022          45.000                                                                  
C06  36291051.892   188977004.599           6.648          47.000    36291031.362   146128944.750           5.383          49.000  
C09  37376764.362   194630601.747         120.000          46.000    37376747.412   150500674.901          92.916          48.000  
C22  24652444.367   128371777.824         742.080          42.000                                                                  
G26  20795389.437   109280514.927       -1891.742          47.000    20795378.878    85153603.589       -1474.005          44.000  
G27  22001470.983   115618517.381        3042.531          44.000    22001462.489    90092323.385        2370.634          43.000  
G09  23977940.570   126004931.719        2815.167          39.000    23977933.904    98185640.809        2193.640          40.000  
C28  24716444.619   128705020.432        -960.559          41.000                                                                  
C07  38065350.208   198216263.482         812.136          42.000    38065331.189   153273319.867         627.854          45.000  
C20  25460543.642   132579726.554       -3606.960          44.000                                                                  
C36  23901398.693   124460855.583        1428.369          44.000                                                                  
C37  24947187.990   129906556.899       -2382.130          41.000                                                                  
C10  39192918.497   204087810.158         747.393          39.000    39192904.361   157813650.290         577.803          43.000  
G08  24286516.103   127626522.919        3617.656          37.000    24286519.064    99449279.011        2819.081          37.000  
G29  25203102.311   132443191.307       -3540.272          37.000    25203091.975   103202444.826       -2758.922          35.000  
C30  25224013.760   131348098.790        2768.057          40.000                                                                  
C13                                                                  40686832.777   163828961.381       -1884.052          37.000  
C08                                                                  41604845.583   167525465.650       -1837.329          41.000  
> 2025 11 03 07 40 22.0800000  0 26                     
G04  21433324.065   112632887.765        1220.743          44.000    21433313.316    87765833.775         950.969          48.000  
G16  20196474.716   106133198.657         269.106          46.000                                                                  
G28  22986741.484   120796134.297       -2651.272          39.000    22986731.456    94126811.528       -2066.155          43.000  
G31  21041683.565   110574796.463       -1629.092          46.000    21041670.208    86162120.847       -1269.408          44.000  
G03  24469609.649   128588719.302       -2903.785          34.000    24469604.880   100198933.705       -2261.809          35.000  
G18  25205414.392                        1411.224          28.000    25205405.056   103211922.081        1100.223          30.000  
C16  36733281.008   191279811.116           9.169          47.000    36733267.490   147909643.917           7.464          48.000  
C19  23729346.980   123564944.239       -2077.234          47.000                                                                  
C27  23634585.375   123071554.238        1208.824          45.000                                                                  
C06  36291051.858   188977004.327           6.768          47.000    36291031.317   146128944.534           5.470          49.000  
C09  37376763.439   194630596.956         119.863          45.000    37376746.472   150500671.184          92.979          49.000  
C22  24652438.671   128371748.127         742.288          42.000                                                                  
G26  20795403.861   109280590.603       -1891.815          47.000    20795393.296    85153662.563       -1474.207          44.000  
G27  22001447.846   115618395.695        3042.349          43.000    22001439.346    90092228.582        2370.255          42.000  
G09  23977919.148   126004819.119        2815.155          39.000    23977912.486    98185553.070        2193.634          40.000  
C28  24716452.002   128705058.864        -960.604          39.000                                                                  
C07  38065343.965   198216231.018         811.831          42.000    38065324.947   153273294.766         627.658          44.000  
C20  25460571.348   132579870.836       -3606.889          45.000                                                                  
C36  23901387.752   124460798.457        1428.186          44.000                                                                  
C37  24947206.264   129906652.191       -2382.119          41.000                                                                  
C10  39192912.730   204087780.263         747.431          39.000    39192898.638   157813627.178         577.846          43.000  
G08  24286488.575   127626378.201        3617.981          37.000    24286491.520    99449166.259        2818.943          37.000  
G29  25203129.262   132443332.901       -3539.742          37.000    25203118.942   103202555.178       -2758.814          35.000  
C30  25223992.482   131347988.076        2767.892          38.000                                                                  
C13                                                                  40686851.480   163829036.756       -1884.133          37.000  
C08                                                                  41604863.854   167525539.161       -1837.486          41.000  
> 2025 11 03 07 40 22.1200000  0 26                     
G04  21433314.776   112632838.947        1220.671          45.000    21433304.039    87765795.743         950.881          48.000  
G16  20196472.693   106133187.892         269.149          46.000                                                                  
G28  22986761.663   120796240.339       -2651.038          39.000    22986751.631    94126894.177       -2066.286          42.000  
G31  21041695.970   110574861.632       -1629.166          46.000    21041682.602    86162171.635       -1269.635          44.000  
G03  24469631.760   128588835.445       -2903.772          34.000    24469626.974   100199024.186       -2261.957          35.000  
G18  25205403.659                        1411.392          28.000    25205394.299   103211878.108        1099.679          30.000  
C16  36733280.910   191279810.753           9.089          47.000    36733267.446   147909643.626           7.390          48.000  
C19  23729362.937   123565027.323       -2077.136          47.000                                                                  
C27  23634576.072   123071505.885        1208.806          45.000                                                                  
C06  36291051.836   188977004.054           6.841          47.000    36291031.254   146128944.322           5.400          49.000  
C09  37376762.527   194630592.159         119.908          45.000    37376745.534   150500667.466          92.998          49.000  
C22  24652432.964   128371718.411         742.742          42.000                                                                  
G26  20795418.288   109280666.285       -1891.986          47.000    20795407.696    85153721.531       -1474.243          44.000  
G27  22001424.707   115618274.021        3041.984          43.000    22001416.199    90092133.776        2370.076          42.000  
G09  23977897.725   126004706.521        2815.033          39.000    23977891.083    98185465.346        2193.256          40.000  
C28  24716459.379   128705097.312        -960.990          39.000                                                                  
C07  38065337.720   198216198.551         811.687          42.000    38065318.726   153273269.665         627.539          43.000  
C20  25460599.022   132580015.117       -3606.893          45.000                                                                  
C36  23901376.801   124460741.309        1428.540          44.000                                                                  
C37  24947224.576   129906747.496       -2382.400          41.000                                                                  
C10  39192907.006   204087750.377         747.282          39.000    39192892.897   157813604.082         577.550          43.000  
G08  24286461.025   127626233.475        3618.246          37.000    24286463.978    99449053.503        2818.870          37.000  
G29  25203156.195   132443474.493       -3539.590          37.000    25203145.893   103202665.562       -2759.423          35.000  
C30  25223971.212   131347877.367        2767.694          38.000                                                                  
C13                                                                  40686870.238   163829112.124       -1884.070          37.000  
C08                                                                  41604882.075   167525612.671       -1837.647          42.000  
> 2025 11 03 07 40 22.1600000  0 26                     
G04  21433305.489   112632790.131        1220.577          45.000    21433294.741    87765757.700         950.992          48.000  
G16  20196470.649   106133177.127         269.141          46.000                                                                  
G28  22986781.864   120796346.386       -2651.030          39.000    22986771.796    94126976.822       -2066.247          42.000  
G31  21041708.369   110574926.802       -1629.260          46.000    21041695.001    86162222.411       -1269.540          44.000  
G03  24469653.834   128588951.577       -2903.575          34.000    24469649.054   100199114.664       -2261.969          36.000  
G18  25205392.917                        1412.554          28.000    25205383.536   103211834.117        1099.437          30.000  
C16  36733280.844   191279810.374           9.351          47.000    36733267.390   147909643.336           7.309          48.000  
C19  23729378.885   123565110.409       -2077.118          47.000                                                                  
C27  23634566.826   123071457.528        1208.905          45.000                                                                  
C06  36291051.756   188977003.777           6.954          47.000    36291031.199   146128944.111           5.304          48.000  
C09  37376761.587   194630587.357         119.997          45.000    37376744.634   150500663.749          92.976          49.000  
C22  24652427.260   128371688.681         743.210          42.000                                                                  
G26  20795432.684   109280741.961       -1891.992          46.000    20795422.100    85153780.510       -1474.414          44.000  
G27  22001401.545   115618152.346        3041.837          42.000    22001393.043    90092038.961        2370.214          42.000  
G09  23977876.296   126004593.931        2814.874          39.000    23977869.649    98185377.618        2193.127          40.000  
C28  24716466.786   128705135.751        -961.108          37.000                                                                  
C07  38065331.480   198216166.080         811.683          42.000    38065312.510   153273244.563         627.484          43.000  
C20  25460626.723   132580159.394       -3606.873          45.000                                                                  
C36  23901365.808   124460684.154        1428.857          45.000                                                                  
C37  24947242.864   129906842.803       -2382.642          39.000                                                                  
C10  39192901.250   204087720.496         747.082          39.000    39192887.180   157813580.969         577.674          43.000  
G08  24286433.496   127626088.768        3617.971          38.000    24286436.444    99448940.734        2819.102          37.000  
G29  25203183.139   132443616.126       -3540.313          37.000    25203172.866   103202775.894       -2758.688          35.000  
C30  25223949.921   131347766.633        2768.071          38.000                                                                  
C13                                                                  40686888.941   163829187.506       -1884.387          37.000  
C08                                                                  41604900.330   167525686.175       -1837.616          42.000  
> 2025 11 03 07 40 22.2000000  0 26                     
G04  21433296.203   112632741.336        1220.099          45.000    21433285.450    87765719.660         951.016          48.000  
G16  20196468.622   106133166.369         268.985          46.000                                                                  
G28  22986802.050   120796452.449       -2651.309          39.000    22986791.995    94127059.449       -2065.862          42.000  
G31  21041720.764   110574991.972       -1629.283          45.000    21041707.403    86162273.189       -1269.499          44.000  
G03  24469675.929   128589067.650       -2902.375          34.000    24469671.153   100199205.135       -2261.891          36.000  
G18  25205382.152                        1412.198          20.000    25205372.799   103211790.163        1098.987          30.000  
C16  36733280.779   191279809.998           9.437          47.000    36733267.345   147909643.041           7.363          48.000  
C19  23729394.828   123565193.496       -2077.167          48.000                                                                  
C27  23634557.538   123071409.154        1209.250          45.000                                                                  
C06  36291051.724   188977003.496           7.037          47.000    36291031.146   146128943.900           5.251          48.000  
C09  37376760.658   194630582.556         120.042          45.000    37376743.714   150500660.032          92.936          48.000  
C22  24652421.541   128371658.963         743.170          43.000                                                                  
G26  20795447.074   109280817.641       -1892.041          46.000    20795436.472    85153839.480       -1474.347          43.000  
G27  22001378.379   115618030.658        3042.025          41.000    22001369.874    90091944.141        2370.355          41.000  
G09  23977854.861   126004481.329        2815.015          39.000    23977848.212    98185289.891        2193.054          40.000  
C28  24716474.185   128705174.202        -961.399          37.000                                                                  
C07  38065325.237   198216133.596         812.000          42.000    38065306.282   153273219.453         627.630          43.000  
C20  25460654.417   132580303.684       -3607.132          45.000                                                                  
C36  23901354.848   124460626.988        1429.175          45.000                                                                  
C37  24947261.182   129906938.108       -2382.672          39.000                                                                  
C10  39192895.501   204087690.610         747.073          39.000    39192881.434   157813557.848         577.905          43.000  
G08  24286405.946   127625944.060        3617.773          38.000    24286408.889    99448827.973        2819.041          37.000  
G29  25203210.059   132443757.754       -3540.709          37.000    25203199.797   103202886.243       -2758.652          35.000  
C30  25223928.661   131347655.905        2768.188          36.000                                                                  
C13                                                                  40686907.645   163829262.884       -1884.541          37.000  
C08                                                                  41604918.575   167525759.678       -1837.617          42.000  
> 2025 11 03 07 40 22.2400000  0 26                     
G04  21433286.920   112632692.530        1220.052          45.000    21433276.162    87765681.619         951.019          48.000  
G16  20196466.596   106133155.611         268.936          46.000                                                                  
G28  22986822.226   120796558.497       -2651.188          39.000    22986812.185    94127142.081       -2065.752          42.000  
G31  21041733.154   110575057.138       -1629.205          45.000    21041719.776    86162323.966       -1269.496          43.000  
G03  24469698.000   128589183.738       -2901.949          34.000    24469693.246   100199295.608       -2261.897          36.000  
G18  25205371.468                        1410.486          20.000    25205362.043   103211746.177        1099.060          30.000  
C16  36733280.706   191279809.621           9.435          47.000    36733267.277   147909642.753           7.249          48.000  
C19  23729410.778   123565276.589       -2077.283          48.000                                                                  
C27  23634548.277   123071360.781        1209.390          45.000                                                                  
C06  36291051.678   188977003.225           6.858          47.000    36291031.109   146128943.685           5.313          48.000  
C09  37376759.718   194630577.748         120.146          45.000    37376742.808   150500656.318          92.839          48.000  
C22  24652415.838   128371629.261         742.806          44.000                                                                  
G26  20795461.459   109280893.315       -1891.919          45.000    20795450.850    85153898.443       -1474.188          43.000  
G27  22001355.226   115617908.972        3042.096          41.000    22001346.722    90091849.304        2370.754          41.000  
G09  23977833.423   126004368.728        2815.027          39.000    23977826.779    98185202.149        2193.396          40.000  
C28  24716481.562   128705212.648        -961.456          37.000                                                                  
C07  38065318.985   198216101.115         812.033          42.000    38065300.062   153273194.337         627.818          43.000  
C20  25460682.145   132580447.978       -3607.315          45.000                                                                  
C36  23901343.880   124460569.826        1429.205          46.000                                                                  
C37  24947279.529   129907033.403       -2382.527          39.000                                                                  
C10  39192889.768   204087660.730         747.000          39.000    39192875.685   157813534.741         577.744          43.000  
G08  24286378.410   127625799.364        3617.431          38.000    24286381.350    99448715.201        2819.240          37.000  
G29  25203236.992   132443899.377       -3540.810          37.000    25203226.747   103202996.563       -2758.158          35.000  
C30  25223907.390   131347545.174        2768.282          36.000                                                                  
C13                                                                  40686926.375   163829338.270       -1884.722          37.000  
C08                                                                  41604936.827   167525833.180       -1837.580          42.000  
> 2025 11 03 07 40 22.2800000  0 26                     
G04  21433277.634   112632643.714        1220.238          45.000    21433266.904    87765643.593         950.747          47.000  
G16  20196464.539   106133144.858         268.819          45.000                                                                  
G28  22986842.406   120796664.558       -2651.350          39.000    22986832.369    94127224.721       -2065.913          42.000  
G31  21041745.546   110575122.300       -1629.108          45.000    21041732.204    86162374.738       -1269.360          43.000  
G03  24469720.077   128589299.876       -2902.810          34.000    24469715.355   100199386.104       -2262.347          36.000  
G18  25205360.769                        1408.677          20.000    25205351.291                        1099.573          29.000  
C16  36733280.611   191279809.244           9.465          47.000    36733267.225   147909642.471           7.097          48.000  
C19  23729426.739   123565359.682       -2077.356          48.000                                                                  
C27  23634538.974   123071312.429        1209.038          44.000                                                                  
C06  36291051.637   188977002.955           6.769          47.000    36291031.073   146128943.477           5.228          48.000  
C09  37376758.795   194630572.935         120.277          45.000    37376741.889   150500652.601          92.860          48.000  
C22  24652410.119   128371599.562         742.528          44.000                                                                  
G26  20795475.834   109280968.981       -1891.699          45.000    20795465.261    85153957.408       -1474.140          43.000  
G27  22001332.080   115617787.286        3042.148          41.000    22001323.573    90091754.480        2370.739          41.000  
G09  23977812.003   126004256.117        2815.210          39.000    23977805.359    98185114.410        2193.451          40.000  
C28  24716488.948   128705251.061        -960.743          37.000                                                                  
C07  38065312.764   198216068.632         812.101          41.000    38065293.818   153273169.225         627.834          43.000  
C20  25460709.883   132580592.269       -3607.355          45.000                                                                  
C36  23901332.898   124460512.671        1429.022          46.000                                                                  
C37  24947297.855   129907128.685       -2382.193          39.000                                                                  
C10  39192884.051   204087630.831         747.305          39.000    39192869.951   157813511.633         577.663          43.000  
G08  24286350.888   127625654.666        3617.399          38.000    24286353.808    99448602.453        2818.955          37.000  
G29  25203263.928   132444040.996       -3540.698          37.000    25203253.719   103203106.926       -2758.708          35.000  
C30  25223886.112   131347434.476        2767.681          36.000                                                                  
C13                                                                  40686945.100   163829413.658       -1884.811          37.000  
C08                                                                  41604955.077   167525906.681       -1837.499          42.000  
> 2025 11 03 07 40 22.3200000  0 26                     
G04  21433268.354   112632594.904        1220.223          45.000    21433257.599    87765605.563         950.690          47.000  
G16  20196462.463   106133134.102         268.820          45.000                                                                  
G28  22986862.590   120796770.624       -2651.615          39.000    22986852.537    94127307.353       -2065.851          42.000  
G31  21041757.928   110575187.457       -1628.952          45.000    21041744.597    86162425.513       -1269.366          43.000  
G03  24469742.173   128589415.961       -2902.379          34.000    24469737.426   100199476.570       -2261.970          36.000  
G18  25205350.066                3       1408.426          20.000    25205340.526                        1098.836          29.000  
C16  36733280.520   191279808.875           9.292          47.000    36733267.169   147909642.171           7.335          48.000  
C19  23729442.726   123565442.774       -2077.356          48.000                                                                  
C27  23634529.693   123071264.061        1209.162          44.000                                                                  
C06  36291051.609   188977002.677           6.843          47.000    36291030.997   146128943.254           5.433          48.000  
C09  37376757.881   194630568.126         120.286          45.000    37376740.954   150500648.885          92.888          48.000  
C22  24652404.428   128371569.857         742.476          44.000                                                                  
G26  20795490.218   109281044.653       -1891.736          45.000    20795479.665    85154016.377       -1474.194          43.000  
G27  22001308.902   115617665.593        3042.295          41.000    22001300.431    90091659.663        2370.538          41.000  
G09  23977790.581   126004143.528        2814.899          39.000    23977783.925    98185026.668        2193.579          40.000  
C28  24716496.323   128705289.497        -960.809          37.000                                                                  
C07  38065306.511   198216036.151         812.080          41.000    38065287.596   153273144.111         627.812          43.000  
C20  25460737.624   132580736.548       -3607.133          45.000                                                                  
C36  23901321.920   124460455.524        1428.754          46.000                                                                  
C37  24947316.155   129907223.983       -2382.289          38.000                                                                  
C10  39192878.297   204087600.933         747.442          39.000    39192864.205   157813488.524         577.688          43.000  
G08  24286323.314   127625509.947        3617.631          38.000    24286326.266    99448489.686        2819.103          37.000  
G29  25203290.874   132444182.595       -3540.268          36.000    25203280.675   103203217.282       -2758.910          35.000  
C30  25223864.860   131347323.725        2768.362          36.000                                                                  
C13                                                                  40686963.823   163829489.037       -1884.647          37.000  
C08                                                                  41604973.335   167525980.181       -1837.481          42.000  
> 2025 11 03 07 40 22.3600000  0 26                     
G04  21433259.067   112632546.088        1220.308          45.000    21433248.293    87765567.524         950.828          47.000  
G16  20196460.381   106133123.331         269.107          45.000                                                                  
G28  22986882.785   120796876.661       -2651.191          38.000    22986872.695    94127389.985       -2065.840          42.000  
G31  21041770.332   110575252.616       -1628.933          45.000    21041756.975    86162476.286       -1269.320          43.000  
G03  24469764.273   128589532.093       -2903.002          34.000    24469759.533   100199567.044       -2261.823          36.000  
G18  25205339.264                3       1403.148          18.000    25205329.822                        1099.278          23.000  
C16  36733280.445   191279808.495           9.426          46.000    36733267.102   147909641.869           7.515          47.000  
C19  23729458.698   123565525.859       -2077.209          48.000                                                                  
C27  23634520.442   123071215.687        1209.309          44.000                                                                  
C06  36291051.566   188977002.393           7.024          47.000    36291030.949   146128943.031           5.553          47.000  
C09  37376756.986   194630563.312         120.374          45.000    37376740.009   150500645.159          93.080          48.000  
C22  24652398.756   128371540.146         742.573          44.000                                                                  
G26  20795504.615   109281120.323       -1891.754          45.000    20795494.052    85154075.343       -1474.182          43.000  
G27  22001285.767   115617543.920        3041.952          41.000    22001277.292    90091564.848        2370.377          41.000  
G09  23977769.131   126004030.921        2815.076          39.000    23977762.501    98184938.923        2193.628          40.000  
C28  24716503.711   128705327.938        -960.970          37.000                                                                  
C07  38065300.292   198216003.683         811.829          41.000    38065281.345   153273118.998         627.800          42.000  
C20  25460765.367   132580880.821       -3606.905          45.000                                                                  
C36  23901310.953   124460398.368        1428.803          46.000                                                                  
C37  24947334.473   129907319.246       -2381.798          38.000                                                                  
C10  39192872.556   204087571.059         747.067          39.000    39192858.457   157813465.412         577.730          43.000  
G08  24286295.790   127625365.239        3617.695          36.000    24286298.726    99448376.931        2818.961          37.000  
G29  25203317.827   132444324.211       -3540.351          36.000    25203307.608   103203327.623       -2758.664          35.000  
C30  25223843.588   131347212.969        2768.836          36.000                                                                  
C13                                                                  40686982.539   163829564.399       -1884.215          37.000  
C08                                                                  41604991.571   167526053.685       -1837.556          42.000  
> 2025 11 03 07 40 22.4000000  0 26                     
G04  21433249.786   112632497.277        1220.293          45.000    21433238.994    87765529.487         950.886          47.000  
G16  20196458.327   106133112.564         269.186          45.000                                                                  
G28  22986902.971   120796982.697       -2650.981          38.000    22986892.868    94127472.613       -2065.746          41.000  
G31  21041782.706   110575317.774       -1628.913          46.000    21041769.346    86162527.056       -1269.250          43.000  
G03  24469786.370   128589648.165       -2902.174          34.000    24469781.622   100199657.505       -2261.594          36.000  
G18  25205328.908                3       1403.148          19.000    25205319.105                        1098.917          23.000  
C16  36733280.345   191279808.106           9.666          46.000    36733267.037   147909641.566           7.579          47.000  
C19  23729474.655   123565608.935       -2076.978          48.000                                                                  
C27  23634511.137   123071167.314        1209.395          44.000                                                                  
C06  36291051.523   188977002.100           7.274          47.000    36291030.896   146128942.811           5.535          47.000  
C09  37376756.071   194630558.506         120.248          45.000    37376739.086   150500641.434          93.120          48.000  
C22  24652393.059   128371510.428         742.817          44.000                                                                  
G26  20795519.017   109281195.992       -1891.724          45.000    20795508.452    85154134.301       -1474.005          42.000  
G27  22001262.605   115617422.222        3042.234          40.000    22001254.114    90091470.021        2370.599          41.000  
G09  23977747.690   126003918.319        2815.070          40.000    23977741.084    98184851.174        2193.726          40.000  
C28  24716511.099   128705366.370        -960.863          37.000                                                                  
C07  38065294.033   198215971.194         812.075          40.000    38065275.115   153273093.879         627.913          42.000  
C20  25460793.058   132581025.093       -3606.789          45.000                                                                  
C36  23901299.993   124460341.206        1428.949          46.000                                                                  
C37  24947352.768   129907414.533       -2381.970          37.000                                                                  
C10  39192866.830   204087541.161         747.324          39.000    39192852.707   157813442.296         577.790          43.000  
G08  24286268.231   127625220.516        3617.992          37.000    24286271.192    99448264.183        2818.696          37.000  
G29  25203344.763   132444465.812       -3540.121          37.000    25203334.571   103203437.966       -2758.652          35.000  
C30  25223822.324   131347102.266        2768.021          36.000                                                                  
C13                                                                  40687001.253   163829639.762       -1884.077          37.000  
C08                                                                  41605009.825   167526127.195       -1837.704          42.000  
> 2025 11 03 07 40 22.4400000  0 26                     
G04  21433240.474   112632448.467        1220.238          45.000    21433229.720    87765491.453         950.842          46.000  
G16  20196456.307   106133101.814         268.892          45.000                                                                  
G28  22986923.158   120797088.740       -2650.971          38.000    22986913.035    94127555.234       -2065.539          41.000  
G31  21041795.121   110575382.935       -1628.984          45.000    21041781.734    86162577.833       -1269.346          43.000  
G03  24469808.478   128589764.286       -2902.710          34.000    24469803.738   100199747.984       -2261.931          36.000  
G18  25205318.470                3       1403.148          19.000                                                                  
C16  36733280.273   191279807.716           9.775          46.000    36733266.961   147909641.271           7.469          47.000  
C19  23729490.581   123565692.024       -2077.118          48.000                                                                  
C27  23634501.821   123071118.953        1209.141          43.000                                                                  
C06  36291051.484   188977001.821           7.111          47.000    36291030.833   146128942.591           5.518          47.000  
C09  37376755.168   194630553.697         120.197          45.000    37376738.167   150500637.713          93.072          48.000  
C22  24652387.367   128371480.713         742.851          44.000                                                                  
G26  20795533.413   109281271.658       -1891.669          45.000    20795522.844    85154193.270       -1474.146          42.000  
G27  22001239.465   115617300.539        3042.114          40.000    22001230.966    90091375.203        2370.485          41.000  
G09  23977726.254   126003805.715        2815.088          40.000    23977719.658    98184763.435        2193.542          40.000  
C28  24716518.506   128705404.816        -961.061          37.000                                                                  
C07  38065287.784   198215938.708         812.116          40.000    38065268.870   153273068.773         627.729          42.000  
C20  25460820.753   132581169.373       -3606.924          44.000                                                                  
C36  23901289.018   124460284.044        1429.016          46.000                                                                  
C37  24947371.079   129907509.815       -2382.027          37.000                                                                  
C10  39192861.096   204087511.280         747.124          39.000    39192846.977   157813419.188         577.689          43.000  
G08  24286240.689   127625075.796        3618.073          37.000    24286243.659    99448151.427        2818.774          37.000  
G29  25203371.676   132444607.424       -3540.217          37.000    25203361.545   103203548.322       -2758.851          35.000  
C30  25223801.068   131346991.535        2768.037          35.000                                                                  
C13                                                                  40687019.962   163829715.144       -1884.349          37.000  
C08                                                                  41605028.082   167526200.702       -1837.746          42.000  
> 2025 11 03 07 40 22.4800000  0 25                     
G04  21433231.187   112632399.662        1220.156          45.000    21433220.443    87765453.420         950.790          46.000  
G16  20196454.269   106133091.051         268.987          45.000                                                                  
G28  22986943.312   120797194.764       -2650.635          38.000    22986933.216    94127637.860       -2065.619          40.000  
G31  21041807.520   110575448.096       -1629.010          45.000    21041794.145    86162628.608       -1269.358          43.000  
G03  24469830.582   128589880.425       -2903.231          34.000    24469825.847   100199838.489       -2262.460          36.000  
C16  36733280.183   191279807.334           9.671          46.000    36733266.898   147909640.978           7.357          47.000  
C19  23729506.539   123565775.113       -2077.209          48.000                                                                  
C27  23634492.570   123071070.586        1209.092          43.000                                                                  
C06  36291051.449   188977001.538           7.075          46.000    36291030.757   146128942.378           5.398          47.000  
C09  37376754.246   194630548.884         120.283          45.000    37376737.247   150500634.000          92.892          48.000  
C22  24652381.679   128371451.005         742.742          45.000                                                                  
G26  20795547.808   109281347.329       -1891.754          45.000    20795537.234    85154252.233       -1474.170          42.000  
G27  22001216.299   115617178.847        3042.213          40.000    22001207.797    90091280.385        2370.474          41.000  
G09  23977704.825   126003693.107        2815.173          40.000    23977698.243    98184675.701        2193.335          40.000  
C28  24716525.908   128705443.273        -961.362          37.000                                                                  
C07  38065281.546   198215906.221         812.152          40.000    38065262.634   153273043.657         627.832          42.000  
C20  25460848.436   132581313.647       -3606.886          44.000                                                                  
C36  23901278.058   124460226.883        1429.041          46.000                                                                  
C37  24947389.380   129907605.106       -2382.243          37.000                                                                  
C10  39192855.347   204087481.391         747.126          39.000    39192841.249   157813396.067         577.870          43.000  
G08  24286213.169   127624931.078        3618.094          37.000    24286216.123    99448038.666        2818.959          37.000  
G29  25203398.584   132444749.038       -3540.287          37.000    25203388.499   103203658.679       -2758.981          35.000  
C30  25223779.816   131346880.800        2768.202          35.000                                                                  
C13                                                                  40687038.662   163829790.531       -1884.653          37.000  
C08                                                                  41605046.345   167526274.203       -1837.610          42.000  
> 2025 11 03 07 40 22.5200000  0 25                     
G04  21433221.902   112632350.852        1220.198          45.000    21433211.172    87765415.391         950.698          46.000  
G16  20196452.224   106133080.280         269.167          45.000                                                                  
G28  22986963.475   120797300.790       -2650.527          38.000    22986953.402    94127720.500       -2065.902          40.000  
G31  21041819.910   110575513.245       -1628.830          45.000    21041806.535    86162679.368       -1269.104          43.000  
G03  24469852.669   128589996.556       -2903.403          34.000    24469847.937   100199928.937       -2261.709          36.000  
C16  36733280.100   191279806.950           9.644          46.000    36733266.834   147909640.678           7.432          47.000  
C19  23729522.527   123565858.200       -2077.197          47.000                                                                  
C27  23634483.267   123071022.206        1209.383          43.000                                                                  
C06  36291051.394   188977001.259           6.975          46.000    36291030.702   146128942.153           5.511          47.000  
C09  37376753.310   194630544.070         120.319          45.000    37376736.343   150500630.275          93.030          48.000  
C22  24652375.979   128371421.302         742.594          45.000                                                                  
G26  20795562.213   109281422.995       -1891.663          45.000    20795551.621    85154311.187       -1473.993          42.000  
G27  22001193.123   115617057.157        3042.202          40.000    22001184.643    90091185.547        2370.755          40.000  
G09  23977683.420   126003580.512        2814.917          40.000    23977676.818    98184587.946        2193.628          40.000  
C28  24716533.322   128705481.710        -961.158          37.000                                                                  
C07  38065275.339   198215873.731         812.195          40.000    38065256.416   153273018.532         628.013          42.000  
C20  25460876.171   132581457.923       -3606.906          44.000                                                                  
C36  23901267.085   124460169.722        1429.022          46.000                                                                  
C37  24947407.673   129907700.350       -2381.365          37.000                                                                  
C10  39192849.589   204087451.485         747.482          39.000    39192835.485   157813372.938         578.120          43.000  
G08  24286185.613   127624786.364        3617.948          37.000    24286188.581    99447925.900        2819.139          37.000  
G29  25203425.536   132444890.677       -3540.810          37.000    25203415.450   103203769.026       -2758.917          36.000  
C30  25223758.555   131346770.075        2768.133          33.000                                                                  
C13                                                                  40687057.397   163829865.916       -1884.718          37.000  
C08                                                                  41605064.612   167526347.694       -1837.370          42.000  
> 2025 11 03 07 40 22.5600000  0 25                     
G04  21433212.600   112632302.039        1220.304          45.000    21433201.882    87765377.357         950.763          46.000  
G16  20196450.175   106133069.515         269.185          45.000                                                                  
G28  22986983.653   120797406.833       -2650.793          38.000    22986973.568    94127803.121       -2065.685          40.000  
G31  21041832.296   110575578.395       -1628.743          45.000    21041818.927    86162730.142       -1269.240          43.000  
G03  24469874.751   128590112.630       -2902.444          34.000    24469870.027   100200019.391       -2261.342          36.000  
C16  36733280.024   191279806.555           9.806          46.000    36733266.785   147909640.368           7.659          47.000  
C19  23729538.501   123565941.289       -2077.258          47.000                                                                  
C27  23634473.965   123070973.821        1209.597          43.000                                                                  
C06  36291051.340   188977000.972           7.107          46.000    36291030.647   146128941.925           5.648          47.000  
C09  37376752.401   194630539.246         120.529          45.000    37376735.432   150500626.546          93.149          48.000  
C22  24652370.279   128371391.591         742.628          45.000                                                                  
G26  20795576.622   109281498.650       -1891.418          45.000    20795566.018    85154370.143       -1473.926          42.000  
G27  22001169.967   115616935.471        3042.102          40.000    22001161.475    90091090.727        2370.609          40.000  
G09  23977661.978   126003467.904        2815.076          40.000    23977655.385    98184500.194        2193.781          40.000  
C28  24716540.708   128705520.155        -961.142          37.000                                                                  
C07  38065269.106   198215841.252         812.018          40.000    38065250.184   153272993.408         628.092          42.000  
C20  25460903.886   132581602.202       -3606.969          44.000                                                                  
C36  23901256.113   124460112.554        1429.144          46.000                                                                  
C37  24947425.961   129907795.615       -2381.405          37.000                                                                  
C10  39192843.835   204087421.588         747.454          39.000    39192829.737   157813349.818         578.078          43.000  
G08  24286158.081   127624641.660        3617.668          37.000    24286161.044    99447813.137        2819.136          37.000  
G29  25203452.462   132445032.268       -3540.193          37.000    25203442.411   103203879.372       -2758.697          36.000  
C30  25223737.316   131346659.357        2767.903          33.000                                                                  
C13                                                                  40687076.087   163829941.281       -1884.390          37.000  
C08                                                                  41605082.847   167526421.178       -1837.137          42.000  
> 2025 11 03 07 40 22.6000000  0 25                     
G04  21433203.311   112632253.224        1220.347          45.000    21433192.578    87765339.320         950.834          46.000  
G16  20196448.126   106133058.742         269.290          45.000                                                                  
G28  22987003.828   120797512.864       -2650.801          38.000    22986993.743    94127885.732       -2065.372          40.000  
G31  21041844.702   110575643.544       -1628.709          45.000    21041831.322    86162780.913       -1269.247          43.000  
G03  24469896.838   128590228.722       -2902.262          34.000    24469892.116   100200109.862       -2261.545          36.000  
C16  36733279.945   191279806.162           9.845          46.000    36733266.723   147909640.057           7.791          47.000  
C19  23729554.451   123566024.376       -2077.234          47.000                                                                  
C27  23634464.667   123070925.438        1209.627          43.000                                                                  
C06  36291051.301   188977000.676           7.335          46.000    36291030.592   146128941.696           5.721          47.000  
C09  37376751.442   194630534.427         120.558          45.000    37376734.502   150500622.817          93.217          48.000  
C22  24652364.580   128371361.877         742.749          45.000                                                                  
G26  20795591.016   109281574.309       -1891.418          45.000    20795580.394    85154429.106       -1474.042          42.000  
G27  22001146.820   115616813.767        3042.402          40.000    22001138.326    90090995.913        2370.395          40.000  
G09  23977640.552   126003355.296        2815.155          40.000    23977633.971    98184412.459        2193.488          40.000  
C28  24716548.082   128705558.594        -961.065          37.000                                                                  
C07  38065262.872   198215808.766         812.115          40.000    38065243.938   153272968.283         628.172          42.000  
C20  25460931.581   132581746.486       -3607.097          44.000                                                                  
C36  23901245.144   124460055.389        1429.163          46.000                                                                  
C37  24947444.246   129907890.893       -2381.623          37.000                                                                  
C10  39192838.103   204087391.662         747.931          39.000    39192824.004   157813326.703         577.967          43.000  
G08  24286130.539   127624496.953        3617.612          37.000    24286133.509    99447700.369        2819.161          37.000  
G29  25203479.378   132445173.863       -3539.810          37.000    25203469.356   103203989.724       -2758.711          35.000  
C30  25223716.052   131346548.622        2768.103          33.000                                                                  
C13                                                                  40687094.801   163830016.656       -1884.347          37.000  
C08                                                                  41605101.100   167526494.667       -1837.163          42.000  
> 2025 11 03 07 40 22.6400000  0 25                     
G04  21433194.032   112632204.411        1220.323          45.000    21433183.287    87765301.274         951.078          46.000  
G16  20196446.084   106133047.977         269.220          45.000                                                                  
G28  22987023.997   120797618.893       -2650.769          38.000    22987013.920    94127968.355       -2065.426          40.000  
G31  21041857.109   110575708.696       -1628.776          45.000    21041843.694    86162831.673       -1269.061          43.000  
G03  24469918.903   128590344.810       -2902.262          34.000    24469914.229   100200200.330       -2261.652          36.000  
C16  36733279.872   191279805.762           9.958          46.000    36733266.658   147909639.752           7.690          47.000  
C19  23729570.425   123566107.454       -2077.026          47.000                                                                  
C27  23634455.390   123070877.054        1209.651          43.000                                                                  
C06  36291051.255   188977000.374           7.538          46.000    36291030.537   146128941.470           5.682          47.000  
C09  37376750.521   194630529.602         120.657          45.000    37376733.566   150500619.089          93.220          48.000  
C22  24652358.906   128371332.163         742.833          45.000                                                                  
G26  20795605.409   109281649.976       -1891.565          45.000    20795594.803    85154488.057       -1473.938          42.000  
G27  22001123.678   115616692.065        3042.547          40.000    22001115.155    90090901.081        2370.618          40.000  
G09  23977619.122   126003242.678        2815.381          40.000    23977612.550    98184324.708        2193.689          40.000  
C28  24716555.468   128705597.035        -960.993          37.000                                                                  
C07  38065256.649   198215776.260         812.530          40.000    38065237.684   153272943.158         628.183          42.000  
C20  25460959.327   132581890.750       -3606.820          44.000                                                                  
C36  23901234.176   124459998.225        1429.120          46.000                                                                  
C37  24947462.540   129907986.157       -2381.533          37.000                                                                  
C10  39192832.366   204087361.756         747.836          39.000    39192818.262   157813303.573         578.126          43.000  
G08  24286103.011   127624352.249        3617.539          37.000    24286105.971    99447587.598        2819.265          37.000  
G29  25203506.339   132445315.456       -3539.694          36.000    25203496.319   103204100.061       -2758.484          36.000  
C30  25223694.794   131346437.861        2768.717          32.000                                                                  
C13                                                                  40687113.523   163830092.010       -1883.983          37.000  
C08                                                                  41605119.383   167526568.160       -1837.238          42.000  
> 2025 11 03 07 40 22.6800000  0 25                     
G04  21433184.740   112632155.580        1220.643          45.000    21433173.987    87765263.222         951.260          46.000  
G16  20196443.997   106133037.204         269.288          45.000                                                                  
G28  22987044.191   120797724.917       -2650.645          38.000    22987034.102    94128050.968       -2065.321          40.000  
G31  21041869.488   110575773.840       -1628.649          45.000    21041856.099    86162882.430       -1268.943          43.000  
G03  24469940.992   128590460.915       -2902.432          34.000    24469936.328   100200290.803       -2261.759          36.000  
C16  36733279.793   191279805.352          10.214          46.000    36733266.605   147909639.442           7.713          47.000  
C19  23729586.409   123566190.522       -2076.764          47.000                                                                  
C27  23634446.076   123070828.672        1209.607          43.000                                                                  
C06  36291051.195   188977000.068           7.720          46.000    36291030.505   146128941.236           5.820          47.000  
C09  37376749.615   194630524.772         120.788          45.000    37376732.635   150500615.359          93.251          48.000  
C22  24652353.207   128371302.436         743.131          45.000                                                                  
G26  20795619.782   109281725.627       -1891.370          45.000    20795609.194    85154547.004       -1473.724          42.000  
G27  22001100.504   115616570.359        3042.684          40.000    22001092.004    90090806.228        2371.113          40.000  
G09  23977597.672   126003130.050        2815.692          40.000    23977591.119    98184236.951        2193.884          40.000  
C28  24716562.869   128705635.449        -960.500          37.000                                                                  
C07  38065250.417   198215743.752         812.770          40.000    38065231.421   153272918.021         628.349          42.000  
C20  25460987.059   132582035.003       -3606.411          44.000                                                                  
C36  23901223.207   124459941.050        1429.315          46.000                                                                  
C37  24947480.861   129908081.427       -2381.606          37.000                                                                  
C10  39192826.641   204087331.848         747.826          39.000    39192812.540   157813280.441         578.267          43.000  
G08  24286075.459   127624207.501        3618.274          37.000    24286078.405    99447474.813        2819.536          37.000  
G29  25203533.286   132445457.049       -3539.732          36.000    25203523.276   103204210.381       -2758.087          35.000  
C30  25223673.534   131346327.109        2769.143          32.000                                                                  
C13                                                                  40687132.235   163830167.372       -1883.970          37.000  
C08                                                                  41605137.660   167526641.652       -1837.262          42.000  
> 2025 11 03 07 40 22.7200000  0 25                     
G04  21433175.440   112632106.767        1220.454          45.000    21433164.701    87765225.184         951.077          46.000  
G16  20196441.957   106133026.438         269.181          45.000                                                                  
G28  22987064.354   120797830.955       -2650.873          38.000    22987054.297    94128133.603       -2065.701          40.000  
G31  21041881.896   110575838.986       -1628.626          45.000    21041868.493    86162933.185       -1268.873          43.000  
G03  24469963.080   128590577.030       -2902.711          34.000    24469958.413   100200381.269       -2261.732          36.000  
C16  36733279.678   191279804.952          10.097          46.000    36733266.523   147909639.136           7.639          47.000  
C19  23729602.366   123566273.607       -2077.014          47.000                                                                  
C27  23634436.803   123070780.294        1209.459          43.000                                                                  
C06  36291051.133   188976999.768           7.612          46.000    36291030.447   146128941.005           5.793          47.000  
C09  37376748.686   194630519.951         120.615          45.000    37376731.694   150500611.629          93.242          48.000  
C22  24652347.509   128371272.714         743.114          45.000                                                                  
G26  20795634.167   109281801.291       -1891.571          45.000    20795623.585    85154605.963       -1473.889          42.000  
G27  22001077.351   115616448.657        3042.619          40.000    22001068.858    90090711.403        2370.836          40.000  
G09  23977576.238   126003017.451        2815.247          40.000    23977569.698    98184149.209        2193.622          40.000  
C28  24716570.223   128705673.878        -960.632          37.000                                                                  
C07  38065244.191   198215711.266         812.386          40.000    38065225.152   153272892.894         628.201          42.000  
C20  25461014.772   132582179.276       -3606.627          44.000                                                                  
C36  23901212.217   124459883.886        1429.169          47.000                                                                  
C37  24947499.154   129908176.704       -2381.891          37.000                                                                  
C10  39192820.914   204087301.947         747.691          39.000    39192806.780   157813257.322         578.094          43.000  
G08  24286047.915   127624062.769        3618.402          37.000    24286050.877    99447362.058        2819.188          37.000  
G29  25203560.227   132445598.664       -3540.178          36.000    25203550.241   103204320.732       -2758.522          36.000  
C30  25223652.250   131346216.321        2769.682          32.000                                                                  
C13                                                                  40687150.962   163830242.747       -1884.222          37.000  
C08                                                                  41605155.916   167526715.139       -1837.219          42.000  
> 2025 11 03 07 40 22.7600000  0 25                     
G04  21433166.147   112632057.996        1219.552          45.000    21433155.429    87765187.185         950.266          46.000  
G16  20196439.929   106133015.699         268.603          45.000                                                                  
G28  22987084.534   120797937.013       -2651.381          38.000    22987074.508    94128216.248       -2066.106          40.000  
G31  21041894.274   110575904.163       -1629.173          45.000    21041880.918    86162983.982       -1269.624          43.000  
G03  24469985.191   128590693.174       -2903.436          34.000    24469980.500   100200471.771       -2262.379          36.000  
C16  36733279.595   191279804.597           9.186          46.000    36733266.429   147909638.859           7.073          47.000  
C19  23729618.315   123566356.724       -2077.753          47.000                                                                  
C27  23634427.516   123070731.953        1208.720          43.000                                                                  
C06  36291051.075   188976999.503           6.893          46.000    36291030.411   146128940.804           5.238          47.000  
C09  37376747.765   194630515.165         119.877          45.000    37376730.783   150500607.927          92.696          48.000  
C22  24652341.816   128371243.039         742.247          45.000                                                                  
G26  20795648.567   109281876.991       -1892.346          45.000    20795637.972    85154664.945       -1474.426          42.000  
G27  22001054.209   115616326.985        3042.076          40.000    22001045.733    90090616.611        2370.059          40.000  
G09  23977554.802   126002904.877        2814.490          40.000    23977548.263    98184061.486        2193.121          40.000  
C28  24716577.628   128705712.354        -961.474          37.000                                                                  
C07  38065237.943   198215678.802         811.726          40.000    38065218.924   153272867.795         627.630          42.000  
C20  25461042.462   132582323.585       -3607.475          44.000                                                                  
C36  23901201.246   124459826.744        1428.681          47.000                                                                  
C37  24947517.472   129908271.997       -2382.264          37.000                                                                  
C10  39192815.184   204087272.072         747.141          39.000    39192801.036   157813234.233         577.421          43.000  
G08  24286020.385   127623918.094        3617.358          37.000    24286023.357    99447249.337        2818.299          37.000  
G29  25203587.155   132445740.312       -3541.044          36.000    25203577.187   103204431.086       -2758.803          36.000  
C30  25223631.026   131346105.665        2767.506          32.000                                                                  
C13                                                                  40687169.717   163830318.147       -1884.882          37.000  
C08                                                                  41605174.163   167526788.660       -1837.836          41.000  
> 2025 11 03 07 40 22.8000000  0 25                     
G04  21433156.864   112632009.217        1219.299          45.000    21433146.129    87765149.174         950.129          46.000  
G16  20196437.847   106133004.956         268.452          45.000                                                                  
G28  22987104.703   120798043.050       -2651.217          38.000    22987094.677    94128298.885       -2066.080          40.000  
G31  21041906.673   110575969.343       -1629.482          45.000    21041893.320    86163034.784       -1270.082          43.000  
G03  24470007.273   128590809.282       -2903.102          34.000    24470002.595   100200562.249       -2262.245          36.000  
C16  36733279.499   191279804.225           9.094          46.000    36733266.353   147909638.569           7.043          47.000  
C19  23729634.245   123566439.834       -2077.917          47.000                                                                  
C27  23634418.251   123070683.596        1208.736          43.000                                                                  
C06  36291051.017   188976999.248           6.389          46.000    36291030.391   146128940.596           5.098          47.000  
C09  37376746.825   194630510.363         119.862          45.000    37376729.862   150500604.211          92.733          48.000  
C22  24652336.119   128371213.358         741.942          45.000                                                                  
G26  20795662.946   109281952.671       -1892.273          45.000    20795652.366    85154723.918       -1474.469          42.000  
G27  22001031.057   115616205.318        3041.664          40.000    22001022.588    90090521.803        2369.995          40.000  
G09  23977533.366   126002792.287        2814.490          40.000    23977526.821    98183973.747        2193.207          40.000  
C28  24716585.027   128705750.827        -961.942          37.000                                                                  
C07  38065231.728   198215646.340         811.395          40.000    38065212.687   153272842.693         627.462          42.000  
C20  25461070.216   132582467.876       -3607.516          43.000                                                                  
C36  23901190.269   124459769.599        1428.540          47.000                                                                  
C37  24947535.787   129908367.306       -2382.642          37.000                                                                  
C10  39192809.438   204087242.216         746.525          39.000    39192795.309   157813211.131         577.358          43.000  
G08  24285992.851   127623773.397        3617.240          37.000    24285995.815    99447136.587        2818.372          37.000  
G29  25203614.133   132445881.939       -3540.908          36.000    25203604.143   103204541.457       -2759.251          36.000  
C30  25223609.785   131345994.984        2766.899          32.000                                                                  
C13                                                                  40687188.451   163830393.546       -1885.091          37.000  
C08                                                                  41605192.440   167526862.164       -1837.809          41.000  
> 2025 11 03 07 40 22.8400000  0 25                     
G04  21433147.586   112631960.405        1219.836          45.000    21433136.854    87765111.139         950.494          46.000  
G16  20196435.794   106132994.174         269.153          45.000                                                                  
G28  22987124.866   120798149.068       -2650.648          38.000    22987114.854    94128381.497       -2065.555          40.000  
G31  21041919.060   110576034.482       -1628.948          45.000    21041905.731    86163085.542       -1269.439          43.000  
G03  24470029.366   128590925.384       -2902.809          34.000    24470024.700   100200652.704       -2261.689          36.000  
C16  36733279.387   191279803.822           9.665          46.000    36733266.269   147909638.255           7.517          47.000  
C19  23729650.204   123566522.915       -2077.362          47.000                                                                  
C27  23634408.969   123070635.215        1209.230          43.000                                                                  
C06  36291050.968   188976998.947           7.023          46.000    36291030.345   146128940.363           5.526          47.000  
C09  37376745.891   194630505.543         120.243          45.000    37376728.912   150500600.475          93.155          48.000  
C22  24652330.416   128371183.635         742.596          45.000                                                                  
G26  20795677.343   109282028.327       -1891.693          45.000    20795666.740    85154782.866       -1473.975          42.000  
G27  22001007.898   115616083.619        3042.093          40.000    22000999.423    90090426.957        2370.703          40.000  
G09  23977511.924   126002679.668        2815.076          40.000    23977505.386    98183885.993        2193.598          40.000  
C28  24716592.430   128705789.251        -961.153          37.000                                                                  
C07  38065225.487   198215613.831         812.208          40.000    38065206.434   153272817.567         627.832          42.000  
C20  25461097.923   132582612.144       -3607.038          43.000                                                                  
C36  23901179.287   124459712.425        1429.041          47.000                                                                  
C37  24947554.079   129908462.560       -2381.805          37.000                                                                  
C10  39192803.716   204087212.311         747.155          39.000    39192789.575   157813188.005         577.766          43.000  
G08  24285965.321   127623628.667        3617.943          37.000    24285968.272    99447023.801        2819.128          37.000  
G29  25203641.060   132446023.529       -3540.118          36.000    25203631.094   103204651.816       -2759.253          35.000  
C30  25223588.514   131345884.206        2768.510          32.000                                                                  
C13                                                                  40687207.170   163830468.888       -1884.091          37.000  
C08                                                                  41605210.707   167526935.670       -1837.802          41.000  
> 2025 11 03 07 40 22.8800000  0 25                     
G04  21433138.274   112631911.583        1220.334          45.000    21433127.563    87765073.097         950.828          46.000  
G16  20196433.743   106132983.412         269.119          45.000                                                                  
G28  22987145.054   120798255.105       -2650.812          38.000    22987135.022    94128464.113       -2065.428          40.000  
G31  21041931.461   110576099.633       -1628.844          45.000    21041918.106    86163136.292       -1268.983          43.000  
G03  24470051.463   128591041.469       -2902.225          34.000    24470046.789   100200743.190       -2261.937          36.000  
C16  36733279.263   191279803.409          10.139          46.000    36733266.188   147909637.940           7.796          47.000  
C19  23729666.139   123566605.994       -2077.081          47.000                                                                  
C27  23634399.696   123070586.834        1209.445          43.000                                                                  
C06  36291050.899   188976998.646           7.408          47.000    36291030.286   146128940.135           5.665          47.000  
C09  37376744.951   194630500.714         120.585          45.000    37376727.969   150500596.742          93.297          48.000  
C22  24652324.728   128371153.914         742.926          45.000                                                                  
G26  20795691.719   109282103.991       -1891.589          45.000    20795681.139    85154841.823       -1473.883          42.000  
G27  22000984.735   115615961.921        3042.318          40.000    22000976.259    90090332.139        2370.550          40.000  
G09  23977490.508   126002567.046        2815.436          40.000    23977483.957    98183798.245        2193.671          40.000  
C28  24716599.813   128705827.724        -961.722          37.000                                                                  
C07  38065219.235   198215581.338         812.324          40.000    38065200.161   153272792.426         628.302          42.000  
C20  25461125.625   132582756.412       -3606.760          43.000                                                                  
C36  23901168.337   124459655.257        1429.175          47.000                                                                  
C37  24947572.355   129908557.816       -2381.437          37.000                                                                  
C10  39192797.962   204087182.382         747.934          39.000    39192783.841   157813164.866         578.282          43.000  
G08  24285937.760   127623483.939        3618.111          37.000    24285940.723    99446911.016        2819.429          37.000  
G29  25203667.975   132446165.142       -3540.202          36.000    25203658.050   103204762.147       -2758.696          35.000  
C30  25223567.269   131345773.482        2768.462          32.000                                                                  
C13                                                                  40687225.897   163830544.251       -1884.001          37.000  
C08                                                                  41605228.965   167527009.150       -1837.271          41.000  
> 2025 11 03 07 40 22.9200000  0 25                     
G04  21433128.999   112631862.780        1220.282          45.000    21433118.284    87765035.073         950.721          46.000  
G16  20196431.710   106132972.661         268.861          45.000                                                                  
G28  22987165.224   120798361.156       -2651.183          38.000    22987155.215    94128546.743       -2065.634          41.000  
G31  21041943.887   110576164.797       -1629.037          45.000    21041930.525    86163187.070       -1269.252          43.000  
G03  24470073.555   128591157.636       -2903.499          34.000    24470068.902   100200833.673       -2262.032          36.000  
C16  36733279.174   191279803.025           9.864          46.000    36733266.114   147909637.635           7.727          47.000  
C19  23729682.079   123566689.087       -2077.191          47.000                                                                  
C27  23634390.409   123070538.466        1209.314          43.000                                                                  
C06  36291050.854   188976998.355           7.395          47.000    36291030.226   146128939.911           5.652          47.000  
C09  37376744.024   194630495.904         120.416          45.000    37376727.057   150500593.032          92.953          48.000  
C22  24652319.039   128371124.213         742.679          45.000                                                                  
G26  20795706.132   109282179.660       -1891.644          45.000    20795695.552    85154900.789       -1474.078          42.000  
G27  22000961.585   115615840.223        3042.443          40.000    22000953.101    90090237.313        2370.579          40.000  
G09  23977469.075   126002454.442        2815.265          40.000    23977462.543    98183710.506        2193.610          40.000  
C28  24716607.213   128705866.160        -961.327          37.000                                                                  
C07  38065212.979   198215548.854         812.226          40.000    38065193.936   153272767.306         628.196          42.000  
C20  25461153.314   132582900.693       -3606.883          43.000                                                                  
C36  23901157.345   124459598.101        1428.998          47.000                                                                  
C37  24947590.667   129908653.090       -2381.647          37.000                                                                  
C10  39192792.197   204087152.479         747.904          39.000    39192778.098   157813141.754         578.067          43.000  
G08  24285910.223   127623339.260        3617.300          37.000    24285913.192    99446798.254        2819.275          37.000  
G29  25203694.932   132446306.754       -3540.266          36.000    25203685.000   103204872.494       -2758.683          35.000  
C30  25223546.001   131345662.744        2768.594          32.000                                                                  
C13                                                                  40687244.643   163830619.623       -1884.088          37.000  
C08                                                                  41605247.231   167527082.645       -1837.297          41.000  
> 2025 11 03 07 40 22.9600000  0 25                     
G04  21433119.681   112631813.972        1220.260          45.000    21433108.989    87764997.038         950.804          46.000  
G16  20196429.652   106132961.905         268.844          45.000                                                                  
G28  22987185.409   120798467.204       -2651.260          38.000    22987175.386    94128629.374       -2065.766          41.000  
G31  21041956.319   110576229.949       -1628.893          45.000    21041942.932    86163237.848       -1269.394          43.000  
G03  24470095.645   128591273.705       -2902.574          34.000    24470091.000   100200924.129       -2261.611          36.000  
C16  36733279.077   191279802.630           9.869          47.000    36733266.032   147909637.330           7.684          47.000  
C19  23729698.021   123566772.181       -2077.307          47.000                                                                  
C27  23634381.139   123070490.083        1209.511          43.000                                                                  
C06  36291050.803   188976998.066           7.321          47.000    36291030.163   146128939.688           5.620          47.000  
C09  37376743.087   194630491.081         120.524          45.000    37376726.129   150500589.309          92.994          48.000  
C22  24652313.310   128371094.516         742.496          45.000                                                                  
G26  20795720.539   109282255.330       -1891.705          45.000    20795709.946    85154959.754       -1474.127          42.000  
G27  22000938.436   115615718.538        3042.277          40.000    22000929.946    90090142.487        2370.653          40.000  
G09  23977447.658   126002341.841        2815.094          40.000    23977441.123    98183622.759        2193.616          40.000  
C28  24716614.619   128705904.588        -960.889          37.000                                                                  
C07  38065206.740   198215516.361         812.293          40.000    38065187.691   153272742.183         628.118          42.000  
C20  25461181.044   132583044.965       -3606.800          43.000                                                                  
C36  23901146.377   124459540.943        1428.949          47.000                                                                  
C37  24947608.977   129908748.388       -2382.233          37.000                                                                  
C10  39192786.435   204087122.574         747.813          39.000    39192772.379   157813118.633         578.040          43.000  
G08  24285882.680   127623194.527        3617.938          37.000    24285885.642    99446685.486        2819.218          37.000  
G29  25203721.892   132446448.359       -3540.265          36.000    25203711.963   103204982.842       -2758.671          35.000  
C30  25223524.748   131345552.024        2768.352          32.000                                                                  
C13                                                                  40687263.364   163830695.004       -1884.436          37.000  
C08                                                                  41605265.497   167527156.136       -1837.230          41.000  
> 2025 11 03 07 40 23.0000000  0 25                     
G04  21433110.417   112631765.206        1219.426          45.000    21433099.722    87764959.032         950.303          46.000  
G16  20196427.597   106132951.178         268.240          45.000                                                                  
G28  22987205.605   120798573.282       -2651.906          38.000    22987195.572    94128712.011       -2066.011          41.000  
G31  21041968.710   110576295.128       -1629.350          45.000    21041955.312    86163288.642       -1269.820          43.000  
G03  24470117.755   128591389.866       -2903.647          34.000    24470113.098   100201014.622       -2262.126          36.000  
C16  36733278.988   191279802.263           9.296          47.000    36733265.933   147909637.054           7.073          47.000  
C19  23729714.010   123566855.312       -2078.143          47.000                                                                  
C27  23634371.867   123070441.749        1208.597          43.000                                                                  
C06  36291050.731   188976997.803           6.755          47.000    36291030.102   146128939.482           5.205          47.000  
C09  37376742.145   194630486.285         120.026          45.000    37376725.203   150500585.602          92.659          48.000  
C22  24652307.609   128371064.838         741.982          45.000                                                                  
G26  20795734.929   109282331.034       -1892.480          45.000    20795724.366    85155018.746       -1474.707          42.000  
G27  22000915.300   115615596.877        3041.680          40.000    22000906.810    90090047.689        2370.096          40.000  
G09  23977426.228   126002229.280        2814.178          40.000    23977419.689    98183535.048        2192.902          40.000  
C28  24716622.004   128705943.083        -961.934          37.000                                                                  
C07  38065200.515   198215483.896         811.699          40.000    38065181.461   153272717.083         627.588          42.000  
C20  25461208.756   132583189.271       -3607.473          43.000                                                                  
C36  23901135.410   124459483.820        1428.174          47.000                                                                  
C37  24947627.298   129908843.698       -2382.766          37.000                                                                  
C10  39192780.710   204087092.700         747.168          39.000    39192766.678   157813095.538         577.538          43.000  
G08  24285855.153   127623049.864        3616.986          37.000    24285858.126    99446572.771        2818.237          37.000  
G29  25203748.833   132446590.001       -3540.898          36.000    25203738.928   103205093.208       -2759.020          35.000  
C30  25223503.480   131345441.315        2767.807          32.000                                                                  
C13                                                                  40687282.079   163830770.408       -1885.075          37.000  
C08                                                                  41605283.769   167527229.649       -1837.687          41.000  
> 2025 11 03 07 40 23.0400000  0 25                     
G04  21433101.133   112631716.473        1218.429          45.000    21433090.439    87764921.064         949.402          46.000  
G16  20196425.580   106132940.481         267.444          45.000                                                                  
G28  22987225.789   120798679.354       -2652.008          38.000    22987215.767    94128794.698       -2066.959          41.000  
G31  21041981.146   110576360.363       -1630.515          45.000    21041967.730    86163339.464       -1270.471          43.000  
G03  24470139.852   128591506.043       -2904.381          34.000    24470135.211   100201105.164       -2263.192          36.000  
C16  36733278.910   191279801.945           8.197          47.000    36733265.879   147909636.809           6.257          47.000  
C19  23729729.977   123566938.466       -2078.906          47.000                                                                  
C27  23634362.602   123070393.446        1207.639          43.000                                                                  
C06  36291050.693   188976997.584           5.699          47.000    36291030.044   146128939.321           4.246          47.000  
C09  37376741.230   194630481.535         119.012          45.000    37376724.277   150500581.924          92.040          48.000  
C22  24652301.930   128371035.200         741.073          45.000                                                                  
G26  20795749.347   109282406.764       -1893.231          45.000    20795738.789    85155077.760       -1475.379          42.000  
G27  22000892.174   115615475.245        3040.886          40.000    22000883.670    90089952.917        2369.385          40.000  
G09  23977404.812   126002116.742        2813.385          40.000    23977398.271    98183447.353        2192.316          40.000  
C28  24716629.415   128705981.612        -963.024          37.000                                                                  
C07  38065194.291   198215451.460         810.914          40.000    38065175.235   153272692.000         627.055          42.000  
C20  25461236.492   132583333.612       -3608.375          43.000                                                                  
C36  23901124.461   124459426.710        1427.661          47.000                                                                  
C37  24947645.610   129908939.020       -2383.125          37.000                                                                  
C10  39192775.007   204087062.884         745.846          39.000    39192760.953   157813072.481         576.647          43.000  
G08  24285827.616   127622905.206        3616.403          37.000    24285830.610    99446460.068        2817.576          37.000  
G29  25203775.785   132446731.679       -3541.791          36.000    25203765.899   103205203.607       -2759.781          35.000  
C30  25223482.229   131345330.632        2767.085          32.000                                                                  
C13                                                                  40687300.803   163830845.807       -1885.228          37.000  
C08                                                                  41605302.030   167527303.193       -1838.443          41.000  
> 2025 11 03 07 40 23.0800000  0 25                     
G04  21433091.851   112631667.706        1218.627          45.000    21433081.165    87764883.069         949.458          46.000  
G16  20196423.526   106132929.755         267.708          45.000                                                                  
G28  22987245.978   120798785.431       -2652.116          38.000    22987235.950    94128877.353       -2066.750          41.000  
G31  21041993.561   110576425.556       -1630.312          45.000    21041980.156    86163390.279       -1270.616          43.000  
G03  24470161.945   128591622.179       -2903.940          34.000    24470157.330   100201195.660       -2262.863          36.000  
C16  36733278.839   191279801.594           8.317          47.000    36733265.796   147909636.535           6.453          47.000  
C19  23729745.976   123567021.597       -2078.711          47.000                                                                  
C27  23634353.324   123070345.120        1207.694          44.000                                                                  
C06  36291050.659   188976997.327           5.913          47.000    36291030.000   146128939.125           4.434          47.000  
C09  37376740.335   194630476.744         119.314          45.000    37376723.369   150500578.224          92.179          48.000  
C22  24652296.242   128371005.533         741.262          45.000                                                                  
G26  20795763.745   109282482.461       -1892.889          45.000    20795753.194    85155136.745       -1475.067          42.000  
G27  22000869.052   115615353.595        3040.895          40.000    22000860.520    90089858.138        2369.160          40.000  
G09  23977383.395   126002004.168        2813.837          40.000    23977376.849    98183359.645        2192.401          40.000  
C28  24716636.801   128706020.099        -962.769          37.000                                                                  
C07  38065188.066   198215419.004         811.017          40.000    38065169.012   153272666.903         627.147          42.000  
C20  25461264.207   132583477.918       -3608.125          43.000                                                                  
C36  23901113.518   124459369.570        1428.094          47.000                                                                  
C37  24947663.893   129909034.310       -2382.671          37.000                                                                  
C10  39192769.270   204087033.034         745.815          39.000    39192755.240   157813049.392         576.807          43.000  
G08  24285800.085   127622760.517        3616.731          37.000    24285803.086    99446347.351        2817.490          37.000  
G29  25203802.737   132446873.340       -3541.808          36.000    25203792.861   103205313.980       -2759.701          35.000  
C30  25223460.983   131345219.931        2767.210          32.000                                                                  
C13                                                                  40687319.515   163830921.199       -1885.110          38.000  
C08                                                                  41605320.254   167527376.714       -1838.341          41.000  
> 2025 11 03 07 40 23.1200000  0 25                     
G04  21433082.555   112631618.905        1219.457          45.000    21433071.883    87764845.046         950.096          46.000  
G16  20196421.437   106132919.005         268.333          45.000                                                                  
G28  22987266.182   120798891.462       -2651.198          38.000    22987256.128    94128959.981       -2066.093          41.000  
G31  21042005.972   110576490.717       -1629.524          45.000    21041992.552    86163441.053       -1269.901          43.000  
G03  24470184.048   128591738.274       -2902.939          34.000    24470179.425   100201286.139       -2262.288          36.000  
C16  36733278.756   191279801.202           9.218          47.000    36733265.718   147909636.235           7.064          47.000  
C19  23729761.932   123567104.693       -2077.850          47.000                                                                  
C27  23634344.057   123070296.763        1208.381          44.000                                                                  
C06  36291050.610   188976997.037           6.719          47.000    36291029.974   146128938.902           5.115          47.000  
C09  37376739.408   194630471.924         120.049          45.000    37376722.420   150500574.500          92.769          48.000  
C22  24652290.541   128370975.819         742.288          45.000                                                                  
G26  20795778.150   109282558.139       -1892.242          45.000    20795767.591    85155195.717       -1474.603          42.000  
G27  22000845.886   115615231.913        3041.589          40.000    22000837.357    90089763.320        2369.899          40.000  
G09  23977361.944   126001891.568        2814.569          40.000    23977355.421    98183271.904        2193.085          40.000  
C28  24716644.199   128706058.553        -961.916          37.000                                                                  
C07  38065181.811   198215386.515         811.815          40.000    38065162.767   153272641.789         627.521          42.000  
C20  25461291.907   132583622.188       -3607.260          43.000                                                                  
C36  23901102.556   124459312.409        1428.729          47.000                                                                  
C37  24947682.189   129909129.603       -2382.444          36.000                                                                  
C10  39192763.508   204087003.145         746.611          39.000    39192749.475   157813026.269         577.566          43.000  
G08  24285772.543   127622615.794        3617.567          37.000    24285775.550    99446234.578        2818.651          37.000  
G29  25203829.678   132447014.952       -3540.859          36.000    25203819.818   103205424.317       -2758.858          35.000  
C30  25223439.706   131345109.212        2767.669          32.000                                                                  
C13                                                                  40687338.250   163830996.586       -1884.863          38.000  
C08                                                                  41605338.512   167527450.206       -1837.730          41.000  
> 2025 11 03 07 40 23.1600000  0 25                     
G04  21433073.252   112631570.100        1220.027          45.000    21433062.586    87764807.012         950.656          46.000  
G16  20196419.384   106132908.251         268.754          45.000                                                                  
G28  22987286.371   120798997.509       -2651.035          38.000    22987276.312    94129042.608       -2065.726          41.000  
G31  21042018.351   110576555.869       -1628.926          45.000    21042004.955    86163491.816       -1269.307          43.000  
G03  24470206.149   128591854.358       -2902.130          34.000    24470201.519   100201376.611       -2261.771          36.000  
C16  36733278.683   191279800.791          10.044          47.000    36733265.646   147909635.924           7.637          47.000  
C19  23729777.881   123567187.776       -2077.124          47.000                                                                  
C27  23634334.775   123070248.379        1209.336          44.000                                                                  
C06  36291050.544   188976996.736           7.360          47.000    36291029.941   146128938.664           5.756          47.000  
C09  37376738.498   194630467.095         120.631          45.000    37376721.489   150500570.773          93.120          48.000  
C22  24652284.854   128370946.105         742.845          45.000                                                                  
G26  20795792.546   109282633.804       -1891.669          45.000    20795781.989    85155254.687       -1474.304          42.000  
G27  22000822.735   115615110.220        3042.185          40.000    22000814.188    90089668.474        2370.865          40.000  
G09  23977340.535   126001778.973        2814.929          40.000    23977333.980    98183184.155        2193.689          40.000  
C28  24716651.556   128706097.003        -961.387          37.000                                                                  
C07  38065175.553   198215354.016         812.440          40.000    38065156.529   153272616.655         628.129          42.000  
C20  25461319.626   132583766.448       -3606.598          43.000                                                                  
C36  23901091.567   124459255.238        1429.254          47.000                                                                  
C37  24947700.480   129909224.877       -2382.037          37.000                                                                  
C10  39192757.763   204086973.231         747.500          39.000    39192743.725   157813003.145         578.011          43.000  
G08  24285744.998   127622471.074        3618.013          37.000    24285748.006    99446121.784        2819.627          37.000  
G29  25203856.621   132447156.558       -3540.182          36.000    25203846.774   103205534.687       -2759.075          35.000  
C30  25223418.451   131344998.514        2767.625          32.000                                                                  
C13                                                                  40687356.952   163831071.959       -1884.491          38.000  
C08                                                                  41605356.779   167527523.693       -1837.275          41.000  
> 2025 11 03 07 40 23.2000000  0 25                     
G04  21433063.963   112631521.294        1220.264          45.000    21433053.294    87764768.982         950.873          46.000  
G16  20196417.330   106132897.493         268.998          45.000                                                                  
G28  22987306.564   120799103.543       -2650.707          38.000    22987296.491    94129125.236       -2065.576          41.000  
G31  21042030.749   110576621.021       -1628.691          45.000    21042017.338    86163542.586       -1269.104          43.000  
G03  24470228.238   128591970.469       -2902.335          34.000    24470223.592   100201467.078       -2261.556          36.000  
C16  36733278.597   191279800.392          10.163          47.000    36733265.552   147909635.616           7.835          47.000  
C19  23729793.859   123567270.876       -2077.197          47.000                                                                  
C27  23634325.474   123070200.005        1209.560          44.000                                                                  
C06  36291050.463   188976996.437           7.617          47.000    36291029.881   146128938.431           5.955          47.000  
C09  37376737.578   194630462.269         120.820          45.000    37376720.538   150500567.036          93.448          48.000  
C22  24652279.131   128370916.410         742.674          45.000                                                                  
G26  20795806.967   109282709.473       -1891.547          45.000    20795796.358    85155313.637       -1473.804          42.000  
G27  22000799.563   115614988.529        3042.399          40.000    22000791.018    90089573.638        2371.132          40.000  
G09  23977319.119   126001666.370        2815.185          40.000    23977312.539    98183096.397        2194.098          40.000  
C28  24716658.915   128706135.463        -961.272          37.000                                                                  
C07  38065169.325   198215321.517         812.700          40.000    38065150.277   153272591.521         628.378          42.000  
C20  25461347.363   132583910.724       -3606.631          43.000                                                                  
C36  23901080.573   124459198.077        1429.254          47.000                                                                  
C37  24947718.764   129909320.143       -2381.683          37.000                                                                  
C10  39192752.009   204086943.320         747.893          39.000    39192738.031   157812980.026         578.135          43.000  
G08  24285717.453   127622326.353        3618.164          37.000    24285720.445    99446009.011        2819.683          37.000  
G29  25203883.549   132447298.172       -3540.127          36.000    25203873.721   103205645.025       -2758.650          35.000  
C30  25223397.187   131344887.696        2769.845          32.000                                                                  
C13                                                                  40687375.683   163831147.337       -1884.382          38.000  
C08                                                                  41605375.012   167527597.185       -1837.154          41.000  
> 2025 11 03 07 40 23.2400000  0 25                     
G04  21433054.694   112631472.493        1220.228          45.000    21433044.013    87764730.955         950.853          46.000  
G16  20196415.297   106132886.739         268.993          45.000                                                                  
G28  22987326.744   120799209.592       -2650.903          38.000    22987316.663    94129207.865       -2065.600          41.000  
G31  21042043.154   110576686.189       -1628.932          45.000    21042029.755    86163593.361       -1269.178          43.000  
G03  24470250.321   128592086.570       -2902.374          34.000    24470245.681   100201557.560       -2261.715          37.000  
C16  36733278.514   191279800.006           9.935          47.000    36733265.495   147909635.315           7.745          47.000  
C19  23729809.819   123567353.974       -2077.319          47.000                                                                  
C27  23634316.205   123070151.643        1209.334          44.000                                                                  
C06  36291050.404   188976996.152           7.421          47.000    36291029.854   146128938.212           5.764          47.000  
C09  37376736.649   194630457.454         120.646          45.000    37376719.595   150500563.313          93.282          48.000  
C22  24652273.420   128370886.720         742.457          45.000                                                                  
G26  20795821.366   109282785.147       -1891.669          45.000    20795810.788    85155372.600       -1473.871          42.000  
G27  22000776.411   115614866.834        3042.519          40.000    22000767.863    90089478.809        2371.020          40.000  
G09  23977297.703   126001553.775        2815.088          40.000    23977291.096    98183008.663        2193.744          40.000  
C28  24716666.325   128706173.904        -960.942          37.000                                                                  
C07  38065163.071   198215289.040         812.229          40.000    38065144.034   153272566.397         628.297          42.000  
C20  25461375.070   132584055.018       -3607.104          43.000                                                                  
C36  23901069.594   124459140.924        1429.028          47.000                                                                  
C37  24947737.033   129909415.412       -2381.593          37.000                                                                  
C10  39192746.257   204086913.420         747.805          39.000    39192732.309   157812956.911         578.072          43.000  
G08  24285689.931   127622181.648        3617.930          37.000    24285692.911    99445896.262        2819.176          37.000  
G29  25203910.484   132447439.796       -3540.359          36.000    25203900.657   103205755.367       -2758.545          35.000  
C30  25223375.895   131344776.926        2769.919          32.000                                                                  
C13                                                                  40687394.383   163831222.689       -1883.926          38.000  
C08                                                                  41605393.276   167527670.687       -1837.359          41.000  
> 2025 11 03 07 40 23.2800000  0 25                     
G04  21433045.404   112631423.714        1219.741          45.000    21433034.738    87764692.947         950.461          46.000  
G16  20196413.276   106132876.002         268.611          45.000                                                                  
G28  22987346.933   120799315.660       -2651.466          37.000    22987336.841    94129290.516       -2066.075          41.000  
G31  21042055.557   110576751.372       -1629.370          45.000    21042042.159    86163644.156       -1269.629          43.000  
G03  24470272.421   128592202.706       -2903.076          34.000    24470267.776   100201648.047       -2262.026          37.000  
C16  36733278.433   191279799.636           9.445          47.000    36733265.396   147909635.025           7.443          47.000  
C19  23729825.800   123567437.090       -2077.698          47.000                                                                  
C27  23634306.925   123070103.293        1208.914          44.000                                                                  
C06  36291050.362   188976995.887           6.913          47.000    36291029.819   146128938.007           5.364          47.000  
C09  37376735.729   194630452.665         120.046          45.000    37376718.692   150500559.600          92.969          48.000  
C22  24652267.732   128370857.041         742.096          45.000                                                                  
G26  20795835.761   109282860.839       -1892.120          45.000    20795825.192    85155431.579       -1474.268          42.000  
G27  22000753.241   115614745.169        3041.936          40.000    22000744.703    90089384.009        2370.328          40.000  
G09  23977276.286   126001441.192        2814.758          40.000    23977269.689    98182920.942        2193.182          40.000  
C28  24716673.734   128706212.390        -961.653          37.000                                                                  
C07  38065156.851   198215256.567         811.928          40.000    38065137.820   153272541.294         627.784          42.000  
C20  25461402.764   132584199.312       -3607.331          43.000                                                                  
C36  23901058.602   124459083.781        1428.674          47.000                                                                  
C37  24947755.340   129909510.710       -2382.168          37.000                                                                  
C10  39192740.503   204086883.555         747.025          39.000    39192726.566   157812933.809         577.751          43.000  
G08  24285662.404   127622036.963        3617.399          37.000    24285665.372    99445783.522        2818.705          37.000  
G29  25203937.439   132447581.418       -3540.530          36.000    25203927.606   103205865.722       -2758.772          35.000  
C30  25223354.629                        2769.165          32.000                                                                  
C13                                                                  40687413.094   163831298.059       -1884.069          38.000  
C08                                                                  41605411.521   167527744.201       -1837.723          41.000  
> 2025 11 03 07 40 23.3200000  0 25                     
G04  21433036.129   112631374.959        1219.015          45.000    21433025.483    87764654.956         949.928          46.000  
G16  20196411.238   106132865.273         268.258          45.000                                                                  
G28  22987367.100   120799421.714       -2651.551          37.000    22987357.012    94129373.172       -2066.398          41.000  
G31  21042067.973   110576816.571       -1629.884          45.000    21042054.563    86163694.966       -1270.125          43.000  
G03  24470294.533   128592318.852       -2903.627          34.000    24470289.881   100201738.528       -2262.111          37.000  
C16  36733278.340   191279799.282           8.920          47.000    36733265.308   147909634.743           7.098          47.000  
C19  23729841.764   123567520.218       -2078.168          47.000                                                                  
C27  23634297.666   123070054.959        1208.403          44.000                                                                  
C06  36291050.311   188976995.619           6.678          47.000    36291029.779   146128937.809           4.995          47.000  
C09  37376734.814   194630447.874         119.733          45.000    37376717.782   150500555.898          92.609          48.000  
C22  24652262.030   128370827.366         741.842          45.000                                                                  
G26  20795850.200   109282936.542       -1892.529          45.000    20795839.598    85155490.565       -1474.628          42.000  
G27  22000730.077   115614623.507        3041.547          40.000    22000721.557    90089289.232        2369.500          40.000  
G09  23977254.880   126001328.627        2814.227          40.000    23977248.298    98182833.226        2192.810          40.000  
C28  24716681.138   128706250.863        -961.847          37.000                                                                  
C07  38065150.622   198215224.102         811.623          40.000    38065131.564   153272516.196         627.423          42.000  
C20  25461430.493   132584343.620       -3607.668          43.000                                                                  
C36  23901047.609   124459026.644        1428.394          47.000                                                                  
C37  24947773.663   129909606.045       -2383.110          37.000                                                                  
C10  39192734.780   204086853.687         746.641          39.000    39192720.846   157812910.715         577.415          43.000  
G08  24285634.880   127621892.263        3617.344          37.000    24285637.851    99445670.786        2818.345          37.000  
G29  25203964.384   132447723.073       -3541.287          36.000    25203954.579   103205976.106       -2759.390          35.000  
C30  25223333.369                        2767.698          32.000                                                                  
C13                                                                  40687431.833   163831373.471       -1884.967          38.000  
C08                                                                  41605429.782   167527817.707       -1837.803          41.000  
> 2025 11 03 07 40 23.3600000  0 25                     
G04  21433026.857   112631326.202        1218.740          45.000    21433016.210    87764616.957         949.786          46.000  
G16  20196409.218   106132854.552         267.975          45.000                                                                  
G28  22987387.267   120799527.792       -2651.962          37.000    22987377.207    94129455.815       -2066.337          41.000  
G31  21042080.374   110576881.762       -1629.974          45.000    21042066.950    86163745.764       -1270.151          43.000  
G03  24470316.630   128592435.020       -2904.294          34.000    24470311.983   100201829.038       -2262.638          37.000  
C16  36733278.269   191279798.915           8.920          47.000    36733265.249   147909634.466           6.854          47.000  
C19  23729857.738   123567603.348       -2078.375          47.000                                                                  
C27  23634288.400   123070006.630        1208.085          44.000                                                                  
C06  36291050.269   188976995.360           6.406          47.000    36291029.749   146128937.601           5.009          47.000  
C09  37376733.893   194630443.080         119.694          45.000    37376716.873   150500552.190          92.567          48.000  
C22  24652256.327   128370797.699         741.600          45.000                                                                  
G26  20795864.599   109283012.246       -1892.749          45.000    20795854.001    85155549.566       -1475.024          42.000  
G27  22000706.929   115614501.867        3040.971          40.000    22000698.421    90089194.450        2369.276          40.000  
G09  23977233.452   126001216.061        2814.008          40.000    23977226.870    98182745.506        2192.761          40.000  
C28  24716688.510   128706289.363        -962.449          37.000                                                                  
C07  38065144.405   198215191.646         811.296          40.000    38065125.342   153272491.104         627.178          42.000  
C20  25461458.225   132584487.919       -3607.645          43.000                                                                  
C36  23901036.662   124458969.512        1428.186          47.000                                                                  
C37  24947791.956   129909701.355       -2383.130          37.000                                                                  
C10  39192729.042   204086823.808         746.681          39.000    39192715.105   157812887.612         577.385          43.000  
G08  24285607.330   127621747.555        3617.552          37.000    24285610.313    99445558.041        2818.362          37.000  
G29  25203991.353   132447864.726       -3541.552          36.000    25203981.551   103206086.477       -2759.447          35.000  
C30  25223312.126                        2766.773          32.000                                                                  
C13                                                                  40687450.556   163831448.856       -1884.958          38.000  
C08                                                                  41605448.055   167527891.218       -1837.857          41.000  
> 2025 11 03 07 40 23.4000000  0 26                     
G04  21433017.569   112631277.434        1218.884          45.000    21433006.928    87764578.960         949.735          46.000  
G16  20196407.197   106132843.835         267.825          45.000                                                                  
G28  22987407.459   120799633.875       -2652.269          37.000    22987397.390    94129538.461       -2066.284          41.000  
G31  21042092.789   110576946.953       -1629.956          45.000    21042079.337    86163796.544       -1269.856          43.000  
G03  24470338.701   128592551.135       -2903.595          34.000    24470334.119   100201919.538       -2262.661          37.000  
C16  36733278.192   191279798.554           8.860          47.000    36733265.170   147909634.179           6.939          47.000  
C19  23729873.720   123567686.474       -2078.369          47.000                                                                  
C27  23634279.161   123069958.296        1208.156          44.000                                                                  
C06  36291050.220   188976995.103           6.293          47.000    36291029.676   146128937.399           4.957          47.000  
C09  37376733.002   194630438.277         119.861          45.000    37376715.941   150500548.478          92.642          48.000  
C22  24652250.650   128370768.029         741.563          45.000                                                                  
G26  20795878.995   109283087.951       -1892.804          45.000    20795868.409    85155608.547       -1474.854          42.000  
G27  22000683.778   115614380.209        3041.088          40.000    22000675.262    90089099.653        2369.536          40.000  
G09  23977212.047   126001103.478        2814.276          40.000    23977205.460    98182657.795        2192.664          40.000  
C28  24716695.894   128706327.839        -962.257          37.000                                                                  
C07  38065138.174   198215159.191         811.209          40.000    38065119.093   153272466.000         627.316          42.000  
C20  25461485.922   132584632.224       -3607.711          44.000                                                                  
C36  23901025.716   124458912.373        1428.265          47.000                                                                  
C37  24947810.291   129909796.671       -2383.120          37.000                                                                  
C10  39192723.309   204086793.931         746.707          39.000    39192709.361   157812864.511         577.402          43.000  
G08  24285579.794   127621602.878        3617.183          37.000    24285582.791    99445445.311        2818.127          37.000  
G29  25204018.287   132448006.337       -3540.752          36.000    25204008.501   103206196.854       -2759.542          35.000  
C30  25223290.888                        2767.041          31.000                                                                  
G18                                                                  25205051.829                3       1100.140          21.000  
C13                                                                  40687469.277   163831524.252       -1885.007          38.000  
C08                                                                  41605466.331   167527964.726       -1837.819          41.000  
> 2025 11 03 07 40 23.4400000  0 26                     
G04  21433008.262   112631228.662        1219.078          45.000    21432997.647    87764540.955         949.897          46.000  
G16  20196405.150   106132833.114         267.891          45.000                                                                  
G28  22987427.638   120799739.932       -2651.814          38.000    22987417.590    94129621.122       -2066.534          41.000  
G31  21042105.195   110577012.148       -1629.978          45.000    21042091.760    86163847.346       -1270.007          43.000  
G03  24470360.793   128592667.281       -2903.699          34.000    24470356.232   100202010.046       -2262.837          37.000  
C16  36733278.133   191279798.182           9.086          47.000    36733265.093   147909633.895           6.970          47.000  
C19  23729889.681   123567769.599       -2078.271          47.000                                                                  
C27  23634269.909   123069909.959        1208.231          44.000                                                                  
C06  36291050.177   188976994.835           6.492          47.000    36291029.637   146128937.196           4.950          47.000  
C09  37376732.096   194630433.483         119.831          45.000    37376715.025   150500544.772          92.586          48.000  
C22  24652244.935   128370738.357         741.637          45.000                                                                  
G26  20795893.407   109283163.658       -1892.798          45.000    20795882.824    85155667.547       -1475.024          42.000  
G27  22000660.634   115614258.549        3041.248          40.000    22000652.120    90089004.853        2369.774          40.000  
G09  23977190.643   126000990.908        2814.215          40.000    23977184.051    98182570.088        2192.535          40.000  
C28  24716703.287   128706366.360        -962.921          37.000                                                                  
C07  38065131.933   198215126.734         811.247          40.000    38065112.848   153272440.900         627.382          42.000  
C20  25461513.616   132584776.526       -3607.655          44.000                                                                  
C36  23901014.753   124458855.240        1428.241          47.000                                                                  
C37  24947828.619   129909891.965       -2382.693          37.000                                                                  
C10  39192717.574   204086764.064         746.626          39.000    39192703.619   157812841.405         577.508          43.000  
G08  24285552.254   127621458.198        3616.989          38.000    24285555.255    99445332.548        2818.691          37.000  
G29  25204045.231   132448147.984       -3541.048          36.000    25204035.445   103206307.211       -2759.209          35.000  
C30  25223269.608                        2768.457          31.000                                                                  
G18                                                                  25205041.100                3       1100.372          21.000  
C13                                                                  40687487.989   163831599.623       -1884.504          38.000  
C08                                                                  41605484.579   167528038.240       -1837.930          41.000  
> 2025 11 03 07 40 23.4800000  0 26                     
G04  21432998.979   112631179.894        1219.111          45.000    21432988.369    87764502.957         949.894          46.000  
G16  20196403.093   106132822.393         267.930          45.000                                                                  
G28  22987447.824   120799846.010       -2651.882          38.000    22987437.773    94129703.778       -2066.549          41.000  
G31  21042117.607   110577077.338       -1629.913          45.000    21042104.165    86163898.152       -1270.168          43.000  
G03  24470382.907   128592783.420       -2903.653          34.000    24470378.316   100202100.534       -2262.529          37.000  
C16  36733278.076   191279797.817           9.090          47.000    36733265.053   147909633.617           6.916          47.000  
C19  23729905.660   123567852.734       -2078.394          47.000                                                                  
C27  23634260.636   123069861.632        1208.121          44.000                                                                  
C06  36291050.109   188976994.568           6.592          47.000    36291029.602   146128936.999           4.856          47.000  
C09  37376731.194   194630428.694         119.723          45.000    37376714.094   150500541.073          92.428          48.000  
C22  24652239.228   128370708.683         741.731          45.000                                                                  
G26  20795907.810   109283239.367       -1892.810          45.000    20795897.222    85155726.533       -1474.829          42.000  
G27  22000637.482   115614136.889        3041.354          40.000    22000628.964    90088910.050        2369.939          40.000  
G09  23977169.226   126000878.336        2814.197          40.000    23977162.639    98182482.378        2192.590          40.000  
C28  24716710.655   128706404.855        -962.806          37.000                                                                  
C07  38065125.690   198215094.263         811.562          40.000    38065106.601   153272415.792         627.571          42.000  
C20  25461541.331   132584920.837       -3607.767          44.000                                                                  
C36  23901003.765   124458798.105        1428.308          47.000                                                                  
C37  24947846.886   129909987.266       -2382.553          37.000                                                                  
C10  39192711.858   204086734.201         746.548          39.000    39192697.884   157812818.314         577.307          43.000  
G08  24285524.710   127621313.524        3616.793          38.000    24285527.699    99445219.811        2818.480          37.000  
G29  25204072.171   132448289.649       -3541.561          36.000    25204062.404   103206417.604       -2759.658          35.000  
C30  25223248.355                        2768.490          31.000                                                                  
G18                                                                  25205030.375                3       1100.372          21.000  
C13                                                                  40687506.690   163831675.015       -1884.648          38.000  
C08                                                                  41605502.845   167528111.769       -1838.262          41.000  
> 2025 11 03 07 40 23.5200000  0 26                     
G04  21432989.686   112631131.138        1218.948          45.000    21432979.066    87764464.965         949.811          46.000  
G16  20196401.067   106132811.675         267.930          45.000                                                                  
G28  22987468.005   120799952.077       -2651.640          38.000    22987457.950    94129786.430       -2066.427          41.000  
G31  21042130.011   110577142.542       -1630.085          45.000    21042116.563    86163948.947       -1270.040          43.000  
G03  24470405.027   128592899.563       -2903.578          34.000    24470400.417   100202191.039       -2262.672          37.000  
C16  36733277.996   191279797.453           9.084          47.000    36733264.976   147909633.340           6.907          47.000  
C19  23729921.622   123567935.866       -2078.369          47.000                                                                  
C27  23634251.370   123069813.305        1208.091          44.000                                                                  
C06  36291050.065   188976994.308           6.510          47.000    36291029.532   146128936.802           4.823          47.000  
C09  37376730.281   194630423.906         119.635          45.000    37376713.167   150500537.364          92.573          48.000  
C22  24652233.551   128370679.012         741.710          45.000                                                                  
G26  20795922.190   109283315.078       -1892.834          45.000    20795911.616    85155785.509       -1474.579          42.000  
G27  22000614.337   115614015.245        3041.160          40.000    22000605.808    90088815.243        2370.095          40.000  
G09  23977147.815   126000765.763        2814.221          40.000    23977141.209    98182394.663        2192.743          40.000  
C28  24716718.048   128706443.364        -962.940          37.000                                                                  
C07  38065119.480   198215061.793         811.724          40.000    38065100.361   153272390.687         627.581          42.000  
C20  25461569.069   132585065.145       -3607.757          44.000                                                                  
C36  23900992.819   124458740.970        1428.345          47.000                                                                  
C37  24947865.162   129910082.580       -2382.773          37.000                                                                  
C10  39192706.122   204086704.316         746.878          39.000    39192692.133   157812795.210         577.434          43.000  
G08  24285497.174   127621168.833        3617.051          38.000    24285500.160    99445107.061        2818.629          37.000  
G29  25204099.109   132448431.292       -3541.375          36.000    25204089.371   103206527.969       -2759.357          35.000  
C30  25223227.095                        2768.084          32.000                                                                  
G18                                                                  25205019.709                3       1100.372          21.000  
C13                                                                  40687525.425   163831750.419       -1884.986          38.000  
C08                                                                  41605521.112   167528185.275       -1837.928          41.000  
> 2025 11 03 07 40 23.5600000  0 26                     
G04  21432980.423   112631082.376        1219.008          45.000    21432969.800    87764426.968         949.861          46.000  
G16  20196399.010   106132800.952         267.979          45.000                                                                  
G28  22987488.189   120800058.159       -2651.830          38.000    22987478.138    94129869.073       -2066.162          41.000  
G31  21042142.406   110577207.736       -1630.004          45.000    21042128.961    86163999.751       -1270.104          43.000  
G03  24470427.124   128593015.689       -2903.276          34.000    24470422.526   100202281.539       -2262.670          37.000  
C16  36733277.931   191279797.084           9.190          47.000    36733264.882   147909633.055           7.053          47.000  
C19  23729937.607   123568018.996       -2078.302          47.000                                                                  
C27  23634242.072   123069764.967        1208.295          44.000                                                                  
C06  36291050.020   188976994.042           6.564          47.000    36291029.484   146128936.590           5.117          47.000  
C09  37376729.368   194630419.110         119.774          45.000    37376712.239   150500533.654          92.670          48.000  
C22  24652227.854   128370649.343         741.693          45.000                                                                  
G26  20795936.590   109283390.781       -1892.663          45.000    20795926.013    85155844.499       -1474.677          42.000  
G27  22000591.196   115613893.581        3041.417          40.000    22000582.645    90088720.460        2369.747          40.000  
G09  23977126.388   126000653.190        2814.288          40.000    23977119.794    98182306.937        2193.042          40.000  
C28  24716725.413   128706481.847        -962.668          34.000                                                                  
C07  38065113.257   198215029.322         811.784          40.000    38065094.118   153272365.580         627.625          42.000  
C20  25461596.816   132585209.451       -3607.731          44.000                                                                  
C36  23900981.869   124458683.833        1428.406          47.000                                                                  
C37  24947883.473   129910177.905       -2383.032          37.000                                                                  
C10  39192700.371   204086674.441         746.899          39.000    39192686.394   157812772.103         577.559          43.000  
G08  24285469.614   127621024.147        3617.180          38.000    24285472.651    99444994.320        2818.525          37.000  
G29  25204126.033   132448572.932       -3541.167          35.000    25204116.320   103206638.331       -2759.133          35.000  
C30  25223205.829                        2767.764          32.000                                                                  
G18                                                                  25205009.078                3       1099.470          21.000  
C13                                                                  40687544.118   163831825.802       -1884.773          38.000  
C08                                                                  41605539.386   167528258.783       -1837.805          41.000  
> 2025 11 03 07 40 23.6000000  0 26                     
G04  21432971.111   112631033.611        1219.095          45.000    21432960.520    87764388.967         949.945          46.000  
G16  20196396.971   106132790.226         268.073          45.000                                                                  
G28  22987508.368   120800164.216       -2651.491          38.000    22987498.328    94129951.719       -2066.076          41.000  
G31  21042154.810   110577272.923       -1629.816          45.000    21042141.371    86164050.543       -1269.924          43.000  
G03  24470449.228   128593131.817       -2903.150          34.000    24470444.629   100202372.029       -2262.455          37.000  
C16  36733277.850   191279796.703           9.461          47.000    36733264.799   147909632.771           7.082          47.000  
C19  23729953.590   123568102.120       -2078.162          47.000                                                                  
C27  23634232.824   123069716.627        1208.461          44.000                                                                  
C06  36291049.996   188976993.766           6.794          47.000    36291029.430   146128936.382           5.205          47.000  
C09  37376728.462   194630414.308         119.973          45.000    37376711.303   150500529.941          92.783          47.000  
C22  24652222.165   128370619.669         741.771          45.000                                                                  
G26  20795950.979   109283466.474       -1892.395          45.000    20795940.424    85155903.500       -1474.951          42.000  
G27  22000568.057   115613771.923        3041.508          40.000    22000559.496    90088625.650        2370.049          40.000  
G09  23977104.949   126000540.610        2814.447          40.000    23977098.384    98182219.204        2193.280          40.000  
C28  24716732.787   128706520.314        -962.121          34.000                                                                  
C07  38065107.013   198214996.863         811.613          40.000    38065087.892   153272340.475         627.624          42.000  
C20  25461624.539   132585353.747       -3607.513          44.000                                                                  
C36  23900970.920   124458626.689        1428.546          46.000                                                                  
C37  24947901.791   129910273.208       -2382.768          39.000                                                                  
C10  39192694.652   204086644.573         746.813          39.000    39192680.661   157812748.998         577.588          43.000  
G08  24285442.106   127620879.466        3617.087          38.000    24285445.089    99444881.562        2818.755          37.000  
G29  25204152.979   132448714.554       -3540.667          35.000    25204143.272   103206748.683       -2758.824          35.000  
C30  25223184.570                        2768.207          32.000                                                                  
G18                                                                  25204998.606                3       1099.470          22.000  
C13                                                                  40687562.841   163831901.192       -1884.787          38.000  
C08                                                                  41605557.646   167528332.293       -1837.725          41.000  
> 2025 11 03 07 40 23.6400000  0 26                     
G04  21432961.821   112630984.842        1219.178          45.000    21432951.226    87764350.970         949.916          46.000  
G16  20196394.945   106132779.504         268.073          45.000                                                                  
G28  22987528.540   120800270.295       -2651.727          38.000    22987518.524    94130034.379       -2066.305          41.000  
G31  21042167.219   110577338.116       -1629.795          45.000    21042153.785    86164101.346       -1270.042          43.000  
G03  24470471.332   128593247.973       -2903.744          35.000    24470466.729   100202462.511       -2262.218          37.000  
C16  36733277.774   191279796.329           9.438          47.000    36733264.744   147909632.490           7.068          47.000  
C19  23729969.573   123568185.242       -2078.070          47.000                                                                  
C27  23634223.535   123069668.294        1208.405          44.000                                                                  
C06  36291049.927   188976993.500           6.730          46.000    36291029.356   146128936.175           5.200          47.000  
C09  37376727.547   194630409.501         120.141          45.000    37376710.384   150500526.227          92.852          47.000  
C22  24652216.480   128370589.998         741.798          45.000                                                                  
G26  20795965.399   109283542.178       -1892.480          46.000    20795954.813    85155962.497       -1474.994          42.000  
G27  22000544.920   115613650.275        3041.321          41.000    22000536.336    90088530.856        2369.931          40.000  
G09  23977083.533   126000428.033        2814.459          40.000    23977076.936    98182131.482        2193.188          40.000  
C28  24716740.204   128706558.807        -962.275          34.000                                                                  
C07  38065100.795   198214964.403         811.526          40.000    38065081.669   153272315.372         627.586          42.000  
C20  25461652.270   132585498.036       -3607.267          44.000                                                                  
C36  23900959.936   124458569.547        1428.552          46.000                                                                  
C37  24947920.095   129910368.509       -2382.603          39.000                                                                  
C10  39192688.928   204086614.698         746.842          39.000    39192674.919   157812725.906         577.360          43.000  
G08  24285414.581   127620734.784        3617.019          38.000    24285417.560    99444768.816        2818.765          37.000  
G29  25204179.939   132448856.216       -3541.170          36.000    25204170.235   103206859.043       -2758.933          35.000  
C30  25223163.308   131343669.782        2768.466          32.000                                                                  
G18                                                                  25204987.889                3       1099.470          22.000  
C13                                                                  40687581.572   163831976.578       -1884.744          38.000  
C08                                                                  41605575.896   167528405.807       -1837.806          41.000  
> 2025 11 03 07 40 23.6800000  0 26                     
G04  21432952.528   112630936.079        1219.115          45.000    21432941.952    87764312.975         949.871          46.000  
G16  20196392.904   106132768.787         267.973          45.000                                                                  
G28  22987548.739   120800376.378       -2651.960          38.000    22987538.703    94130117.033       -2066.367          41.000  
G31  21042179.644   110577403.312       -1629.892          45.000    21042166.217    86164152.145       -1270.021          43.000  
G03  24470493.402   128593364.099       -2903.518          35.000    24470488.809   100202553.024       -2262.628          37.000  
C16  36733277.691   191279795.967           9.144          47.000    36733264.680   147909632.206           7.066          47.000  
C19  23729985.511   123568268.376       -2078.271          47.000                                                                  
C27  23634214.253   123069619.957        1208.410          44.000                                                                  
C06  36291049.895   188976993.233           6.692          46.000    36291029.319   146128935.980           4.991          47.000  
C09  37376726.612   194630404.701         120.071          45.000    37376709.475   150500522.524          92.656          47.000  
C22  24652210.800   128370560.331         741.718          45.000                                                                  
G26  20795979.800   109283617.891       -1892.731          46.000    20795969.206    85156021.490       -1474.915          42.000  
G27  22000521.764   115613528.613        3041.429          41.000    22000513.170    90088436.056        2369.997          40.000  
G09  23977062.098   126000315.466        2814.276          40.000    23977055.514    98182043.774        2192.829          40.000  
C28  24716747.584   128706597.347        -963.018          31.000                                                                  
C07  38065094.562   198214931.935         811.615          40.000    38065075.431   153272290.274         627.441          42.000  
C20  25461679.999   132585642.340       -3607.488          44.000                                                                  
C36  23900948.973   124458512.404        1428.583          46.000                                                                  
C37  24947938.408   129910463.827       -2382.847          39.000                                                                  
C10  39192683.189   204086584.828         746.730          39.000    39192669.140   157812702.799         577.503          43.000  
G08  24285387.036   127620590.081        3617.319          38.000    24285390.013    99444656.080        2818.523          36.000  
G29  25204206.873   132448997.859       -3541.069          36.000    25204197.187   103206969.404       -2758.939          35.000  
C30  25223142.065                        2767.776          32.000                                                                  
G18                                                                  25204977.259                3       1100.982          22.000  
C13                                                                  40687600.292   163832051.937       -1884.244          37.000  
C08                                                                  41605594.147   167528479.309       -1837.689          41.000  
> 2025 11 03 07 40 23.7200000  0 26                     
G04  21432943.263   112630887.327        1218.877          44.000    21432932.655    87764274.985         949.746          45.000  
G16  20196390.889   106132758.083         267.700          45.000                                                                  
G28  22987568.928   120800482.460       -2652.057          38.000    22987558.870    94130199.687       -2066.392          41.000  
G31  21042192.054   110577468.511       -1629.999          45.000    21042178.617    86164202.951       -1270.125          43.000  
G03  24470515.514   128593480.250       -2903.744          35.000    24470510.905   100202643.512       -2262.402          37.000  
C16  36733277.638   191279795.617           8.798          47.000    36733264.612   147909631.934           6.841          46.000  
C19  23730001.447   123568351.510       -2078.394          47.000                                                                  
C27  23634204.984   123069571.634        1208.133          44.000                                                                  
C06  36291049.827   188976992.966           6.652          46.000    36291029.268   146128935.785           4.871          46.000  
C09  37376725.687   194630399.910         119.843          45.000    37376708.572   150500518.826          92.439          47.000  
C22  24652205.100   128370530.662         741.694          45.000                                                                  
G26  20795994.234   109283693.607       -1892.908          45.000    20795983.604    85156080.487       -1474.994          42.000  
G27  22000498.617   115613406.957        3041.328          41.000    22000490.012    90088341.252        2370.066          40.000  
G09  23977040.643   126000202.900        2814.093          40.000    23977034.113    98181956.064        2192.719          40.000  
C28  24716754.978   128706635.868        -963.187          31.000                                                                  
C07  38065088.347   198214899.471         811.621          40.000    38065069.239   153272265.186         627.230          42.000  
C20  25461707.718   132585786.640       -3607.505          44.000                                                                  
C36  23900937.974   124458455.267        1428.479          46.000                                                                  
C37  24947956.734   129910559.145       -2382.954          39.000                                                                  
C10  39192677.453   204086554.958         746.652          39.000    39192663.411   157812679.701         577.465          43.000  
G08  24285359.503   127620445.372        3617.672          38.000    24285362.492    99444543.327        2818.720          36.000  
G29  25204233.823   132449139.499       -3541.020          36.000    25204224.154   103207079.786       -2759.349          35.000  
C30  25223120.793   131343448.376        2767.736          32.000                                                                  
G18                                                                  25204967.039                3       1100.982          22.000  
C13                                                                  40687619.003   163832127.336       -1884.688          37.000  
C08                                                                  41605612.419   167528552.810       -1837.560          41.000  
> 2025 11 03 07 40 23.7600000  0 26                     
G04  21432933.994   112630838.574        1218.743          44.000    21432923.366    87764236.991         949.742          45.000  
G16  20196388.848   106132747.370         267.702          44.000                                                                  
G28  22987589.115   120800588.542       -2652.119          38.000    22987579.054    94130282.347       -2066.536          41.000  
G31  21042204.457   110577533.722       -1630.245          45.000    21042191.034    86164253.765       -1270.313          43.000  
G03  24470537.612   128593596.407       -2903.850          35.000    24470532.995   100202734.015       -2262.557          37.000  
C16  36733277.548   191279795.258           8.783          47.000    36733264.547   147909631.653           6.899          46.000  
C19  23730017.414   123568434.639       -2078.333          47.000                                                                  
C27  23634195.748   123069523.312        1208.005          44.000                                                                  
C06  36291049.759   188976992.705           6.527          46.000    36291029.243   146128935.589           4.830          46.000  
C09  37376724.759   194630395.124         119.623          45.000    37376707.662   150500515.123          92.458          47.000  
C22  24652199.423   128370500.998         741.588          45.000                                                                  
G26  20796008.629   109283769.322       -1892.981          45.000    20795998.008    85156139.479       -1474.939          42.000  
G27  22000475.479   115613285.310        3041.217          41.000    22000466.850    90088246.458        2369.915          40.000  
G09  23977019.213   126000090.329        2814.154          40.000    23977012.697    98181868.354        2192.651          40.000  
C28  24716762.366   128706674.356        -962.504          31.000                                                                  
C07  38065082.095   198214867.009         811.525          40.000    38065063.006   153272240.089         627.315          42.000  
C20  25461735.424   132585930.957       -3607.831          44.000                                                                  
C36  23900926.989   124458398.140        1428.241          46.000                                                                  
C37  24947975.041   129910654.438       -2382.596          39.000                                                                  
C10  39192671.743   204086525.076         746.825          39.000    39192657.687   157812656.616         577.152          43.000  
G08  24285331.973   127620300.699        3617.184          38.000    24285334.957    99444430.620        2818.035          36.000  
G29  25204260.790   132449281.148       -3541.162          35.000    25204251.104   103207190.168       -2759.613          35.000  
C30  25223099.527   131343337.667        2767.745          32.000                                                                  
G18                                                                  25204956.304                3       1098.421          22.000  
C13                                                                  40687637.739   163832202.742       -1885.133          37.000  
C08                                                                  41605630.669   167528626.331       -1837.887          41.000  
> 2025 11 03 07 40 23.8000000  0 26                     
G04  21432924.701   112630789.813        1218.864          44.000    21432914.086    87764198.995         949.827          45.000  
G16  20196386.796   106132736.647         267.921          44.000                                                                  
G28  22987609.300   120800694.626       -2652.161          38.000    22987599.245    94130365.011       -2066.640          41.000  
G31  21042216.866   110577598.920       -1630.121          45.000    21042203.416    86164304.573       -1270.297          43.000  
G03  24470559.701   128593712.522       -2903.156          35.000    24470555.118   100202824.521       -2262.651          37.000  
C16  36733277.481   191279794.891           9.015          47.000    36733264.439   147909631.371           6.974          46.000  
C19  23730033.405   123568517.769       -2078.302          47.000                                                                  
C27  23634186.510   123069474.988        1208.000          44.000                                                                  
C06  36291049.715   188976992.453           6.321          45.000    36291029.179   146128935.379           5.093          46.000  
C09  37376723.866   194630390.332         119.653          45.000    37376706.727   150500511.415          92.542          47.000  
C22  24652193.733   128370471.336         741.506          45.000                                                                  
G26  20796023.044   109283845.026       -1892.779          45.000    20796012.402    85156198.463       -1474.738          42.000  
G27  22000452.334   115613163.660        3041.174          41.000    22000443.700    90088151.677        2369.633          40.000  
G09  23976997.804   125999977.769        2814.001          40.000    23976991.275    98181780.638        2192.780          40.000  
C28  24716769.726   128706712.825        -962.378          31.000                                                                  
C07  38065075.881   198214834.547         811.546          40.000    38065056.787   153272214.992         627.367          42.000  
C20  25461763.164   132586075.260       -3607.749          44.000                                                                  
C36  23900916.033   124458341.013        1428.119          46.000                                                                  
C37  24947993.337   129910749.750       -2382.670          39.000                                                                  
C10  39192666.013   204086495.210         746.689          39.000    39192651.942   157812633.514         577.321          43.000  
G08  24285304.462   127620156.026        3616.874          38.000    24285307.413    99444317.865        2818.513          36.000  
G29  25204287.724   132449422.802       -3541.381          35.000    25204278.058   103207300.537       -2759.512          35.000  
C30  25223078.283   131343226.946        2767.925          32.000                                                                  
G18                                                                  25204945.697                3       1098.718          23.000  
C13                                                                  40687656.457   163832278.135       -1885.020          37.000  
C08                                                                  41605648.923   167528699.853       -1838.071          41.000  
> 2025 11 03 07 40 23.8400000  0 26                     
G04  21432915.426   112630741.052        1218.903          44.000    21432904.807    87764161.013         949.595          45.000  
G16  20196384.756   106132725.939         267.790          44.000                                                                  
G28  22987629.492   120800800.721       -2652.346          38.000    22987619.443    94130447.664       -2066.481          41.000  
G31  21042229.283   110577664.117       -1630.002          45.000    21042215.802    86164355.379       -1270.262          43.000  
G03  24470581.826   128593828.680       -2903.545          35.000    24470577.235   100202915.021       -2262.658          37.000  
C16  36733277.437   191279794.525           9.113          47.000    36733264.367   147909631.094           6.907          46.000  
C19  23730049.371   123568600.909       -2078.485          47.000                                                                  
C27  23634177.246   123069426.668        1207.938          43.000                                                                  
C06  36291049.682   188976992.195           6.302          45.000    36291029.111   146128935.175           5.115          46.000  
C09  37376722.955   194630385.537         119.734          45.000    37376705.810   150500507.707          92.646          46.000  
C22  24652188.067   128370441.690         741.178          45.000                                                                  
G26  20796037.449   109283920.726       -1892.584          45.000    20796026.793    85156257.466       -1475.018          42.000  
G27  22000429.199   115613042.030        3040.810          41.000    22000420.550    90088056.885        2369.707          40.000  
G09  23976976.385   125999865.204        2814.008          40.000    23976969.843    98181692.911        2193.054          40.000  
C28  24716777.124   128706751.270        -961.572          31.000                                                                  
C07  38065069.646   198214802.092         811.382          40.000    38065050.578   153272189.900         627.316          42.000  
C20  25461790.888   132586219.572       -3607.823          44.000                                                                  
C36  23900905.081   124458283.878        1428.235          46.000                                                                  
C37  24948011.628   129910845.068       -2382.893          39.000                                                                  
C10  39192660.272   204086465.343         746.706          39.000    39192646.242   157812610.424         577.228          43.000  
G08  24285276.947   127620011.341        3616.985          38.000    24285279.885    99444205.119        2818.663          36.000  
G29  25204314.699   132449564.480       -3541.867          35.000    25204305.014   103207410.928       -2759.743          35.000  
C30  25223057.030   131343116.209        2768.413          32.000                                                                  
G18                                                                  25204934.916                3       1099.106          23.000  
C13                                                                  40687675.179   163832353.537       -1885.053          37.000  
C08                                                                  41605667.166   167528773.375       -1838.156          41.000  
> 2025 11 03 07 40 23.8800000  0 26                     
G04  21432906.135   112630692.301        1218.812          44.000    21432895.507    87764123.032         949.497          45.000  
G16  20196382.715   106132715.235         267.660          44.000                                                                  
G28  22987649.675   120800906.793       -2652.004          38.000    22987639.630    94130530.324       -2066.538          41.000  
G31  21042241.685   110577729.315       -1629.958          45.000    21042228.208    86164406.184       -1270.207          43.000  
G03  24470603.934   128593944.819       -2903.465          35.000    24470599.338   100203005.524       -2262.738          37.000  
C16  36733277.402   191279794.158           9.188          47.000    36733264.294   147909630.810           7.013          46.000  
C19  23730065.330   123568684.052       -2078.656          47.000                                                                  
C27  23634168.001   123069378.343        1208.038          43.000                                                                  
C06  36291049.618   188976991.933           6.379          45.000    36291029.048   146128934.973           5.099          46.000  
C09  37376722.048   194630380.742         119.791          45.000    37376704.895   150500503.999          92.689          46.000  
C22  24652182.363   128370412.040         741.104          45.000                                                                  
G26  20796051.860   109283996.437       -1892.694          45.000    20796041.196    85156316.461       -1474.957          42.000  
G27  22000406.031   115612920.380        3041.021          41.000    22000397.400    90087962.093        2369.720          40.000  
G09  23976954.959   125999752.649        2813.855          41.000    23976948.440    98181605.211        2192.664          40.000  
C28  24716784.517   128706789.762        -961.886          31.000                                                                  
C07  38065063.408   198214769.644         811.151          40.000    38065044.331   153272164.789         627.593          42.000  
C20  25461818.613   132586363.885       -3607.890          44.000                                                                  
C36  23900894.125   124458226.753        1428.125          46.000                                                                  
C37  24948029.962   129910940.374       -2382.772          39.000                                                                  
C10  39192654.516   204086435.490         746.422          38.000    39192640.507   157812587.330         577.253          43.000  
G08  24285249.411   127619866.640        3617.273          38.000    24285252.345    99444092.378        2818.658          36.000  
G29  25204341.656   132449706.144       -3541.835          35.000    25204331.981   103207521.298       -2759.521          35.000  
C30  25223035.773   131343005.510        2767.917          32.000                                                                  
G18                                                                  25204924.248                3       1098.688          23.000  
C13                                                                  40687693.880   163832428.896       -1884.271          37.000  
C08                                                                  41605685.408   167528846.895       -1838.087          41.000  
> 2025 11 03 07 40 23.9200000  0 26                     
G04  21432896.869   112630643.562        1218.540          44.000    21432886.209    87764085.042         949.629          45.000  
G16  20196380.678   106132704.533         267.511          44.000                                                                  
G28  22987669.881   120801012.877       -2652.044          38.000    22987659.813    94130612.980       -2066.468          41.000  
G31  21042254.102   110577794.517       -1630.008          45.000    21042240.623    86164456.994       -1270.246          44.000  
G03  24470626.022   128594060.935       -2903.012          35.000    24470621.453   100203096.028       -2262.717          37.000  
C16  36733277.321   191279793.806           8.914          47.000    36733264.210   147909630.531           6.986          46.000  
C19  23730081.336   123568767.194       -2078.656          47.000                                                                  
C27  23634158.730   123069330.020        1208.013          43.000                                                                  
C06  36291049.578   188976991.673           6.421          45.000    36291028.973   146128934.776           4.956          46.000  
C09  37376721.134   194630375.958         119.637          45.000    37376703.974   150500500.295          92.616          46.000  
C22  24652176.701   128370382.393         741.048          45.000                                                                  
G26  20796066.244   109284072.144       -1892.731          45.000    20796055.596    85156375.453       -1474.908          43.000  
G27  22000382.891   115612798.737        3041.056          41.000    22000374.249    90087867.320        2369.370          41.000  
G09  23976933.552   125999640.092        2813.867          41.000    23976927.025    98181517.507        2192.511          41.000  
C28  24716791.893   128706828.248        -962.043          31.000                                                                  
C07  38065057.197   198214737.201         811.063          40.000    38065038.084   153272139.692         627.502          42.000  
C20  25461846.355   132586508.184       -3607.671          44.000                                                                  
C36  23900883.164   124458169.628        1428.088          46.000                                                                  
C37  24948048.280   129911035.697       -2382.971          39.000                                                                  
C10  39192648.790   204086405.622         746.630          38.000    39192634.769   157812564.237         577.253          43.000  
G08  24285221.897   127619721.978        3616.748          38.000    24285224.810    99443979.650        2818.427          37.000  
G29  25204368.603   132449847.784       -3541.344          35.000    25204358.941   103207631.675       -2759.501          36.000  
C30  25223014.501   131342894.816        2767.502          32.000                                                                  
G18                                                                  25204913.649                3       1097.982          24.000  
C13                                                                  40687712.591   163832504.309       -1884.896          37.000  
C08                                                                  41605703.680   167528920.395       -1837.674          41.000  
> 2025 11 03 07 40 23.9600000  0 26                     
G04  21432887.618   112630594.825        1218.351          44.000    21432876.943    87764047.053         949.696          45.000  
G16  20196378.624   106132693.826         267.582          44.000                                                                  
G28  22987690.084   120801118.962       -2652.108          38.000    22987679.998    94130695.648       -2066.625          41.000  
G31  21042266.523   110577859.721       -1630.088          45.000    21042253.053    86164507.794       -1270.108          44.000  
G03  24470648.141   128594177.116       -2904.022          35.000    24470643.559   100203186.526       -2262.553          37.000  
C16  36733277.279   191279793.447           8.898          47.000    36733264.133   147909630.253           6.932          46.000  
C19  23730097.329   123568850.338       -2078.680          47.000                                                                  
C27  23634149.436   123069281.696        1208.062          42.000                                                                  
C06  36291049.533   188976991.417           6.417          45.000    36291028.926   146128934.576           4.952          46.000  
C09  37376720.205   194630371.168         119.652          45.000    37376703.063   150500496.592          92.553          46.000  
C22  24652171.055   128370352.746         741.048          45.000                                                                  
G26  20796080.652   109284147.850       -1892.706          45.000    20796069.984    85156434.444       -1474.780          43.000  
G27  22000359.759   115612677.096        3041.059          41.000    22000351.115    90087772.543        2369.330          41.000  
G09  23976912.135   125999527.550        2813.556          41.000    23976905.609    98181429.804        2192.426          41.000  
C28  24716799.253   128706866.697        -961.697          31.000                                                                  
C07  38065050.945   198214704.754         811.079          40.000    38065031.844   153272114.610         627.162          42.000  
C20  25461874.067   132586652.494       -3607.723          44.000                                                                  
C36  23900872.180   124458112.509        1427.948          46.000                                                                  
C37  24948066.579   129911131.002       -2382.801          37.000                                                                  
C10  39192643.056   204086375.768         746.368          38.000    39192629.035   157812541.135         577.449          43.000  
G08  24285194.364   127619577.295        3616.915          38.000    24285197.265    99443866.904        2818.579          37.000  
G29  25204395.562   132449989.431       -3541.161          35.000    25204385.901   103207742.061       -2759.548          36.000  
C30  25222993.213   131342784.125        2767.133          32.000                                                                  
G18                                                                  25204903.072                3       1099.217          24.000  
C13                                                                  40687731.300   163832579.701       -1884.914          37.000  
C08                                                                  41605721.951   167528993.910       -1837.787          41.000  
> 2025 11 03 07 40 24.0000000  0 26                     
G04  21432878.353   112630546.096        1218.110          44.000    21432867.665    87764009.078         949.414          45.000  
G16  20196376.578   106132683.143         267.134          44.000                                                                  
G28  22987710.277   120801225.087       -2652.977          38.000    22987700.189    94130778.326       -2066.945          41.000  
G31  21042278.933   110577924.955       -1630.699          45.000    21042265.454    86164558.617       -1270.486          44.000  
G03  24470670.242   128594293.297       -2904.532          35.000    24470665.665   100203277.040       -2262.866          37.000  
C16  36733277.224   191279793.119           8.285          47.000    36733264.060   147909629.987           6.656          46.000  
C19  23730113.294   123568933.510       -2079.236          47.000                                                                  
C27  23634140.174   123069233.396        1207.563          42.000                                                                  
C06  36291049.492   188976991.179           6.041          45.000    36291028.890   146128934.384           4.781          46.000  
C09  37376719.299   194630366.408         119.115          45.000    37376702.134   150500492.910          92.112          46.000  
C22  24652165.360   128370323.111         740.802          45.000                                                                  
G26  20796095.068   109284223.596       -1893.494          45.000    20796084.355    85156493.461       -1475.293          42.000  
G27  22000336.612   115612555.462        3040.888          41.000    22000327.964    90087677.760        2369.406          40.000  
G09  23976890.724   125999415.018        2813.239          41.000    23976884.202    98181342.119        2192.041          41.000  
C28  24716806.680   128706905.213        -962.581          31.000                                                                  
C07  38065044.723   198214672.311         810.965          40.000    38065025.597   153272089.534         626.857          42.000  
C20  25461901.763   132586796.822       -3608.123          44.000                                                                  
C36  23900861.232   124458055.406        1427.563          46.000                                                                  
C37  24948084.878   129911226.326       -2383.083          37.000                                                                  
C10  39192637.310   204086345.928         745.980          38.000    39192623.291   157812518.067         576.891          43.000  
G08  24285166.837   127619432.625        3616.719          38.000    24285169.752    99443754.201        2817.836          37.000  
G29  25204422.528   132450131.101       -3541.580          35.000    25204412.875   103207852.464       -2759.998          36.000  
C30  25222971.949   131342673.418        2767.209          32.000                                                                  
G18                                                                  25204892.388                3       1098.985          24.000  
C13                                                                  40687750.039   163832655.120       -1885.400          37.000  
C08                                                                  41605740.195   167529067.446       -1838.336          41.000  
