     3.04           OBSERVATION DATA    M: Mixed            RINEX VERSION / TYPE
RTKCONV 2.4.3 b34                       20251103 075454 UTC PGM / RUN BY / DATE 
format: u-blox UBX                                          COMMENT             
log: D:\GPdata\11_3\fingure_190_11_33_1.ubx                 COMMENT             
                                                            MARKER NAME         
                                                            MARKER NUMBER       
                                                            MARKER TYPE         
                                                            OBSERVER / AGENCY   
                                                            REC # / TYPE / VERS 
                                                            ANT # / TYPE        
        0.0000        0.0000        0.0000                  APPROX POSITION XYZ 
        0.0000        0.0000        0.0000                  ANTENNA: DELTA H/E/N
G    8 C1C L1C D1C S1C C2L L2L D2L S2L                      SYS / # / OBS TYPES 
C    8 C2I L2I D2I S2I C7I L7I D7I S7I                      SYS / # / OBS TYPES 
  2025    11    03    07    39   46.8000000     GPS         TIME OF FIRST OBS   
  2025    11    03    07    40   10.2400000     GPS         TIME OF LAST OBS    
G L1C                                                       SYS / PHASE SHIFT   
G L2L  0.00000                                              SYS / PHASE SHIFT   
C L2I                                                       SYS / PHASE SHIFT   
C L7I                                                       SYS / PHASE SHIFT   
  0                                                         GLONASS SLOT / FRQ #
 C1C    0.000 C1P    0.000 C2C    0.000 C2P    0.000        GLONASS COD/PHS/BIS 
                                                            END OF HEADER       
> 2025 11 03 07 39 46.8000000  0 27                     
G04  21441590.899   112676328.4921       1240.502          44.000    21441579.790    87799683.6361        966.714          46.000  
G16  20198341.625   106143009.3341        285.294          46.000                                                                  
G28  22968977.280   120702783.7771      -2642.823          41.000    22968967.217    94054070.9721      -2059.132          44.000  
G31  21030790.393   110517552.4511      -1618.011          47.000    21030777.233    86117515.1541      -1260.867          45.000  
G03  24450144.881                       -2897.128          35.000    24450140.487   100119231.9751      -2257.646          35.000  
G18  25214927.201   132505307.3861       1420.820          33.000    25214916.159   103250874.0861       1107.294          37.000  
C16  36733346.638   191280149.7721          7.971          48.000    36733331.131   147909905.7811          6.112          49.000  
C19  23715331.316   123491961.4491      -2061.774          47.000                                                                  
C27  23642833.179   123114503.7541       1223.882          46.000                                                                  
C06  36291098.265   188977254.0651          5.333          47.000    36291078.239   146129137.6341          4.175          49.000  
C09  37377574.711   194634820.2461        117.381          45.000    37377557.593   150503936.8861         90.915          48.000  
C22  24657538.543   128398305.1791        760.903          42.000                                                                  
G26  20782740.662   109214045.8771      -1882.324          48.000    20782730.316    85101809.5271      -1466.693          45.000  
G27  22021919.343   115725971.6411       3054.499          44.000    22021910.417    90176053.7701       2379.987          43.000  
G09  23996858.783   126104346.7131       2825.396          39.000    23996852.233    98263106.8311       2201.794          41.000  
C28  24710007.035   128671499.0481       -943.161          43.000                                                                  
C07  38070858.396   198244947.8071        814.234          41.000    38070839.898   153295500.3281        629.591          45.000  
C20  25436141.704   132452660.4091      -3606.090          45.000                                                                  
C36  23911083.028   124511285.8881       1431.586          44.000                                                                  
C37  24931076.775   129822663.6601      -2380.898          42.000                                                                  
C10  39197985.972   204114198.3601        748.366          39.000    39197972.369   157834055.1741        578.957          44.000  
G08  24310787.175   127754063.8291       3618.782          37.000    24310790.037    99548660.4371       2820.293          38.000  
G29  25179397.189   132318616.4661      -3531.754          34.000    25179384.920   103105373.5421      -2751.739          35.000  
C30  25242753.353   131445678.2881       2767.998          40.000                                                                  
G32                                                                  25781514.712                3      -3240.757          26.000  
C13                                                                  40670335.873   163762538.2771      -1886.507          37.000  
C08                                                                  41588754.564   167460673.7411      -1840.787          41.000  
> 2025 11 03 07 39 46.8400000  0 27                     
G04  21441581.442   112676278.817        1241.580          44.000    21441570.345    87799644.927         967.515          46.000  
G16  20198339.432   106142997.876         286.239          46.000                                                                  
G28  22968997.387   120702889.419       -2641.424          41.000    22968987.327    94054153.314       -2058.651          44.000  
G31  21030802.696   110517617.117       -1616.969          47.000    21030789.535    86117565.537       -1259.900          45.000  
G03  24450166.939                       -2896.397          35.000    24450162.531   100119322.231       -2256.631          35.000  
G18  25214916.368   132505250.503        1421.954          33.000    25214905.385   103250829.768        1107.928          38.000  
C16  36733346.552   191280149.405           8.930          48.000    36733331.068   147909905.494           6.938          49.000  
C19  23715347.129   123492043.871       -2060.706          47.000                                                                  
C27  23642823.793   123114454.752        1224.934          46.000                                                                  
C06  36291098.216   188977253.799           6.364          47.000    36291078.171   146129137.422           5.059          49.000  
C09  37377573.782   194634815.499         118.391          45.000    37377556.680   150503933.209          91.760          48.000  
C22  24657532.681   128398274.699         761.768          42.000                                                                  
G26  20782754.974   109214121.126       -1881.409          48.000    20782744.643    85101868.151       -1465.790          45.000  
G27  22021896.084   115725849.421        3055.335          44.000    22021887.158    90175958.525        2380.849          43.000  
G09  23996837.280   126104233.657        2826.286          39.000    23996830.721    98263018.735        2202.390          40.000  
C28  24710014.277   128671536.730        -942.267          43.000                                                                  
C07  38070852.118   198244915.189         815.272          41.000    38070833.652   153295475.115         630.222          45.000  
C20  25436169.394   132452804.596       -3604.956          45.000                                                                  
C36  23911072.013   124511228.572        1432.733          44.000                                                                  
C37  24931095.041   129822758.854       -2380.093          42.000                                                                  
C10  39197980.225   204114168.378         749.197          39.000    39197966.609   157834031.980         579.669          44.000  
G08  24310759.620   127753919.046        3619.356          37.000    24310762.489    99548547.605        2820.752          38.000  
G29  25179424.039   132318757.661       -3530.307          34.000    25179411.822   103105483.609       -2751.642          35.000  
C30  25242732.066   131445567.515        2769.037          40.000                                                                  
G32                                                                  25781546.380                3      -3239.469          26.000  
C13                                                                  40670354.604   163762613.716       -1886.029          37.000  
C08                                                                  41588772.836   167460747.344       -1840.128          41.000  
> 2025 11 03 07 39 46.8800000  0 27                     
G04  21441571.987   112676229.116        1242.501          44.000    21441560.864    87799606.201         968.188          46.000  
G16  20198337.205   106142986.389         287.169          46.000                                                                  
G28  22969017.476   120702995.042       -2640.450          41.000    22969007.418    94054235.635       -2058.048          44.000  
G31  21030814.997   110517681.751       -1615.893          47.000    21030801.829    86117615.898       -1259.048          45.000  
G03  24450188.977                       -2895.178          35.000    24450184.567   100119412.478       -2256.046          35.000  
G18  25214905.609   132505193.585        1422.981          33.000    25214894.548   103250785.427        1108.516          38.000  
C16  36733346.479   191280149.012           9.832          48.000    36733330.977   147909905.184           7.715          49.000  
C19  23715362.950   123492126.272       -2059.882          47.000                                                                  
C27  23642814.400   123114405.733        1225.662          46.000                                                                  
C06  36291098.136   188977253.499           7.419          47.000    36291078.090   146129137.193           5.737          49.000  
C09  37377572.852   194634810.726         119.324          45.000    37377555.745   150503929.510          92.528          48.000  
C22  24657526.812   128398244.186         762.802          42.000                                                                  
G26  20782769.269   109214196.351       -1880.566          48.000    20782758.947    85101926.770       -1465.308          45.000  
G27  22021872.816   115725727.177        3056.129          44.000    22021863.897    90175863.276        2381.324          43.000  
G09  23996815.733   126104120.558        2827.373          39.000    23996809.211    98262930.614        2203.069          40.000  
C28  24710021.519   128671574.375        -941.200          43.000                                                                  
C07  38070845.849   198244882.554         816.029          41.000    38070827.370   153295449.868         631.143          45.000  
C20  25436197.073   132452948.764       -3604.099          45.000                                                                  
C36  23911060.995   124511171.235        1433.594          44.000                                                                  
C37  24931113.317   129822853.989       -2378.643          42.000                                                                  
C10  39197974.466   204114138.355         750.311          39.000    39197960.837   157834008.765         580.381          44.000  
G08  24310732.063   127753774.192        3620.879          37.000    24310734.936    99548434.761        2821.171          38.000  
G29  25179450.876   132318898.846       -3529.448          34.000    25179438.674   103105593.615       -2750.552          35.000  
C30  25242710.800   131445456.712        2770.050          40.000                                                                  
G32                                                                  25781578.059                3      -3240.429          26.000  
C13                                                                  40670373.308   163762689.129       -1885.316          37.000  
C08                                                                  41588791.103   167460820.919       -1839.362          41.000  
> 2025 11 03 07 39 46.9200000  0 27                     
G04  21441562.495   112676179.424        1242.679          44.000    21441551.402    87799567.476         968.392          46.000  
G16  20198335.026   106142974.896         287.630          46.000                                                                  
G28  22969037.573   120703100.684       -2640.517          41.000    22969027.513    94054317.944       -2057.634          44.000  
G31  21030827.310   110517746.391       -1615.569          47.000    21030814.122    86117666.275       -1259.013          45.000  
G03  24450211.013                       -2894.902          35.000    24450206.609   100119502.727       -2255.858          35.000  
G18  25214894.875   132505136.669        1423.227          33.000    25214883.707   103250741.069        1109.090          38.000  
C16  36733346.430   191280148.616          10.223          48.000    36733330.905   147909904.880           7.918          49.000  
C19  23715378.743   123492208.673       -2059.607          47.000                                                                  
C27  23642804.969   123114356.714        1225.847          46.000                                                                  
C06  36291098.055   188977253.200           7.854          47.000    36291078.020   146129136.961           6.060          49.000  
C09  37377571.928   194634805.941         119.862          45.000    37377554.836   150503925.812          92.795          48.000  
C22  24657520.950   128398213.672         763.131          42.000                                                                  
G26  20782783.579   109214271.566       -1880.121          48.000    20782773.285    85101985.385       -1465.125          45.000  
G27  22021849.543   115725604.919        3056.697          44.000    22021840.649    90175768.010        2381.771          43.000  
G09  23996794.227   126104007.478        2827.482          39.000    23996787.695    98262842.486        2203.429          40.000  
C28  24710028.751   128671612.036        -941.055          43.000                                                                  
C07  38070839.565   198244849.916         816.351          41.000    38070821.102   153295424.624         631.415          45.000  
C20  25436224.742   132453092.932       -3603.810          45.000                                                                  
C36  23911049.969   124511113.900        1433.795          44.000                                                                  
C37  24931131.589   129822949.148       -2378.417          42.000                                                                  
C10  39197968.684   204114108.327         750.909          39.000    39197955.069   157833985.554         580.555          44.000  
G08  24310704.497   127753629.334        3621.671          37.000    24310707.359    99548321.900        2821.616          38.000  
G29  25179477.743   132319040.043       -3529.377          34.000    25179465.549   103105703.616       -2749.977          35.000  
C30  25242689.519   131445345.918        2770.260          40.000                                                                  
G32                                                                  25781609.641                3      -3240.383          26.000  
C13                                                                  40670392.038   163762764.524       -1884.704          37.000  
C08                                                                  41588809.374   167460894.492       -1839.034          41.000  
> 2025 11 03 07 39 46.9600000  0 27                     
G04  21441553.043   112676129.746        1242.372          44.000    21441541.950    87799528.774         967.993          46.000  
G16  20198332.823   106142963.438         287.040          46.000                                                                  
G28  22969057.682   120703206.351       -2641.229          41.000    22969047.618    94054400.268       -2057.829          44.000  
G31  21030839.603   110517811.056       -1616.025          47.000    21030826.442    86117716.662       -1259.293          45.000  
G03  24450233.038                       -2895.741          35.000    24450228.650   100119592.991       -2256.146          35.000  
G18  25214884.030   132505079.795        1422.452          33.000    25214872.891   103250696.717        1109.082          38.000  
C16  36733346.370   191280148.243           9.827          48.000    36733330.836   147909904.597           7.519          49.000  
C19  23715394.573   123492291.101       -2060.199          47.000                                                                  
C27  23642795.557   123114307.721        1225.293          46.000                                                                  
C06  36291097.989   188977252.934           7.279          47.000    36291077.952   146129136.758           5.558          49.000  
C09  37377571.026   194634801.172         119.671          45.000    37377553.913   150503922.130          92.458          48.000  
C22  24657515.102   128398183.177         762.811          42.000                                                                  
G26  20782797.896   109214346.817       -1880.762          48.000    20782787.620    85102044.015       -1465.460          45.000  
G27  22021826.276   115725482.693        3056.221          44.000    22021817.373    90175672.780        2381.227          43.000  
G09  23996772.721   126103894.411        2827.141          39.000    23996766.200    98262754.393        2202.850          40.000  
C28  24710035.968   128671649.713        -941.442          43.000                                                                  
C07  38070833.265   198244817.288         816.070          41.000    38070814.838   153295399.403         630.949          45.000  
C20  25436252.426   132453237.126       -3604.322          45.000                                                                  
C36  23911038.973   124511056.598        1433.081          44.000                                                                  
C37  24931149.871   129823044.327       -2378.863          42.000                                                                  
C10  39197962.913   204114078.305         750.926          39.000    39197949.304   157833962.351         580.388          44.000  
G08  24310676.934   127753484.525        3620.947          37.000    24310679.791    99548209.055        2821.445          38.000  
G29  25179504.644   132319181.259       -3529.844          34.000    25179492.416   103105813.630       -2750.151          35.000  
C30  25242668.256   131445235.143        2769.870          40.000                                                                  
G32                                                                  25781641.044                3      -3238.459          26.000  
C13                                                                  40670410.771   163762839.937       -1884.850          37.000  
C08                                                                  41588827.665   167460968.090       -1839.444          41.000  
> 2025 11 03 07 39 47.0000000  0 27                     
G04  21441543.579   112676080.129        1241.050          44.000    21441532.528    87799490.112         966.979          46.000  
G16  20198330.639   106142952.021         285.856          46.000                                                                  
G28  22969077.805   120703312.062       -2642.466          41.000    22969067.738    94054482.631       -2058.680          44.000  
G31  21030851.921   110517875.773       -1617.317          47.000    21030838.729    86117767.085       -1260.160          45.000  
G03  24450255.106                       -2896.435          35.000    24450250.707   100119683.309       -2257.489          35.000  
G18  25214873.134   132505022.948        1421.499          33.000    25214862.088   103250652.452        1107.444          38.000  
C16  36733346.305   191280147.925           8.528          48.000    36733330.818   147909904.353           6.521          49.000  
C19  23715410.450   123492373.577       -2061.523          47.000                                                                  
C27  23642786.156   123114258.772        1224.128          46.000                                                                  
C06  36291097.912   188977252.705           6.201          47.000    36291077.899   146129136.581           4.768          49.000  
C09  37377570.135   194634796.468         118.314          45.000    37377552.993   150503918.493          91.375          48.000  
C22  24657509.259   128398152.738         761.548          42.000                                                                  
G26  20782812.207   109214422.111       -1881.995          48.000    20782801.960    85102102.688       -1466.467          45.000  
G27  22021803.044   115725360.520        3054.940          44.000    22021794.112    90175577.572        2380.454          43.000  
G09  23996751.218   126103781.420        2825.543          39.000    23996744.691    98262666.340        2201.791          40.000  
C28  24710043.215   128671687.429        -942.448          43.000                                                                  
C07  38070827.010   198244784.716         814.918          41.000    38070808.570   153295374.218         629.992          45.000  
C20  25436280.119   132453381.363       -3605.455          45.000                                                                  
C36  23911027.975   124510999.336        1431.885          44.000                                                                  
C37  24931168.151   129823139.566       -2380.337          42.000                                                                  
C10  39197957.150   204114048.357         749.522          39.000    39197943.552   157833939.185         579.547          44.000  
G08  24310649.387   127753339.785        3619.194          37.000    24310652.247    99548096.236        2820.819          38.000  
G29  25179531.540   132319322.515       -3530.944          34.000    25179519.300   103105923.719       -2751.705          35.000  
C30  25242647.030   131445124.415        2768.759          40.000                                                                  
G32                                                                  25781672.549                3      -3240.347          26.000  
C13                                                                  40670429.522   163762915.393       -1885.877          37.000  
C08                                                                  41588845.956   167461041.714       -1840.290          41.000  
> 2025 11 03 07 39 47.0400000  0 27                     
G04  21441534.131   112676030.499        1240.616          44.000    21441523.077    87799451.440         966.665          46.000  
G16  20198328.468   106142940.600         285.385          46.000                                                                  
G28  22969097.922   120703417.744       -2642.476          41.000    22969087.855    94054564.992       -2059.074          44.000  
G31  21030864.236   110517940.491       -1617.986          47.000    21030851.063    86117817.515       -1260.727          45.000  
G03  24450277.179                       -2897.109          35.000    24450272.768   100119773.592       -2257.452          35.000  
G18  25214862.284   132504966.123        1420.693          33.000    25214851.309   103250608.150        1107.249          38.000  
C16  36733346.241   191280147.590           8.179          48.000    36733330.742   147909904.096           6.271          49.000  
C19  23715426.309   123492456.033       -2061.670          47.000                                                                  
C27  23642776.776   123114209.818        1223.683          46.000                                                                  
C06  36291097.848   188977252.477           5.649          47.000    36291077.828   146129136.401           4.407          49.000  
C09  37377569.252   194634791.754         117.789          45.000    37377552.101   150503914.854          90.894          48.000  
C22  24657503.407   128398122.280         761.262          42.000                                                                  
G26  20782826.532   109214497.382       -1882.062          48.000    20782816.307    85102161.345       -1466.583          45.000  
G27  22021779.792   115725238.339        3054.436          44.000    22021770.851    90175482.364        2380.106          43.000  
G09  23996729.699   126103668.382        2825.532          39.000    23996723.179    98262578.273        2201.507          40.000  
C28  24710050.474   128671725.157        -943.136          43.000                                                                  
C07  38070820.763   198244752.126         814.684          41.000    38070802.350   153295349.023         629.694          45.000  
C20  25436307.814   132453525.589       -3605.794          45.000                                                                  
C36  23911016.967   124510942.055        1431.744          44.000                                                                  
C37  24931186.448   129823234.795       -2380.890          42.000                                                                  
C10  39197951.395   204114018.421         748.640          39.000    39197937.804   157833916.025         579.054          44.000  
G08  24310621.834   127753195.015        3618.877          37.000    24310624.709    99547983.443        2820.043          38.000  
G29  25179558.433   132319463.767       -3531.440          34.000    25179546.181   103106033.785       -2751.830          35.000  
C30  25242625.769   131445013.695        2768.060          40.000                                                                  
G32                                                                  25781704.173                3      -3241.255          26.000  
C13                                                                  40670448.246   163762990.853       -1886.509          37.000  
C08                                                                  41588864.230   167461115.327       -1840.416          41.000  
> 2025 11 03 07 39 47.0800000  0 27                     
G04  21441524.675   112675980.828        1241.187          44.000    21441513.615    87799412.730         967.292          46.000  
G16  20198326.310   106142929.124         286.309          46.000                                                                  
G28  22969118.029   120703523.392       -2641.744          41.000    22969107.969    94054647.327       -2058.694          44.000  
G31  21030876.561   110518005.146       -1617.110          47.000    21030863.377    86117867.903       -1260.231          45.000  
G03  24450299.211                       -2896.730          35.000    24450294.819   100119863.861       -2257.075          35.000  
G18  25214851.465   132504909.194        1422.308          33.000    25214840.493   103250563.823        1107.801          38.000  
C16  36733346.195   191280147.212           8.891          48.000    36733330.648   147909903.804           6.812          49.000  
C19  23715442.126   123492538.450       -2060.913          47.000                                                                  
C27  23642767.346   123114160.808        1224.649          46.000                                                                  
C06  36291097.797   188977252.199           6.367          47.000    36291077.757   146129136.191           4.824          49.000  
C09  37377568.336   194634786.996         118.446          45.000    37377551.179   150503911.169          91.578          48.000  
C22  24657497.576   128398091.795         761.710          42.000                                                                  
G26  20782840.839   109214572.615       -1881.250          48.000    20782830.630    85102219.965       -1465.881          45.000  
G27  22021756.551   115725116.108        3055.164          44.000    22021747.598    90175387.115        2380.778          43.000  
G09  23996708.182   126103555.308        2826.291          39.000    23996701.651    98262490.156        2202.232          40.000  
C28  24710057.695   128671762.828        -942.416          43.000                                                                  
C07  38070814.509   198244719.507         815.131          41.000    38070796.085   153295323.793         630.338          45.000  
C20  25436335.501   132453669.773       -3605.138          45.000                                                                  
C36  23911005.951   124510884.734        1432.550          44.000                                                                  
C37  24931204.715   129823329.962       -2379.924          42.000                                                                  
C10  39197945.613   204113988.407         749.573          39.000    39197932.037   157833892.832         579.386          44.000  
G08  24310594.278   127753050.148        3620.565          37.000    24310597.164    99547870.597        2820.639          38.000  
G29  25179585.311   132319604.975       -3530.839          34.000    25179573.064   103106143.803       -2750.949          35.000  
C30  25242604.504   131444902.886        2769.414          40.000                                                                  
G32                                                                  25781735.947                3      -3240.854          26.000  
C13                                                                  40670466.982   163763066.275       -1886.036          37.000  
C08                                                                  41588882.514   167461188.939       -1840.402          41.000  
> 2025 11 03 07 39 47.1200000  0 27                     
G04  21441515.215   112675931.123        1242.169          44.000    21441504.126    87799374.000         968.004          46.000  
G16  20198324.129   106142917.643         286.916          46.000                                                                  
G28  22969138.123   120703629.026       -2641.062          41.000    22969128.055    94054729.638       -2058.053          44.000  
G31  21030888.846   110518069.785       -1616.311          47.000    21030875.685    86117918.265       -1259.430          45.000  
G03  24450321.252                       -2895.317          35.000    24450316.843   100119954.096       -2256.237          35.000  
G18  25214840.697   132504852.292        1422.543          33.000    25214829.648   103250519.462        1108.662          38.000  
C16  36733346.132   191280146.809           9.755          48.000    36733330.581   147909903.491           7.526          49.000  
C19  23715457.934   123492620.858       -2060.303          47.000                                                                  
C27  23642757.944   123114111.783        1225.473          46.000                                                                  
C06  36291097.726   188977251.896           7.220          47.000    36291077.673   146129135.965           5.385          49.000  
C09  37377567.414   194634782.217         119.179          45.000    37377550.255   150503907.473          92.152          48.000  
C22  24657491.719   128398061.298         762.167          42.000                                                                  
G26  20782855.148   109214647.834       -1880.609          48.000    20782844.946    85102278.577       -1465.393          45.000  
G27  22021733.293   115724993.857        3055.963          44.000    22021724.315    90175291.866        2381.195          43.000  
G09  23996686.662   126103442.229        2826.798          39.000    23996680.131    98262402.045        2202.618          40.000  
C28  24710064.907   128671800.488        -941.792          43.000                                                                  
C07  38070808.224   198244686.865         815.847          41.000    38070789.816   153295298.550         630.908          45.000  
C20  25436363.203   132453813.948       -3604.570          45.000                                                                  
C36  23910994.926   124510827.389        1433.441          44.000                                                                  
C37  24931222.999   129823425.126       -2379.268          42.000                                                                  
C10  39197939.829   204113958.367         750.598          38.000    39197926.294   157833869.615         580.076          44.000  
G08  24310566.711   127752905.309        3621.057          37.000    24310569.590    99547757.753        2820.947          38.000  
G29  25179612.162   132319746.102       -3528.883          34.000    25179599.941   103106253.812       -2750.415          35.000  
C30  25242583.230   131444792.088        2769.938          40.000                                                                  
G32                                                                  25781767.422                3      -3239.116          26.000  
C13                                                                  40670485.726   163763141.680       -1885.400          37.000  
C08                                                                  41588900.792   167461262.514       -1839.711          41.000  
> 2025 11 03 07 39 47.1600000  0 27                     
G04  21441505.746   112675881.430        1242.465          44.000    21441494.676    87799335.279         968.193          46.000  
G16  20198321.957   106142906.155         287.321          46.000                                                                  
G28  22969158.214   120703734.659       -2640.693          41.000    22969148.159    94054811.938       -2057.508          44.000  
G31  21030901.133   110518134.418       -1615.764          47.000    21030887.999    86117968.629       -1259.051          45.000  
G03  24450343.301                       -2895.648          35.000    24450338.870   100120044.322       -2255.713          35.000  
G18  25214829.881   132504795.368        1423.054          33.000    25214818.829   103250475.108        1108.971          38.000  
C16  36733346.074   191280146.411          10.083          48.000    36733330.511   147909903.181           7.805          49.000  
C19  23715473.774   123492703.263       -2060.016          47.000                                                                  
C27  23642748.538   123114062.762        1225.747          46.000                                                                  
C06  36291097.666   188977251.594           7.648          47.000    36291077.599   146129135.732           5.764          49.000  
C09  37377566.491   194634777.435         119.607          45.000    37377549.342   150503903.779          92.396          48.000  
C22  24657485.829   128398030.792         762.567          42.000                                                                  
G26  20782869.482   109214723.051       -1880.273          48.000    20782859.247    85102337.194       -1465.247          45.000  
G27  22021710.039   115724871.614        3056.210          44.000    22021701.045    90175196.610        2381.452          43.000  
G09  23996665.145   126103329.140        2827.201          39.000    23996658.605    98262313.911        2203.150          40.000  
C28  24710072.110   128671838.129        -941.167          43.000                                                                  
C07  38070801.954   198244654.220         816.221          41.000    38070783.519   153295273.298         631.339          45.000  
C20  25436390.898   132453958.106       -3604.012          45.000                                                                  
C36  23910983.899   124510770.052        1433.655          44.000                                                                  
C37  24931241.285   129823520.284       -2378.919          42.000                                                                  
C10  39197934.054   204113928.358         750.642          38.000    39197920.497   157833846.392         580.529          44.000  
G08  24310539.160   127752760.498        3620.653          37.000    24310542.033    99547644.894        2821.381          38.000  
G29  25179639.026   132319887.306       -3529.407          34.000    25179626.828   103106363.810       -2749.899          35.000  
C30  25242561.946   131444681.296        2770.036          40.000                                                                  
G32                                                                  25781799.098                3      -3240.189          26.000  
C13                                                                  40670504.448   163763217.068       -1884.716          37.000  
C08                                                                  41588919.050   167461336.083       -1839.245          41.000  
> 2025 11 03 07 39 47.2000000  0 27                     
G04  21441496.314   112675831.748        1242.322          44.000    21441485.228    87799296.557         968.240          46.000  
G16  20198319.780   106142894.672         287.327          46.000                                                                  
G28  22969178.301   120703840.288       -2640.580          41.000    22969168.266    94054894.253       -2057.599          44.000  
G31  21030913.444   110518199.063       -1615.773          47.000    21030900.297    86118019.002       -1259.070          45.000  
G03  24450365.356                       -2895.219          35.000    24450360.905   100120134.568       -2255.792          35.000  
G18  25214819.132   132504738.481        1422.481          33.000    25214808.016   103250430.743        1109.244          38.000  
C16  36733346.009   191280146.018          10.078          48.000    36733330.431   147909902.874           7.866          49.000  
C19  23715489.583   123492785.663       -2059.863          47.000                                                                  
C27  23642739.126   123114013.738        1225.830          46.000                                                                  
C06  36291097.582   188977251.299           7.622          47.000    36291077.542   146129135.497           5.981          49.000  
C09  37377565.553   194634772.649         119.815          45.000    37377548.437   150503900.079          92.603          48.000  
C22  24657479.963   128398000.267         763.086          42.000                                                                  
G26  20782883.820   109214798.276       -1880.383          48.000    20782873.548    85102395.808       -1465.216          45.000  
G27  22021686.768   115724749.352        3056.640          44.000    22021677.777    90175101.339        2381.813          43.000  
G09  23996643.628   126103216.050        2827.366          39.000    23996637.081    98262225.798        2203.073          40.000  
C28  24710079.317   128671875.789        -941.251          43.000                                                                  
C07  38070795.702   198244621.586         816.046          41.000    38070777.250   153295248.060         631.229          45.000  
C20  25436418.560   132454102.269       -3603.871          45.000                                                                  
C36  23910972.865   124510712.719        1433.588          44.000                                                                  
C37  24931259.564   129823615.429       -2378.524          42.000                                                                  
C10  39197928.291   204113898.340         750.647          38.000    39197914.736   157833823.170         580.715          44.000  
G08  24310511.605   127752615.660        3620.919          37.000    24310514.464    99547532.035        2821.543          38.000  
G29  25179665.893   132320028.476       -3529.272          34.000    25179653.667   103106473.827       -2750.117          35.000  
C30  25242540.666   131444570.500        2770.061          40.000                                                                  
G32                                                                  25781830.692                3      -3239.822          26.000  
C13                                                                  40670523.161   163763292.457       -1884.424          37.000  
C08                                                                  41588937.348   167461409.661       -1839.229          41.000  
> 2025 11 03 07 39 47.2400000  0 27                     
G04  21441486.864   112675782.056        1242.354          44.000    21441475.797    87799257.841         968.099          46.000  
G16  20198317.607   106142883.194         287.141          46.000                                                                  
G28  22969198.424   120703945.918       -2640.593          41.000    22969188.390    94054976.566       -2057.655          44.000  
G31  21030925.769   110518263.717       -1616.029          47.000    21030912.607    86118069.382       -1259.292          45.000  
G03  24450387.392                       -2895.306          35.000    24450382.946   100120224.816       -2256.008          35.000  
G18  25214808.322   132504681.550        1423.111          33.000    25214797.199   103250386.419        1108.571          38.000  
C16  36733345.924   191280145.623          10.052          48.000    36733330.358   147909902.571           7.734          49.000  
C19  23715505.372   123492868.068       -2059.961          47.000                                                                  
C27  23642729.694   123113964.729        1225.469          46.000                                                                  
C06  36291097.509   188977251.004           7.576          47.000    36291077.456   146129135.271           5.878          49.000  
C09  37377564.642   194634767.864         119.824          45.000    37377547.482   150503896.388          92.483          48.000  
C22  24657474.123   128397969.764         762.914          42.000                                                                  
G26  20782898.132   109214873.500       -1880.463          48.000    20782887.864    85102454.427       -1465.381          45.000  
G27  22021663.514   115724627.117        3056.264          44.000    22021654.507    90175006.088        2381.571          43.000  
G09  23996622.118   126103102.962        2827.349          39.000    23996615.580    98262137.691        2202.837          40.000  
C28  24710086.532   128671913.456        -941.460          43.000                                                                  
C07  38070789.432   198244588.951         815.916          41.000    38070770.994   153295222.824         631.036          45.000  
C20  25436446.228   132454246.434       -3603.922          45.000                                                                  
C36  23910961.828   124510655.392        1433.338          44.000                                                                  
C37  24931277.835   129823710.591       -2378.718          42.000                                                                  
C10  39197922.524   204113868.323         750.590          38.000    39197909.000   157833799.961         580.507          44.000  
G08  24310484.053   127752470.823        3620.977          37.000    24310486.899    99547419.172        2821.600          38.000  
G29  25179692.743   132320169.708       -3530.445          34.000    25179680.568   103106583.832       -2750.095          35.000  
C30  25242519.393   131444459.705        2769.988          40.000                                                                  
G32                                                                  25781862.480                3      -3239.323          26.000  
C13                                                                  40670541.896   163763367.898       -1885.404          37.000  
C08                                                                  41588955.640   167461483.232       -1839.151          41.000  
> 2025 11 03 07 39 47.2800000  0 27                     
G04  21441477.404   112675732.375        1242.162          44.000    21441466.341    87799219.130         967.892          46.000  
G16  20198315.439   106142871.727         286.792          46.000                                                                  
G28  22969218.526   120704051.568       -2641.023          41.000    22969208.508    94055058.887       -2057.883          44.000  
G31  21030938.105   110518328.371       -1616.222          47.000    21030924.891    86118119.763       -1259.442          45.000  
G03  24450409.427                       -2895.402          34.000    24450404.992   100120315.079       -2256.354          35.000  
G18  25214797.475   132504624.660        1422.639          33.000    25214786.397   103250342.114        1107.886          38.000  
C16  36733345.844   191280145.232           9.926          48.000    36733330.310   147909902.272           7.579          49.000  
C19  23715521.209   123492950.484       -2060.266          47.000                                                                  
C27  23642720.273   123113915.728        1225.093          46.000                                                                  
C06  36291097.437   188977250.719           7.330          47.000    36291077.373   146129135.038           5.887          49.000  
C09  37377563.717   194634763.103         119.310          45.000    37377546.572   150503892.700          92.286          48.000  
C22  24657468.268   128397939.270         762.605          42.000                                                                  
G26  20782912.463   109214948.730       -1880.682          48.000    20782902.178    85102513.043       -1465.387          45.000  
G27  22021640.271   115724504.879        3056.100          44.000    22021631.265    90174910.833        2381.482          43.000  
G09  23996600.611   126102989.868        2827.454          39.000    23996594.070    98262049.576        2202.795          41.000  
C28  24710093.763   128671951.132        -941.796          43.000                                                                  
C07  38070783.171   198244556.302         816.071          41.000    38070764.753   153295197.597         630.771          45.000  
C20  25436473.892   132454390.605       -3604.101          45.000                                                                  
C36  23910950.791   124510598.064        1433.197          44.000                                                                  
C37  24931296.096   129823805.753       -2378.935          42.000                                                                  
C10  39197916.756   204113838.300         750.644          38.000    39197903.239   157833776.747         580.412          44.000  
G08  24310456.484   127752325.985        3621.049          37.000    24310459.360    99547306.318        2821.522          38.000  
G29  25179719.640   132320310.899       -3530.125          34.000    25179707.456   103106693.890       -2750.973          35.000  
C30  25242498.100   131444348.909        2770.021          40.000                                                                  
G32                                                                  25781894.263                3      -3237.918          26.000  
C13                                                                  40670560.619   163763443.302       -1885.305          37.000  
C08                                                                  41588973.908   167461556.814       -1839.343          41.000  
> 2025 11 03 07 39 47.3200000  0 27                     
G04  21441467.983   112675682.707        1241.793          44.000    21441456.892    87799180.432         967.552          46.000  
G16  20198313.260   106142860.260         286.594          46.000                                                                  
G28  22969238.629   120704157.227       -2641.456          41.000    22969228.606    94055141.221       -2058.292          44.000  
G31  21030950.413   110518393.036       -1616.565          47.000    21030937.193    86118170.142       -1259.512          45.000  
G03  24450431.503                       -2895.929          34.000    24450427.035   100120405.347       -2256.663          35.000  
G18  25214786.601   132504567.758        1422.591          33.000    25214775.571   103250297.785        1107.890          38.000  
C16  36733345.745   191280144.857           9.512          47.000    36733330.247   147909901.979           7.318          49.000  
C19  23715537.035   123493032.907       -2060.565          47.000                                                                  
C27  23642710.847   123113866.726        1224.941          46.000                                                                  
C06  36291097.363   188977250.442           7.009          46.000    36291077.306   146129134.825           5.492          49.000  
C09  37377562.790   194634758.354         118.808          45.000    37377545.674   150503889.019          92.069          48.000  
C22  24657462.405   128397908.789         762.189          42.000                                                                  
G26  20782926.791   109215023.969       -1880.975          48.000    20782916.494    85102571.667       -1465.564          45.000  
G27  22021617.042   115724382.660        3055.656          44.000    22021608.021    90174815.593        2381.057          43.000  
G09  23996579.093   126102876.797        2827.037          39.000    23996572.571    98261961.468        2202.632          40.000  
C28  24710100.975   128671988.813        -942.063          43.000                                                                  
C07  38070776.905   198244523.670         815.831          41.000    38070758.467   153295172.364         630.742          45.000  
C20  25436501.556   132454534.785       -3604.391          45.000                                                                  
C36  23910939.762   124510540.748        1432.898          44.000                                                                  
C37  24931314.376   129823900.939       -2379.520          42.000                                                                  
C10  39197910.997   204113808.290         750.346          38.000    39197897.453   157833753.554         580.000          44.000  
G08  24310428.928   127752181.173        3620.532          36.000    24310431.792    99547193.455        2821.558          38.000  
G29  25179746.520   132320452.121       -3530.507          34.000    25179734.317   103106803.901       -2750.699          35.000  
C30  25242476.829   131444238.120        2769.784          40.000                                                                  
G32                                                                  25781925.888                3      -3239.235          26.000  
C13                                                                  40670579.325   163763518.704       -1885.203          37.000  
C08                                                                  41588992.209   167461630.402       -1839.590          41.000  
> 2025 11 03 07 39 47.3600000  0 27                     
G04  21441458.507   112675633.021        1241.937          44.000    21441447.442    87799141.719         967.622          46.000  
G16  20198311.070   106142848.781         286.815          46.000                                                                  
G28  22969258.728   120704262.875       -2641.397          41.000    22969248.719    94055223.547       -2058.312          44.000  
G31  21030962.729   110518457.697       -1616.638          47.000    21030949.491    86118220.533       -1259.734          45.000  
G03  24450453.529                       -2895.928          34.000    24450449.102   100120495.617       -2256.764          35.000  
G18  25214775.758   132504510.823        1423.169          33.000    25214764.731   103250253.430        1108.495          38.000  
C16  36733345.667   191280144.472           9.515          47.000    36733330.174   147909901.680           7.367          49.000  
C19  23715552.883   123493115.317       -2060.388          47.000                                                                  
C27  23642701.479   123113817.723        1224.955          46.000                                                                  
C06  36291097.284   188977250.150           7.137          46.000    36291077.245   146129134.614           5.258          49.000  
C09  37377561.879   194634753.578         119.097          45.000    37377544.738   150503885.330          92.119          48.000  
C22  24657456.565   128397878.292         762.224          42.000                                                                  
G26  20782941.117   109215099.199       -1880.890          48.000    20782930.825    85102630.288       -1465.570          45.000  
G27  22021593.788   115724260.429        3055.655          44.000    22021584.769    90174720.355        2380.874          43.000  
G09  23996557.597   126102763.729        2826.754          39.000    23996551.073    98261873.352        2202.750          40.000  
C28  24710108.211   128672026.466        -941.668          43.000                                                                  
C07  38070770.634   198244491.035         815.815          41.000    38070752.210   153295147.133         630.733          45.000  
C20  25436529.240   132454678.965       -3604.518          45.000                                                                  
C36  23910928.769   124510483.416        1433.124          44.000                                                                  
C37  24931332.639   129823996.098       -2379.278          42.000                                                                  
C10  39197905.233   204113778.277         750.316          38.000    39197891.685   157833730.355         579.850          44.000  
G08  24310401.372   127752036.353        3620.483          36.000    24310404.230    99547080.581        2821.820          38.000  
G29  25179773.384   132320593.303       -3529.885          34.000    25179761.181   103106913.947       -2751.185          35.000  
C30  25242455.545   131444127.343        2769.439          40.000                                                                  
G32                                                                  25781957.475                3      -3239.794          26.000  
C13                                                                  40670598.058   163763594.095       -1884.917          37.000  
C08                                                                  41589010.486   167461703.977       -1839.466          41.000  
> 2025 11 03 07 39 47.4000000  0 27                     
G04  21441449.044   112675583.330        1242.146          44.000    21441437.984    87799102.998         967.871          46.000  
G16  20198308.873   106142837.294         287.071          46.000                                                                  
G28  22969278.834   120704368.509       -2641.035          41.000    22969268.832    94055305.846       -2057.787          44.000  
G31  21030975.032   110518522.341       -1616.329          47.000    21030961.767    86118270.900       -1259.431          45.000  
G03  24450475.584                       -2895.162          34.000    24450471.133   100120585.831       -2255.820          35.000  
G18  25214764.913   132504453.929        1422.704          33.000    25214753.909   103250209.069        1108.992          38.000  
C16  36733345.618   191280144.074           9.784          47.000    36733330.098   147909901.366           7.684          49.000  
C19  23715568.727   123493197.725       -2060.254          47.000                                                                  
C27  23642692.052   123113768.700        1225.369          46.000                                                                  
C06  36291097.204   188977249.849           7.391          46.000    36291077.187   146129134.382           5.525          49.000  
C09  37377560.975   194634748.790         119.522          45.000    37377543.844   150503881.622          92.525          48.000  
C22  24657450.712   128397847.774         762.653          42.000                                                                  
G26  20782955.411   109215174.415       -1880.548          48.000    20782945.137    85102688.904       -1465.466          45.000  
G27  22021570.526   115724138.176        3056.086          44.000    22021561.492    90174625.098        2381.189          43.000  
G09  23996536.076   126102650.659        2826.689          39.000    23996529.546    98261785.229        2202.993          40.000  
C28  24710115.440   128672064.120        -941.456          43.000                                                                  
C07  38070764.361   198244458.396         815.930          41.000    38070745.951   153295121.874         631.269          45.000  
C20  25436556.946   132454823.124       -3604.179          45.000                                                                  
C36  23910917.761   124510426.065        1433.582          44.000                                                                  
C37  24931350.928   129824091.252       -2379.030          42.000                                                                  
C10  39197899.451   204113748.254         750.438          38.000    39197885.897   157833707.138         580.170          44.000  
G08  24310373.811   127751891.505        3620.944          36.000    24310376.686    99546967.743        2821.290          38.000  
G29  25179800.251   132320734.476       -3529.457          34.000    25179788.065   103107023.959       -2750.668          35.000  
C30  25242434.288   131444016.537        2769.852          40.000                                                                  
G32                                                                  25781989.077                3      -3239.796          26.000  
C13                                                                  40670616.803   163763669.513       -1885.216          37.000  
C08                                                                  41589028.775   167461777.549       -1839.374          41.000  
> 2025 11 03 07 39 47.4400000  0 27                     
G04  21441439.569   112675533.632        1242.406          44.000    21441428.515    87799064.268         968.149          46.000  
G16  20198306.684   106142825.804         287.236          46.000                                                                  
G28  22969298.928   120704474.119       -2640.410          41.000    22969288.929    94055388.149       -2057.590          44.000  
G31  21030987.334   110518586.965       -1615.837          47.000    21030974.066    86118321.261       -1259.137          45.000  
G03  24450497.640                       -2895.202          34.000    24450493.177   100120676.074       -2255.842          35.000  
G18  25214754.040   132504397.059        1421.969          33.000    25214743.074   103250164.706        1109.263          38.000  
C16  36733345.569   191280143.657          10.242          47.000    36733330.026   147909901.048           7.931          49.000  
C19  23715584.553   123493280.119       -2059.943          47.000                                                                  
C27  23642682.650   123113719.666        1225.792          46.000                                                                  
C06  36291097.131   188977249.540           7.661          46.000    36291077.104   146129134.138           5.912          49.000  
C09  37377560.053   194634743.989         119.943          45.000    37377542.924   150503877.912          92.754          48.000  
C22  24657444.870   128397817.263         762.804          42.000                                                                  
G26  20782969.697   109215249.621       -1880.218          48.000    20782959.448    85102747.516       -1465.356          45.000  
G27  22021547.268   115724015.915        3056.440          44.000    22021538.217    90174529.835        2381.446          43.000  
G32  25782003.378                3      -4154.579          25.000    25782020.661                3      -3238.440          26.000  
G09  23996514.554   126102537.561        2827.103          39.000    23996508.020    98261697.101        2203.198          40.000  
C28  24710122.653   128672101.772        -941.389          43.000                                                                  
C07  38070758.099   198244425.734         816.363          41.000    38070739.669   153295096.626         631.319          45.000  
C20  25436584.665   132454967.276       -3603.857          45.000                                                                  
C36  23910906.732   124510368.724        1433.612          44.000                                                                  
C37  24931369.200   129824186.400       -2378.830          42.000                                                                  
C10  39197893.718   204113718.212         750.883          38.000    39197880.115   157833683.906         580.583          44.000  
G08  24310346.230   127751746.647        3621.290          36.000    24310349.126    99546854.878        2821.505          38.000  
G29  25179827.120   132320875.635       -3529.053          34.000    25179814.901   103107133.918       -2749.368          35.000  
C30  25242413.026   131443905.715        2770.368          40.000                                                                  
C13                                                                  40670635.540   163763744.890       -1884.697          37.000  
C08                                                                  41589047.033   167461851.108       -1839.066          41.000  
> 2025 11 03 07 39 47.4800000  0 27                     
G04  21441430.116   112675483.938        1242.434          44.000    21441419.045    87799025.546         968.125          46.000  
G16  20198304.496   106142814.313         287.321          46.000                                                                  
G28  22969319.022   120704579.745       -2640.463          41.000    22969309.034    94055470.455       -2057.556          44.000  
G31  21030999.669   110518651.601       -1615.782          47.000    21030986.352    86118371.624       -1259.052          45.000  
G03  24450519.693                       -2894.921          34.000    24450515.221   100120766.314       -2255.983          35.000  
G18  25214743.161   132504340.134        1422.557          33.000    25214732.235   103250120.360        1108.951          38.000  
C16  36733345.518   191280143.242          10.409          47.000    36733329.944   147909900.730           7.986          49.000  
C19  23715600.385   123493362.515       -2059.827          47.000                                                                  
C27  23642673.222   123113670.644        1225.698          46.000                                                                  
C06  36291097.059   188977249.229           7.771          46.000    36291077.051   146129133.897           6.030          49.000  
C09  37377559.136   194634739.192         120.045          45.000    37377542.026   150503874.208          92.707          48.000  
C22  24657439.020   128397786.751         762.869          42.000                                                                  
G26  20782984.017   109215324.836       -1880.249          48.000    20782973.758    85102806.117       -1465.100          45.000  
G27  22021524.010   115723893.657        3056.552          44.000    22021514.951    90174434.566        2381.690          43.000  
G32  25782035.272                3      -4155.649          25.000    25782052.303                3      -3240.075          26.000  
G09  23996493.030   126102424.467        2827.223          39.000    23996486.499    98261608.980        2203.111          40.000  
C28  24710129.860   128672139.424        -941.342          43.000                                                                  
C07  38070751.842   198244393.082         816.376          41.000    38070733.387   153295071.382         631.189          45.000  
C20  25436612.344   132455111.431       -3603.777          45.000                                                                  
C36  23910895.695   124510311.372        1433.777          44.000                                                                  
C37  24931387.499   129824281.540       -2378.598          42.000                                                                  
C10  39197887.963   204113688.170         751.157          38.000    39197874.333   157833660.670         580.867          44.000  
G08  24310318.675   127751601.804        3621.229          36.000    24310321.577    99546742.000        2821.875          38.000  
G29  25179853.934   132321016.809       -3529.135          34.000    25179841.777   103107243.955       -2750.140          35.000  
C30  25242391.743   131443794.907        2770.329          40.000                                                                  
C13                                                                  40670654.273   163763820.288       -1884.772          37.000  
C08                                                                  41589065.284   167461924.682       -1839.246          41.000  
> 2025 11 03 07 39 47.5200000  0 27                     
G04  21441420.648   112675434.244        1242.407          44.000    21441409.593    87798986.822         968.147          46.000  
G16  20198302.332   106142802.830         287.157          46.000                                                                  
G28  22969339.121   120704685.375       -2640.619          41.000    22969329.124    94055552.763       -2057.616          44.000  
G31  21031011.973   110518716.247       -1615.995          47.000    21030998.642    86118422.008       -1259.435          45.000  
G03  24450541.731   128488520.078       -2895.413          34.000    24450537.275   100120856.580       -2256.421          35.000  
G18  25214732.335   132504283.207        1422.978          33.000    25214721.400   103250076.026        1108.506          38.000  
C16  36733345.451   191280142.850          10.057          47.000    36733329.897   147909900.425           7.783          49.000  
C19  23715616.219   123493444.921       -2060.028          47.000                                                                  
C27  23642663.796   123113621.627        1225.555          46.000                                                                  
C06  36291097.000   188977248.930           7.589          46.000    36291076.986   146129133.665           5.929          49.000  
C09  37377558.227   194634734.412         119.775          45.000    37377541.102   150503870.514          92.459          48.000  
C22  24657433.148   128397756.242         762.802          42.000                                                                  
G26  20782998.347   109215400.063       -1880.542          48.000    20782988.063    85102864.727       -1465.173          45.000  
G27  22021500.761   115723771.416        3056.265          44.000    22021491.680    90174339.313        2381.501          43.000  
G32  25782066.855                3      -4158.617          25.000    25782083.925                3      -3239.250          26.000  
G09  23996471.516   126102311.373        2827.318          39.000    23996464.986    98261520.866        2202.907          40.000  
C28  24710137.075   128672177.087        -941.508          43.000                                                                  
C07  38070745.562   198244360.435         816.253          41.000    38070727.096   153295046.141         631.075          45.000  
C20  25436640.031   132455255.599       -3604.026          45.000                                                                  
C36  23910884.665   124510254.042        1433.447          44.000                                                                  
C37  24931405.768   129824376.700       -2378.819          42.000                                                                  
C10  39197882.198   204113658.151         750.746          38.000    39197868.562   157833637.455         580.645          44.000  
G08  24310291.121   127751456.968        3621.038          36.000    24310294.017    99546629.152        2821.459          38.000  
G29  25179880.809   132321158.016       -3529.854          34.000    25179868.657   103107353.955       -2750.000          35.000  
C30  25242370.460   131443684.087        2770.482          40.000                                                                  
C13                                                                  40670673.022   163763895.679       -1884.691          37.000  
C08                                                                  41589083.581   167461998.262       -1839.437          41.000  
> 2025 11 03 07 39 47.5600000  0 27                     
G04  21441411.205   112675384.561        1242.157          44.000    21441400.151    87798948.115         967.833          46.000  
G16  20198300.167   106142791.351         287.014          46.000                                                                  
G28  22969359.245   120704791.023       -2641.052          41.000    22969349.237    94055635.080       -2057.830          44.000  
G31  21031024.282   110518780.895       -1616.162          47.000    21031010.952    86118472.388       -1259.534          45.000  
G03  24450563.739                       -2895.079          34.000    24450559.309   100120946.827       -2256.375          35.000  
G18  25214721.485   132504226.297        1422.886          33.000    25214710.584   103250031.691        1108.315          38.000  
C16  36733345.400   191280142.449          10.013          47.000    36733329.834   147909900.126           7.542          49.000  
C19  23715632.021   123493527.336       -2060.315          47.000                                                                  
C27  23642654.356   123113572.611        1225.432          46.000                                                                  
C06  36291096.898   188977248.635           7.430          46.000    36291076.892   146129133.436           5.796          49.000  
C09  37377557.289   194634729.632         119.597          45.000    37377540.196   150503866.819          92.333          48.000  
C22  24657427.289   128397725.739         762.628          42.000                                                                  
G26  20783012.679   109215475.292       -1880.719          48.000    20783002.390    85102923.346       -1465.393          45.000  
G27  22021477.522   115723649.175        3056.057          44.000    22021468.417    90174244.058        2381.409          43.000  
G32  25782098.278                3      -4158.320          25.000    25782115.537                3      -3239.744          26.000  
G09  23996449.984   126102198.303        2826.897          39.000    23996443.482    98261432.752        2202.817          40.000  
C28  24710144.311   128672214.751        -941.596          43.000                                                                  
C07  38070739.306   198244327.786         816.227          41.000    38070720.848   153295020.896         631.070          45.000  
C20  25436667.734   132455399.759       -3604.038          45.000                                                                  
C36  23910873.686   124510196.707        1433.356          44.000                                                                  
C37  24931424.038   129824471.859       -2378.947          42.000                                                                  
C10  39197876.437   204113628.131         750.538          38.000    39197862.792   157833614.251         580.248          44.000  
G08  24310263.547   127751312.104        3621.427          36.000    24310266.446    99546516.291        2821.477          38.000  
G29  25179907.670   132321299.209       -3530.007          34.000    25179895.551   103107464.002       -2750.856          35.000  
C30  25242349.171   131443573.294        2770.069          40.000                                                                  
C13                                                                  40670691.738   163763971.077       -1884.860          37.000  
C08                                                                  41589101.813   167462071.824       -1839.208          41.000  
> 2025 11 03 07 39 47.6000000  0 27                     
G04  21441401.760   112675334.890        1241.814          44.000    21441390.694    87798909.400         967.772          46.000  
G16  20198297.997   106142779.892         286.554          46.000                                                                  
G28  22969379.335   120704896.655       -2640.992          41.000    22969369.336    94055717.403       -2058.016          44.000  
G31  21031036.574   110518845.551       -1616.396          47.000    21031023.268    86118522.768       -1259.594          45.000  
G03  24450585.763   128488751.694       -2895.186          34.000    24450581.374   100121037.074       -2256.272          35.000  
G18  25214710.679   132504169.375        1422.970          33.000    25214699.748   103249987.339        1108.554          38.000  
C16  36733345.344   191280142.053           9.898          47.000    36733329.772   147909899.819           7.541          49.000  
C19  23715647.819   123493609.754       -2060.510          47.000                                                                  
C27  23642644.935   123113523.606        1225.173          46.000                                                                  
C06  36291096.823   188977248.338           7.356          47.000    36291076.813   146129133.203           5.757          49.000  
C09  37377556.335   194634724.861         119.304          45.000    37377539.288   150503863.130          92.171          48.000  
C22  24657421.446   128397695.253         762.262          42.000                                                                  
G26  20783026.981   109215550.522       -1880.835          48.000    20783016.703    85102981.973       -1465.649          45.000  
G27  22021454.264   115723526.935        3055.952          44.000    22021445.157    90174148.813        2381.177          43.000  
G32  25782129.898                3      -4157.585          25.000    25782147.113                3      -3237.887          26.000  
G09  23996428.488   126102085.217        2826.994          39.000    23996421.957    98261344.643        2202.646          40.000  
C28  24710151.549   128672252.420        -941.730          43.000                                                                  
C07  38070733.027   198244295.150         815.931          41.000    38070714.574   153294995.653         631.051          45.000  
C20  25436695.424   132455543.933       -3604.288          45.000                                                                  
C36  23910862.665   124510139.375        1433.258          44.000                                                                  
C37  24931442.321   129824567.022       -2379.080          42.000                                                                  
C10  39197870.660   204113598.107         750.506          38.000    39197857.006   157833591.038         580.218          44.000  
G08  24310235.970   127751167.269        3621.157          36.000    24310238.893    99546403.450        2821.103          38.000  
G29  25179934.560   132321440.403       -3529.999          34.000    25179922.421   103107574.029       -2750.925          35.000  
C30  25242327.894   131443462.507        2769.700          40.000                                                                  
C13                                                                  40670710.476   163764046.491       -1885.188          37.000  
C08                                                                  41589120.092   167462145.405       -1839.424          41.000  
> 2025 11 03 07 39 47.6400000  0 27                     
G04  21441392.297   112675285.224        1241.577          44.000    21441381.265    87798870.695         967.587          46.000  
G16  20198295.815   106142768.419         286.602          46.000                                                                  
G28  22969399.439   120705002.307       -2641.266          41.000    22969389.444    94055799.727       -2058.145          44.000  
G31  21031048.874   110518910.209       -1616.531          47.000    21031035.546    86118573.140       -1259.454          45.000  
G03  24450607.836   128488867.523       -2895.586          35.000    24450603.405   100121127.342       -2256.681          35.000  
G18  25214699.858   132504112.488        1422.359          33.000    25214688.918   103249943.009        1108.290          38.000  
C16  36733345.273   191280141.666           9.667          48.000    36733329.736   147909899.515           7.525          49.000  
C19  23715663.662   123493692.171       -2060.565          47.000                                                                  
C27  23642635.503   123113474.603        1225.002          46.000                                                                  
C06  36291096.758   188977248.046           7.268          47.000    36291076.739   146129132.980           5.594          49.000  
C09  37377555.429   194634720.083         119.331          45.000    37377538.389   150503859.438          92.190          48.000  
C22  24657415.608   128397664.763         762.157          42.000                                                                  
G26  20783041.298   109215625.753       -1880.847          48.000    20783031.017    85103040.595       -1465.680          45.000  
G27  22021431.005   115723404.699        3055.849          44.000    22021421.887    90174053.565        2381.084          43.000  
G32  25782161.478                3      -4157.580          25.000    25782178.541                3      -3239.068          26.000  
G09  23996406.975   126101972.138        2826.917          39.000    23996400.438    98261256.533        2202.617          40.000  
C28  24710158.793   128672290.089        -941.803          43.000                                                                  
C07  38070726.736   198244262.516         815.797          41.000    38070708.313   153294970.415         630.965          45.000  
C20  25436723.093   132455688.108       -3604.437          45.000                                                                  
C36  23910851.689   124510082.043        1433.234          44.000                                                                  
C37  24931460.583   129824662.182       -2379.089          42.000                                                                  
C10  39197864.885   204113568.099         750.209          38.000    39197851.271   157833567.827         580.202          44.000  
G08  24310208.401   127751022.427        3621.065          36.000    24310211.318    99546290.591        2821.180          38.000  
G29  25179961.416   132321581.575       -3529.615          34.000    25179949.274   103107684.057       -2750.933          35.000  
C30  25242306.611   131443351.720        2769.598          40.000                                                                  
C13                                                                  40670729.218   163764121.917       -1885.621          37.000  
C08                                                                  41589138.341   167462218.974       -1839.338          41.000  
> 2025 11 03 07 39 47.6800000  0 27                     
G04  21441382.829   112675235.546        1241.725          44.000    21441371.806    87798831.991         967.489          46.000  
G16  20198293.615   106142756.946         286.685          46.000                                                                  
G28  22969419.530   120705107.945       -2641.110          41.000    22969409.543    94055882.048       -2058.129          44.000  
G31  21031061.173   110518974.863       -1616.487          47.000    21031047.835    86118623.522       -1259.525          45.000  
G03  24450629.870   128488983.395       -2896.535          35.000    24450625.438   100121217.586       -2256.345          35.000  
G18  25214689.032   132504055.596        1422.237          33.000    25214678.095   103249898.665        1108.343          38.000  
C16  36733345.223   191280141.282           9.518          48.000    36733329.669   147909899.211           7.528          49.000  
C19  23715679.504   123493774.584       -2060.461          47.000                                                                  
C27  23642626.104   123113425.600        1224.923          46.000                                                                  
C06  36291096.698   188977247.757           7.177          47.000    36291076.676   146129132.757           5.487          49.000  
C09  37377554.537   194634715.309         119.283          45.000    37377537.476   150503855.744          92.262          48.000  
C22  24657409.732   128397634.262         762.349          42.000                                                                  
G26  20783055.608   109215700.980       -1880.786          48.000    20783045.322    85103099.215       -1465.582          45.000  
G27  22021407.750   115723282.468        3055.738          44.000    22021398.626    90173958.314        2381.129          43.000  
G32  25782193.383                3      -4155.955          25.000    25782210.186                3      -3239.846          26.000  
G09  23996385.460   126101859.053        2827.044          39.000    23996378.924    98261168.423        2202.638          40.000  
C28  24710166.033   128672327.758        -941.829          43.000                                                                  
C07  38070720.467   198244229.873         815.914          41.000    38070702.050   153294945.183         630.784          45.000  
C20  25436750.767   132455832.279       -3604.412          45.000                                                                  
C36  23910840.680   124510024.703        1433.386          44.000                                                                  
C37  24931478.866   129824757.338       -2379.049          42.000                                                                  
C10  39197859.122   204113538.080         750.189          38.000    39197845.503   157833544.619         580.189          44.000  
G08  24310180.831   127750877.666        3619.669          36.000    24310183.761    99546177.741        2821.183          38.000  
G29  25179988.263   132321722.785       -3530.023          34.000    25179976.151   103107794.057       -2750.418          35.000  
C30  25242285.341   131443240.932        2769.605          40.000                                                                  
C13                                                                  40670747.961   163764197.333       -1885.585          37.000  
C08                                                                  41589156.624   167462292.553       -1839.505          41.000  
> 2025 11 03 07 39 47.7200000  0 27                     
G04  21441373.365   112675185.864        1241.901          44.000    21441362.365    87798793.278         967.650          46.000  
G16  20198291.438   106142745.470         286.816          46.000                                                                  
G28  22969439.634   120705213.581       -2640.926          41.000    22969429.649    94055964.367       -2058.111          44.000  
G31  21031073.468   110519039.517       -1616.440          47.000    21031060.120    86118673.892       -1259.378          45.000  
G03  24450651.891   128489099.205       -2895.970          35.000    24450647.471   100121307.815       -2255.850          35.000  
G18  25214678.198   132503998.705        1422.142          33.000    25214667.288   103249854.333        1108.198          38.000  
C16  36733345.177   191280140.879           9.807          48.000    36733329.608   147909898.899           7.695          49.000  
C19  23715695.352   123493856.991       -2060.260          47.000                                                                  
C27  23642616.694   123113376.588        1225.140          46.000                                                                  
C06  36291096.645   188977247.455           7.380          47.000    36291076.611   146129132.528           5.603          49.000  
C09  37377553.609   194634710.523         119.497          45.000    37377536.580   150503852.036          92.552          48.000  
C22  24657403.892   128397603.752         762.625          42.000                                                                  
G26  20783069.928   109215776.203       -1880.646          48.000    20783059.653    85103157.828       -1465.375          45.000  
G27  22021384.494   115723160.225        3055.905          44.000    22021375.394    90173863.065        2381.138          43.000  
G32  25782224.919                3      -4158.207          25.000    25782241.850                3      -3239.714          26.000  
G09  23996363.961   126101745.976        2826.964          39.000    23996357.386    98261080.300        2202.895          40.000  
C28  24710173.280   128672365.431        -941.865          43.000                                                                  
C07  38070714.200   198244197.232         815.985          41.000    38070695.745   153294919.945         630.856          45.000  
C20  25436778.464   132455976.445       -3604.240          45.000                                                                  
C36  23910829.656   124509967.376        1433.270          44.000                                                                  
C37  24931497.139   129824852.501       -2379.078          42.000                                                                  
C10  39197853.372   204113508.068         750.154          38.000    39197839.727   157833521.392         580.510          44.000  
G08  24310153.254   127750732.823        3620.287          36.000    24310156.195    99546064.860        2821.725          38.000  
G29  25180015.132   132321863.958       -3529.528          34.000    25180003.044   103107904.040       -2749.729          35.000  
C30  25242264.076   131443130.127        2769.936          40.000                                                                  
C13                                                                  40670766.686   163764272.726       -1885.112          37.000  
C08                                                                  41589174.907   167462366.119       -1839.325          41.000  
> 2025 11 03 07 39 47.7600000  0 27                     
G04  21441363.883   112675136.171        1242.188          44.000    21441352.900    87798754.564         967.769          46.000  
G16  20198289.261   106142733.986         287.008          46.000                                                                  
G28  22969459.732   120705319.212       -2640.739          41.000    22969449.746    94056046.676       -2057.839          44.000  
G31  21031085.766   110519104.152       -1616.060          47.000    21031072.428    86118724.263       -1259.258          45.000  
G03  24450673.931   128489215.027       -2895.793          35.000    24450669.529   100121398.059       -2255.898          35.000  
G18  25214667.361   132503941.779        1422.729          33.000    25214656.468   103249809.966        1108.764          38.000  
C16  36733345.133   191280140.467          10.138          48.000    36733329.548   147909898.587           7.795          49.000  
C19  23715711.165   123493939.400       -2060.217          47.000                                                                  
C27  23642607.279   123113327.565        1225.485          46.000                                                                  
C06  36291096.609   188977247.153           7.510          47.000    36291076.520   146129132.292           5.807          49.000  
C09  37377552.663   194634705.735         119.636          45.000    37377535.644   150503848.331          92.662          48.000  
C22  24657398.045   128397573.251         762.555          42.000                                                                  
G26  20783084.220   109215851.421       -1880.481          48.000    20783073.959    85103216.434       -1465.161          45.000  
G27  22021361.227   115723037.972        3056.182          44.000    22021352.125    90173767.802        2381.405          43.000  
G32  25782256.589                3      -4157.090          25.000    25782273.454                3      -3239.233          26.000  
G09  23996342.439   126101632.898        2826.937          39.000    23996335.871    98260992.184        2202.894          40.000  
C28  24710180.530   128672403.089        -941.600          43.000                                                                  
C07  38070707.949   198244164.583         816.180          41.000    38070689.475   153294894.695         631.094          45.000  
C20  25436806.132   132456120.605       -3604.110          45.000                                                                  
C36  23910818.650   124509910.040        1433.380          44.000                                                                  
C37  24931515.411   129824947.657       -2378.973          42.000                                                                  
C10  39197847.608   204113478.035         750.506          38.000    39197833.977   157833498.177         580.462          44.000  
G08  24310125.682   127750587.969        3621.003          36.000    24310128.626    99545952.018        2821.317          38.000  
G29  25180042.013   132322005.149       -3529.599          34.000    25180029.922   103108014.079       -2750.451          35.000  
C30  25242242.820   131443019.311        2770.329          40.000                                                                  
C13                                                                  40670785.399   163764348.112       -1884.755          37.000  
C08                                                                  41589193.165   167462439.689       -1839.282          41.000  
> 2025 11 03 07 39 47.8000000  0 27                     
G04  21441354.425   112675086.483        1242.245          44.000    21441343.419    87798715.845         967.925          46.000  
G16  20198287.113   106142722.511         286.926          46.000                                                                  
G28  22969479.848   120705424.851       -2640.869          41.000    22969469.843    94056128.984       -2057.729          44.000  
G31  21031098.074   110519168.798       -1616.078          47.000    21031084.732    86118774.638       -1259.297          45.000  
G03  24450695.976   128489330.813       -2895.049          35.000    24450691.571   100121488.311       -2256.135          35.000  
G18  25214656.527   132503884.843        1423.192          33.000    25214645.640   103249765.618        1108.778          38.000  
C16  36733345.056   191280140.061          10.221          48.000    36733329.457   147909898.274           7.831          49.000  
C19  23715726.985   123494021.803       -2060.059          47.000                                                                  
C27  23642597.840   123113278.548        1225.502          46.000                                                                  
C06  36291096.546   188977246.846           7.657          47.000    36291076.443   146129132.053           5.931          49.000  
C09  37377551.736   194634700.943         119.792          45.000    37377534.733   150503844.628          92.637          48.000  
C22  24657392.185   128397542.765         762.218          42.000                                                                  
G26  20783098.543   109215926.639       -1880.432          48.000    20783088.274    85103275.047       -1465.204          45.000  
G27  22021337.949   115722915.732        3056.126          44.000    22021328.885    90173672.547        2381.366          43.000  
G32  25782288.251                3      -4156.523          25.000    25782305.172                3      -3239.538          26.000  
G09  23996320.910   126101519.809        2827.126          39.000    23996314.357    98260904.067        2202.928          40.000  
C28  24710187.758   128672440.753        -941.585          43.000                                                                  
C07  38070701.687   198244131.925         816.403          41.000    38070683.218   153294869.445         631.230          45.000  
C20  25436833.817   132456264.757       -3603.862          45.000                                                                  
C36  23910807.639   124509852.694        1433.588          44.000                                                                  
C37  24931533.668   129825042.801       -2378.669          42.000                                                                  
C10  39197841.828   204113448.003         750.706          38.000    39197828.201   157833474.961         580.423          44.000  
G08  24310098.099   127750443.119        3621.222          36.000    24310101.076    99545839.143        2821.671          38.000  
G29  25180068.856   132322146.326       -3529.456          34.000    25180056.826   103108124.117       -2750.758          35.000  
C30  25242221.528   131442908.499        2770.450          40.000                                                                  
C13                                                                  40670804.134   163764423.499       -1884.664          37.000  
C08                                                                  41589211.446   167462513.259       -1839.177          41.000  
> 2025 11 03 07 39 47.8400000  0 27                     
G04  21441344.973   112675036.802        1242.159          44.000    21441333.969    87798677.132         967.880          46.000  
G16  20198284.926   106142711.036         286.882          46.000                                                                  
G28  22969499.972   120705530.488       -2640.913          41.000    22969489.945    94056211.293       -2057.687          44.000  
G31  21031110.394   110519233.440       -1616.039          47.000    21031097.029    86118825.022       -1259.478          45.000  
G03  24450717.992                       -2895.425          35.000    24450713.635   100121578.567       -2256.329          35.000  
G18  25214645.683   132503827.959        1422.490          33.000    25214634.829   103249721.291        1108.390          38.000  
C16  36733344.967   191280139.658          10.160          48.000    36733329.368   147909897.964           7.787          49.000  
C19  23715742.793   123494104.220       -2060.309          47.000                                                                  
C27  23642588.406   123113229.538        1225.335          46.000                                                                  
C06  36291096.492   188977246.543           7.621          47.000    36291076.380   146129131.820           5.858          49.000  
C09  37377550.806   194634696.159         119.731          45.000    37377533.813   150503840.924          92.614          48.000  
C22  24657386.335   128397512.273         762.124          42.000                                                                  
G26  20783112.877   109216001.861       -1880.499          48.000    20783102.586    85103333.662       -1465.320          45.000  
G27  22021314.670   115722793.494        3056.013          44.000    22021305.629    90173577.299        2381.275          43.000  
G32  25782320.104                3      -4156.134          25.000    25782336.744                3      -3239.228          26.000  
G09  23996299.404   126101406.728        2827.104          39.000    23996292.830    98260815.954        2202.855          40.000  
C28  24710194.974   128672478.421        -941.661          43.000                                                                  
C07  38070695.415   198244099.281         816.222          41.000    38070676.976   153294844.203         631.140          45.000  
C20  25436861.505   132456408.921       -3603.992          45.000                                                                  
C36  23910796.610   124509795.355        1433.533          44.000                                                                  
C37  24931551.956   129825137.959       -2378.840          42.000                                                                  
C10  39197836.065   204113417.976         750.788          38.000    39197822.407   157833451.742         580.391          44.000  
G08  24310070.534   127750298.268        3621.338          36.000    24310073.512    99545726.283        2821.626          38.000  
G29  25180095.730   132322287.517       -3529.567          34.000    25180083.693   103108234.116       -2750.356          35.000  
C30  25242200.223   131442797.692        2770.344          40.000                                                                  
C13                                                                  40670822.848   163764498.911       -1885.173          37.000  
C08                                                                  41589229.732   167462586.823       -1839.091          41.000  
> 2025 11 03 07 39 47.8800000  0 27                     
G04  21441335.540   112674987.133        1241.841          44.000    21441324.510    87798638.422         967.805          46.000  
G16  20198282.733   106142699.565         286.770          46.000                                                                  
G28  22969520.052   120705636.128       -2641.002          42.000    22969510.056    94056293.609       -2057.847          44.000  
G31  21031122.706   110519298.109       -1616.487          47.000    21031109.328    86118875.390       -1259.294          45.000  
G03  24450740.037   128489562.433       -2895.193          35.000    24450735.675   100121668.819       -2256.355          35.000  
G18  25214634.882   132503771.036        1422.844          33.000    25214624.010   103249676.943        1108.589          38.000  
C16  36733344.888   191280139.264           9.950          48.000    36733329.291   147909897.665           7.565          49.000  
C19  23715758.624   123494186.636       -2060.431          47.000                                                                  
C27  23642578.997   123113180.527        1225.242          46.000                                                                  
C06  36291096.393   188977246.245           7.506          47.000    36291076.325   146129131.593           5.724          49.000  
C09  37377549.885   194634691.385         119.472          45.000    37377532.884   150503837.230          92.414          48.000  
C22  24657380.506   128397481.770         762.342          42.000                                                                  
G26  20783127.206   109216077.091       -1880.707          48.000    20783116.912    85103392.286       -1465.558          45.000  
G27  22021291.416   115722671.257        3055.922          44.000    22021282.376    90173482.052        2381.173          43.000  
G32  25782351.246                3      -4157.332          25.000    25782368.363                3      -3239.330          26.000  
G09  23996277.895   126101293.648        2827.042          39.000    23996271.325    98260727.849        2202.620          40.000  
C28  24710202.204   128672516.090        -941.705          43.000                                                                  
C07  38070689.137   198244066.644         815.970          41.000    38070670.688   153294818.971         630.895          45.000  
C20  25436889.200   132456553.087       -3604.122          45.000                                                                  
C36  23910785.601   124509738.020        1433.380          44.000                                                                  
C37  24931570.248   129825233.111       -2378.830          42.000                                                                  
C10  39197830.288   204113387.947         750.779          38.000    39197816.662   157833428.529         580.322          44.000  
G08  24310042.964   127750153.420        3621.406          37.000    24310045.940    99545613.420        2821.588          38.000  
G29  25180122.613   132322428.718       -3529.902          34.000    25180110.577   103108344.140       -2750.603          35.000  
C30  25242178.934   131442686.896        2770.005          40.000                                                                  
C13                                                                  40670841.579   163764574.314       -1885.245          37.000  
C08                                                                  41589248.000   167462660.391       -1839.167          41.000  
> 2025 11 03 07 39 47.9200000  0 27                     
G04  21441326.090   112674937.457        1241.794          44.000    21441315.047    87798599.718         967.633          46.000  
G16  20198280.551   106142688.090         286.815          46.000                                                                  
G28  22969540.150   120705741.767       -2641.045          42.000    22969530.140    94056375.927       -2057.946          44.000  
G31  21031135.008   110519362.753       -1616.290          47.000    21031121.618    86118925.773       -1259.457          45.000  
G03  24450762.096   128489678.294       -2896.094          35.000    24450757.701   100121759.063       -2256.306          35.000  
G18  25214624.060   132503714.120        1423.000          33.000    25214613.188   103249632.608        1108.406          38.000  
C16  36733344.840   191280138.867           9.914          48.000    36733329.224   147909897.362           7.518          49.000  
C19  23715774.455   123494269.051       -2060.449          47.000                                                                  
C27  23642569.605   123113131.517        1225.206          46.000                                                                  
C06  36291096.314   188977245.949           7.416          47.000    36291076.265   146129131.358           5.774          49.000  
C09  37377548.953   194634686.592         119.700          45.000    37377531.938   150503833.532          92.386          48.000  
C22  24657374.661   128397451.262         762.592          42.000                                                                  
G26  20783141.514   109216152.322       -1880.792          48.000    20783131.243    85103450.915       -1465.747          45.000  
G27  22021268.138   115722549.006        3056.117          44.000    22021259.123    90173386.793        2381.350          43.000  
G32  25782382.620                3      -4157.883          25.000    25782400.014                3      -3239.230          26.000  
G09  23996256.396   126101180.569        2826.980          39.000    23996249.798    98260639.728        2202.829          40.000  
C28  24710209.421   128672553.758        -941.737          43.000                                                                  
C07  38070682.862   198244034.003         815.929          41.000    38070664.413   153294793.724         631.074          45.000  
C20  25436916.882   132456697.251       -3604.166          45.000                                                                  
C36  23910774.600   124509680.688        1433.301          44.000                                                                  
C37  24931588.502   129825328.280       -2379.148          42.000                                                                  
C10  39197824.501   204113357.933         750.495          38.000    39197810.883   157833405.316         580.315          44.000  
G08  24310015.406   127750008.567        3621.406          37.000    24310018.392    99545500.567        2821.366          38.000  
G29  25180149.495   132322569.917       -3529.976          34.000    25180137.482   103108454.168       -2750.781          35.000  
C30  25242157.656   131442576.099        2769.835          40.000                                                                  
C13                                                                  40670860.290   163764649.716       -1885.182          37.000  
C08                                                                  41589266.257   167462733.967       -1839.351          41.000  
> 2025 11 03 07 39 47.9600000  0 27                     
G04  21441316.651   112674887.773        1241.932          44.000    21441305.592    87798561.001         967.791          46.000  
G16  20198278.343   106142676.611         286.927          46.000                                                                  
G28  22969560.247   120705847.397       -2640.881          42.000    22969550.233    94056458.235       -2057.761          44.000  
G31  21031147.317   110519427.397       -1616.178          47.000    21031133.911    86118976.152       -1259.495          45.000  
G03  24450784.127   128489794.103       -2895.649          35.000    24450779.738   100121849.295       -2255.994          35.000  
G18  25214613.246   132503657.253        1422.031          33.000    25214602.353   103249588.258        1108.601          38.000  
C16  36733344.794   191280138.466           9.957          48.000    36733329.146   147909897.044           7.763          49.000  
C19  23715790.295   123494351.458       -2060.309          47.000                                                                  
C27  23642560.208   123113082.499        1225.348          46.000                                                                  
C06  36291096.257   188977245.639           7.601          47.000    36291076.194   146129131.125           5.802          49.000  
C09  37377548.026   194634681.801         119.755          45.000    37377530.998   150503829.834          92.396          48.000  
C22  24657368.805   128397420.757         762.663          42.000                                                                  
G26  20783155.798   109216227.541       -1880.633          48.000    20783145.551    85103509.530       -1465.546          45.000  
G27  22021244.887   115722426.771        3055.947          44.000    22021235.862    90173291.535        2381.431          43.000  
G32  25782413.704                3      -4156.916          25.000    25782432.034                3      -3239.517          26.000  
G09  23996234.867   126101067.472        2827.240          39.000    23996228.277    98260551.609        2202.921          40.000  
C28  24710216.656   128672591.430        -941.794          43.000                                                                  
C07  38070676.585   198244001.369         815.773          41.000    38070658.124   153294768.475         631.237          45.000  
C20  25436944.550   132456841.425       -3604.343          45.000                                                                  
C36  23910763.588   124509623.346        1433.478          44.000                                                                  
C37  24931606.762   129825423.429       -2378.934          42.000                                                                  
C10  39197818.734   204113327.906         750.552          38.000    39197805.088   157833382.087         580.566          44.000  
G08  24309987.846   127749863.754        3620.632          37.000    24309990.823    99545387.707        2821.408          38.000  
G29  25180176.393   132322711.111       -3530.001          34.000    25180164.349   103108564.174       -2750.404          35.000  
C30  25242136.406   131442465.294        2769.978          40.000                                                                  
C13                                                                  40670879.006   163764725.114       -1885.073          37.000  
C08                                                                  41589284.535   167462807.528       -1839.191          41.000  
> 2025 11 03 07 39 48.0000000  0 27                     
G04  21441307.193   112674838.090        1242.004          44.000    21441296.141    87798522.288         967.809          46.000  
G16  20198276.161   106142665.138         286.839          46.000                                                                  
G28  22969580.350   120705953.023       -2640.718          42.000    22969570.331    94056540.558       -2057.976          44.000  
G31  21031159.602   110519492.042       -1616.143          47.000    21031146.228    86119026.520       -1259.357          45.000  
G03  24450806.139   128489909.921       -2895.507          35.000    24450801.770   100121939.544       -2256.162          35.000  
G18  25214602.446   132503600.335        1422.507          33.000    25214591.545   103249543.914        1108.634          38.000  
C16  36733344.722   191280138.061          10.074          48.000    36733329.094   147909896.726           7.929          49.000  
C19  23715806.134   123494433.866       -2060.229          47.000                                                                  
C27  23642550.811   123113033.486        1225.354          46.000                                                                  
C06  36291096.194   188977245.330           7.684          47.000    36291076.145   146129130.886           5.913          49.000  
C09  37377547.099   194634677.015         119.694          45.000    37377530.078   150503826.132          92.467          48.000  
C22  24657362.951   128397390.258         762.567          42.000                                                                  
G26  20783170.112   109216302.755       -1880.420          48.000    20783159.841    85103568.134       -1465.204          45.000  
G27  22021221.612   115722304.532        3055.910          44.000    22021212.614    90173196.279        2381.402          43.000  
G32  25782445.082                3      -4155.420          25.000    25782463.564                3      -3238.298          26.000  
G09  23996213.349   126100954.390        2827.178          39.000    23996206.764    98260463.494        2202.920          40.000  
C28  24710223.882   128672629.095        -941.722          43.000                                                                  
C07  38070670.310   198243968.708         816.267          41.000    38070651.850   153294743.232         631.166          45.000  
C20  25436972.269   132456985.578       -3604.056          45.000                                                                  
C36  23910752.583   124509565.991        1433.765          44.000                                                                  
C37  24931625.037   129825518.575       -2378.712          42.000                                                                  
C10  39197812.955   204113297.872         750.719          38.000    39197799.333   157833358.865         580.608          44.000  
G08  24309960.299   127749718.918        3620.702          37.000    24309963.263    99545274.841        2821.591          38.000  
G29  25180203.248   132322852.289       -3529.757          34.000    25180191.218   103108674.188       -2750.315          35.000  
C30  25242115.132   131442354.488        2770.109          40.000                                                                  
C13                                                                  40670897.725   163764800.507       -1884.935          37.000  
C08                                                                  41589302.826   167462881.091       -1839.099          41.000  
> 2025 11 03 07 39 48.0400000  0 27                     
G04  21441297.745   112674788.408        1242.034          44.000    21441286.687    87798483.578         967.755          46.000  
G16  20198273.969   106142653.661         286.889          46.000                                                                  
G28  22969600.475   120706058.659       -2640.776          42.000    22969590.429    94056622.862       -2057.749          44.000  
G31  21031171.929   110519556.689       -1616.178          47.000    21031158.520    86119076.891       -1259.305          45.000  
G03  24450828.144   128490025.713       -2895.107          35.000    24450823.802   100122029.795       -2256.321          35.000  
G18  25214591.610   132503543.433        1422.554          34.000    25214580.716   103249499.575        1108.530          38.000  
C16  36733344.673   191280137.649          10.233          48.000    36733329.017   147909896.407           7.987          49.000  
C19  23715821.997   123494516.277       -2060.266          47.000                                                                  
C27  23642541.386   123112984.480        1225.212          46.000                                                                  
C06  36291096.144   188977245.028           7.593          47.000    36291076.075   146129130.648           5.962          49.000  
C09  37377546.158   194634672.227         119.675          45.000    37377529.163   150503822.420          92.689          48.000  
C22  24657357.078   128397359.767         762.378          42.000                                                                  
G26  20783184.449   109216377.982       -1880.566          48.000    20783174.160    85103626.745       -1465.204          45.000  
G27  22021198.355   115722182.290        3055.943          44.000    22021189.366    90173101.033        2381.187          43.000  
G32  25782477.120                3      -4156.685          25.000    25782495.132                3      -3239.014          26.000  
G09  23996191.837   126100841.321        2826.854          39.000    23996185.231    98260375.378        2202.889          40.000  
C28  24710231.101   128672666.759        -941.664          43.000                                                                  
C07  38070664.045   198243936.066         816.208          41.000    38070645.564   153294717.992         631.051          45.000  
C20  25436999.982   132457129.733       -3603.912          45.000                                                                  
C36  23910741.591   124509508.655        1433.545          44.000                                                                  
C37  24931643.321   129825613.720       -2378.622          42.000                                                                  
C10  39197807.192   204113267.845         750.672          39.000    39197793.565   157833335.642         580.631          44.000  
G08  24309932.719   127749574.075        3620.859          37.000    24309935.690    99545161.963        2821.876          38.000  
G29  25180230.096   132322993.471       -3529.669          34.000    25180218.104   103108784.195       -2750.178          35.000  
C30  25242093.830   131442243.679        2770.160          40.000                                                                  
C13                                                                  40670916.451   163764875.896       -1884.837          37.000  
C08                                                                  41589321.070   167462954.657       -1839.111          41.000  
> 2025 11 03 07 39 48.0800000  0 27                     
G04  21441288.294   112674738.737        1241.843          44.000    21441277.217    87798444.870         967.698          46.000  
G16  20198271.774   106142642.187         286.858          46.000                                                                  
G28  22969620.578   120706164.296       -2640.878          42.000    22969610.535    94056705.183       -2057.939          44.000  
G31  21031184.242   110519621.341       -1616.284          47.000    21031170.840    86119127.273       -1259.468          45.000  
G03  24450850.197   128490141.576       -2896.020          35.000    24450845.848   100122120.047       -2256.416          35.000  
G18  25214580.798   132503486.526        1422.594          34.000    25214569.899   103249455.224        1108.662          38.000  
C16  36733344.607   191280137.243          10.207          48.000    36733328.947   147909896.095           7.882          49.000  
C19  23715837.816   123494598.693       -2060.388          47.000                                                                  
C27  23642531.979   123112935.473        1225.126          46.000                                                                  
C06  36291096.084   188977244.733           7.401          47.000    36291075.987   146129130.416           5.853          49.000  
C09  37377545.235   194634667.444         119.546          45.000    37377528.243   150503818.717          92.634          48.000  
C22  24657351.211   128397329.281         762.174          42.000                                                                  
G26  20783198.774   109216453.212       -1880.737          48.000    20783188.497    85103685.365       -1465.430          45.000  
G27  22021175.096   115722060.052        3055.899          44.000    22021166.105    90173005.779        2381.242          43.000  
G32  25782508.925                3      -4157.336          25.000    25782526.730                3      -3239.208          26.000  
G09  23996170.311   126100728.243        2826.850          39.000    23996163.709    98260287.258        2202.940          40.000  
C28  24710238.358   128672704.428        -941.744          43.000                                                                  
C07  38070657.779   198243903.411         816.344          41.000    38070639.278   153294692.741         631.171          45.000  
C20  25437027.651   132457273.897       -3604.005          45.000                                                                  
C36  23910730.610   124509451.322        1433.368          44.000                                                                  
C37  24931661.599   129825708.879       -2378.882          42.000                                                                  
C10  39197801.418   204113237.827         750.465          39.000    39197787.801   157833312.426         580.464          44.000  
G08  24309905.161   127749429.222        3621.127          37.000    24309908.137    99545049.113        2821.516          38.000  
G29  25180256.961   132323134.621       -3528.969          34.000    25180244.961   103108894.203       -2750.144          35.000  
C30  25242072.560   131442132.873        2770.146          40.000                                                                  
C13                                                                  40670935.171   163764951.295       -1884.960          37.000  
C08                                                                  41589339.332   167463028.242       -1839.469          41.000  
> 2025 11 03 07 39 48.1200000  0 27                     
G04  21441278.850   112674689.068        1241.731          44.000    21441267.765    87798406.166         967.622          46.000  
G16  20198269.604   106142630.718         286.759          46.000                                                                  
G28  22969640.690   120706269.949       -2641.223          42.000    22969630.628    94056787.492       -2057.844          44.000  
G31  21031196.547   110519685.992       -1616.336          47.000    21031183.147    86119177.654       -1259.529          45.000  
G03  24450872.237   128490257.373       -2895.443          35.000    24450867.890   100122210.306       -2256.610          35.000  
G18  25214569.954   132503429.625        1422.603          34.000    25214559.083   103249410.892        1108.405          38.000  
C16  36733344.526   191280136.852           9.892          48.000    36733328.884   147909895.787           7.732          49.000  
C19  23715853.634   123494681.113       -2060.510          47.000                                                                  
C27  23642522.581   123112886.462        1225.182          46.000                                                                  
C06  36291096.016   188977244.434           7.367          47.000    36291075.947   146129130.184           5.787          49.000  
C09  37377544.321   194634662.662         119.491          45.000    37377527.325   150503815.020          92.493          48.000  
C22  24657345.344   128397298.791         762.182          42.000                                                                  
G26  20783213.089   109216528.447       -1880.902          48.000    20783202.787    85103743.986       -1465.552          45.000  
G27  22021151.825   115721937.820        3055.772          44.000    22021142.839    90172910.532        2381.146          43.000  
G32  25782540.650                3      -4158.073          25.000    25782558.452                3      -3238.307          26.000  
G09  23996148.770   126100615.154        2827.112          39.000    23996142.174    98260199.138        2202.936          40.000  
C28  24710245.619   128672742.107        -941.917          43.000                                                                  
C07  38070651.515   198243870.757         816.379          41.000    38070633.011   153294667.501         631.012          45.000  
C20  25437055.330   132457418.058       -3604.038          45.000                                                                  
C36  23910719.608   124509393.992        1433.215          44.000                                                                  
C37  24931679.859   129825804.037       -2378.981          42.000                                                                  
C10  39197795.650   204113207.810         750.366          39.000    39197782.037   157833289.214         580.319          44.000  
G08  24309877.604   127749284.377        3621.165          37.000    24309880.575    99544936.250        2821.576          38.000  
G29  25180283.875   132323275.828       -3529.680          34.000    25180271.854   103109004.226       -2750.469          35.000  
C30  25242051.272   131442022.074        2770.012          40.000                                                                  
C13                                                                  40670953.905   163765026.704       -1885.267          37.000  
C08                                                                  41589357.597   167463101.801       -1839.116          41.000  
> 2025 11 03 07 39 48.1600000  0 27                     
G04  21441269.372   112674639.382        1241.974          44.000    21441258.316    87798367.456         967.684          46.000  
G16  20198267.400   106142619.236         286.946          46.000                                                                  
G28  22969660.831   120706375.587       -2641.138          42.000    22969650.722    94056869.801       -2057.749          44.000  
G31  21031208.839   110519750.648       -1616.403          47.000    21031195.437    86119228.021       -1259.333          45.000  
G03  24450894.282   128490373.167       -2894.904          35.000    24450889.927   100122300.528       -2255.924          35.000  
G18  25214559.092   132503372.686        1423.268          34.000    25214548.255   103249366.542        1108.547          38.000  
C16  36733344.458   191280136.448           9.971          48.000    36733328.837   147909895.479           7.650          49.000  
C19  23715869.481   123494763.523       -2060.364          47.000                                                                  
C27  23642513.171   123112837.446        1225.355          46.000                                                                  
C06  36291095.971   188977244.123           7.610          47.000    36291075.869   146129129.948           5.836          49.000  
C09  37377543.432   194634657.872         119.642          45.000    37377526.414   150503811.315          92.551          48.000  
C22  24657339.474   128397268.281         762.552          42.000                                                                  
G26  20783227.387   109216603.668       -1880.695          48.000    20783217.099    85103802.603       -1465.527          45.000  
G27  22021128.542   115721815.569        3056.074          44.000    22021119.589    90172815.284        2381.185          43.000  
G32  25782572.583                3      -4156.389          25.000    25782590.112                3      -3237.831          26.000  
G09  23996127.250   126100502.068        2827.170          39.000    23996120.663    98260111.021        2202.888          40.000  
C28  24710252.871   128672779.777        -941.866          43.000                                                                  
C07  38070645.241   198243838.106         816.365          41.000    38070626.764   153294642.250         631.152          45.000  
C20  25437083.018   132457562.215       -3603.954          45.000                                                                  
C36  23910708.608   124509336.650        1433.398          44.000                                                                  
C37  24931698.161   129825899.192       -2378.930          42.000                                                                  
C10  39197789.852   204113177.766         750.828          38.000    39197776.300   157833266.004         580.185          44.000  
G08  24309850.044   127749139.535        3621.240          36.000    24309853.017    99544823.384        2821.570          38.000  
G29  25180310.722   132323417.030       -3529.926          34.000    25180298.731   103109114.258       -2750.771          35.000  
C30  25242029.999   131441911.262        2770.188          40.000                                                                  
C13                                                                  40670972.595   163765102.085       -1884.842          37.000  
C08                                                                  41589375.868   167463175.373       -1839.277          41.000  
> 2025 11 03 07 39 48.2000000  0 27                     
G04  21441259.896   112674589.702        1242.002          44.000    21441248.871    87798328.742         967.795          46.000  
G16  20198265.237   106142607.762         286.902          46.000                                                                  
G28  22969680.937   120706481.220       -2640.896          42.000    22969670.812    94056952.111       -2057.732          44.000  
G31  21031221.121   110519815.296       -1616.271          47.000    21031207.732    86119278.394       -1259.310          45.000  
G03  24450916.339   128490488.996       -2895.260          35.000    24450911.956   100122390.765       -2255.889          35.000  
G18  25214548.271   132503315.758        1423.308          34.000    25214537.430   103249322.184        1108.830          38.000  
C16  36733344.383   191280136.032          10.239          48.000    36733328.792   147909895.160           7.844          49.000  
C19  23715885.325   123494845.933       -2060.284          47.000                                                                  
C27  23642503.782   123112788.429        1225.441          46.000                                                                  
C06  36291095.920   188977243.805           7.842          47.000    36291075.782   146129129.707           5.935          49.000  
C09  37377542.516   194634653.068         119.966          45.000    37377525.499   150503807.609          92.602          48.000  
C22  24657333.608   128397237.773         762.666          42.000                                                                  
G26  20783241.680   109216678.879       -1880.371          48.000    20783231.429    85103861.222       -1465.552          45.000  
G27  22021105.292   115721693.324        3056.147          44.000    22021096.309    90172720.027        2381.321          43.000  
G32  25782603.905                3      -4156.867          26.000    25782621.641                3      -3239.781          26.000  
G09  23996105.749   126100388.985        2827.088          39.000    23996099.155    98260022.922        2202.573          40.000  
C28  24710260.097   128672817.434        -941.586          43.000                                                                  
C07  38070638.976   198243805.467         816.088          41.000    38070620.480   153294616.991         631.397          45.000  
C20  25437110.707   132457706.374       -3603.968          45.000                                                                  
C36  23910697.615   124509279.297        1433.691          44.000                                                                  
C37  24931716.439   129825994.343       -2378.851          42.000                                                                  
C10  39197784.065   204113147.731         750.887          39.000    39197770.512   157833242.769         580.576          44.000  
G08  24309822.482   127748994.671        3621.539          36.000    24309825.465    99544710.507        2821.851          38.000  
G29  25180337.596   132323558.227       -3529.914          34.000    25180325.607   103109224.254       -2750.223          35.000  
C30  25242008.722   131441800.447        2770.357          40.000                                                                  
C13                                                                  40670991.326   163765177.474       -1884.742          37.000  
C08                                                                  41589394.164   167463248.930       -1839.099          41.000  
> 2025 11 03 07 39 48.2400000  0 27                     
G04  21441250.427   112674540.024        1241.973          44.000    21441239.412    87798290.025         967.897          46.000  
G16  20198263.050   106142596.286         286.940          46.000                                                                  
G28  22969701.021   120706586.834       -2640.452          42.000    22969690.934    94057034.423       -2057.804          44.000  
G31  21031233.414   110519879.931       -1616.030          47.000    21031220.019    86119328.765       -1259.302          45.000  
G03  24450938.345   128490604.779       -2894.747          35.000    24450933.982   100122480.997       -2255.784          35.000  
G18  25214537.452   132503258.852        1422.924          34.000    25214526.610   103249277.829        1108.928          38.000  
C16  36733344.310   191280135.613          10.436          48.000    36733328.744   147909894.838           7.972          49.000  
C19  23715901.148   123494928.341       -2060.229          47.000                                                                  
C27  23642494.357   123112739.413        1225.440          46.000                                                                  
C06  36291095.858   188977243.491           7.885          47.000    36291075.728   146129129.465           6.024          49.000  
C09  37377541.592   194634648.263         120.152          45.000    37377524.567   150503803.897          92.761          48.000  
C22  24657327.733   128397207.274         762.574          42.000                                                                  
G26  20783255.990   109216754.093       -1880.304          48.000    20783245.728    85103919.826       -1465.253          45.000  
G27  22021082.054   115721571.079        3056.136          44.000    22021073.046    90172624.764        2381.560          43.000  
G32  25782635.496                3      -4157.278          25.000    25782653.380                3      -3239.531          26.000  
G09  23996084.232   126100275.897        2827.178          39.000    23996077.622    98259934.785        2203.074          40.000  
C28  24710267.340   128672855.095        -941.492          43.000                                                                  
C07  38070632.723   198243772.814         816.197          41.000    38070614.177   153294591.742         631.331          45.000  
C20  25437138.413   132457850.515       -3603.635          45.000                                                                  
C36  23910686.585   124509221.945        1433.795          44.000                                                                  
C37  24931734.706   129826089.481       -2378.528          42.000                                                                  
C10  39197778.313   204113117.685         751.060          39.000    39197764.747   157833219.536         580.800          44.000  
G08  24309794.912   127748849.812        3621.615          36.000    24309797.888    99544597.620        2822.073          38.000  
G29  25180364.419   132323699.412       -3529.704          34.000    25180352.483   103109334.267       -2750.263          35.000  
C30  25241987.433   131441689.621        2770.589          40.000                                                                  
C13                                                                  40671010.052   163765252.887       -1885.164          37.000  
C08                                                                  41589412.463   167463322.488       -1838.976          41.000  
> 2025 11 03 07 39 48.2800000  0 27                     
G04  21441240.975   112674490.336        1242.157          44.000    21441230.000    87798251.309         967.933          46.000  
G16  20198260.847   106142584.800         287.125          46.000                                                                  
G28  22969721.124   120706692.462       -2640.515          42.000    22969711.057    94057116.729       -2057.695          44.000  
G31  21031245.711   110519944.562       -1615.792          47.000    21031232.324    86119379.135       -1259.292          45.000  
G03  24450960.380   128490720.625       -2895.632          35.000    24450956.042   100122571.249       -2256.113          35.000  
G18  25214526.631   132503201.955        1422.570          34.000    25214515.781   103249233.481        1108.847          38.000  
C16  36733344.251   191280135.199          10.414          48.000    36733328.682   147909894.510           8.155          49.000  
C19  23715916.994   123495010.741       -2060.046          47.000                                                                  
C27  23642484.941   123112690.399        1225.390          46.000                                                                  
C06  36291095.773   188977243.175           7.938          47.000    36291075.659   146129129.218           6.138          49.000  
C09  37377540.660   194634643.463         120.138          45.000    37377523.653   150503800.183          92.841          48.000  
C22  24657321.874   128397176.777         762.467          42.000                                                                  
G26  20783270.302   109216829.307       -1880.286          48.000    20783260.025    85103978.431       -1465.106          45.000  
G27  22021058.799   115721448.826        3056.262          44.000    22021049.777    90172529.506        2381.545          43.000  
G32  25782667.126                3      -4157.181          26.000    25782685.015                3      -3239.123          26.000  
G09  23996062.709   126100162.809        2827.229          39.000    23996056.102    98259846.668        2203.006          40.000  
C28  24710274.560   128672892.756        -941.470          43.000                                                                  
C07  38070626.472   198243740.155         816.404          41.000    38070607.895   153294566.487         631.386          45.000  
C20  25437166.088   132457994.670       -3603.738          45.000                                                                  
C36  23910675.567   124509164.587        1433.936          44.000                                                                  
C37  24931752.981   129826184.610       -2378.274          42.000                                                                  
C10  39197772.537   204113087.657         750.854          39.000    39197758.963   157833196.313         580.715          44.000  
G08  24309767.363   127748704.956        3621.557          36.000    24309770.338    99544484.766        2821.586          38.000  
G29  25180391.316   132323840.563       -3529.018          34.000    25180379.346   103109444.269       -2750.099          35.000  
C30  25241966.135   131441578.812        2770.431          40.000                                                                  
C13                                                                  40671028.776   163765328.237       -1884.222          37.000  
C08                                                                  41589430.700   167463396.034       -1838.718          41.000  
> 2025 11 03 07 39 48.3200000  0 27                     
G04  21441231.506   112674440.652        1242.151          44.000    21441220.534    87798212.598         967.831          46.000  
G16  20198258.663   106142573.322         287.017          46.000                                                                  
G28  22969741.219   120706798.095       -2640.700          42.000    22969731.150    94057199.039       -2057.715          44.000  
G31  21031258.022   110520009.197       -1615.784          47.000    21031244.620    86119429.501       -1259.206          45.000  
G03  24450982.388   128490836.395       -2894.857          35.000    24450978.062   100122661.481       -2255.946          35.000  
G18  25214515.819   132503145.050        1422.552          34.000    25214504.962   103249189.139        1108.572          38.000  
C16  36733344.183   191280134.781          10.489          48.000    36733328.620   147909894.187           8.149          49.000  
C19  23715932.826   123495093.144       -2060.065          47.000                                                                  
C27  23642475.538   123112641.378        1225.464          46.000                                                                  
C06  36291095.720   188977242.859           7.960          47.000    36291075.594   146129128.973           6.157          49.000  
C09  37377539.721   194634638.665         120.044          45.000    37377522.725   150503796.466          92.912          48.000  
C22  24657316.024   128397146.281         762.400          42.000                                                                  
G26  20783284.609   109216904.518       -1880.273          48.000    20783274.344    85104037.033       -1465.009          45.000  
G27  22021035.524   115721326.569        3056.415          44.000    22021026.511    90172434.239        2381.650          43.000  
G32  25782698.450                3      -4156.572          26.000    25782716.629                3      -3238.567          26.000  
G09  23996041.173   126100049.716        2827.346          39.000    23996034.562    98259758.542        2203.079          40.000  
C28  24710281.784   128672930.421        -941.547          43.000                                                                  
C07  38070620.193   198243707.500         816.363          41.000    38070601.623   153294541.238         631.279          45.000  
C20  25437193.780   132458138.814       -3603.598          45.000                                                                  
C36  23910664.530   124509107.237        1433.838          44.000                                                                  
C37  24931771.242   129826279.748       -2378.351          42.000                                                                  
C10  39197766.761   204113057.619         750.951          39.000    39197753.221   157833173.088         580.677          44.000  
G08  24309739.807   127748560.114        3621.388          36.000    24309742.786    99544371.903        2821.461          38.000  
G29  25180418.201   132323981.732       -3528.948          34.000    25180406.209   103109554.282       -2750.222          35.000  
C30  25241944.840   131441468.004        2770.255          40.000                                                                  
C13                                                                  40671047.489   163765403.624       -1884.397          37.000  
C08                                                                  41589448.952   167463469.587       -1838.750          41.000  
> 2025 11 03 07 39 48.3600000  0 27                     
G04  21441222.051   112674390.969        1242.113          44.000    21441211.080    87798173.882         967.885          46.000  
G16  20198256.460   106142561.847         286.899          46.000                                                                  
G28  22969761.313   120706903.724       -2640.724          42.000    22969751.262    94057281.351       -2057.766          44.000  
G31  21031270.336   110520073.841       -1615.951          47.000    21031256.925    86119479.878       -1259.357          45.000  
G03  24451004.455   128490952.221       -2895.319          35.000    24451000.101   100122751.721       -2256.014          35.000  
G18  25214504.960   132503088.095        1423.512          34.000    25214494.138   103249144.798        1108.482          38.000  
C16  36733344.123   191280134.356          10.628          48.000    36733328.537   147909893.867           8.061          49.000  
C19  23715948.624   123495175.552       -2060.144          47.000                                                                  
C27  23642466.107   123112592.361        1225.433          46.000                                                                  
C06  36291095.659   188977242.546           7.876          47.000    36291075.540   146129128.729           6.134          49.000  
C09  37377538.820   194634633.859         120.100          45.000    37377521.818   150503792.752          92.856          48.000  
C22  24657310.171   128397115.777         762.526          42.000                                                                  
G26  20783298.930   109216979.739       -1880.457          48.000    20783288.677    85104095.650       -1465.271          45.000  
G27  22021012.261   115721204.324        3056.239          44.000    22021003.251    90172338.985        2381.450          43.000  
G32  25782729.797                3      -4156.514          26.000    25782748.292                3      -3236.754          26.000  
G09  23996019.643   126099936.621        2827.361          39.000    23996013.051    98259670.415        2203.134          40.000  
C28  24710289.010   128672968.085        -941.602          43.000                                                                  
C07  38070613.921   198243674.824         816.726          41.000    38070595.321   153294515.984         631.310          45.000  
C20  25437221.435   132458282.963       -3603.606          45.000                                                                  
C36  23910653.512   124509049.896        1433.612          44.000                                                                  
C37  24931789.505   129826374.894       -2378.563          42.000                                                                  
C10  39197761.013   204113027.576         750.972          39.000    39197747.438   157833149.859         580.722          44.000  
G08  24309712.230   127748415.282        3621.009          36.000    24309715.224    99544259.038        2821.443          38.000  
G29  25180445.080   132324122.943       -3529.774          34.000    25180433.066   103109664.328       -2750.851          35.000  
C30  25241923.570   131441357.175        2770.504          40.000                                                                  
C13                                                                  40671066.209   163765479.013       -1884.677          37.000  
C08                                                                  41589467.199   167463543.145       -1838.905          41.000  
> 2025 11 03 07 39 48.4000000  0 27                     
G04  21441212.606   112674341.288        1242.031          44.000    21441201.630    87798135.173         967.749          46.000  
G16  20198254.264   106142550.369         286.880          46.000                                                                  
G28  22969781.414   120707009.354       -2640.730          42.000    22969771.363    94057363.655       -2057.698          44.000  
G31  21031282.654   110520138.487       -1616.119          47.000    21031269.210    86119530.249       -1259.369          45.000  
G03  24451026.491   128491068.016       -2895.049          35.000    24451022.143   100122841.980       -2256.454          35.000  
G18  25214494.171   132503031.211        1422.684          34.000    25214483.300   103249100.453        1108.479          38.000  
C16  36733344.040   191280133.951          10.293          48.000    36733328.467   147909893.554           7.870          49.000  
C19  23715964.426   123495257.967       -2060.327          47.000                                                                  
C27  23642456.728   123112543.349        1225.309          46.000                                                                  
C06  36291095.594   188977242.236           7.756          47.000    36291075.462   146129128.486           6.093          49.000  
C09  37377537.901   194634629.061         119.983          45.000    37377520.914   150503789.046          92.684          48.000  
C22  24657304.305   128397085.274         762.585          42.000                                                                  
G26  20783313.236   109217054.955       -1880.457          48.000    20783302.986    85104154.262       -1465.363          45.000  
G27  22020989.015   115721082.080        3056.118          44.000    22020980.018    90172243.731        2381.349          43.000  
G32  25782761.672                3      -4156.355          26.000    25782779.903                3      -3238.067          26.000  
G09  23995998.141   126099823.524        2827.410          39.000    23995991.542    98259582.307        2202.804          40.000  
C28  24710296.244   128673005.758        -941.825          43.000                                                                  
C07  38070607.629   198243642.164         816.608          41.000    38070589.028   153294490.739         631.146          45.000  
C20  25437249.104   132458427.119       -3603.777          45.000                                                                  
C36  23910642.497   124508992.554        1433.515          44.000                                                                  
C37  24931807.771   129826470.047       -2378.764          42.000                                                                  
C10  39197755.234   204112997.543         750.824          39.000    39197741.674   157833126.642         580.521          44.000  
G08  24309684.676   127748270.444        3620.907          36.000    24309687.663    99544146.181        2821.300          38.000  
G29  25180471.953   132324264.098       -3529.264          34.000    25180459.933   103109774.320       -2750.219          35.000  
C30  25241902.280   131441246.369        2770.232          40.000                                                                  
C13                                                                  40671084.938   163765554.414       -1884.985          37.000  
C08                                                                  41589485.466   167463616.710       -1839.090          41.000  
> 2025 11 03 07 39 48.4400000  0 27                     
G04  21441203.180   112674291.622        1241.718          44.000    21441192.198    87798096.468         967.614          46.000  
G16  20198252.090   106142538.899         286.726          46.000                                                                  
G28  22969801.515   120707114.979       -2640.635          42.000    22969791.473    94057445.969       -2057.804          44.000  
G31  21031294.965   110520203.144       -1616.387          47.000    21031281.508    86119580.629       -1259.512          45.000  
G03  24451048.526   128491183.829       -2895.204          35.000    24451044.198   100122932.254       -2256.935          35.000  
G18  25214483.331   132502974.310        1422.470          34.000    25214472.468   103249056.107        1108.532          38.000  
C16  36733343.931   191280133.552          10.011          48.000    36733328.428   147909893.248           7.660          49.000  
C19  23715980.222   123495340.388       -2060.541          47.000                                                                  
C27  23642447.308   123112494.343        1225.144          46.000                                                                  
C06  36291095.536   188977241.926           7.694          47.000    36291075.395   146129128.249           5.927          49.000  
C09  37377537.001   194634624.273         119.727          45.000    37377520.005   150503785.344          92.546          48.000  
C22  24657298.449   128397054.779         762.444          42.000                                                                  
G26  20783327.564   109217130.182       -1880.633          48.000    20783317.300    85104212.876       -1465.393          45.000  
G27  22020965.762   115720959.840        3055.978          44.000    22020956.749    90172148.487        2381.113          43.000  
G32  25782792.955                3      -4156.272          26.000    25782811.321                3      -3239.263          26.000  
G09  23995976.640   126099710.451        2827.014          39.000    23995970.025    98259494.192        2202.788          40.000  
C28  24710303.487   128673043.434        -941.982          43.000                                                                  
C07  38070601.348   198243609.524         816.155          41.000    38070582.779   153294465.497         631.042          45.000  
C20  25437276.776   132458571.278       -3603.942          45.000                                                                  
C36  23910631.477   124508935.216        1433.435          44.000                                                                  
C37  24931826.034   129826565.205       -2378.931          42.000                                                                  
C10  39197749.473   204112967.515         750.683          39.000    39197735.924   157833103.419         580.504          44.000  
G08  24309657.114   127748125.608        3620.779          36.000    24309660.116    99544033.293        2821.880          38.000  
G29  25180498.822   132324405.313       -3529.989          34.000    25180486.787   103109884.331       -2750.129          35.000  
C30  25241881.021   131441135.564        2770.095          40.000                                                                  
C13                                                                  40671103.642   163765629.807       -1884.992          37.000  
C08                                                                  41589503.746   167463690.298       -1839.588          41.000  
> 2025 11 03 07 39 48.4800000  0 27                     
G04  21441193.729   112674241.947        1241.749          44.000    21441182.743    87798057.766         967.501          46.000  
G16  20198249.904   106142527.422         286.834          46.000                                                                  
G28  22969821.633   120707220.617       -2640.837          42.000    22969811.578    94057528.272       -2057.684          44.000  
G31  21031307.263   110520267.800       -1616.508          47.000    21031293.814    86119631.009       -1259.537          45.000  
G03  24451070.535   128491299.643       -2895.334          35.000    24451066.233   100123022.468       -2256.007          35.000  
G18  25214472.526   132502917.401        1422.629          34.000    25214461.641   103249011.762        1108.532          38.000  
C16  36733343.876   191280133.141          10.086          48.000    36733328.331   147909892.929           7.792          49.000  
C19  23715996.044   123495422.805       -2060.547          47.000                                                                  
C27  23642437.923   123112445.331        1225.206          47.000                                                                  
C06  36291095.485   188977241.617           7.659          47.000    36291075.333   146129128.017           5.781          49.000  
C09  37377536.086   194634619.473         119.842          45.000    37377519.085   150503781.634          92.641          48.000  
C22  24657292.585   128397024.292         762.209          42.000                                                                  
G26  20783341.876   109217205.400       -1880.554          48.000    20783331.624    85104271.495       -1465.521          45.000  
G27  22020942.499   115720837.598        3055.991          44.000    22020933.470    90172053.230        2381.270          43.000  
G32  25782824.303                3      -4158.521          26.000    25782842.813                3      -3240.044          26.000  
G09  23995955.153   126099597.378        2826.764          39.000    23995948.508    98259406.079        2202.746          40.000  
C28  24710310.727   128673081.108        -941.973          43.000                                                                  
C07  38070595.055   198243576.876         816.136          41.000    38070576.512   153294440.245         631.170          45.000  
C20  25437304.475   132458715.436       -3604.016          45.000                                                                  
C36  23910620.471   124508877.867        1433.600          44.000                                                                  
C37  24931844.301   129826660.348       -2378.792          42.000                                                                  
C10  39197743.744   204112937.483         750.720          39.000    39197730.132   157833080.191         580.602          44.000  
G08  24309629.546   127747980.748        3621.195          36.000    24309632.549    99543920.414        2822.026          38.000  
G29  25180525.697   132324546.502       -3529.931          34.000    25180513.648   103109994.312       -2749.621          35.000  
C30  25241859.743   131441024.739        2770.374          40.000                                                                  
C13                                                                  40671122.360   163765705.189       -1884.747          37.000  
C08                                                                  41589522.019   167463763.847       -1839.067          41.000  
> 2025 11 03 07 39 48.5200000  0 27                     
G04  21441184.263   112674192.281        1241.643          44.000    21441173.300    87798019.058         967.588          46.000  
G16  20198247.712   106142515.948         286.833          46.000                                                                  
G28  22969841.728   120707326.246       -2640.760          42.000    22969831.677    94057610.592       -2057.937          44.000  
G31  21031319.572   110520332.446       -1616.365          47.000    21031306.109    86119681.373       -1259.266          45.000  
G03  24451092.587   128491415.464       -2895.519          35.000    24451088.269   100123112.668       -2255.256          35.000  
G18  25214461.698   132502860.487        1422.777          34.000    25214450.820   103248967.415        1108.645          38.000  
C16  36733343.813   191280132.725          10.248          48.000    36733328.250   147909892.598           8.100          49.000  
C19  23716011.877   123495505.208       -2060.242          47.000                                                                  
C27  23642428.538   123112396.319        1225.256          47.000                                                                  
C06  36291095.455   188977241.304           7.742          47.000    36291075.287   146129127.772           5.925          49.000  
C09  37377535.162   194634614.676         119.882          45.000    37377518.181   150503777.923          92.725          48.000  
C22  24657286.746   128396993.800         762.197          42.000                                                                  
G26  20783356.176   109217280.623       -1880.585          48.000    20783345.935    85104330.104       -1465.356          45.000  
G27  22020919.216   115720715.353        3056.038          44.000    22020910.204    90171957.969        2381.403          43.000  
G32  25782855.661                3      -4157.088          26.000    25782874.565                3      -3239.313          26.000  
G09  23995933.633   126099484.289        2827.007          39.000    23995926.985    98259317.954        2202.921          40.000  
C28  24710317.975   128673118.774        -941.777          43.000                                                                  
C07  38070588.805   198243544.224         816.189          41.000    38070570.231   153294414.985         631.408          45.000  
C20  25437332.171   132458859.593       -3604.033          45.000                                                                  
C36  23910609.446   124508820.515        1433.765          44.000                                                                  
C37  24931862.580   129826755.486       -2378.584          42.000                                                                  
C10  39197737.962   204112907.456         750.593          39.000    39197724.383   157833056.968         580.618          44.000  
G08  24309601.977   127747835.885        3621.498          36.000    24309604.982    99543807.545        2821.873          38.000  
G29  25180552.558   132324687.682       -3529.735          34.000    25180540.505   103110104.348       -2750.282          35.000  
C30  25241838.455   131440913.936        2770.135          40.000                                                                  
C13                                                                  40671141.059   163765780.587       -1884.887          37.000  
C08                                                                  41589540.300   167463837.403       -1838.920          41.000  
> 2025 11 03 07 39 48.5600000  0 27                     
G04  21441174.790   112674142.596        1241.925          44.000    21441163.838    87797980.343         967.748          46.000  
G16  20198245.505   106142504.470         286.870          46.000                                                                  
G28  22969861.832   120707431.871       -2640.653          42.000    22969851.779    94057692.899       -2057.815          44.000  
G31  21031331.881   110520397.083       -1616.110          47.000    21031318.403    86119731.744       -1259.233          45.000  
G03  24451114.619   128491531.265       -2895.177          35.000    24451110.299   100123202.905       -2255.621          35.000  
G18  25214450.884   132502803.553        1423.154          34.000    25214439.965   103248923.065        1108.713          38.000  
C16  36733343.761   191280132.298          10.552          48.000    36733328.183   147909892.269           8.231          49.000  
C19  23716027.697   123495587.607       -2059.991          47.000                                                                  
C27  23642419.122   123112347.303        1225.336          47.000                                                                  
C06  36291095.395   188977240.987           7.881          47.000    36291075.199   146129127.520           6.171          49.000  
C09  37377534.242   194634609.869         120.048          45.000    37377517.249   150503774.209          92.806          48.000  
C22  24657280.887   128396963.298         762.426          42.000                                                                  
G26  20783370.448   109217355.836       -1880.383          48.000    20783360.232    85104388.709       -1465.216          45.000  
G27  22020895.946   115720593.109        3056.091          44.000    22020886.946    90171862.714        2381.388          43.000  
G32  25782887.080                3      -4155.935          26.000    25782906.244                3      -3239.343          26.000  
G09  23995912.107   126099371.206        2827.093          39.000    23995905.464    98259229.819        2203.224          40.000  
C28  24710325.231   128673156.438        -941.641          43.000                                                                  
C07  38070582.547   198243511.572         816.253          41.000    38070563.959   153294389.724         631.517          45.000  
C20  25437359.869   132459003.742       -3603.864          45.000                                                                  
C36  23910598.478   124508763.159        1433.868          44.000                                                                  
C37  24931880.843   129826850.626       -2378.543          42.000                                                                  
C10  39197732.171   204112877.411         750.898          39.000    39197718.615   157833033.737         580.769          44.000  
G08  24309574.397   127747691.032        3621.474          36.000    24309577.411    99543694.680        2821.718          38.000  
G29  25180579.421   132324828.861       -3529.524          34.000    25180567.374   103110214.371       -2750.519          35.000  
C30  25241817.157   131440803.132        2770.049          40.000                                                                  
C13                                                                  40671159.798   163765855.982       -1884.917          37.000  
C08                                                                  41589558.560   167463910.950       -1838.756          41.000  
> 2025 11 03 07 39 48.6000000  0 27                     
G04  21441165.324   112674092.906        1242.163          44.000    21441154.366    87797941.625         967.893          46.000  
G16  20198243.337   106142492.994         286.896          46.000                                                                  
G28  22969881.930   120707537.515       -2640.956          42.000    22969871.860    94057775.213       -2057.885          44.000  
G31  21031344.174   110520461.715       -1615.893          47.000    21031330.676    86119782.108       -1259.125          45.000  
G03  24451136.644   128491647.065       -2895.021          35.000    24451132.350   100123293.161       -2256.165          35.000  
G18  25214440.038   132502746.669        1422.557          34.000    25214429.134   103248878.716        1108.702          38.000  
C16  36733343.656   191280131.879          10.578          48.000    36733328.097   147909891.948           8.138          49.000  
C19  23716043.519   123495670.015       -2060.101          47.000                                                                  
C27  23642409.725   123112298.286        1225.409          47.000                                                                  
C06  36291095.351   188977240.661           8.080          47.000    36291075.146   146129127.273           6.208          49.000  
C09  37377533.323   194634605.066         120.083          45.000    37377516.346   150503770.491          92.907          48.000  
C22  24657275.020   128396932.792         762.556          42.000                                                                  
G26  20783384.746   109217431.052       -1880.383          48.000    20783374.528    85104447.321       -1465.271          45.000  
G27  22020872.688   115720470.867        3056.037          44.000    22020863.679    90171767.456        2381.414          43.000  
G32  25782918.531                3      -4157.031          26.000    25782937.791                3      -3238.845          26.000  
G09  23995890.582   126099258.107        2827.361          39.000    23995883.957    98259141.709        2202.928          40.000  
C28  24710332.472   128673194.102        -941.575          43.000                                                                  
C07  38070576.266   198243478.902         816.578          41.000    38070557.666   153294364.471         631.427          45.000  
C20  25437387.557   132459147.885       -3603.681          45.000                                                                  
C36  23910587.465   124508705.811        1433.740          44.000                                                                  
C37  24931899.115   129826945.759       -2378.385          42.000                                                                  
C10  39197726.417   204112847.387         750.745          39.000    39197712.834   157833010.510         580.713          44.000  
G08  24309546.829   127747546.172        3621.505          36.000    24309549.836    99543581.810        2821.700          38.000  
G29  25180606.303   132324970.043       -3529.394          34.000    25180594.230   103110324.381       -2750.321          35.000  
C30  25241795.860   131440692.306        2770.411          40.000                                                                  
C13                                                                  40671178.523   163765931.374       -1884.891          37.000  
C08                                                                  41589576.848   167463984.511       -1838.960          41.000  
> 2025 11 03 07 39 48.6400000  0 27                     
G04  21441155.854   112674043.234        1241.930          44.000    21441144.926    87797902.918         967.763          46.000  
G16  20198241.149   106142481.517         286.926          46.000                                                                  
G28  22969902.043   120707643.144       -2640.847          42.000    22969891.964    94057857.518       -2057.751          44.000  
G31  21031356.499   110520526.364       -1616.082          47.000    21031342.995    86119832.484       -1259.305          45.000  
G03  24451158.697   128491762.864       -2894.824          35.000    24451154.409   100123383.423       -2256.545          35.000  
G18  25214429.186   132502689.744        1422.894          34.000    25214418.305   103248834.361        1108.858          38.000  
C16  36733343.576   191280131.464          10.468          48.000    36733328.039   147909891.626           8.071          49.000  
C19  23716059.302   123495752.434       -2060.376          47.000                                                                  
C27  23642400.323   123112249.272        1225.360          47.000                                                                  
C06  36291095.295   188977240.341           8.063          47.000    36291075.083   146129127.025           6.210          49.000  
C09  37377532.398   194634600.260         120.145          45.000    37377515.417   150503766.785          92.757          48.000  
C22  24657269.140   128396902.299         762.388          42.000                                                                  
G26  20783399.074   109217506.273       -1880.469          48.000    20783388.862    85104505.941       -1465.424          45.000  
G27  22020849.410   115720348.616        3056.186          44.000    22020840.407    90171672.207        2381.237          43.000  
G32  25782950.378                3      -4156.656          26.000    25782969.475                3      -3238.905          26.000  
G09  23995869.042   126099145.011        2827.484          39.000    23995862.435    98259053.591        2202.920          40.000  
C28  24710339.696   128673231.782        -941.854          43.000                                                                  
C07  38070569.976   198243446.242         816.535          41.000    38070551.401   153294339.221         631.314          45.000  
C20  25437415.243   132459292.035       -3603.737          45.000                                                                  
C36  23910576.452   124508648.461        1433.728          44.000                                                                  
C37  24931917.374   129827040.909       -2378.615          42.000                                                                  
C10  39197720.663   204112817.335         751.102          39.000    39197707.078   157832987.289         580.542          44.000  
G08  24309519.260   127747401.291        3621.903          36.000    24309522.273    99543468.954        2821.439          38.000  
G29  25180633.109   132325111.220       -3529.372          34.000    25180621.083   103110434.397       -2750.437          35.000  
C30  25241774.593   131440581.477        2770.656          40.000                                                                  
C13                                                                  40671197.262   163766006.739       -1884.412          37.000  
C08                                                                  41589595.106   167464058.064       -1838.892          41.000  
> 2025 11 03 07 39 48.6800000  0 27                     
G04  21441146.421   112673993.576        1241.577          44.000    21441135.485    87797864.217         967.579          46.000  
G16  20198238.962   106142470.042         286.863          46.000                                                                  
G28  22969922.127   120707748.771       -2640.747          42.000    22969912.053    94057939.826       -2057.702          44.000  
G31  21031368.813   110520591.010       -1616.141          47.000    21031355.311    86119882.863       -1259.470          45.000  
G03  24451180.707   128491878.668       -2895.031          35.000    24451176.448   100123473.677       -2256.573          35.000  
G18  25214418.360   132502632.826        1423.035          34.000    25214407.487   103248790.022        1108.549          38.000  
C16  36733343.485   191280131.059          10.183          48.000    36733327.964   147909891.313           7.875          49.000  
C19  23716075.141   123495834.856       -2060.590          47.000                                                                  
C27  23642390.913   123112200.263        1225.261          47.000                                                                  
C06  36291095.219   188977240.034           7.803          47.000    36291075.019   146129126.788           5.995          49.000  
C09  37377531.452   194634595.460         120.012          45.000    37377514.504   150503763.079          92.676          48.000  
C22  24657263.298   128396871.812         762.200          42.000                                                                  
G26  20783413.397   109217581.490       -1880.457          48.000    20783403.168    85104564.555       -1465.381          45.000  
G27  22020826.142   115720226.379        3055.997          44.000    22020817.137    90171576.960        2381.109          43.000  
G32  25782981.938                3      -4157.677          26.000    25783000.853                3      -3238.355          26.000  
G09  23995847.517   126099031.922        2827.324          39.000    23995840.911    98258965.467        2203.057          40.000  
C28  24710346.924   128673269.448        -941.792          43.000                                                                  
C07  38070563.720   198243413.587         816.434          41.000    38070545.145   153294313.978         631.114          45.000  
C20  25437442.915   132459436.193       -3603.924          45.000                                                                  
C36  23910565.429   124508591.123        1433.508          44.000                                                                  
C37  24931935.664   129827136.056       -2378.718          42.000                                                                  
C10  39197714.895   204112787.302         751.009          39.000    39197701.309   157832964.067         580.510          44.000  
G08  24309491.696   127747256.466        3621.071          37.000    24309494.691    99543356.075        2821.688          38.000  
G29  25180659.999   132325252.406       -3529.573          34.000    25180647.943   103110544.398       -2750.189          35.000  
C30  25241753.314   131440470.664        2770.470          40.000                                                                  
C13                                                                  40671215.976   163766082.104       -1884.138          37.000  
C08                                                                  41589613.366   167464131.612       -1838.788          41.000  
> 2025 11 03 07 39 48.7200000  0 27                     
G04  21441136.961   112673943.897        1241.750          44.000    21441126.042    87797825.517         967.452          46.000  
G16  20198236.769   106142458.570         286.801          46.000                                                                  
G28  22969942.214   120707854.394       -2640.597          42.000    22969932.153    94058022.139       -2057.792          44.000  
G31  21031381.128   110520655.659       -1616.261          47.000    21031367.600    86119933.243       -1259.572          45.000  
G03  24451202.754   128491994.506       -2895.686          35.000    24451198.467   100123563.859       -2255.251          35.000  
G18  25214407.542   132502575.910        1423.025          34.000    25214396.674   103248745.673        1108.611          38.000  
C16  36733343.417   191280130.642          10.274          48.000    36733327.887   147909890.989           7.978          49.000  
C19  23716090.973   123495917.267       -2060.431          47.000                                                                  
C27  23642381.503   123112151.258        1225.138          47.000                                                                  
C06  36291095.176   188977239.719           7.800          47.000    36291074.977   146129126.549           5.913          49.000  
C09  37377530.530   194634590.671         119.771          45.000    37377513.573   150503759.364          92.772          48.000  
C22  24657257.440   128396841.319         762.233          42.000                                                                  
G26  20783427.724   109217656.710       -1880.493          48.000    20783417.478    85104623.172       -1465.448          45.000  
G27  22020802.874   115720104.123        3056.244          44.000    22020793.866    90171481.698        2381.313          43.000  
G32  25783013.375                3      -4157.162          26.000    25783032.673                3      -3238.830          26.000  
G09  23995826.016   126098918.850        2826.988          39.000    23995819.399    98258877.342        2203.150          40.000  
C28  24710354.156   128673307.110        -941.640          43.000                                                                  
C07  38070557.438   198243380.927         816.453          41.000    38070538.908   153294288.732         631.098          45.000  
C20  25437470.603   132459580.341       -3603.812          45.000                                                                  
C36  23910554.443   124508533.776        1433.563          44.000                                                                  
C37  24931953.930   129827231.202       -2378.720          42.000                                                                  
C10  39197709.148   204112757.268         750.890          39.000    39197695.527   157832940.850         580.407          44.000  
G08  24309464.127   127747111.612        3621.224          37.000    24309467.127    99543243.208        2821.646          38.000  
G29  25180686.882   132325393.572       -3529.259          34.000    25180674.825   103110654.419       -2750.399          35.000  
C30  25241732.022   131440359.824        2770.819          40.000                                                                  
C13                                                                  40671234.702   163766157.508       -1884.755          37.000  
C08                                                                  41589631.616   167464205.180       -1839.133          41.000  
> 2025 11 03 07 39 48.7600000  0 27                     
G04  21441127.515   112673894.228        1241.671          44.000    21441116.595    87797786.818         967.415          46.000  
G16  20198234.603   106142447.106         286.609          46.000                                                                  
G28  22969962.295   120707960.019       -2640.554          42.000    22969952.234    94058104.450       -2057.830          44.000  
G31  21031393.414   110520720.309       -1616.323          47.000    21031379.886    86119983.614       -1259.458          45.000  
G03  24451224.798   128492110.307       -2895.365          35.000    24451220.507   100123654.123       -2256.035          35.000  
G18  25214396.727   132502518.991        1423.026          34.000    25214385.859   103248701.335        1108.433          38.000  
C16  36733343.378   191280130.228          10.290          48.000    36733327.814   147909890.669           7.951          49.000  
C19  23716106.812   123495999.680       -2060.394          47.000                                                                  
C27  23642372.101   123112102.245        1225.225          47.000                                                                  
C06  36291095.121   188977239.406           7.756          47.000    36291074.908   146129126.309           5.891          49.000  
C09  37377529.636   194634585.871         119.826          45.000    37377512.644   150503755.649          92.829          48.000  
C22  24657251.605   128396810.831         762.150          42.000                                                                  
G26  20783442.044   109217731.931       -1880.548          48.000    20783431.782    85104681.781       -1465.326          45.000  
G27  22020779.627   115719981.880        3056.150          44.000    22020770.602    90171386.447        2381.255          43.000  
G32  25783045.094                3      -4156.141          26.000    25783064.379                3      -3238.836          26.000  
G09  23995804.518   126098805.780        2826.708          39.000    23995797.884    98258789.229        2203.009          40.000  
C28  24710361.385   128673344.794        -941.957          43.000                                                                  
C07  38070551.164   198243348.276         816.271          41.000    38070532.628   153294263.479         631.213          45.000  
C20  25437498.284   132459724.492       -3603.798          45.000                                                                  
C36  23910543.452   124508476.420        1433.783          44.000                                                                  
C37  24931972.180   129827326.343       -2378.650          42.000                                                                  
C10  39197703.373   204112727.230         750.889          39.000    39197689.748   157832917.618         580.610          44.000  
G08  24309436.563   127746966.775        3620.992          37.000    24309439.551    99543130.330        2821.831          38.000  
G29  25180713.721   132325534.757       -3529.534          34.000    25180701.705   103110764.441       -2750.469          35.000  
C30  25241710.736   131440249.012        2770.541          40.000                                                                  
C13                                                                  40671253.436   163766232.888       -1884.656          37.000  
C08                                                                  41589649.882   167464278.740       -1839.120          41.000  
> 2025 11 03 07 39 48.8000000  0 27                     
G04  21441118.080   112673844.558        1241.663          44.000    21441107.127    87797748.112         967.511          46.000  
G16  20198232.391   106142435.640         286.568          46.000                                                                  
G28  22969982.387   120708065.660       -2640.799          42.000    22969972.330    94058186.761       -2057.815          44.000  
G31  21031405.699   110520784.956       -1616.320          47.000    21031392.185    86120033.991       -1259.463          45.000  
G03  24451246.847   128492226.150       -2896.001          35.000    24451242.552   100123744.370       -2256.238          35.000  
G18  25214385.872   132502462.102        1422.339          34.000    25214375.032   103248656.994        1108.519          38.000  
C16  36733343.296   191280129.823          10.128          48.000    36733327.734   147909890.356           7.788          49.000  
C19  23716122.618   123496082.098       -2060.461          47.000                                                                  
C27  23642362.679   123112053.238        1225.163          47.000                                                                  
C06  36291095.049   188977239.097           7.687          47.000    36291074.855   146129126.069           5.916          49.000  
C09  37377528.716   194634581.071         119.906          45.000    37377511.720   150503751.937          92.782          48.000  
C22  24657245.735   128396780.343         762.157          42.000                                                                  
G26  20783456.364   109217807.164       -1880.811          48.000    20783446.077    85104740.395       -1465.338          45.000  
G27  22020756.382   115719859.657        3055.697          44.000    22020747.344    90171291.202        2381.126          43.000  
G32  25783077.079                3      -4156.698          26.000    25783096.047                3      -3240.591          26.000  
G09  23995783.006   126098692.691        2826.956          39.000    23995776.378    98258701.126        2202.680          40.000  
C28  24710368.623   128673382.477        -942.135          43.000                                                                  
C07  38070544.890   198243315.627         816.191          41.000    38070526.330   153294238.229         631.244          45.000  
C20  25437525.967   132459868.646       -3603.837          45.000                                                                  
C36  23910532.425   124508419.075        1433.685          44.000                                                                  
C37  24931990.429   129827421.485       -2378.596          42.000                                                                  
C10  39197697.606   204112697.197         750.803          39.000    39197683.973   157832894.396         580.568          44.000  
G08  24309409.012   127746821.919        3621.230          37.000    24309411.990    99543017.459        2821.793          38.000  
G29  25180740.575   132325675.952       -3529.855          34.000    25180728.580   103110874.459       -2750.488          35.000  
C30  25241689.445   131440138.207        2770.248          40.000                                                                  
C13                                                                  40671272.149   163766308.285       -1884.954          37.000  
C08                                                                  41589668.166   167464352.307       -1839.187          41.000  
> 2025 11 03 07 39 48.8400000  0 27                     
G04  21441108.619   112673794.896        1241.526          44.000    21441097.675    87797709.418         967.345          46.000  
G16  20198230.208   106142424.176         286.525          46.000                                                                  
G28  22970002.483   120708171.313       -2641.155          42.000    22969992.408    94058269.078       -2057.921          44.000  
G31  21031418.004   110520849.623       -1616.634          47.000    21031404.472    86120084.367       -1259.469          45.000  
G03  24451268.891   128492341.970       -2895.728          35.000    24451264.589   100123834.618       -2256.422          35.000  
G18  25214375.050   132502405.197        1422.365          34.000    25214364.202   103248612.661        1108.372          38.000  
C16  36733343.200   191280129.416          10.092          48.000    36733327.692   147909890.041           7.786          49.000  
C19  23716138.423   123496164.531       -2060.767          47.000                                                                  
C27  23642353.256   123112004.245        1224.874          47.000                                                                  
C06  36291095.003   188977238.791           7.593          47.000    36291074.800   146129125.830           5.912          49.000  
C09  37377527.790   194634576.283         119.781          45.000    37377510.806   150503748.234          92.589          48.000  
C22  24657239.895   128396749.860         762.038          42.000                                                                  
G26  20783470.675   109217882.393       -1880.817          48.000    20783460.397    85104799.015       -1465.448          45.000  
G27  22020733.118   115719737.427        3055.603          44.000    22020724.080    90171195.953        2381.102          43.000  
G32  25783108.842                3      -4157.101          26.000    25783127.618                3      -3239.692          26.000  
G09  23995761.496   126098579.616        2826.893          39.000    23995754.862    98258613.011        2202.722          40.000  
C28  24710375.877   128673420.160        -942.197          43.000                                                                  
C07  38070538.638   198243282.992         815.898          41.000    38070520.067   153294212.984         631.168          45.000  
C20  25437553.649   132460012.809       -3604.042          45.000                                                                  
C36  23910521.389   124508361.742        1433.392          44.000                                                                  
C37  24932008.723   129827516.642       -2378.856          42.000                                                                  
C10  39197691.828   204112667.162         750.805          39.000    39197678.210   157832871.170         580.636          44.000  
G08  24309381.461   127746677.083        3620.941          37.000    24309384.435    99542904.615        2821.251          38.000  
G29  25180767.436   132325817.143       -3529.896          34.000    25180755.435   103110984.475       -2750.477          35.000  
C30  25241668.162   131440027.414        2769.870          40.000                                                                  
C13                                                                  40671290.874   163766383.684       -1885.095          37.000  
C08                                                                  41589686.432   167464425.867       -1839.062          41.000  
> 2025 11 03 07 39 48.8800000  0 27                     
G04  21441099.162   112673745.241        1241.368          44.000    21441088.226    87797670.715         967.450          46.000  
G16  20198228.008   106142412.716         286.470          46.000                                                                  
G28  22970022.603   120708276.958       -2641.169          42.000    22970012.505    94058351.399       -2058.007          44.000  
G31  21031430.292   110520914.285       -1616.694          47.000    21031416.784    86120134.752       -1259.588          45.000  
G03  24451290.942   128492457.802       -2895.831          35.000    24451286.635   100123924.878       -2256.616          35.000  
G18  25214364.211   132502348.317        1421.961          34.000    25214353.376   103248568.328        1108.282          38.000  
C16  36733343.116   191280129.003          10.180          48.000    36733327.610   147909889.726           7.812          49.000  
C19  23716154.256   123496246.959       -2060.828          47.000                                                                  
C27  23642343.852   123111955.244        1224.863          47.000                                                                  
C06  36291094.972   188977238.480           7.692          47.000    36291074.756   146129125.591           5.906          49.000  
C09  37377526.860   194634571.489         119.782          45.000    37377509.896   150503744.530          92.544          48.000  
C22  24657234.083   128396719.367         762.220          42.000                                                                  
G26  20783484.994   109217957.626       -1880.890          48.000    20783474.717    85104857.636       -1465.564          45.000  
G27  22020709.857   115719615.203        3055.528          44.000    22020700.842    90171100.708        2381.048          43.000  
G32  25783139.869                3      -4156.629          26.000    25783159.271                3      -3238.218          26.000  
G09  23995739.992   126098466.533        2826.988          39.000    23995733.347    98258524.898        2202.733          40.000  
C28  24710383.135   128673457.855        -942.398          43.000                                                                  
C07  38070532.366   198243250.348         815.883          41.000    38070513.817   153294187.739         631.112          45.000  
C20  25437581.326   132460156.973       -3604.119          45.000                                                                  
C36  23910510.367   124508304.403        1433.380          44.000                                                                  
C37  24932027.019   129827611.805       -2379.070          42.000                                                                  
C10  39197686.056   204112637.153         750.381          39.000    39197672.431   157832847.958         580.401          44.000  
G08  24309353.889   127746532.235        3621.005          37.000    24309356.870    99542791.743        2821.519          38.000  
G29  25180794.314   132325958.370       -3530.485          34.000    25180782.339   103111094.497       -2750.490          35.000  
C30  25241646.907   131439916.613        2769.820          40.000                                                                  
C13                                                                  40671309.592   163766459.076       -1885.000          37.000  
C08                                                                  41589704.709   167464499.431       -1839.094          41.000  
> 2025 11 03 07 39 48.9200000  0 27                     
G04  21441089.710   112673695.580        1241.390          44.000    21441078.774    87797632.018         967.411          46.000  
G16  20198225.823   106142401.252         286.490          46.000                                                                  
G28  22970042.702   120708382.602       -2641.141          42.000    22970032.615    94058433.725       -2058.143          44.000  
G31  21031442.590   110520978.937       -1616.518          47.000    21031429.091    86120185.127       -1259.489          45.000  
G03  24451313.011   128492573.599       -2895.182          35.000    24451308.678   100124015.150       -2256.962          35.000  
G18  25214353.393   132502291.390        1422.719          34.000    25214342.540   103248523.975        1108.592          38.000  
C16  36733343.053   191280128.593          10.207          48.000    36733327.586   147909889.411           7.853          49.000  
C19  23716170.097   123496329.384       -2060.748          47.000                                                                  
C27  23642334.439   123111906.245        1224.895          47.000                                                                  
C06  36291094.929   188977238.169           7.740          47.000    36291074.715   146129125.351           5.940          49.000  
C09  37377525.958   194634566.687         119.910          45.000    37377508.959   150503740.825          92.573          48.000  
C22  24657228.239   128396688.898         761.902          42.000                                                                  
G26  20783499.288   109218032.851       -1880.762          48.000    20783489.037    85104916.261       -1465.674          45.000  
G27  22020686.578   115719492.968        3055.683          44.000    22020677.578    90171005.458        2381.143          43.000  
G32  25783171.318                3      -4156.938          26.000    25783190.906                3      -3238.881          26.000  
G09  23995718.484   126098353.457        2826.914          39.000    23995711.845    98258436.794        2202.574          40.000  
C28  24710390.391   128673495.526        -942.072          43.000                                                                  
C07  38070526.110   198243217.701         816.025          41.000    38070507.558   153294162.497         631.037          45.000  
C20  25437609.021   132460301.128       -3604.014          45.000                                                                  
C36  23910499.349   124508247.066        1433.368          44.000                                                                  
C37  24932045.317   129827706.960       -2379.003          42.000                                                                  
C10  39197680.284   204112607.116         750.676          39.000    39197666.668   157832824.738         580.384          44.000  
G08  24309326.336   127746387.406        3620.781          36.000    24309329.310    99542678.873        2821.653          38.000  
G29  25180821.174   132326099.539       -3529.659          34.000    25180809.184   103111204.513       -2750.391          35.000  
C30  25241625.635   131439805.805        2769.994          40.000                                                                  
C13                                                                  40671328.317   163766534.476       -1885.087          37.000  
C08                                                                  41589722.976   167464572.990       -1839.045          41.000  
> 2025 11 03 07 39 48.9600000  0 27                     
G04  21441080.220   112673645.910        1241.586          44.000    21441069.319    87797593.320         967.419          46.000  
G16  20198223.640   106142389.796         286.391          46.000                                                                  
G28  22970062.803   120708488.229       -2640.801          42.000    22970052.697    94058516.035       -2057.889          44.000  
G31  21031454.900   110521043.580       -1616.247          47.000    21031441.386    86120235.505       -1259.468          45.000  
G03  24451335.057   128492689.409       -2895.107          35.000    24451330.717   100124105.383       -2256.371          35.000  
G18  25214342.561   132502234.490        1422.596          34.000    25214331.701   103248479.624        1108.756          38.000  
C16  36733342.946   191280128.178          10.291          48.000    36733327.522   147909889.087           7.996          49.000  
C19  23716185.928   123496411.805       -2060.608          47.000                                                                  
C27  23642325.035   123111857.240        1225.024          47.000                                                                  
C06  36291094.878   188977237.856           7.810          47.000    36291074.660   146129125.107           6.045          49.000  
C09  37377525.046   194634561.888         120.000          45.000    37377508.022   150503737.113          92.715          48.000  
C22  24657222.370   128396658.419         761.833          42.000                                                                  
G26  20783513.587   109218108.071       -1880.573          48.000    20783503.336    85104974.881       -1465.588          45.000  
G27  22020663.300   115719370.717        3056.077          44.000    22020654.312    90170910.213        2381.150          43.000  
G32  25783203.231                3      -4157.958          26.000    25783222.548                3      -3239.281          26.000  
G09  23995696.972   126098240.393        2826.684          39.000    23995690.299    98258348.684        2202.580          40.000  
C28  24710397.604   128673533.203        -941.961          43.000                                                                  
C07  38070519.821   198243185.040         816.338          41.000    38070501.298   153294137.249         631.088          45.000  
C20  25437636.738   132460445.281       -3603.897          45.000                                                                  
C36  23910488.350   124508189.730        1433.344          44.000                                                                  
C37  24932063.589   129827802.095       -2378.586          42.000                                                                  
C10  39197674.514   204112577.092         750.715          39.000    39197660.905   157832801.503         580.709          44.000  
G08  24309298.766   127746242.552        3621.091          37.000    24309301.743    99542566.011        2821.599          38.000  
G29  25180848.055   132326240.730       -3529.698          34.000    25180836.060   103111314.525       -2750.222          35.000  
C30  25241604.353   131439694.983        2770.334          40.000                                                                  
C13                                                                  40671347.016   163766609.859       -1884.786          37.000  
C08                                                                  41589741.227   167464646.546       -1838.952          41.000  
> 2025 11 03 07 39 49.0000000  0 27                     
G04  21441070.786   112673596.248        1241.555          44.000    21441059.860    87797554.620         967.433          46.000  
G16  20198221.462   106142378.328         286.560          46.000                                                                  
G28  22970082.887   120708593.861       -2640.697          42.000    22970072.796    94058598.348       -2057.874          44.000  
G31  21031467.186   110521108.224       -1616.130          47.000    21031453.686    86120285.880       -1259.419          45.000  
G03  24451357.110   128492805.220       -2895.170          35.000    24451352.737   100124195.624       -2256.118          35.000  
G18  25214331.737   132502177.588        1422.603          34.000    25214320.880   103248435.280        1108.674          38.000  
C16  36733342.832   191280127.769          10.244          48.000    36733327.463   147909888.766           8.023          49.000  
C19  23716201.762   123496494.219       -2060.400          47.000                                                                  
C27  23642315.649   123111808.228        1225.215          47.000                                                                  
C06  36291094.806   188977237.537           7.925          47.000    36291074.583   146129124.858           6.152          49.000  
C09  37377524.145   194634557.092         119.973          45.000    37377507.092   150503733.396          92.860          48.000  
C22  24657216.529   128396627.940         761.844          42.000                                                                  
G26  20783527.884   109218183.296       -1880.603          48.000    20783517.639    85105033.488       -1465.314          45.000  
G27  22020640.042   115719248.483        3055.960          44.000    22020631.042    90170814.966        2381.122          43.000  
G32  25783234.680                3      -4156.708          26.000    25783254.183                3      -3239.154          26.000  
G09  23995675.451   126098127.312        2826.858          39.000    23995668.791    98258260.570        2202.646          40.000  
C28  24710404.847   128673570.870        -941.745          43.000                                                                  
C07  38070513.545   198243152.378         816.562          41.000    38070495.034   153294112.003         631.121          45.000  
C20  25437664.444   132460589.432       -3603.784          45.000                                                                  
C36  23910477.340   124508132.376        1433.679          44.000                                                                  
C37  24932081.856   129827897.233       -2378.432          42.000                                                                  
C10  39197668.736   204112547.038         751.116          39.000    39197655.116   157832778.280         580.650          44.000  
G08  24309271.194   127746097.711        3621.056          37.000    24309274.169    99542453.141        2821.674          38.000  
G29  25180874.895   132326381.912       -3529.587          34.000    25180862.920   103111424.538       -2750.360          35.000  
C30  25241583.078   131439584.154        2770.663          40.000                                                                  
C13                                                                  40671365.736   163766685.234       -1884.506          37.000  
C08                                                                  41589759.507   167464720.095       -1838.805          41.000  
> 2025 11 03 07 39 49.0400000  0 26                     
G04  21441061.338   112673546.585        1241.548          44.000    21441050.417    87797515.926         967.354          46.000  
G16  20198219.267   106142366.862         286.628          46.000                                                                  
G28  22970102.974   120708699.507       -2640.951          42.000    22970092.933    94058680.665       -2057.950          44.000  
G31  21031479.495   110521172.874       -1616.193          47.000    21031465.982    86120336.259       -1259.481          45.000  
G03  24451379.177   128492921.031       -2895.142          35.000    24451374.763   100124285.834       -2255.598          35.000  
G18  25214320.916   132502120.707        1422.191          34.000    25214310.061   103248390.945        1108.448          38.000  
C16  36733342.743   191280127.359          10.231          48.000    36733327.398   147909888.445           8.019          49.000  
C19  23716217.588   123496576.639       -2060.449          47.000                                                                  
C27  23642306.248   123111759.230        1225.042          47.000                                                                  
C06  36291094.726   188977237.229           7.760          47.000    36291074.522   146129124.621           6.010          49.000  
C09  37377523.207   194634552.292         120.003          45.000    37377506.164   150503729.684          92.816          48.000  
C22  24657210.676   128396597.451         762.049          42.000                                                                  
G26  20783542.217   109218258.523       -1880.658          48.000    20783531.954    85105092.105       -1465.405          45.000  
G27  22020616.776   115719126.250        3055.840          44.000    22020607.787    90170719.716        2381.181          43.000  
G09  23995653.924   126098014.225        2827.069          39.000    23995647.269    98258172.452        2202.797          40.000  
C28  24710412.050   128673608.547        -941.832          43.000                                                                  
C07  38070507.283   198243119.719         816.564          41.000    38070488.746   153294086.749         631.277          45.000  
C20  25437692.124   132460733.589       -3603.871          45.000                                                                  
C36  23910466.322   124508075.027        1433.710          44.000                                                                  
C37  24932100.127   129827992.378       -2378.510          42.000                                                                  
C10  39197662.968   204112517.017         750.733          39.000    39197649.372   157832755.053         580.680          44.000  
G08  24309243.629   127745952.822        3621.869          37.000    24309246.608    99542340.274        2821.680          38.000  
G29  25180901.740   132326523.102       -3529.607          34.000    25180889.815   103111534.578       -2750.856          35.000  
C30  25241561.776   131439473.337        2770.556          40.000                                                                  
C13                                                                  40671384.467   163766760.615       -1884.505          37.000  
C08                                                                  41589777.754   167464793.644       -1838.769          41.000  
> 2025 11 03 07 39 49.0800000  0 26                     
G04  21441051.878   112673496.922        1241.526          44.000    21441040.950    87797477.231         967.345          46.000  
G16  20198217.085   106142355.402         286.533          46.000                                                                  
G28  22970123.079   120708805.148       -2641.013          42.000    22970113.035    94058762.982       -2057.981          44.000  
G31  21031491.793   110521237.534       -1616.421          47.000    21031478.298    86120386.658       -1259.873          45.000  
G03  24451401.215   128493036.864       -2895.688          35.000    24451396.814   100124376.094       -2256.178          35.000  
G18  25214310.113   132502063.786        1422.671          34.000    25214299.246   103248346.609        1108.368          38.000  
C16  36733342.678   191280126.945          10.303          48.000    36733327.338   147909888.130           7.893          49.000  
C19  23716233.391   123496659.067       -2060.638          47.000                                                                  
C27  23642296.830   123111710.230        1224.993          47.000                                                                  
C06  36291094.678   188977236.924           7.631          47.000    36291074.474   146129124.386           5.873          49.000  
C09  37377522.302   194634547.498         119.887          45.000    37377505.258   150503725.984          92.591          48.000  
C22  24657204.832   128396566.967         762.073          42.000                                                                  
G26  20783556.542   109218333.760       -1880.884          48.000    20783546.286    85105150.733       -1465.656          45.000  
G27  22020593.518   115719004.015        3055.814          44.000    22020584.501    90170624.468        2381.193          43.000  
G09  23995632.406   126097901.147        2826.973          39.000    23995625.758    98258084.344        2202.744          40.000  
C28  24710419.288   128673646.242        -942.198          43.000                                                                  
C07  38070501.035   198243087.084         816.084          41.000    38070482.454   153294061.505         631.143          45.000  
C20  25437719.808   132460877.748       -3603.989          45.000                                                                  
C36  23910455.304   124508017.685        1433.637          44.000                                                                  
C37  24932118.379   129828087.531       -2378.694          42.000                                                                  
C10  39197657.191   204112486.975         750.839          39.000    39197643.609   157832731.840         580.445          44.000  
G08  24309216.074   127745807.973        3621.533          37.000    24309219.051    99542227.409        2821.588          38.000  
G29  25180928.645   132326664.312       -3530.036          34.000    25180916.690   103111644.595       -2750.711          35.000  
C30  25241540.490   131439362.538        2770.182          40.000                                                                  
C13                                                                  40671403.183   163766835.992       -1884.445          37.000  
C08                                                                  41589796.027   167464867.207       -1838.973          41.000  
> 2025 11 03 07 39 49.1200000  0 26                     
G04  21441042.409   112673447.264        1241.449          44.000    21441031.510    87797438.535         967.339          46.000  
G16  20198214.915   106142343.942         286.465          46.000                                                                  
G28  22970143.160   120708910.794       -2641.099          42.000    22970133.137    94058845.294       -2057.848          44.000  
G31  21031504.106   110521302.194       -1616.541          47.000    21031490.597    86120437.034       -1259.680          45.000  
G03  24451423.257   128493152.678       -2895.719          35.000    24451418.850   100124466.350       -2256.392          35.000  
G18  25214299.248   132502006.894        1422.368          34.000    25214288.423   103248302.284        1108.076          38.000  
C16  36733342.572   191280126.535          10.277          48.000    36733327.270   147909887.818           7.785          49.000  
C19  23716249.207   123496741.493       -2060.681          47.000                                                                  
C27  23642287.450   123111661.230        1224.962          47.000                                                                  
C06  36291094.642   188977236.614           7.655          47.000    36291074.413   146129124.142           5.997          49.000  
C09  37377521.368   194634542.700         119.887          45.000    37377504.349   150503722.269          92.729          48.000  
C22  24657198.977   128396536.483         762.056          42.000                                                                  
G26  20783570.875   109218408.991       -1880.859          48.000    20783560.604    85105209.352       -1465.607          45.000  
G27  22020570.272   115718881.789        3055.696          44.000    22020561.247    90170529.222        2381.148          43.000  
G09  23995610.889   126097788.076        2826.849          39.000    23995604.222    98257996.245        2202.508          40.000  
C28  24710426.520   128673683.939        -942.451          43.000                                                                  
C07  38070494.738   198243054.439         815.960          41.000    38070476.188   153294036.254         631.232          45.000  
C20  25437747.475   132461021.903       -3603.947          45.000                                                                  
C36  23910444.278   124507960.342        1433.539          44.000                                                                  
C37  24932136.656   129828182.684       -2378.808          42.000                                                                  
C10  39197651.439   204112456.945         750.749          39.000    39197637.819   157832708.614         580.544          44.000  
G08  24309188.503   127745663.127        3621.292          37.000    24309191.481    99542114.542        2821.617          38.000  
G29  25180955.528   132326805.494       -3529.751          34.000    25180943.596   103111754.611       -2750.558          35.000  
C30  25241519.221   131439251.728        2770.154          40.000                                                                  
C13                                                                  40671421.894   163766911.394       -1884.846          37.000  
C08                                                                  41589814.281   167464940.782       -1839.324          41.000  
> 2025 11 03 07 39 49.1600000  0 26                     
G04  21441032.968   112673397.608        1241.345          44.000    21441022.059    87797399.837         967.391          46.000  
G16  20198212.729   106142332.478         286.509          46.000                                                                  
G28  22970163.265   120709016.435       -2641.047          42.000    22970153.227    94058927.604       -2057.768          44.000  
G31  21031516.391   110521366.854       -1616.602          47.000    21031502.880    86120487.404       -1259.377          45.000  
G03  24451445.324   128493268.504       -2895.869          35.000    24451440.892   100124556.609       -2256.500          35.000  
G18  25214288.433   132501949.984        1422.544          34.000    25214277.605   103248257.963        1107.890          38.000  
C16  36733342.499   191280126.125          10.243          48.000    36733327.223   147909887.500           7.841          49.000  
C19  23716265.053   123496823.920       -2060.736          47.000                                                                  
C27  23642278.034   123111612.234        1224.876          47.000                                                                  
C06  36291094.582   188977236.296           7.828          47.000    36291074.363   146129123.901           6.003          49.000  
C09  37377520.437   194634537.900         119.911          45.000    37377503.439   150503718.559          92.728          48.000  
C22  24657193.090   128396506.006         761.931          42.000                                                                  
G26  20783585.173   109218484.214       -1880.652          48.000    20783574.907    85105267.968       -1465.479          45.000  
G27  22020547.002   115718759.556        3055.711          44.000    22020537.979    90170433.982        2381.018          43.000  
G09  23995589.371   126097674.994        2826.987          39.000    23995582.672    98257908.104        2203.182          40.000  
C28  24710433.770   128673721.615        -942.152          43.000                                                                  
C07  38070488.470   198243021.787         816.116          41.000    38070469.899   153294011.011         631.118          45.000  
C20  25437775.174   132461166.062       -3603.991          45.000                                                                  
C36  23910433.261   124507903.007        1433.392          44.000                                                                  
C37  24932154.943   129828277.824       -2378.615          42.000                                                                  
C10  39197645.671   204112426.927         750.495          39.000    39197632.058   157832685.391         580.535          44.000  
G08  24309160.948   127745518.301        3620.756          37.000    24309163.912    99542001.666        2821.775          38.000  
G29  25180982.358   132326946.718       -3530.318          34.000    25180970.463   103111864.646       -2750.784          35.000  
C30  25241497.941   131439140.918        2770.165          40.000                                                                  
C13                                                                  40671440.620   163766986.793       -1884.973          37.000  
C08                                                                  41589832.573   167465014.349       -1839.390          41.000  
> 2025 11 03 07 39 49.2000000  0 26                     
G04  21441023.518   112673347.956        1241.237          44.000    21441012.599    87797361.140         967.384          46.000  
G16  20198210.573   106142321.021         286.397          46.000                                                                  
G28  22970183.351   120709122.068       -2640.891          42.000    22970173.346    94059009.928       -2058.002          44.000  
G31  21031528.685   110521431.510       -1616.556          47.000    21031515.182    86120537.779       -1259.340          45.000  
G03  24451467.365   128493384.343       -2896.049          35.000    24451462.924   100124646.848       -2256.167          35.000  
G18  25214277.627   132501893.071        1422.703          34.000    25214266.786   103248213.616        1108.369          38.000  
C16  36733342.413   191280125.713          10.277          48.000    36733327.149   147909887.176           7.965          49.000  
C19  23716280.898   123496906.349       -2060.767          47.000                                                                  
C27  23642268.616   123111563.238        1224.846          47.000                                                                  
C06  36291094.535   188977235.979           7.898          47.000    36291074.299   146129123.661           5.975          49.000  
C09  37377519.500   194634533.104         119.853          45.000    37377502.519   150503714.851          92.663          48.000  
C22  24657187.237   128396475.528         761.918          42.000                                                                  
G26  20783599.490   109218559.442       -1880.688          48.000    20783589.213    85105326.587       -1465.491          45.000  
G27  22020523.740   115718637.333        3055.570          44.000    22020514.722    90170338.734        2381.105          43.000  
G09  23995567.859   126097561.923        2826.859          39.000    23995561.157    98257820.019        2202.512          40.000  
C28  24710441.007   128673759.297        -942.088          43.000                                                                  
C07  38070482.226   198242989.136         816.243          41.000    38070463.636   153293985.768         631.069          45.000  
C20  25437802.853   132461310.216       -3603.955          45.000                                                                  
C36  23910422.266   124507845.666        1433.435          44.000                                                                  
C37  24932173.193   129828372.982       -2378.872          42.000                                                                  
C10  39197639.893   204112396.901         750.516          39.000    39197626.279   157832662.160         580.712          44.000  
G08  24309133.396   127745373.474        3620.553          37.000    24309136.361    99541888.814        2821.452          38.000  
G29  25181009.213   132327087.884       -3529.579          34.000    25180997.294   103111974.648       -2750.452          35.000  
C30  25241476.660   131439030.102        2770.287          40.000                                                                  
C13                                                                  40671459.346   163767062.187       -1884.929          37.000  
C08                                                                  41589850.825   167465087.896       -1838.945          41.000  
> 2025 11 03 07 39 49.2400000  0 26                     
G04  21441014.084   112673298.302        1241.244          44.000    21441003.162    87797322.450         967.272          46.000  
G16  20198208.412   106142309.569         286.281          46.000                                                                  
G28  22970203.443   120709227.713       -2640.997          42.000    22970193.458    94059092.247       -2058.011          44.000  
G31  21031541.000   110521496.171       -1616.573          47.000    21031527.488    86120588.176       -1259.716          45.000  
G03  24451489.393   128493500.135       -2895.306          35.000    24451484.970   100124737.124       -2256.737          35.000  
G18  25214266.817   132501836.187        1422.230          34.000    25214255.973   103248169.268        1108.660          38.000  
C16  36733342.331   191280125.301          10.269          48.000    36733327.085   147909886.862           7.871          49.000  
C19  23716296.736   123496988.782       -2060.840          47.000                                                                  
C27  23642259.216   123111514.242        1224.859          47.000                                                                  
C06  36291094.478   188977235.670           7.767          47.000    36291074.250   146129123.418           6.008          49.000  
C09  37377518.585   194634528.316         119.707          45.000    37377501.624   150503711.145          92.599          48.000  
C22  24657181.405   128396445.046         761.993          42.000                                                                  
G26  20783613.824   109218634.676       -1880.829          48.000    20783603.537    85105385.209       -1465.546          45.000  
G27  22020500.486   115718515.097        3055.701          44.000    22020491.458    90170243.491        2381.041          43.000  
G09  23995546.352   126097448.859        2826.626          39.000    23995539.634    98257731.899        2202.732          40.000  
C28  24710448.238   128673796.992        -942.306          43.000                                                                  
C07  38070475.951   198242956.481         816.336          41.000    38070457.382   153293960.529         630.970          45.000  
C20  25437830.560   132461454.372       -3603.928          45.000                                                                  
C36  23910411.277   124507788.320        1433.576          44.000                                                                  
C37  24932191.463   129828468.133       -2378.841          42.000                                                                  
C10  39197634.121   204112366.869         750.590          39.000    39197620.489   157832638.947         580.494          44.000  
G08  24309105.847   127745228.638        3620.741          37.000    24309108.805    99541775.962        2821.294          38.000  
G29  25181036.063   132327229.077       -3529.688          34.000    25181024.194   103112084.674       -2750.526          35.000  
C30  25241455.357   131438919.300        2770.100          40.000                                                                  
C13                                                                  40671478.083   163767137.567       -1884.676          37.000  
C08                                                                  41589869.105   167465161.459       -1839.045          41.000  
> 2025 11 03 07 39 49.2800000  0 26                     
G04  21441004.646   112673248.646        1241.302          44.000    21440993.715    87797283.759         967.228          46.000  
G16  20198206.232   106142298.106         286.437          46.000                                                                  
G28  22970223.523   120709333.341       -2640.746          42.000    22970213.547    94059174.565       -2058.011          44.000  
G31  21031553.306   110521560.826       -1616.476          47.000    21031539.786    86120638.564       -1259.762          45.000  
G03  24451511.430   128493615.960       -2895.563          35.000    24451507.008   100124827.347       -2256.053          35.000  
G18  25214255.975   132501779.269        1422.622          34.000    25214245.126   103248124.927        1108.585          38.000  
C16  36733342.242   191280124.886          10.314          48.000    36733327.031   147909886.542           7.931          49.000  
C19  23716312.573   123497071.206       -2060.681          47.000                                                                  
C27  23642249.828   123111465.243        1224.927          47.000                                                                  
C06  36291094.402   188977235.362           7.689          47.000    36291074.207   146129123.173           6.067          49.000  
C09  37377517.632   194634523.515         119.878          45.000    37377500.692   150503707.428          92.795          48.000  
C22  24657175.567   128396414.562         762.106          42.000                                                                  
G26  20783628.141   109218709.902       -1880.719          48.000    20783617.843    85105443.835       -1465.643          45.000  
G27  22020477.245   115718392.863        3055.800          44.000    22020468.207    90170148.240        2381.212          43.000  
G09  23995524.830   126097335.789        2826.614          39.000    23995518.128    98257643.796        2202.623          40.000  
C28  24710455.467   128673834.676        -942.225          43.000                                                                  
C07  38070469.705   198242923.832         816.316          41.000    38070451.086   153293935.278         631.154          45.000  
C20  25437858.261   132461598.517       -3603.729          45.000                                                                  
C36  23910400.273   124507730.973        1433.667          44.000                                                                  
C37  24932209.733   129828563.279       -2378.735          42.000                                                                  
C10  39197628.343   204112336.817         750.979          39.000    39197614.710   157832615.722         580.563          44.000  
G08  24309078.271   127745083.786        3621.177          37.000    24309081.244    99541663.079        2821.720          38.000  
G29  25181062.930   132327370.249       -3529.374          34.000    25181051.058   103112194.699       -2750.639          35.000  
C30  25241434.074   131438808.479        2770.387          40.000                                                                  
C13                                                                  40671496.820   163767212.935       -1884.344          37.000  
C08                                                                  41589887.360   167465235.010       -1838.854          41.000  
> 2025 11 03 07 39 49.3200000  0 26                     
G04  21440995.176   112673198.977        1241.586          44.000    21440984.291    87797245.060         967.358          46.000  
G16  20198204.036   106142286.635         286.692          46.000                                                                  
G28  22970243.604   120709438.975       -2640.788          42.000    22970233.644    94059256.875       -2057.854          44.000  
G31  21031565.606   110521625.467       -1616.178          47.000    21031552.079    86120688.942       -1259.631          45.000  
G03  24451533.455   128493731.753       -2895.023          35.000    24451529.039   100124917.584       -2255.897          35.000  
G18  25214245.190   132501722.382        1422.320          34.000    25214234.291   103248080.586        1108.591          38.000  
C16  36733342.198   191280124.465          10.456          48.000    36733326.957   147909886.210           8.179          49.000  
C19  23716328.409   123497153.627       -2060.547          47.000                                                                  
C27  23642240.409   123111416.227        1225.284          47.000                                                                  
C06  36291094.379   188977235.045           7.791          47.000    36291074.136   146129122.926           6.136          49.000  
C09  37377516.695   194634518.696         120.292          45.000    37377499.740   150503703.711          92.928          48.000  
C22  24657169.728   128396384.080         762.074          42.000                                                                  
G26  20783642.422   109218785.128       -1880.695          48.000    20783632.132    85105502.446       -1465.393          45.000  
G27  22020453.958   115718270.619        3055.997          44.000    22020444.934    90170052.990        2381.255          43.000  
G09  23995503.304   126097222.703        2826.917          39.000    23995496.612    98257555.668        2203.005          40.000  
C28  24710462.712   128673872.351        -942.002          43.000                                                                  
C07  38070463.452   198242891.178         816.307          41.000    38070444.792   153293910.016         631.422          45.000  
C20  25437885.945   132461742.667       -3603.713          45.000                                                                  
C36  23910389.263   124507673.622        1433.765          44.000                                                                  
C37  24932228.004   129828658.417       -2378.523          42.000                                                                  
C10  39197622.578   204112306.785         750.916          39.000    39197608.935   157832592.497         580.576          44.000  
G08  24309050.700   127744938.908        3621.794          37.000    24309053.670    99541550.203        2821.843          38.000  
G29  25181089.839   132327511.462       -3529.971          34.000    25181077.929   103112304.689       -2750.091          35.000  
C30  25241412.785   131438697.656        2770.563          40.000                                                                  
C13                                                                  40671515.538   163767288.318       -1884.393          37.000  
C08                                                                  41589905.607   167465308.565       -1838.848          41.000  
> 2025 11 03 07 39 49.3600000  0 26                     
G04  21440985.705   112673149.303        1241.830          44.000    21440974.829    87797206.353         967.579          46.000  
G16  20198201.864   106142275.173         286.603          46.000                                                                  
G28  22970263.692   120709544.605       -2640.739          42.000    22970253.749    94059339.184       -2057.748          44.000  
G31  21031577.901   110521690.110       -1616.079          47.000    21031564.357    86120739.308       -1259.334          45.000  
G03  24451555.498   128493847.565       -2894.988          35.000    24451551.069   100125007.812       -2255.704          35.000  
G18  25214234.360   132501665.466        1422.764          34.000    25214223.461   103248036.230        1108.764          38.000  
C16  36733342.112   191280124.038          10.627          48.000    36733326.886   147909885.880           8.256          49.000  
C19  23716344.248   123497236.037       -2060.315          47.000                                                                  
C27  23642231.016   123111367.215        1225.356          47.000                                                                  
C06  36291094.343   188977234.713           8.116          47.000    36291074.076   146129122.674           6.224          49.000  
C09  37377515.780   194634513.885         120.328          45.000    37377498.804   150503699.986          93.102          48.000  
C22  24657163.886   128396353.598         762.031          42.000                                                                  
G26  20783656.703   109218860.349       -1880.566          48.000    20783646.448    85105561.061       -1465.375          45.000  
G27  22020430.703   115718148.374        3056.106          44.000    22020421.681    90169957.734        2381.354          43.000  
G09  23995481.786   126097109.603        2827.301          39.000    23995475.089    98257467.547        2203.068          40.000  
C28  24710469.932   128673910.029        -941.955          43.000                                                                  
C07  38070457.183   198242858.514         816.475          41.000    38070438.493   153293884.757         631.532          45.000  
C20  25437913.616   132461886.818       -3603.734          45.000                                                                  
C36  23910378.223   124507616.271        1433.789          44.000                                                                  
C37  24932246.286   129828753.557       -2378.472          42.000                                                                  
C10  39197616.806   204112276.726         751.315          39.000    39197603.187   157832569.264         580.727          44.000  
G08  24309023.146   127744794.028        3621.924          36.000    24309026.120    99541437.325        2821.927          38.000  
G29  25181116.743   132327652.635       -3529.596          34.000    25181104.818   103112414.712       -2750.359          35.000  
C30  25241391.508   131438586.837        2770.564          40.000                                                                  
C13                                                                  40671534.279   163767363.707       -1884.540          37.000  
C08                                                                  41589923.881   167465382.105       -1838.590          41.000  
> 2025 11 03 07 39 49.4000000  0 26                     
G04  21440976.252   112673099.638        1241.743          44.000    21440965.383    87797167.658         967.460          46.000  
G16  20198199.691   106142263.705         286.664          46.000                                                                  
G28  22970283.781   120709650.250       -2641.037          42.000    22970273.848    94059421.496       -2057.769          44.000  
G31  21031590.228   110521754.761       -1616.194          47.000    21031576.672    86120789.678       -1259.272          45.000  
G03  24451577.507   128493963.352       -2894.761          35.000    24451573.093   100125098.052       -2255.822          35.000  
G18  25214223.507   132501608.580        1422.452          34.000    25214212.649   103247991.898        1108.460          38.000  
C16  36733342.015   191280123.615          10.647          48.000    36733326.834   147909885.556           8.199          49.000  
C19  23716360.047   123497318.456       -2060.376          47.000                                                                  
C27  23642221.594   123111318.218        1225.090          47.000                                                                  
C06  36291094.278   188977234.386           8.221          47.000    36291074.006   146129122.429           6.174          49.000  
C09  37377514.852   194634509.084         120.130          45.000    37377497.875   150503696.272          92.942          48.000  
C22  24657158.042   128396323.111         762.138          42.000                                                                  
G26  20783671.009   109218935.567       -1880.481          48.000    20783660.757    85105619.679       -1465.430          45.000  
G27  22020407.468   115718026.136        3056.017          44.000    22020398.429    90169862.488        2381.214          43.000  
G09  23995460.248   126096996.519        2827.233          39.000    23995453.556    98257379.431        2203.001          40.000  
C28  24710477.173   128673947.714        -942.051          43.000                                                                  
C07  38070450.894   198242825.855         816.467          41.000    38070432.190   153293859.510         631.302          45.000  
C20  25437941.279   132462030.969       -3603.762          45.000                                                                  
C36  23910367.202   124507558.923        1433.728          44.000                                                                  
C37  24932264.555   129828848.698       -2378.469          42.000                                                                  
C10  39197611.039   204112246.688         751.190          39.000    39197597.392   157832546.036         580.728          44.000  
G08  24308995.576   127744649.180        3621.458          36.000    24308998.553    99541324.458        2821.792          38.000  
G29  25181143.599   132327793.840       -3529.934          34.000    25181131.706   103112524.739       -2750.699          35.000  
C30  25241370.216   131438476.011        2770.676          40.000                                                                  
C13                                                                  40671552.981   163767439.089       -1884.528          37.000  
C08                                                                  41589942.178   167465455.660       -1838.777          41.000  
> 2025 11 03 07 39 49.4400000  0 26                     
G04  21440966.814   112673049.985        1241.456          44.000    21440955.952    87797128.968         967.274          46.000  
G16  20198197.526   106142252.252         286.383          46.000                                                                  
G28  22970303.909   120709755.894       -2641.114          42.000    22970293.950    94059503.814       -2057.908          44.000  
G31  21031602.548   110521819.432       -1616.628          47.000    21031588.967    86120840.064       -1259.534          45.000  
G03  24451599.559   128494079.204       -2895.723          35.000    24451595.127   100125188.309       -2256.227          35.000  
G18  25214212.696   132501551.631        1423.239          34.000    25214201.831   103247947.556        1108.470          38.000  
C16  36733341.919   191280123.200          10.479          48.000    36733326.758   147909885.237           8.035          49.000  
C19  23716375.855   123497400.887       -2060.675          47.000                                                                  
C27  23642212.194   123111269.227        1224.813          47.000                                                                  
C06  36291094.190   188977234.070           8.055          47.000    36291073.930   146129122.181           6.180          49.000  
C09  37377513.936   194634504.272         120.206          45.000    37377496.978   150503692.557          92.884          48.000  
C22  24657152.185   128396292.634         761.998          42.000                                                                  
G26  20783685.325   109219010.801       -1880.750          48.000    20783675.062    85105678.295       -1465.442          45.000  
G27  22020384.208   115717903.912        3055.720          44.000    22020375.194    90169767.250        2380.988          43.000  
G09  23995438.732   126096883.442        2827.076          39.000    23995432.054    98257291.324        2202.764          40.000  
C28  24710484.397   128673985.407        -942.287          43.000                                                                  
C07  38070444.614   198242793.202         816.359          41.000    38070425.934   153293834.259         631.226          45.000  
C20  25437968.964   132462175.117       -3603.758          45.000                                                                  
C36  23910356.182   124507501.579        1433.637          44.000                                                                  
C37  24932282.850   129828943.833       -2378.436          42.000                                                                  
C10  39197605.244   204112216.650         751.044          39.000    39197591.647   157832522.808         580.690          44.000  
G08  24308968.038   127744504.351        3620.853          36.000    24308970.977    99541211.591        2821.709          38.000  
G29  25181170.451   132327935.039       -3529.979          34.000    25181158.598   103112634.757       -2750.521          35.000  
C30  25241348.942   131438365.198        2770.412          40.000                                                                  
C13                                                                  40671571.693   163767514.479       -1884.679          37.000  
C08                                                                  41589960.445   167465529.211       -1838.832          41.000  
> 2025 11 03 07 39 49.4800000  0 26                     
G04  21440957.384   112673000.343        1241.091          44.000    21440946.496    87797090.284         967.109          46.000  
G16  20198195.355   106142240.795         286.354          46.000                                                                  
G28  22970323.999   120709861.535       -2641.073          42.000    22970314.065    94059586.137       -2058.032          44.000  
G31  21031614.846   110521884.090       -1616.602          47.000    21031601.272    86120890.448       -1259.598          45.000  
G03  24451621.611   128494195.015       -2895.645          35.000    24451617.170   100125278.548       -2256.134          35.000  
G18  25214201.893   132501494.741        1422.705          34.000    25214190.996   103247903.213        1108.530          38.000  
C16  36733341.815   191280122.793          10.246          48.000    36733326.687   147909884.910           8.102          49.000  
C19  23716391.668   123497483.322       -2060.901          47.000                                                                  
C27  23642202.792   123111220.232        1224.784          47.000                                                                  
C06  36291094.113   188977233.758           7.871          47.000    36291073.916   146129121.936           6.113          49.000  
C09  37377513.009   194634499.477         119.984          45.000    37377496.105   150503688.856          92.604          48.000  
C22  24657146.336   128396262.166         761.780          42.000                                                                  
G26  20783699.655   109219086.030       -1880.780          48.000    20783689.386    85105736.910       -1465.399          45.000  
G27  22020360.944   115717781.690        3055.519          44.000    22020351.944    90169671.998        2381.156          43.000  
G09  23995417.213   126096770.386        2826.571          39.000    23995410.546    98257203.232        2202.407          40.000  
C28  24710491.605   128674023.097        -942.313          43.000                                                                  
C07  38070438.343   198242760.543         816.405          41.000    38070419.685   153293809.014         631.147          45.000  
C20  25437996.625   132462319.276       -3603.917          45.000                                                                  
C36  23910345.138   124507444.234        1433.588          44.000                                                                  
C37  24932301.142   129829038.978       -2378.546          42.000                                                                  
C10  39197599.470   204112186.634         750.566          39.000    39197585.883   157832499.583         580.652          44.000  
G08  24308940.477   127744359.527        3620.399          36.000    24308943.404    99541098.712        2821.825          38.000  
G29  25181197.332   132328076.199       -3529.419          34.000    25181185.454   103112744.759       -2750.178          35.000  
C30  25241327.658   131438254.392        2770.212          40.000                                                                  
C13                                                                  40671590.416   163767589.862       -1884.686          37.000  
C08                                                                  41589978.686   167465602.773       -1839.041          41.000  
> 2025 11 03 07 39 49.5200000  0 26                     
G04  21440947.947   112672950.692        1241.078          44.000    21440937.046    87797051.585         967.295          46.000  
G16  20198193.207   106142229.337         286.387          46.000                                                                  
G28  22970344.103   120709967.165       -2640.846          42.000    22970334.162    94059668.451       -2057.961          44.000  
G31  21031627.120   110521948.739       -1616.417          47.000    21031613.567    86120940.832       -1259.633          45.000  
G03  24451643.645   128494310.805       -2895.106          35.000    24451639.223   100125368.788       -2256.099          35.000  
G18  25214191.065   132501437.845        1422.511          34.000    25214180.166   103247858.863        1108.730          38.000  
C16  36733341.761   191280122.378          10.279          48.000    36733326.614   147909884.591           7.991          49.000  
C19  23716407.499   123497565.750       -2060.840          47.000                                                                  
C27  23642193.402   123111171.230        1224.926          47.000                                                                  
C06  36291094.054   188977233.443           7.822          47.000    36291073.853   146129121.688           6.135          49.000  
C09  37377512.082   194634494.673         119.987          45.000    37377495.191   150503685.134          92.847          48.000  
C22  24657140.490   128396231.687         761.857          42.000                                                                  
G26  20783713.958   109219161.257       -1880.731          48.000    20783703.698    85105795.531       -1465.485          45.000  
G27  22020337.678   115717659.454        3055.695          44.000    22020328.692    90169576.748        2381.228          43.000  
G09  23995395.701   126096657.300        2826.876          39.000    23995389.039    98257115.123        2202.549          40.000  
C28  24710498.845   128674060.772        -942.059          43.000                                                                  
C07  38070432.058   198242727.896         816.235          41.000    38070413.407   153293783.759         631.293          45.000  
C20  25438024.310   132462463.428       -3603.867          45.000                                                                  
C36  23910334.127   124507386.891        1433.515          44.000                                                                  
C37  24932319.412   129829134.132       -2378.796          42.000                                                                  
C10  39197593.721   204112156.592         750.816          39.000    39197580.133   157832476.358         580.642          44.000  
G08  24308912.941   127744214.672        3620.900          36.000    24308915.846    99540985.855        2821.520          38.000  
G29  25181224.214   132328217.391       -3529.574          34.000    25181212.316   103112854.794       -2750.557          35.000  
C30  25241306.393   131438143.577        2770.249          40.000                                                                  
C13                                                                  40671609.153   163767665.261       -1884.944          37.000  
C08                                                                  41589996.963   167465676.326       -1838.917          41.000  
> 2025 11 03 07 39 49.5600000  0 26                     
G04  21440938.485   112672901.027        1241.384          44.000    21440927.583    87797012.894         967.268          46.000  
G16  20198191.015   106142217.876         286.449          46.000                                                                  
G28  22970364.205   120710072.794       -2640.723          42.000    22970354.243    94059750.763       -2057.867          44.000  
G31  21031639.427   110522013.396       -1616.451          47.000    21031625.848    86120991.210       -1259.573          45.000  
G03  24451665.685   128494426.653       -2895.765          35.000    24451661.239   100125459.034       -2256.140          35.000  
G18  25214180.235   132501380.921        1422.919          34.000    25214169.345   103247814.539        1108.270          38.000  
C16  36733341.690   191280121.956          10.438          48.000    36733326.563   147909884.264           8.071          49.000  
C19  23716423.356   123497648.176       -2060.736          47.000                                                                  
C27  23642184.012   123111122.227        1225.031          47.000                                                                  
C06  36291093.988   188977233.129           7.809          47.000    36291073.804   146129121.445           6.075          49.000  
C09  37377511.159   194634489.874         119.951          45.000    37377494.253   150503681.418          92.884          48.000  
C22  24657134.644   128396201.208         761.890          42.000                                                                  
G26  20783728.268   109219236.483       -1880.682          48.000    20783718.019    85105854.148       -1465.472          45.000  
G27  22020314.420   115717537.204        3056.071          44.000    22020305.450    90169481.514        2380.941          43.000  
G09  23995374.161   126096544.213        2827.074          39.000    23995367.517    98257026.995        2203.001          40.000  
C28  24710506.104   128674098.449        -941.952          43.000                                                                  
C07  38070425.798   198242695.250         816.118          41.000    38070407.118   153293758.509         631.274          45.000  
C20  25438051.988   132462607.573       -3603.700          45.000                                                                  
C36  23910323.121   124507329.540        1433.667          44.000                                                                  
C37  24932337.712   129829229.270       -2378.656          42.000                                                                  
C10  39197587.928   204112126.551         750.968          39.000    39197574.355   157832453.127         580.728          44.000  
G08  24308885.372   127744069.800        3621.508          36.000    24308888.282    99540872.975        2821.722          38.000  
G29  25181251.107   132328358.578       -3529.648          34.000    25181239.168   103112964.812       -2750.614          35.000  
C30  25241285.114   131438032.754        2770.457          40.000                                                                  
C13                                                                  40671627.879   163767740.637       -1884.648          37.000  
C08                                                                  41590015.244   167465749.879       -1838.905          41.000  
> 2025 11 03 07 39 49.6000000  0 26                     
G04  21440929.020   112672851.369        1241.464          44.000    21440918.138    87796974.197         967.326          46.000  
G16  20198188.850   106142206.415         286.486          46.000                                                                  
G28  22970384.294   120710178.434       -2640.909          42.000    22970374.346    94059833.076       -2057.836          44.000  
G31  21031651.689   110522078.045       -1616.324          47.000    21031638.122    86121041.580       -1259.380          45.000  
G03  24451687.708   128494542.454       -2895.377          35.000    24451683.280   100125549.284       -2256.230          35.000  
G18  25214169.442   132501324.040        1422.324          34.000    25214158.528   103247770.207        1108.132          38.000  
C16  36733341.582   191280121.534          10.508          48.000    36733326.490   147909883.942           8.053          49.000  
C19  23716439.192   123497730.591       -2060.492          47.000                                                                  
C27  23642174.611   123111073.235        1224.839          47.000                                                                  
C06  36291093.935   188977232.804           7.996          47.000    36291073.749   146129121.197           6.136          49.000  
C09  37377510.219   194634485.064         120.106          45.000    37377493.287   150503677.694          93.056          48.000  
C22  24657128.797   128396170.716         762.144          42.000                                                                  
G26  20783742.582   109219311.709       -1880.658          48.000    20783732.340    85105912.763       -1465.436          45.000  
G27  22020291.163   115717414.971        3055.933          44.000    22020282.203    90169386.267        2381.070          43.000  
G09  23995352.642   126096431.135        2827.002          39.000    23995346.002    98256938.871        2203.134          40.000  
C28  24710513.351   128674136.148        -942.277          43.000                                                                  
C07  38070419.521   198242662.583         816.498          41.000    38070400.826   153293733.253         631.355          45.000  
C20  25438079.683   132462751.719       -3603.659          45.000                                                                  
C36  23910312.118   124507272.182        1433.850          44.000                                                                  
C37  24932355.988   129829324.417       -2378.720          42.000                                                                  
C10  39197582.160   204112096.496         751.302          39.000    39197568.556   157832429.893         580.810          44.000  
G08  24308857.803   127743924.917        3622.074          36.000    24308860.725    99540760.112        2821.548          38.000  
G29  25181277.941   132328499.765       -3529.632          34.000    25181266.018   103113074.849       -2750.829          35.000  
C30  25241263.814   131437921.927        2770.573          40.000                                                                  
C13                                                                  40671646.605   163767816.014       -1884.506          37.000  
C08                                                                  41590033.531   167465823.429       -1838.837          41.000  
> 2025 11 03 07 39 49.6400000  0 26                     
G04  21440919.564   112672801.709        1241.482          44.000    21440908.683    87796935.503         967.330          46.000  
G16  20198186.668   106142194.960         286.374          46.000                                                                  
G28  22970404.432   120710284.087       -2641.235          42.000    22970394.422    94059915.392       -2057.869          44.000  
G31  21031663.985   110522142.704       -1616.448          47.000    21031650.432    86121091.963       -1259.519          45.000  
G03  24451709.739   128494658.266       -2895.227          35.000    24451705.324   100125639.530       -2256.243          35.000  
G18  25214158.613   132501267.157        1422.044          34.000    25214147.712   103247725.872        1108.211          38.000  
C16  36733341.492   191280121.112          10.530          48.000    36733326.436   147909883.618           8.080          49.000  
C19  23716455.023   123497813.020       -2060.657          47.000                                                                  
C27  23642165.181   123111024.238        1224.852          47.000                                                                  
C06  36291093.875   188977232.479           8.104          47.000    36291073.673   146129120.952           6.118          49.000  
C09  37377509.302   194634480.250         120.258          45.000    37377492.341   150503673.980          92.949          48.000  
C22  24657122.963   128396140.245         761.918          42.000                                                                  
G26  20783756.903   109219386.937       -1880.707          48.000    20783746.652    85105971.392       -1465.686          45.000  
G27  22020267.912   115717292.747        3055.657          44.000    22020258.922    90169291.026        2381.004          43.000  
G09  23995331.134   126096318.066        2826.837          39.000    23995324.499    98256850.768        2202.729          40.000  
C28  24710520.587   128674173.835        -942.286          43.000                                                                  
C07  38070413.252   198242629.929         816.400          41.000    38070394.544   153293708.006         631.222          45.000  
C20  25438107.343   132462895.877       -3603.846          45.000                                                                  
C36  23910301.069   124507214.839        1433.655          44.000                                                                  
C37  24932374.245   129829419.567       -2378.802          42.000                                                                  
C10  39197576.393   204112066.454         751.186          39.000    39197562.779   157832406.678         580.512          44.000  
G08  24308830.225   127743780.074        3621.520          36.000    24308833.182    99540647.255        2821.412          38.000  
G29  25181304.766   132328640.947       -3529.591          34.000    25181292.870   103113184.845       -2750.140          35.000  
C30  25241242.545   131437811.105        2770.583          40.000                                                                  
C13                                                                  40671665.298   163767891.401       -1884.662          37.000  
C08                                                                  41590051.767   167465896.974       -1838.702          41.000  
> 2025 11 03 07 39 49.6800000  0 26                     
G04  21440910.119   112672752.063        1241.263          44.000    21440899.254    87796896.816         967.205          46.000  
G16  20198184.479   106142183.510         286.244          46.000                                                                  
G28  22970424.515   120710389.729       -2641.225          42.000    22970414.540    94059997.711       -2057.989          44.000  
G31  21031676.295   110522207.357       -1616.385          47.000    21031662.739    86121142.357       -1259.761          45.000  
G03  24451731.773   128494774.104       -2895.818          34.000    24451727.379   100125729.796       -2256.642          35.000  
G18  25214147.797   132501210.273        1421.991          34.000    25214136.896   103247681.536        1108.237          38.000  
C16  36733341.392   191280120.699          10.377          48.000    36733326.382   147909883.298           8.012          49.000  
C19  23716470.834   123497895.459       -2060.925          47.000                                                                  
C27  23642155.770   123110975.239        1224.920          47.000                                                                  
C06  36291093.837   188977232.163           8.008          47.000    36291073.617   146129120.708           6.094          49.000  
C09  37377508.365   194634475.451         120.081          45.000    37377491.418   150503670.271          92.770          48.000  
C22  24657117.102   128396109.779         761.712          42.000                                                                  
G26  20783771.222   109219462.170       -1880.780          48.000    20783760.973    85106030.015       -1465.662          45.000  
G27  22020244.655   115717170.511        3055.754          44.000    22020235.655    90169195.775        2381.153          43.000  
G09  23995309.616   126096205.003        2826.635          39.000    23995302.983    98256762.665        2202.594          40.000  
C28  24710527.808   128674211.533        -942.416          43.000                                                                  
C07  38070406.993   198242597.272         816.406          41.000    38070388.273   153293682.758         631.173          45.000  
C20  25438135.040   132463040.027       -3603.805          45.000                                                                  
C36  23910290.048   124507157.493        1433.643          44.000                                                                  
C37  24932392.548   129829514.707       -2378.612          42.000                                                                  
C10  39197570.653   204112036.433         750.736          39.000    39197556.977   157832383.454         580.493          44.000  
G08  24308802.645   127743635.229        3621.250          36.000    24308805.620    99540534.376        2821.742          38.000  
G29  25181331.609   132328782.183       -3530.463          34.000    25181319.731   103113294.869       -2750.389          35.000  
C30  25241221.272   131437700.288        2770.479          40.000                                                                  
C13                                                                  40671684.014   163767966.773       -1884.498          37.000  
C08                                                                  41590070.053   167465970.534       -1838.887          41.000  
> 2025 11 03 07 39 49.7200000  0 26                     
G04  21440900.668   112672702.419        1241.097          44.000    21440889.811    87796858.128         967.164          46.000  
G16  20198182.296   106142172.053         286.333          46.000                                                                  
G28  22970444.598   120710495.375       -2641.242          42.000    22970434.652    94060080.030       -2058.032          44.000  
G31  21031688.601   110522272.014       -1616.410          47.000    21031675.040    86121192.739       -1259.684          45.000  
G03  24451753.798   128494889.882       -2894.989          35.000    24451749.429   100125820.042       -2256.450          35.000  
G18  25214136.967   132501153.352        1422.609          34.000    25214126.055   103247637.181        1108.662          38.000  
C16  36733341.297   191280120.278          10.445          48.000    36733326.296   147909882.972           8.065          49.000  
C19  23716486.696   123497977.889       -2060.901          47.000                                                                  
C27  23642146.350   123110926.237        1225.006          47.000                                                                  
C06  36291093.763   188977231.847           7.921          47.000    36291073.549   146129120.464           6.108          49.000  
C09  37377507.425   194634470.653         119.927          45.000    37377490.477   150503666.561          92.682          48.000  
C22  24657111.263   128396079.304         761.757          42.000                                                                  
G26  20783785.527   109219537.396       -1880.707          48.000    20783775.273    85106088.634       -1465.558          45.000  
G27  22020221.398   115717048.288        3055.601          44.000    22020212.387    90169100.527        2381.171          43.000  
G09  23995288.110   126096091.929        2826.709          39.000    23995281.473    98256674.566        2202.436          40.000  
C28  24710535.059   128674249.220        -942.287          43.000                                                                  
C07  38070400.718   198242564.620         816.350          41.000    38070382.012   153293657.509         631.193          45.000  
C20  25438162.722   132463184.176       -3603.740          45.000                                                                  
C36  23910279.038   124507100.146        1433.649          44.000                                                                  
C37  24932410.823   129829609.840       -2378.413          42.000                                                                  
C10  39197564.890   204112006.403         750.641          39.000    39197551.213   157832360.230         580.547          44.000  
G08  24308775.077   127743490.389        3621.071          36.000    24308778.030    99540421.498        2821.880          38.000  
G29  25181358.460   132328923.394       -3530.437          34.000    25181346.602   103113404.887       -2750.443          35.000  
C30  25241199.978   131437589.473        2770.390          40.000                                                                  
C13                                                                  40671702.746   163768042.169       -1884.849          37.000  
C08                                                                  41590088.319   167466044.087       -1838.886          41.000  
> 2025 11 03 07 39 49.7600000  0 26                     
G04  21440891.203   112672652.761        1241.281          44.000    21440880.363    87796819.437         967.192          46.000  
G16  20198180.088   106142160.595         286.370          46.000                                                                  
G28  22970464.703   120710601.006       -2640.958          42.000    22970454.751    94060162.346       -2057.980          44.000  
G31  21031700.892   110522336.673       -1616.463          47.000    21031687.337    86121243.114       -1259.461          45.000  
G03  24451775.842   128495005.728       -2895.782          34.000    24451771.465   100125910.284       -2256.134          35.000  
G18  25214126.140   132501096.436        1422.844          34.000    25214115.244   103247592.841        1108.591          38.000  
C16  36733341.243   191280119.854          10.551          48.000    36733326.202   147909882.650           8.033          49.000  
C19  23716502.517   123498060.312       -2060.693          47.000                                                                  
C27  23642136.938   123110877.251        1224.741          47.000                                                                  
C06  36291093.699   188977231.525           8.002          47.000    36291073.484   146129120.210           6.257          49.000  
C09  37377506.514   194634465.842         120.110          45.000    37377489.555   150503662.839          92.870          48.000  
C22  24657105.420   128396048.830         761.793          42.000                                                                  
G26  20783799.854   109219612.625       -1880.737          48.000    20783789.596    85106147.251       -1465.454          45.000  
G27  22020198.153   115716926.059        3055.645          44.000    22020189.119    90169005.271        2381.281          43.000  
G09  23995266.590   126095978.845        2826.916          39.000    23995259.960    98256586.445        2202.773          40.000  
C28  24710542.311   128674286.904        -942.138          43.000                                                                  
C07  38070394.438   198242531.964         816.420          41.000    38070375.753   153293632.255         631.333          45.000  
C20  25438190.389   132463328.319       -3603.627          45.000                                                                  
C36  23910268.017   124507042.804        1433.563          44.000                                                                  
C37  24932429.086   129829704.973       -2378.310          42.000                                                                  
C10  39197559.126   204111976.379         750.468          39.000    39197545.413   157832337.000         580.689          44.000  
G08  24308747.505   127743345.539        3621.097          36.000    24308750.479    99540308.623        2821.899          38.000  
G29  25181385.261   132329064.566       -3529.637          34.000    25181373.486   103113514.926       -2750.823          35.000  
C30  25241178.700   131437478.656        2770.367          40.000                                                                  
C13                                                                  40671721.454   163768117.561       -1884.973          37.000  
C08                                                                  41590106.597   167466117.627       -1838.628          41.000  
> 2025 11 03 07 39 49.8000000  0 26                     
G04  21440881.760   112672603.102        1241.364          44.000    21440870.917    87796780.742         967.285          46.000  
G16  20198177.890   106142149.131         286.550          46.000                                                                  
G28  22970484.791   120710706.632       -2640.735          42.000    22970474.864    94060244.655       -2057.836          44.000  
G31  21031713.186   110522401.326       -1616.375          47.000    21031699.649    86121293.495       -1259.524          45.000  
G03  24451797.877   128495121.507       -2895.027          34.000    24451793.477   100126000.502       -2255.626          35.000  
G18  25214115.307   132501039.521        1422.952          34.000    25214104.403   103247548.489        1108.776          38.000  
C16  36733341.140   191280119.433          10.568          48.000    36733326.137   147909882.315           8.248          49.000  
C19  23716518.355   123498142.738       -2060.651          47.000                                                                  
C27  23642127.542   123110828.253        1224.816          47.000                                                                  
C06  36291093.648   188977231.201           8.094          47.000    36291073.428   146129119.957           6.324          49.000  
C09  37377505.610   194634461.031         120.218          45.000    37377488.630   150503659.113          93.075          48.000  
C22  24657099.574   128396018.356         761.833          42.000                                                                  
G26  20783814.179   109219687.854       -1880.719          48.000    20783803.905    85106205.870       -1465.442          45.000  
G27  22020174.896   115716803.827        3055.717          44.000    22020165.859    90168910.034        2381.001          43.000  
G09  23995245.052   126095865.757        2827.044          39.000    23995238.439    98256498.332        2202.835          40.000  
C28  24710549.550   128674324.590        -942.121          43.000                                                                  
C07  38070388.162   198242499.296         816.606          41.000    38070369.500   153293606.999         631.425          45.000  
C20  25438218.075   132463472.473       -3603.778          45.000                                                                  
C36  23910257.035   124506985.451        1433.771          44.000                                                                  
C37  24932447.386   129829800.118       -2378.518          42.000                                                                  
C10  39197553.377   204111946.334         750.768          39.000    39197539.650   157832313.767         580.813          44.000  
G08  24308719.930   127743200.696        3621.135          36.000    24308722.919    99540195.763        2821.625          38.000  
G29  25181412.094   132329205.724       -3529.061          34.000    25181400.358   103113624.957       -2750.885          35.000  
C30  25241157.406   131437367.848        2770.235          40.000                                                                  
C13                                                                  40671740.177   163768192.923       -1884.416          37.000  
C08                                                                  41590124.864   167466191.175       -1838.678          41.000  
> 2025 11 03 07 39 49.8400000  0 26                     
G04  21440872.314   112672553.452        1241.283          44.000    21440861.459    87796742.052         967.264          46.000  
G16  20198175.727   106142137.677         286.431          46.000                                                                  
G28  22970504.899   120710812.266       -2640.789          42.000    22970494.975    94060326.969       -2057.831          44.000  
G31  21031725.464   110522465.972       -1616.182          47.000    21031711.938    86121343.874       -1259.512          45.000  
G03  24451819.928   128495237.342       -2895.571          34.000    24451815.519   100126090.745       -2255.680          35.000  
G18  25214104.491   132500982.635        1422.400          34.000    25214093.556   103247504.163        1108.353          38.000  
C16  36733341.052   191280119.011          10.567          48.000    36733326.073   147909881.987           8.243          49.000  
C19  23716534.182   123498225.171       -2060.779          47.000                                                                  
C27  23642118.140   123110779.252        1224.958          47.000                                                                  
C06  36291093.580   188977230.878           8.069          47.000    36291073.356   146129119.706           6.285          49.000  
C09  37377504.699   194634456.214         120.375          45.000    37377487.722   150503655.395          92.999          48.000  
C22  24657093.736   128395987.873         761.980          42.000                                                                  
G26  20783828.485   109219763.081       -1880.719          48.000    20783818.226    85106264.484       -1465.381          45.000  
G27  22020151.635   115716681.591        3055.846          44.000    22020142.607    90168814.792        2380.940          43.000  
G09  23995223.527   126095752.685        2826.886          39.000    23995216.920    98256410.214        2202.966          40.000  
C28  24710556.775   128674362.277        -942.117          43.000                                                                  
C07  38070381.866   198242466.644         816.351          41.000    38070363.237   153293581.740         631.479          45.000  
C20  25438245.768   132463616.625       -3603.861          45.000                                                                  
C36  23910246.023   124506928.095        1433.875          44.000                                                                  
C37  24932465.666   129829895.263       -2378.618          42.000                                                                  
C10  39197547.610   204111916.278         751.195          39.000    39197533.881   157832290.540         580.817          44.000  
G08  24308692.363   127743055.824        3621.680          36.000    24308695.357    99540082.880        2821.837          38.000  
G29  25181438.943   132329346.911       -3529.259          34.000    25181427.221   103113734.961       -2750.396          35.000  
C30  25241136.106   131437257.013        2770.675          40.000                                                                  
C13                                                                  40671758.891   163768268.308       -1884.515          37.000  
C08                                                                  41590143.158   167466264.730       -1838.882          41.000  
> 2025 11 03 07 39 49.8800000  0 26                     
G04  21440862.870   112672503.801        1241.271          44.000    21440852.019    87796703.368         967.131          46.000  
G16  20198173.540   106142126.221         286.406          46.000                                                                  
G28  22970525.003   120710917.907       -2640.972          42.000    22970515.079    94060409.283       -2057.837          44.000  
G31  21031737.785   110522530.638       -1616.454          47.000    21031724.227    86121394.260       -1259.627          45.000  
G03  24451841.968   128495353.141       -2895.214          34.000    24451837.554   100126180.999       -2256.085          35.000  
G18  25214093.659   132500925.731        1422.430          34.000    25214082.745   103247459.827        1108.272          38.000  
C16  36733340.972   191280118.587          10.582          48.000    36733326.006   147909881.661           8.181          49.000  
C19  23716549.995   123498307.599       -2060.754          47.000                                                                  
C27  23642108.726   123110730.250        1225.000          47.000                                                                  
C06  36291093.528   188977230.556           8.082          47.000    36291073.309   146129119.463           6.133          49.000  
C09  37377503.780   194634451.412         120.152          45.000    37377486.809   150503651.677          92.953          48.000  
C22  24657087.898   128395957.406         761.781          42.000                                                                  
G26  20783842.804   109219838.309       -1880.725          48.000    20783832.530    85106323.100       -1465.393          45.000  
G27  22020128.392   115716559.353        3055.947          44.000    22020119.332    90168719.545        2381.021          43.000  
G09  23995202.003   126095639.607        2826.860          39.000    23995195.395    98256322.112        2202.755          40.000  
C28  24710564.002   128674399.971        -942.269          43.000                                                                  
C07  38070375.571   198242433.994         816.228          41.000    38070356.957   153293556.491         631.340          45.000  
C20  25438273.430   132463760.767       -3603.666          45.000                                                                  
C36  23910234.997   124506870.748        1433.753          44.000                                                                  
C37  24932483.937   129829990.408       -2378.658          42.000                                                                  
C10  39197541.827   204111886.224         751.343          39.000    39197528.100   157832267.299         580.967          44.000  
G08  24308664.773   127742910.940        3622.137          36.000    24308667.792    99539970.006        2821.830          38.000  
G29  25181465.822   132329488.094       -3529.451          34.000    25181454.077   103113844.988       -2750.566          35.000  
C30  25241114.820   131437146.186        2770.731          40.000                                                                  
C13                                                                  40671777.604   163768343.686       -1884.465          37.000  
C08                                                                  41590161.446   167466338.292       -1839.104          41.000  
> 2025 11 03 07 39 49.9200000  0 26                     
G04  21440853.419   112672454.151        1241.226          44.000    21440842.569    87796664.679         967.162          46.000  
G16  20198171.350   106142114.755         286.581          46.000                                                                  
G28  22970545.125   120711023.550       -2641.135          42.000    22970535.194    94060491.598       -2057.901          44.000  
G31  21031750.081   110522595.292       -1616.403          47.000    21031736.522    86121444.636       -1259.503          45.000  
G03  24451864.000   128495468.935       -2894.999          34.000    24451859.585   100126271.246       -2256.201          35.000  
G18  25214082.847   132500868.826        1422.572          34.000    25214071.916   103247415.469        1108.761          38.000  
C16  36733340.873   191280118.165          10.556          48.000    36733325.918   147909881.335           8.156          49.000  
C19  23716565.836   123498390.027       -2060.718          47.000                                                                  
C27  23642099.328   123110681.249        1225.024          47.000                                                                  
C06  36291093.473   188977230.230           8.125          47.000    36291073.287   146129119.208           6.248          49.000  
C09  37377502.853   194634446.599         120.237          45.000    37377485.915   150503647.958          92.934          48.000  
C22  24657082.044   128395926.934         761.759          42.000                                                                  
G26  20783857.123   109219913.532       -1880.633          48.000    20783846.866    85106381.716       -1465.393          45.000  
G27  22020105.149   115716437.118        3055.924          44.000    22020096.079    90168624.300        2381.068          43.000  
G09  23995180.473   126095526.521        2826.993          39.000    23995173.859    98256234.003        2202.738          40.000  
C28  24710571.226   128674437.669        -942.424          43.000                                                                  
C07  38070369.348   198242401.337         816.331          41.000    38070350.691   153293531.236         631.372          45.000  
C20  25438301.114   132463904.907       -3603.581          45.000                                                                  
C36  23910223.983   124506813.391        1433.868          44.000                                                                  
C37  24932502.202   129830085.540       -2378.423          42.000                                                                  
C10  39197536.061   204111856.188         751.035          39.000    39197522.348   157832244.074         580.788          44.000  
G08  24308637.216   127742766.104        3621.426          36.000    24308640.221    99539857.133        2821.843          38.000  
G29  25181492.689   132329629.309       -3530.059          34.000    25181480.924   103113954.978       -2750.044          35.000  
C30  25241093.537   131437035.361        2770.728          40.000                                                                  
C13                                                                  40671796.310   163768419.056       -1884.334          37.000  
C08                                                                  41590179.702   167466411.826       -1838.646          41.000  
> 2025 11 03 07 39 49.9600000  0 26                     
G04  21440843.955   112672404.495        1241.294          44.000    21440833.095    87796625.985         967.249          46.000  
G16  20198169.189   106142103.301         286.417          46.000                                                                  
G28  22970565.206   120711129.190       -2641.100          42.000    22970555.288    94060573.911       -2057.849          44.000  
G31  21031762.390   110522659.948       -1616.410          47.000    21031748.826    86121495.015       -1259.471          45.000  
G03  24451886.049   128495584.746       -2895.201          35.000    24451881.615   100126361.467       -2255.760          35.000  
G18  25214072.034   132500811.897        1423.097          34.000    25214061.090   103247371.144        1108.371          38.000  
C16  36733340.801   191280117.741          10.568          48.000    36733325.876   147909881.006           8.181          49.000  
C19  23716581.680   123498472.455       -2060.699          47.000                                                                  
C27  23642089.932   123110632.251        1224.969          47.000                                                                  
C06  36291093.439   188977229.910           8.030          47.000    36291073.217   146129118.954           6.306          49.000  
C09  37377501.924   194634441.784         120.340          45.000    37377485.023   150503644.238          92.967          48.000  
C22  24657076.181   128395896.463         761.707          42.000                                                                  
G26  20783871.427   109219988.756       -1880.609          48.000    20783861.172    85106440.339       -1465.552          45.000  
G27  22020081.913   115716314.886        3055.857          44.000    22020072.831    90168529.055        2381.082          43.000  
G09  23995158.959   126095413.454        2826.796          39.000    23995152.342    98256145.886        2202.847          40.000  
C28  24710578.485   128674475.367        -942.503          43.000                                                                  
C07  38070363.086   198242368.669         816.601          41.000    38070344.426   153293505.983         631.315          45.000  
C20  25438328.833   132464049.053       -3603.581          45.000                                                                  
C36  23910212.962   124506756.042        1433.795          44.000                                                                  
C37  24932520.484   129830180.681       -2378.512          42.000                                                                  
C10  39197530.276   204111826.161         750.726          39.000    39197516.622   157832220.840         580.836          44.000  
G08  24308609.660   127742621.246        3621.398          36.000    24308612.638    99539744.263        2821.700          38.000  
G29  25181519.555   132329770.521       -3530.312          34.000    25181507.806   103114064.984       -2749.989          35.000  
C30  25241072.253   131436924.530        2770.823          40.000                                                                  
C13                                                                  40671814.990   163768494.435       -1884.465          37.000  
C08                                                                  41590197.963   167466485.367       -1838.555          41.000  
> 2025 11 03 07 39 50.0000000  0 26                     
G04  21440834.481   112672354.837        1241.426          44.000    21440823.648    87796587.291         967.318          46.000  
G16  20198167.018   106142091.851         286.262          46.000                                                                  
G28  22970585.320   120711234.824       -2640.934          42.000    22970575.373    94060656.223       -2057.819          44.000  
G31  21031774.688   110522724.601       -1616.363          47.000    21031761.151    86121545.396       -1259.513          45.000  
G03  24451908.102   128495700.564       -2895.414          35.000    24451903.638   100126451.712       -2255.911          35.000  
G18  25214061.206   132500755.013        1422.592          34.000    25214050.276   103247326.807        1108.374          38.000  
C16  36733340.689   191280117.315          10.642          48.000    36733325.794   147909880.676           8.221          49.000  
C19  23716597.511   123498554.881       -2060.663          47.000                                                                  
C27  23642080.538   123110583.254        1224.932          47.000                                                                  
C06  36291093.380   188977229.584           8.076          47.000    36291073.155   146129118.704           6.278          49.000  
C09  37377500.993   194634436.977         120.250          45.000    37377484.132   150503640.516          93.004          48.000  
C22  24657070.336   128395865.985         761.821          42.000                                                                  
G26  20783885.752   109220063.985       -1880.682          48.000    20783875.510    85106498.960       -1465.552          45.000  
G27  22020058.644   115716192.656        3055.773          44.000    22020049.569    90168433.806        2381.181          43.000  
G09  23995137.434   126095300.381        2826.819          39.000    23995130.827    98256057.765        2202.926          40.000  
C28  24710585.722   128674513.044        -942.160          43.000                                                                  
C07  38070356.802   198242336.003         816.687          41.000    38070338.164   153293480.730         631.316          45.000  
C20  25438356.507   132464193.209       -3603.806          45.000                                                                  
C36  23910201.919   124506698.692        1433.740          44.000                                                                  
C37  24932538.762   129830275.810       -2378.333          42.000                                                                  
C10  39197524.486   204111796.128         750.693          39.000    39197510.831   157832197.614         580.677          44.000  
G08  24308582.092   127742476.387        3621.335          36.000    24308585.074    99539631.375        2822.006          38.000  
G29  25181546.411   132329911.708       -3530.032          34.000    25181534.665   103114174.982       -2749.915          35.000  
C30  25241050.970   131436813.705        2770.742          40.000                                                                  
C13                                                                  40671833.710   163768569.806       -1884.396          37.000  
C08                                                                  41590216.211   167466558.913       -1838.642          41.000  
> 2025 11 03 07 39 50.0400000  0 26                     
G04  21440825.059   112672305.195        1241.166          44.000    21440814.214    87796548.608         967.157          46.000  
G16  20198164.836   106142080.401         286.195          46.000                                                                  
G28  22970605.424   120711340.456       -2640.836          42.000    22970595.490    94060738.542       -2057.939          44.000  
G31  21031786.983   110522789.259       -1616.448          47.000    21031773.447    86121595.775       -1259.529          45.000  
G03  24451930.159   128495816.421       -2896.150          35.000    24451925.673   100126541.968       -2256.306          35.000  
G18  25214050.394   132500698.135        1422.025          34.000    25214039.448   103247282.469        1108.368          38.000  
C16  36733340.564   191280116.895          10.540          48.000    36733325.727   147909880.345           8.239          49.000  
C19  23716613.347   123498637.317       -2060.864          47.000                                                                  
C27  23642071.124   123110534.257        1224.901          47.000                                                                  
C06  36291093.317   188977229.266           7.949          47.000    36291073.106   146129118.458           6.179          49.000  
C09  37377500.057   194634432.162         120.327          45.000    37377483.214   150503636.795          93.022          48.000  
C22  24657064.493   128395835.509         761.887          42.000                                                                  
G26  20783900.065   109220139.211       -1880.695          48.000    20783889.797    85106557.573       -1465.442          45.000  
G27  22020035.375   115716070.425        3055.736          44.000    22020026.298    90168338.555        2381.261          43.000  
G09  23995115.901   126095187.299        2827.000          39.000    23995109.323    98255969.670        2202.539          40.000  
C28  24710592.961   128674550.733        -942.220          43.000                                                                  
C07  38070350.533   198242303.333         816.745          41.000    38070331.902   153293455.475         631.340          45.000  
C20  25438384.202   132464337.355       -3603.747          45.000                                                                  
C36  23910190.880   124506641.345        1433.643          44.000                                                                  
C37  24932557.016   129830370.954       -2378.539          42.000                                                                  
C10  39197518.707   204111766.073         751.091          39.000    39197505.051   157832174.380         580.740          44.000  
G08  24308554.530   127742331.539        3621.150          36.000    24308557.519    99539518.513        2821.770          38.000  
G29  25181573.284   132330052.873       -3529.376          34.000    25181561.521   103114285.028       -2750.758          35.000  
C30  25241029.686   131436702.894        2770.380          40.000                                                                  
C13                                                                  40671852.424   163768645.172       -1884.204          37.000  
C08                                                                  41590234.500   167466632.456       -1838.630          41.000  
> 2025 11 03 07 39 50.0800000  0 26                     
G04  21440815.621   112672255.547        1241.136          44.000    21440804.781    87796509.926         967.048          46.000  
G16  20198162.646   106142068.955         286.091          46.000                                                                  
G28  22970625.528   120711446.093       -2640.927          42.000    22970615.574    94060820.854       -2057.888          44.000  
G31  21031799.296   110522853.914       -1616.454          47.000    21031785.753    86121646.160       -1259.600          45.000  
G03  24451952.184   128495932.210       -2895.352          35.000    24451947.717   100126632.212       -2256.283          35.000  
G18  25214039.543   132500641.198        1422.887          34.000    25214028.615   103247238.123        1108.515          38.000  
C16  36733340.449   191280116.474          10.482          48.000    36733325.668   147909880.028           8.003          49.000  
C19  23716629.170   123498719.750       -2060.883          47.000                                                                  
C27  23642061.714   123110485.270        1224.698          47.000                                                                  
C06  36291093.274   188977228.939           8.038          47.000    36291073.039   146129118.208           6.173          49.000  
C09  37377499.123   194634427.349         120.365          45.000    37377482.294   150503633.072          93.041          48.000  
C22  24657058.665   128395805.026         762.043          42.000                                                                  
G26  20783914.378   109220214.443       -1880.792          48.000    20783904.124    85106616.195       -1465.509          45.000  
G27  22020012.120   115715948.197        3055.659          44.000    22020003.051    90168243.307        2381.204          43.000  
G09  23995094.367   126095074.222        2827.010          39.000    23995087.800    98255881.551        2202.761          40.000  
C28  24710600.165   128674588.428        -942.365          43.000                                                                  
C07  38070344.261   198242270.677         816.511          41.000    38070325.618   153293430.222         631.302          45.000  
C20  25438411.916   132464481.492       -3603.554          45.000                                                                  
C36  23910179.881   124506583.994        1433.704          44.000                                                                  
C37  24932575.292   129830466.095       -2378.526          42.000                                                                  
C10  39197512.924   204111736.018         751.310          39.000    39197499.305   157832151.167         580.408          44.000  
G08  24308526.977   127742186.675        3621.442          36.000    24308529.951    99539405.642        2821.731          38.000  
G29  25181600.173   132330194.068       -3529.574          34.000    25181588.393   103114395.092       -2751.525          35.000  
C30  25241008.405   131436592.086        2770.175          40.000                                                                  
C13                                                                  40671871.123   163768720.558       -1884.493          37.000  
C08                                                                  41590252.793   167466706.010       -1838.833          41.000  
