     3.04           OBSERVATION DATA    M: Mixed            RINEX VERSION / TYPE
RTKCONV 2.4.3 b34                       20251103 075528 UTC PGM / RUN BY / DATE 
format: u-blox UBX                                          COMMENT             
log: D:\GPdata\11_3\fingure_230_11_3_2.ubx                  COMMENT             
                                                            MARKER NAME         
                                                            MARKER NUMBER       
                                                            MARKER TYPE         
                                                            OBSERVER / AGENCY   
                                                            REC # / TYPE / VERS 
                                                            ANT # / TYPE        
        0.0000        0.0000        0.0000                  APPROX POSITION XYZ 
        0.0000        0.0000        0.0000                  ANTENNA: DELTA H/E/N
G    8 C1C L1C D1C S1C C2L L2L D2L S2L                      SYS / # / OBS TYPES 
C    8 C2I L2I D2I S2I C7I L7I D7I S7I                      SYS / # / OBS TYPES 
  2025    11    03    07    38   16.2800000     GPS         TIME OF FIRST OBS   
  2025    11    03    07    39   01.3600000     GPS         TIME OF LAST OBS    
G L1C                                                       SYS / PHASE SHIFT   
G L2L  0.00000                                              SYS / PHASE SHIFT   
C L2I                                                       SYS / PHASE SHIFT   
C L7I                                                       SYS / PHASE SHIFT   
  0                                                         GLONASS SLOT / FRQ #
 C1C    0.000 C1P    0.000 C2C    0.000 C2P    0.000        GLONASS COD/PHS/BIS 
                                                            END OF HEADER       
> 2025 11 03 07 38 16.2800000  0 27                     
G04  21463427.300   112791081.4421       1292.039          44.000    21463416.772    87889101.3841       1006.626          46.000  
G16  20203639.606   106170849.6731        327.144          46.000                                                                  
G28  22923662.188   120464653.3151      -2621.530          41.000    22923651.884    93868514.9641      -2042.740          43.000  
G31  21003186.405   110372497.4071      -1589.843          47.000    21003174.162    86004485.2521      -1238.860          45.000  
G03  24400387.300   128224957.9981      -2882.776          35.000    24400382.984    99915483.8831      -2246.333          36.000  
G18  25239641.236   132635201.9531       1445.625          34.000    25239631.716   103352086.4171       1126.307          37.000  
C16  36733475.448   191280811.3121          3.792          48.000    36733459.059   147910417.2271          2.818          48.000  
C19  23679857.821   123307238.7291      -2022.193          47.000                                                                  
C27  23664446.317   123227046.9211       1259.997          46.000                                                                  
C06  36291185.179   188977696.1061          1.553          47.000    36291164.300   146129479.3741          1.198          49.000  
C09  37379583.163   194645278.6311        110.620          45.000    37379566.015   150512023.9021         85.724          48.000  
C22  24671194.061   128469412.5521        807.110          42.000                                                                  
G26  20750548.771   109044879.3351      -1857.916          48.000    20750539.581    84969991.4411      -1447.833          46.000  
G27  22074817.215   116003952.6871       3084.819          43.000    22074808.517    90392661.9151       2403.638          42.000  
G09  24045772.409   126361386.1821       2850.860          37.000    24045765.351    98463396.7251       2221.567          39.000  
C28  24694034.145   128588320.8481       -897.427          44.000                                                                  
C07  38085082.377   198319014.2691        819.321          40.000    38085063.584   153352772.9721        633.641          45.000  
C20  25373506.579   132126504.4971      -3602.802          45.000                                                                  
C36  23936050.629   124641294.9991       1438.410          43.000                                                                  
C37  24889741.132   129607418.2651      -2377.794          42.000                                                                  
C10  39211055.009   204182251.1121        752.209          38.000    39211041.932   157886677.5491        581.598          44.000  
G08  24373177.743   128081916.8641       3622.109          36.000    24373181.259    99804127.4561       2822.227          39.000  
G29  25118784.244   132000140.1971      -3508.288          34.000    25118779.205   102857207.1811      -2733.613          36.000  
C30  25290890.248   131696333.0901       2767.350          41.000                                                                  
G32                                                                  25709866.793                       -3244.240          26.000  
C13                                                                  40627887.846   163591626.6471      -1892.241          37.000  
C08                                                                  41547299.755   167293754.9701      -1849.071          40.000  
> 2025 11 03 07 38 16.3200000  0 27                     
G04  21463417.465   112791029.765        1291.954          44.000    21463406.935    87889061.116        1006.652          46.000  
G16  20203637.109   106170836.584         327.211          46.000                                                                  
G28  22923682.130   120464758.170       -2621.436          41.000    22923671.842    93868596.671       -2042.747          43.000  
G31  21003198.526   110372561.003       -1589.936          47.000    21003186.277    86004534.806       -1238.899          45.000  
G03  24400409.272   128225073.321       -2883.048          35.000    24400404.914    99915573.713       -2245.950          36.000  
G18  25239630.226   132635144.123        1445.866          34.000    25239620.698   103352041.360        1126.432          37.000  
C16  36733475.438   191280811.147           4.048          48.000    36733459.048   147910417.110           2.821          48.000  
C19  23679873.370   123307319.613       -2022.137          47.000                                                                  
C27  23664436.654   123226996.527        1259.849          46.000                                                                  
C06  36291185.166   188977696.047           1.498          47.000    36291164.294   146129479.321           1.287          49.000  
C09  37379582.297   194645274.194         110.827          45.000    37379565.157   150512020.478          85.620          48.000  
C22  24671187.874   128469380.251         807.366          42.000                                                                  
G26  20750562.927   109044953.655       -1857.959          48.000    20750553.721    84970049.355       -1447.888          46.000  
G27  22074793.724   116003829.304        3084.708          43.000    22074785.046    90392565.757        2403.866          42.000  
G09  24045750.704   126361272.152        2850.703          37.000    24045743.656    98463307.882        2221.194          39.000  
C28  24694041.058   128588356.739        -897.361          44.000                                                                  
C07  38085076.091   198318981.489         819.434          40.000    38085057.302   153352747.620         633.747          45.000  
C20  25373534.251   132126648.611       -3602.828          45.000                                                                  
C36  23936039.578   124641237.461        1438.489          43.000                                                                  
C37  24889759.422   129607513.359       -2377.500          42.000                                                                  
C10  39211049.235   204182221.036         751.938          38.000    39211036.128   157886654.283         581.612          44.000  
G08  24373150.177   128081772.018        3621.505          36.000    24373153.698    99804014.567        2822.179          39.000  
G29  25118810.975   132000280.522       -3508.179          34.000    25118805.925   102857316.523       -2733.550          36.000  
C30  25290868.985   131696222.404        2767.302          41.000                                                                  
G32                                                                  25709898.426                       -3244.510          26.000  
C13                                                                  40627906.640   163591702.282       -1891.416          37.000  
C08                                                                  41547318.132   167293828.932       -1849.035          40.000  
> 2025 11 03 07 38 16.3600000  0 27                     
G04  21463407.634   112790978.082        1292.021          44.000    21463397.089    87889020.847        1006.686          46.000  
G16  20203634.633   106170823.501         327.135          46.000                                                                  
G28  22923702.074   120464863.024       -2621.361          41.000    22923691.783    93868678.375       -2042.690          43.000  
G31  21003210.609   110372624.587       -1589.760          47.000    21003198.382    86004584.358       -1238.906          45.000  
G03  24400431.203   128225188.603       -2882.456          35.000    24400426.852    99915663.557       -2246.046          36.000  
G18  25239619.241   132635086.327        1445.267          34.000    25239609.676   103351996.299        1126.549          37.000  
C16  36733475.406   191280810.989           4.007          48.000    36733459.020   147910416.982           3.044          48.000  
C19  23679888.881   123307400.498       -2022.107          47.000                                                                  
C27  23664426.964   123226946.118        1260.065          46.000                                                                  
C06  36291185.177   188977695.982           1.563          47.000    36291164.280   146129479.273           1.210          49.000  
C09  37379581.460   194645269.758         110.900          45.000    37379564.316   150512017.055          85.557          48.000  
C22  24671181.670   128469347.948         807.538          42.000                                                                  
G26  20750577.079   109045027.975       -1858.008          48.000    20750567.862    84970107.264       -1447.803          46.000  
G27  22074770.244   116003705.915        3084.752          43.000    22074761.582    90392469.614        2403.771          42.000  
G09  24045729.000   126361158.116        2850.736          37.000    24045721.961    98463219.018        2221.305          39.000  
C28  24694047.941   128588392.626        -897.229          44.000                                                                  
C07  38085069.798   198318948.702         819.626          40.000    38085051.000   153352722.269         633.784          45.000  
C20  25373561.899   132126792.725       -3602.861          45.000                                                                  
C36  23936028.505   124641179.936        1438.232          43.000                                                                  
C37  24889777.706   129607608.462       -2377.524          42.000                                                                  
C10  39211043.447   204182190.951         752.044          38.000    39211030.355   157886631.020         581.594          44.000  
G08  24373122.594   128081627.130        3621.849          36.000    24373126.140    99803901.685        2822.025          39.000  
G29  25118837.623   132000420.850       -3508.152          34.000    25118832.641   102857425.894       -2734.047          36.000  
C30  25290847.726   131696111.708        2767.389          41.000                                                                  
G32                                                                  25709929.910                       -3244.026          26.000  
C13                                                                  40627925.449   163591777.962       -1891.759          37.000  
C08                                                                  41547336.489   167293902.905       -1849.189          40.000  
> 2025 11 03 07 38 16.4000000  0 27                     
G04  21463397.794   112790926.397        1292.080          44.000    21463387.251    87888980.571        1006.816          46.000  
G16  20203632.154   106170810.417         327.098          46.000                                                                  
G28  22923722.016   120464967.878       -2621.337          41.000    22923711.755    93868760.077       -2042.583          43.000  
G31  21003222.679   110372688.166       -1589.590          47.000    21003210.465    86004633.903       -1238.756          45.000  
G03  24400453.140   128225303.890       -2882.250          35.000    24400448.787    99915753.396       -2245.958          36.000  
G18  25239608.242   132635028.545        1444.832          34.000    25239598.656   103351951.254        1126.322          37.000  
C16  36733475.395   191280810.828           4.051          48.000    36733458.986   147910416.856           3.131          48.000  
C19  23679904.403   123307481.375       -2021.972          47.000                                                                  
C27  23664417.293   123226895.711        1260.138          46.000                                                                  
C06  36291185.160   188977695.906           1.812          47.000    36291164.273   146129479.226           1.157          49.000  
C09  37379580.603   194645265.322         110.922          45.000    37379563.457   150512013.623          85.681          48.000  
C22  24671175.479   128469315.646         807.598          42.000                                                                  
G26  20750591.231   109045102.291       -1857.935          48.000    20750582.010    84970165.170       -1447.705          46.000  
G27  22074746.770   116003582.530        3084.705          43.000    22074738.103    90392373.468        2403.690          42.000  
G09  24045707.293   126361044.061        2851.151          37.000    24045700.244    98463130.136        2221.746          39.000  
C28  24694054.838   128588428.513        -897.197          44.000                                                                  
C07  38085063.506   198318915.907         819.899          40.000    38085044.717   153352696.916         633.808          45.000  
C20  25373589.606   132126936.831       -3602.745          45.000                                                                  
C36  23936017.454   124641122.406        1438.165          43.000                                                                  
C37  24889795.979   129607703.568       -2377.597          42.000                                                                  
C10  39211037.636   204182160.849         752.357          38.000    39211024.577   157886607.753         581.618          44.000  
G08  24373095.035   128081482.218        3622.598          36.000    24373098.589    99803788.785        2822.288          39.000  
G29  25118864.346   132000561.180       -3508.240          34.000    25118859.336   102857535.227       -2733.671          36.000  
C30  25290826.456   131696001.008        2767.507          41.000                                                                  
G32                                                                  25709961.744                       -3244.114          26.000  
C13                                                                  40627944.249   163591853.630       -1891.739          37.000  
C08                                                                  41547354.810   167293976.884       -1849.473          40.000  
> 2025 11 03 07 38 16.4400000  0 27                     
G04  21463387.971   112790874.710        1292.141          44.000    21463377.418    87888940.289        1006.976          46.000  
G16  20203629.674   106170797.333         327.105          46.000                                                                  
G28  22923741.979   120465072.731       -2621.325          41.000    22923731.714    93868841.780       -2042.597          43.000  
G31  21003234.785   110372751.753       -1589.608          47.000    21003222.564    86004683.452       -1238.739          45.000  
G03  24400475.100   128225419.180       -2882.144          35.000    24400470.728    99915843.256       -2246.361          36.000  
G18  25239597.240   132634970.693        1445.853          34.000    25239587.641   103351906.191        1126.447          37.000  
C16  36733475.363   191280810.670           3.982          48.000    36733458.918   147910416.725           3.265          48.000  
C19  23679919.916   123307562.254       -2021.948          47.000                                                                  
C27  23664407.604   123226845.302        1260.181          46.000                                                                  
C06  36291185.120   188977695.830           1.901          47.000    36291164.265   146129479.172           1.271          49.000  
C09  37379579.770   194645260.880         111.030          45.000    37379562.612   150512010.188          85.814          48.000  
C22  24671169.277   128469283.358         807.406          42.000                                                                  
G26  20750605.383   109045176.603       -1857.831          48.000    20750596.141    84970223.078       -1447.668          46.000  
G27  22074723.278   116003459.134        3084.846          43.000    22074714.645    90392277.335        2403.412          42.000  
G09  24045685.578   126360930.006        2851.393          37.000    24045678.548    98463041.276        2221.605          39.000  
C28  24694061.744   128588464.408        -897.351          44.000                                                                  
C07  38085057.209   198318883.131         819.609          40.000    38085038.412   153352671.565         633.757          45.000  
C20  25373617.297   132127080.937       -3602.664          45.000                                                                  
C36  23936006.391   124641064.871        1438.251          43.000                                                                  
C37  24889814.267   129607798.660       -2377.384          42.000                                                                  
C10  39211031.859   204182130.765         752.213          38.000    39211018.818   157886584.477         581.752          44.000  
G08  24373067.459   128081337.351        3622.069          36.000    24373071.018    99803675.895        2822.350          39.000  
G29  25118891.033   132000701.499       -3508.035          34.000    25118886.045   102857644.584       -2733.806          36.000  
C30  25290805.157   131695890.321        2767.284          41.000                                                                  
G32                                                                  25709993.332                       -3244.632          26.000  
C13                                                                  40627963.066   163591929.292       -1891.578          37.000  
C08                                                                  41547373.167   167294050.842       -1849.182          40.000  
> 2025 11 03 07 38 16.4800000  0 27                     
G04  21463378.152   112790823.030        1292.018          44.000    21463367.604    87888900.022        1006.807          46.000  
G16  20203627.178   106170784.251         327.036          46.000                                                                  
G28  22923761.933   120465177.587       -2621.460          41.000    22923751.680    93868923.484       -2042.611          43.000  
G31  21003246.918   110372815.342       -1589.678          47.000    21003234.674    86004733.004       -1238.759          45.000  
G03  24400497.059   128225534.478       -2882.306          35.000    24400492.676    99915933.098       -2246.256          36.000  
G18  25239586.239   132634912.877        1445.685          34.000    25239576.642   103351861.160        1125.886          37.000  
C16  36733475.334   191280810.511           3.956          48.000    36733458.904   147910416.598           3.219          48.000  
C19  23679935.427   123307643.140       -2022.090          47.000                                                                  
C27  23664397.933   123226794.891        1260.260          46.000                                                                  
C06  36291185.094   188977695.768           1.696          47.000    36291164.262   146129479.121           1.276          49.000  
C09  37379578.940   194645256.441         111.052          45.000    37379561.768   150512006.755          85.843          48.000  
C22  24671163.081   128469251.063         807.346          42.000                                                                  
G26  20750619.510   109045250.921       -1857.904          48.000    20750610.308    84970280.980       -1447.559          46.000  
G27  22074699.799   116003335.754        3084.649          43.000    22074691.174    90392181.191        2403.456          42.000  
G09  24045663.866   126360815.965        2851.160          37.000    24045656.846    98462952.425        2221.255          39.000  
C28  24694068.647   128588500.300        -897.361          44.000                                                                  
C07  38085050.903   198318850.346         819.565          40.000    38085032.120   153352646.212         633.788          45.000  
C20  25373644.981   132127225.045       -3602.712          45.000                                                                  
C36  23935995.348   124641007.335        1438.324          43.000                                                                  
C37  24889832.524   129607893.767       -2377.514          42.000                                                                  
C10  39211026.095   204182100.650         752.707          38.000    39211013.025   157886561.206         581.800          44.000  
G08  24373039.897   128081192.483        3621.725          36.000    24373043.449    99803562.998        2822.407          39.000  
G29  25118917.748   132000841.803       -3507.726          34.000    25118912.745   102857753.912       -2733.461          36.000  
C30  25290783.878   131695779.639        2767.054          41.000                                                                  
G32                                                                  25710025.058                       -3245.135          26.000  
C13                                                                  40627981.869   163592004.943       -1891.380          37.000  
C08                                                                  41547391.542   167294124.802       -1849.028          40.000  
> 2025 11 03 07 38 16.5200000  0 27                     
G04  21463368.320   112790771.356        1291.869          44.000    21463357.798    87888859.753        1006.714          46.000  
G16  20203624.688   106170771.168         327.024          46.000                                                                  
G28  22923781.891   120465282.439       -2621.357          41.000    22923771.637    93869005.190       -2042.661          43.000  
G31  21003259.018   110372878.931       -1589.744          47.000    21003246.766    86004782.549       -1238.632          45.000  
G03  24400519.011   128225649.780       -2882.449          35.000    24400514.609    99916022.933       -2246.062          36.000  
G18  25239575.191   132634855.031        1446.049          34.000    25239565.650   103351816.088        1126.442          37.000  
C16  36733475.315   191280810.348           4.009          48.000    36733458.858   147910416.478           3.052          48.000  
C19  23679950.946   123307724.026       -2022.164          47.000                                                                  
C27  23664388.245   123226744.493        1260.038          46.000                                                                  
C06  36291185.077   188977695.704           1.584          47.000    36291164.249   146129479.064           1.392          49.000  
C09  37379578.103   194645252.001         111.037          45.000    37379560.908   150512003.322          85.834          48.000  
C22  24671156.873   128469218.776         807.213          42.000                                                                  
G26  20750633.669   109045325.239       -1857.953          48.000    20750624.461    84970338.899       -1447.845          46.000  
G27  22074676.352   116003212.375        3084.454          43.000    22074667.686    90392085.047        2403.484          42.000  
G09  24045642.187   126360701.921        2851.082          37.000    24045635.146    98462863.565        2221.278          39.000  
C28  24694075.557   128588536.202        -897.515          44.000                                                                  
C07  38085044.608   198318817.560         819.553          40.000    38085025.822   153352620.868         633.627          45.000  
C20  25373672.653   132127369.152       -3602.701          45.000                                                                  
C36  23935984.289   124640949.794        1438.434          43.000                                                                  
C37  24889850.795   129607988.874       -2377.640          42.000                                                                  
C10  39211020.317   204182070.583         752.041          38.000    39211007.250   157886537.934         581.887          44.000  
G08  24373012.335   128081047.625        3621.356          36.000    24373015.873    99803450.107        2822.317          39.000  
G29  25118944.453   132000982.135       -3508.029          34.000    25118939.449   102857863.268       -2733.698          36.000  
C30  25290762.617   131695668.949        2767.084          41.000                                                                  
G32                                                                  25710056.891                       -3244.332          26.000  
C13                                                                  40628000.661   163592080.617       -1891.650          37.000  
C08                                                                  41547409.907   167294198.758       -1848.899          40.000  
> 2025 11 03 07 38 16.5600000  0 27                     
G04  21463358.486   112790719.676        1291.902          44.000    21463347.972    87888819.492        1006.548          46.000  
G16  20203622.179   106170758.083         327.056          46.000                                                                  
G28  22923801.859   120465387.295       -2621.408          41.000    22923791.580    93869086.896       -2042.692          43.000  
G31  21003271.142   110372942.526       -1589.868          47.000    21003258.858    86004832.094       -1238.624          45.000  
G03  24400540.937   128225765.107       -2883.007          35.000    24400536.544    99916112.755       -2245.667          36.000  
G18  25239564.190   132634797.218        1445.496          34.000    25239554.623   103351771.023        1126.630          37.000  
C16  36733475.312   191280810.181           4.138          48.000    36733458.846   147910416.358           2.965          48.000  
C19  23679966.485   123307804.911       -2022.163          47.000                                                                  
C27  23664378.579   123226694.089        1260.033          46.000                                                                  
C06  36291185.055   188977695.640           1.555          47.000    36291164.259   146129479.011           1.333          49.000  
C09  37379577.271   194645247.557         111.073          45.000    37379560.066   150511999.885          85.883          48.000  
C22  24671150.666   128469186.479         807.280          42.000                                                                  
G26  20750647.834   109045399.558       -1858.014          48.000    20750638.586    84970396.806       -1447.791          46.000  
G27  22074652.875   116003088.984        3084.616          43.000    22074644.203    90391988.902        2403.577          42.000  
G09  24045620.496   126360587.898        2850.729          37.000    24045613.440    98462774.700        2221.399          39.000  
C28  24694082.428   128588572.088        -897.321          44.000                                                                  
C07  38085038.326   198318784.762         819.815          40.000    38085019.521   153352595.510         633.839          45.000  
C20  25373700.316   132127513.263       -3602.744          45.000                                                                  
C36  23935973.246   124640892.253        1438.501          43.000                                                                  
C37  24889869.066   129608083.965       -2377.404          42.000                                                                  
C10  39211014.542   204182040.481         752.306          38.000    39211001.462   157886514.670         581.685          44.000  
G08  24372984.763   128080902.748        3621.566          36.000    24372988.316    99803337.223        2822.095          39.000  
G29  25118971.179   132001122.482       -3508.425          34.000    25118966.148   102857972.604       -2733.488          36.000  
C30  25290741.368   131695558.247        2767.377          41.000                                                                  
G32                                                                  25710088.554                       -3243.431          26.000  
C13                                                                  40628019.440   163592156.287       -1891.735          37.000  
C08                                                                  41547428.290   167294272.722       -1848.999          40.000  
> 2025 11 03 07 38 16.6000000  0 27                     
G04  21463348.651   112790667.996        1291.945          44.000    21463338.152    87888779.222        1006.627          46.000  
G16  20203619.692   106170744.994         327.155          46.000                                                                  
G28  22923821.819   120465492.148       -2621.408          41.000    22923811.531    93869168.597       -2042.629          43.000  
G31  21003283.241   110373006.110       -1589.752          47.000    21003270.967    86004881.648       -1238.796          45.000  
G03  24400562.882   128225880.407       -2882.814          35.000    24400558.487    99916202.603       -2245.914          36.000  
G18  25239553.238   132634739.469        1444.108          34.000    25239543.616   103351725.979        1126.359          37.000  
C16  36733475.284   191280810.014           4.187          48.000    36733458.811   147910416.230           3.078          48.000  
C19  23679982.038   123307885.796       -2022.132          47.000                                                                  
C27  23664368.915   123226643.677        1260.187          46.000                                                                  
C06  36291185.053   188977695.572           1.591          47.000    36291164.257   146129478.958           1.312          49.000  
C09  37379576.378   194645243.129         110.835          45.000    37379559.217   150511996.452          85.811          48.000  
C22  24671144.472   128469154.189         807.216          42.000                                                                  
G26  20750661.970   109045473.871       -1857.892          48.000    20750652.724    84970454.717       -1447.809          46.000  
G27  22074629.391   116002965.590        3084.750          43.000    22074620.725    90391892.738        2403.950          42.000  
G09  24045598.810   126360473.870        2850.606          37.000    24045591.734    98462685.837        2221.486          39.000  
C28  24694089.319   128588607.985        -897.414          44.000                                                                  
C07  38085032.037   198318751.976         819.745          40.000    38085013.205   153352570.157         633.832          45.000  
C20  25373727.979   132127657.367       -3602.673          45.000                                                                  
C36  23935962.188   124640834.722        1438.349          44.000                                                                  
C37  24889887.331   129608179.069       -2377.504          42.000                                                                  
C10  39211008.757   204182010.393         752.217          38.000    39210995.637   157886491.411         581.509          44.000  
G08  24372957.210   128080757.844        3622.189          36.000    24372960.753    99803224.340        2822.010          39.000  
G29  25118997.876   132001262.819       -3508.493          34.000    25118992.835   102858081.945       -2733.528          36.000  
C30  25290720.109   131695447.556        2767.314          41.000                                                                  
G32                                                                  25710120.104                       -3243.775          26.000  
C13                                                                  40628038.222   163592231.948       -1891.567          37.000  
C08                                                                  41547446.658   167294346.696       -1849.283          40.000  
> 2025 11 03 07 38 16.6400000  0 27                     
G04  21463338.819   112790616.320        1291.913          44.000    21463328.318    87888738.950        1006.733          46.000  
G16  20203617.200   106170731.911         327.124          46.000                                                                  
G28  22923841.778   120465597.003       -2621.446          41.000    22923831.488    93869250.306       -2042.724          43.000  
G31  21003295.346   110373069.696       -1589.697          47.000    21003283.063    86004931.200       -1238.846          45.000  
G03  24400584.828   128225995.683       -2882.136          35.000    24400580.423    99916292.467       -2246.375          36.000  
G18  25239542.248   132634681.597        1445.677          34.000    25239532.589   103351680.921        1126.389          37.000  
C16  36733475.232   191280809.854           4.058          48.000    36733458.787   147910416.098           3.194          48.000  
C19  23679997.571   123307966.680       -2022.126          47.000                                                                  
C27  23664359.235   123226593.282        1259.965          46.000                                                                  
C06  36291185.069   188977695.499           1.731          47.000    36291164.240   146129478.907           1.246          49.000  
C09  37379575.543   194645238.693         110.819          45.000    37379558.352   150511993.022          85.740          48.000  
C22  24671138.291   128469121.897         807.238          42.000                                                                  
G26  20750676.110   109045548.187       -1857.886          48.000    20750666.842    84970512.630       -1447.845          46.000  
G27  22074605.923   116002842.200        3084.774          43.000    22074597.251    90391796.593        2403.800          42.000  
G09  24045577.098   126360359.813        2851.032          37.000    24045570.019    98462596.974        2221.511          39.000  
C28  24694096.194   128588643.872        -897.296          44.000                                                                  
C07  38085025.708   198318719.180         819.857          40.000    38085006.898   153352544.798         633.925          45.000  
C20  25373755.628   132127801.478       -3602.791          45.000                                                                  
C36  23935951.148   124640777.196        1438.147          44.000                                                                  
C37  24889905.612   129608274.168       -2377.470          42.000                                                                  
C10  39211002.983   204181980.298         752.328          38.000    39210989.862   157886468.140         581.635          44.000  
G08  24372929.646   128080612.980        3621.857          36.000    24372933.177    99803111.436        2822.345          39.000  
G29  25119024.600   132001403.139       -3508.232          34.000    25119019.534   102858191.280       -2733.486          36.000  
C30  25290698.855   131695336.849        2767.543          41.000                                                                  
G32                                                                  25710151.858                       -3243.808          26.000  
C13                                                                  40628057.009   163592307.614       -1891.608          37.000  
C08                                                                  41547465.033   167294420.647       -1848.918          40.000  
> 2025 11 03 07 38 16.6800000  0 27                     
G04  21463329.001   112790564.633        1292.078          44.000    21463318.485    87888698.673        1006.904          46.000  
G16  20203614.709   106170718.820         327.242          46.000                                                                  
G28  22923861.747   120465701.855       -2621.376          41.000    22923851.446    93869332.004       -2042.527          43.000  
G31  21003307.438   110373133.286       -1589.705          47.000    21003295.144    86004980.741       -1238.671          45.000  
G03  24400606.752   128226110.949       -2881.669          35.000    24400602.357    99916382.306       -2246.259          36.000  
G18  25239531.261   132634623.746        1446.089          34.000    25239521.601   103351635.873        1126.270          37.000  
C16  36733475.205   191280809.689           4.092          48.000    36733458.739   147910415.967           3.257          48.000  
C19  23680013.093   123308047.562       -2022.058          47.000                                                                  
C27  23664349.556   123226542.875        1260.064          46.000                                                                  
C06  36291185.062   188977695.428           1.759          47.000    36291164.240   146129478.845           1.439          49.000  
C09  37379574.707   194645234.243         111.083          45.000    37379557.528   150511989.586          85.806          48.000  
C22  24671132.090   128469089.592         807.472          42.000                                                                  
G26  20750690.272   109045622.504       -1857.910          48.000    20750680.978    84970570.538       -1447.754          46.000  
G27  22074582.439   116002718.803        3084.929          43.000    22074573.770    90391700.453        2403.597          42.000  
G09  24045555.394   126360245.745        2851.555          37.000    24045548.305    98462508.094        2221.776          39.000  
C28  24694103.081   128588679.766        -897.344          44.000                                                                  
C07  38085019.435   198318686.402         819.594          40.000    38085000.620   153352519.445         633.868          45.000  
C20  25373783.322   132127945.572       -3602.481          45.000                                                                  
C36  23935940.113   124640719.653        1438.410          44.000                                                                  
C37  24889923.873   129608369.261       -2377.308          42.000                                                                  
C10  39210997.197   204181950.192         752.564          38.000    39210984.088   157886444.855         581.939          44.000  
G08  24372902.047   128080468.055        3622.694          36.000    24372905.597    99802998.529        2822.590          39.000  
G29  25119051.308   132001543.455       -3508.003          34.000    25119046.235   102858300.652       -2734.087          36.000  
C30  25290677.582   131695226.155        2767.477          41.000                                                                  
G32                                                                  25710183.508                       -3243.200          26.000  
C13                                                                  40628075.777   163592383.265       -1891.427          37.000  
C08                                                                  41547483.394   167294494.604       -1848.788          40.000  
> 2025 11 03 07 38 16.7200000  0 27                     
G04  21463319.140   112790512.943        1292.211          44.000    21463308.634    87888658.398        1006.909          46.000  
G16  20203612.203   106170705.720         327.465          46.000                                                                  
G28  22923881.688   120465806.695       -2621.118          41.000    22923871.390    93869413.698       -2042.404          43.000  
G31  21003319.531   110373196.860       -1589.460          47.000    21003307.254    86005030.288       -1238.679          45.000  
G03  24400628.712   128226226.226       -2881.600          35.000    24400624.294    99916472.126       -2245.729          36.000  
G18  25239520.261   132634565.903        1446.165          34.000    25239510.584   103351590.799        1126.621          37.000  
C16  36733475.191   191280809.518           4.196          48.000    36733458.720   147910415.836           3.287          48.000  
C19  23680028.607   123308128.443       -2022.009          47.000                                                                  
C27  23664339.868   123226492.459        1260.311          46.000                                                                  
C06  36291185.071   188977695.343           2.032          47.000    36291164.242   146129478.786           1.461          49.000  
C09  37379573.840   194645229.785         111.361          45.000    37379556.675   150511986.145          85.933          48.000  
C22  24671125.907   128469057.283         807.647          42.000                                                                  
G26  20750704.401   109045696.809       -1857.697          48.000    20750695.154    84970628.433       -1447.467          46.000  
G27  22074558.973   116002595.417        3084.810          43.000    22074550.282    90391604.308        2403.561          42.000  
G09  24045533.686   126360131.707        2851.240          37.000    24045526.604    98462419.227        2221.693          39.000  
C28  24694109.938   128588715.649        -897.156          44.000                                                                  
C07  38085013.155   198318653.604         819.864          40.000    38084994.323   153352494.088         633.924          45.000  
C20  25373811.002   132128089.669       -3602.410          45.000                                                                  
C36  23935929.063   124640662.093        1438.892          44.000                                                                  
C37  24889942.128   129608464.340       -2376.976          42.000                                                                  
C10  39210991.419   204181920.074         752.865          38.000    39210978.269   157886421.569         582.158          44.000  
G08  24372874.486   128080323.165        3622.512          36.000    24372878.030    99802885.624        2822.731          39.000  
G29  25119078.016   132001683.756       -3507.684          34.000    25119072.938   102858409.985       -2733.666          36.000  
C30  25290656.336   131695115.450        2767.575          41.000                                                                  
G32                                                                  25710215.508                       -3243.599          26.000  
C13                                                                  40628094.585   163592458.923       -1891.456          37.000  
C08                                                                  41547501.737   167294568.552       -1848.636          40.000  
> 2025 11 03 07 38 16.7600000  0 27                     
G04  21463309.299   112790461.250        1292.302          44.000    21463298.810    87888618.112        1007.081          46.000  
G16  20203609.729   106170692.628         327.406          46.000                                                                  
G28  22923901.620   120465911.525       -2620.821          41.000    22923891.337    93869495.383       -2042.186          43.000  
G31  21003331.630   110373260.433       -1589.329          47.000    21003319.367    86005079.823       -1238.498          45.000  
G03  24400650.653   128226341.535       -2882.251          35.000    24400646.218    99916561.950       -2245.539          36.000  
G18  25239509.299   132634508.115        1445.193          34.000    25239499.565   103351545.718        1127.016          37.000  
C16  36733475.169   191280809.334           4.493          48.000    36733458.713   147910415.699           3.415          48.000  
C19  23680044.144   123308209.311       -2021.794          47.000                                                                  
C27  23664330.165   123226442.044        1260.390          46.000                                                                  
C06  36291185.056   188977695.252           2.247          47.000    36291164.217   146129478.721           1.589          49.000  
C09  37379572.965   194645225.332         111.399          45.000    37379555.803   150511982.702          86.020          48.000  
C22  24671119.706   128469024.981         807.573          42.000                                                                  
G26  20750718.526   109045771.108       -1857.477          48.000    20750709.283    84970686.322       -1447.235          46.000  
G27  22074535.504   116002472.013        3085.055          43.000    22074526.817    90391508.151        2403.824          42.000  
G09  24045511.978   126360017.657        2851.200          37.000    24045504.896    98462330.344        2221.879          39.000  
C28  24694116.838   128588751.527        -896.996          44.000                                                                  
C07  38085006.859   198318620.803         820.011          40.000    38084988.027   153352468.716         634.197          45.000  
C20  25373838.678   132128233.763       -3602.324          45.000                                                                  
C36  23935918.002   124640604.542        1438.855          44.000                                                                  
C37  24889960.350   129608559.426       -2377.008          42.000                                                                  
C10  39210985.621   204181889.961         752.901          38.000    39210972.483   157886398.281         582.278          44.000  
G08  24372846.900   128080178.285        3622.162          36.000    24372850.461    99802772.721        2822.721          39.000  
G29  25119104.745   132001824.053       -3507.298          34.000    25119099.616   102858519.299       -2733.060          36.000  
C30  25290635.078   131695004.745        2767.625          41.000                                                                  
G32                                                                  25710247.150                       -3243.833          26.000  
C13                                                                  40628113.394   163592534.582       -1891.469          37.000  
C08                                                                  41547520.111   167294642.509       -1848.767          40.000  
> 2025 11 03 07 38 16.8000000  0 27                     
G04  21463299.483   112790409.562        1292.257          44.000    21463288.999    87888577.839        1006.936          46.000  
G16  20203607.258   106170679.543         327.225          46.000                                                                  
G28  22923921.578   120466016.373       -2621.033          41.000    22923911.283    93869577.079       -2042.310          43.000  
G31  21003343.746   110373324.014       -1589.420          47.000    21003331.486    86005129.366       -1238.551          45.000  
G03  24400672.592   128226456.829       -2882.462          35.000    24400668.144    99916651.787       -2245.867          36.000  
G18  25239498.289   132634450.299        1445.193          34.000    25239488.568   103351500.679        1126.317          37.000  
C16  36733475.107   191280809.156           4.536          48.000    36733458.703   147910415.559           3.503          48.000  
C19  23680059.651   123308290.187       -2021.819          47.000                                                                  
C27  23664320.489   123226391.628        1260.438          46.000                                                                  
C06  36291185.011   188977695.172           2.144          47.000    36291164.199   146129478.657           1.591          49.000  
C09  37379572.088   194645220.884         111.292          45.000    37379554.985   150511979.259          86.069          48.000  
C22  24671113.501   128468992.679         807.533          42.000                                                                  
G26  20750732.700   109045845.420       -1857.672          48.000    20750723.428    84970744.228       -1447.485          46.000  
G27  22074512.024   116002348.614        3085.048          43.000    22074503.320    90391411.987        2404.064          42.000  
G09  24045490.269   126359903.594        2851.419          37.000    24045483.191    98462241.476        2221.724          39.000  
C28  24694123.716   128588787.417        -897.134          44.000                                                                  
C07  38085000.548   198318588.004         820.047          40.000    38084981.725   153352443.351         634.194          45.000  
C20  25373866.354   132128377.859       -3602.361          45.000                                                                  
C36  23935906.943   124640547.000        1438.690          44.000                                                                  
C37  24889978.619   129608654.528       -2377.343          42.000                                                                  
C10  39210979.826   204181859.870         752.544          38.000    39210966.713   157886375.007         582.048          44.000  
G08  24372819.305   128080033.380        3622.485          36.000    24372822.888    99802659.830        2822.415          39.000  
G29  25119131.490   132001964.386       -3507.882          34.000    25119126.312   102858628.630       -2733.053          36.000  
C30  25290613.818   131694894.037        2767.659          41.000                                                                  
G32                                                                  25710278.994                       -3244.298          26.000  
C13                                                                  40628132.187   163592610.232       -1891.376          37.000  
C08                                                                  41547538.483   167294716.462       -1848.841          40.000  
> 2025 11 03 07 38 16.8400000  0 27                     
G04  21463289.663   112790357.884        1292.050          44.000    21463279.189    87888537.575        1006.700          46.000  
G16  20203604.790   106170666.465         326.958          46.000                                                                  
G28  22923941.541   120466121.222       -2621.191          41.000    22923931.246    93869658.794       -2042.757          43.000  
G31  21003355.860   110373387.607       -1589.701          47.000    21003343.580    86005178.906       -1238.541          45.000  
G03  24400694.527   128226572.121       -2882.444          35.000    24400690.096    99916741.620       -2245.936          36.000  
G18  25239487.268   132634392.439        1445.984          34.000    25239477.588   103351455.638        1126.018          37.000  
C16  36733475.095   191280808.988           4.346          48.000    36733458.686   147910415.433           3.273          48.000  
C19  23680075.149   123308371.071       -2022.036          47.000                                                                  
C27  23664310.782   123226341.227        1260.185          46.000                                                                  
C06  36291184.978   188977695.107           1.791          47.000    36291164.178   146129478.602           1.449          49.000  
C09  37379571.235   194645216.443         111.051          45.000    37379554.111   150511975.823          85.958          48.000  
C22  24671107.276   128468960.409         806.960          42.000                                                                  
G26  20750746.849   109045919.733       -1857.794          48.000    20750737.581    84970802.139       -1447.723          46.000  
G27  22074488.571   116002225.239        3084.599          43.000    22074479.853    90391315.846        2403.719          42.000  
G09  24045468.580   126359789.567        2850.958          37.000    24045461.507    98462152.612        2221.517          39.000  
C28  24694130.619   128588823.314        -897.363          44.000                                                                  
C07  38084994.253   198318555.213         819.865          40.000    38084975.439   153352417.989         634.105          45.000  
C20  25373894.039   132128521.966       -3602.601          45.000                                                                  
C36  23935895.869   124640489.469        1438.367          44.000                                                                  
C37  24889996.895   129608749.625       -2377.462          42.000                                                                  
C10  39210974.053   204181829.772         752.448          38.000    39210960.926   157886351.739         581.809          44.000  
G08  24372791.740   128079888.512        3621.918          36.000    24372795.322    99802546.929        2822.466          39.000  
G29  25119158.190   132002104.716       -3508.184          34.000    25119153.000   102858737.994       -2733.825          36.000  
C30  25290592.563   131694783.330        2767.650          41.000                                                                  
G32                                                                  25710310.690                       -3245.239          26.000  
C13                                                                  40628150.958   163592685.876       -1891.155          37.000  
C08                                                                  41547556.830   167294790.419       -1848.884          40.000  
> 2025 11 03 07 38 16.8800000  0 27                     
G04  21463279.836   112790306.212        1291.803          44.000    21463269.370    87888497.307        1006.627          46.000  
G16  20203602.289   106170653.386         326.873          46.000                                                                  
G28  22923961.514   120466226.088       -2621.572          41.000    22923951.219    93869740.503       -2042.859          43.000  
G31  21003367.933   110373451.190       -1589.667          47.000    21003355.688    86005228.452       -1238.622          45.000  
G03  24400716.476   128226687.408       -2882.302          35.000    24400712.058    99916831.472       -2246.273          36.000  
G18  25239476.287   132634334.600        1446.011          34.000    25239466.575   103351410.546        1126.826          37.000  
C16  36733475.042   191280808.823           4.165          48.000    36733458.658   147910415.302           3.195          48.000  
C19  23680090.678   123308451.960       -2022.208          47.000                                                                  
C27  23664301.081   123226290.817        1260.173          46.000                                                                  
C06  36291184.984   188977695.035           1.711          47.000    36291164.185   146129478.550           1.313          49.000  
C09  37379570.389   194645212.004         110.935          45.000    37379553.278   150511972.385          85.932          48.000  
C22  24671101.055   128468928.107         807.235          42.000                                                                  
G26  20750760.993   109045994.051       -1857.953          48.000    20750751.733    84970860.048       -1447.772          46.000  
G27  22074465.117   116002101.853        3084.547          43.000    22074456.387    90391219.696        2403.710          42.000  
G09  24045446.877   126359675.509        2851.273          37.000    24045439.793    98462063.752        2221.373          39.000  
C28  24694137.516   128588859.207        -897.410          44.000                                                                  
C07  38084987.951   198318522.419         819.840          40.000    38084969.133   153352392.639         633.826          45.000  
C20  25373921.721   132128666.071       -3602.687          45.000                                                                  
C36  23935884.848   124640431.922        1438.525          44.000                                                                  
C37  24890015.152   129608844.720       -2377.464          42.000                                                                  
C10  39210968.290   204181799.696         751.935          38.000    39210955.154   157886328.465         581.783          44.000  
G08  24372764.152   128079743.625        3622.004          36.000    24372767.757    99802434.038        2822.297          39.000  
G29  25119184.870   132002245.035       -3508.144          34.000    25119179.687   102858847.328       -2733.639          36.000  
C30  25290571.298   131694672.632        2767.502          41.000                                                                  
G32                                                                  25710342.704                       -3244.749          26.000  
C13                                                                  40628169.748   163592761.541       -1891.456          37.000  
C08                                                                  41547575.204   167294864.379       -1849.013          40.000  
> 2025 11 03 07 38 16.9200000  0 27                     
G04  21463270.002   112790254.528        1291.912          44.000    21463259.518    87888457.040        1006.600          46.000  
G16  20203599.797   106170640.297         327.074          46.000                                                                  
G28  22923981.469   120466330.937       -2621.390          41.000    22923971.177    93869822.206       -2042.729          43.000  
G31  21003380.035   110373514.775       -1589.664          47.000    21003367.798    86005278.007       -1238.816          45.000  
G03  24400738.384   128226802.701       -2882.366          35.000    24400733.998    99916921.303       -2246.107          36.000  
G18  25239465.244   132634276.804        1445.307          34.000    25239455.571   103351365.493        1126.561          37.000  
C16  36733475.037   191280808.657           4.083          48.000    36733458.631   147910415.172           3.173          48.000  
C19  23680106.188   123308532.846       -2022.244          47.000                                                                  
C27  23664291.401   123226240.416        1260.025          46.000                                                                  
C06  36291184.992   188977694.957           1.825          47.000    36291164.161   146129478.489           1.398          49.000  
C09  37379569.542   194645207.557         111.023          45.000    37379552.414   150511968.953          85.792          48.000  
C22  24671094.866   128468895.806         807.441          42.000                                                                  
G26  20750775.138   109046068.364       -1857.947          48.000    20750765.867    84970917.956       -1447.791          46.000  
G27  22074441.640   116001978.469        3084.508          43.000    22074432.915    90391123.559        2403.465          42.000  
G09  24045425.170   126359561.470        2851.132          37.000    24045418.086    98461974.885        2221.489          39.000  
C28  24694144.426   128588895.093        -897.275          44.000                                                                  
C07  38084981.655   198318489.620         819.871          40.000    38084962.830   153352367.291         633.647          45.000  
C20  25373949.399   132128810.176       -3602.709          45.000                                                                  
C36  23935873.803   124640374.380        1438.568          44.000                                                                  
C37  24890033.411   129608939.808       -2377.306          42.000                                                                  
C10  39210962.514   204181769.595         752.228          38.000    39210949.391   157886305.207         581.509          44.000  
G08  24372736.566   128079598.748        3621.849          36.000    24372740.192    99802321.131        2822.527          39.000  
G29  25119211.563   132002385.379       -3508.485          34.000    25119206.377   102858956.668       -2733.601          36.000  
C30  25290550.019   131694561.934        2767.441          41.000                                                                  
G32                                                                  25710374.057                       -3244.516          26.000  
C13                                                                  40628188.550   163592837.211       -1891.748          37.000  
C08                                                                  41547593.535   167294938.339       -1849.068          40.000  
> 2025 11 03 07 38 16.9600000  0 27                     
G04  21463260.149   112790202.847        1291.954          44.000    21463249.658    87888416.767        1006.703          46.000  
G16  20203597.299   106170627.211         327.124          46.000                                                                  
G28  22924001.409   120466435.784       -2621.277          41.000    22923991.107    93869903.903       -2042.507          43.000  
G31  21003392.126   110373578.358       -1589.621          47.000    21003379.897    86005327.560       -1238.874          45.000  
G03  24400760.337   128226917.983       -2882.224          35.000    24400755.943    99917011.141       -2246.124          36.000  
G18  25239454.240   132634218.981        1445.399          34.000    25239444.559   103351320.451        1126.156          37.000  
C16  36733475.013   191280808.484           4.207          48.000    36733458.607   147910415.041           3.204          48.000  
C19  23680121.729   123308613.725       -2022.114          47.000                                                                  
C27  23664281.725   123226190.016        1259.965          46.000                                                                  
C06  36291184.942   188977694.882           1.860          47.000    36291164.148   146129478.426           1.511          49.000  
C09  37379568.679   194645203.110         111.081          45.000    37379551.558   150511965.515          85.854          48.000  
C22  24671088.668   128468863.500         807.605          42.000                                                                  
G26  20750789.245   109046142.676       -1857.855          48.000    20750780.008    84970975.861       -1447.736          46.000  
G27  22074418.153   116001855.060        3084.976          43.000    22074409.445    90391027.413        2403.496          42.000  
G09  24045403.472   126359447.432        2850.970          37.000    24045396.393    98461886.028        2221.407          39.000  
C28  24694151.307   128588930.992        -897.411          44.000                                                                  
C07  38084975.376   198318456.838         819.622          40.000    38084956.542   153352341.933         633.781          45.000  
C20  25373977.075   132128954.267       -3602.435          45.000                                                                  
C36  23935862.743   124640316.843        1438.489          44.000                                                                  
C37  24890051.691   129609034.893       -2377.172          42.000                                                                  
C10  39210956.718   204181739.488         752.488          38.000    39210943.593   157886281.925         581.784          44.000  
G08  24372708.996   128079453.856        3622.116          36.000    24372712.622    99802208.233        2822.440          39.000  
G29  25119238.279   132002525.716       -3508.499          34.000    25119233.087   102859066.004       -2733.531          36.000  
C30  25290528.758   131694451.229        2767.527          41.000                                                                  
G32                                                                  25710405.902                       -3244.067          26.000  
C13                                                                  40628207.334   163592912.869       -1891.673          37.000  
C08                                                                  41547611.892   167295012.297       -1849.025          40.000  
> 2025 11 03 07 38 17.0000000  0 27                     
G04  21463250.328   112790151.168        1291.927          44.000    21463239.828    87888376.492        1006.836          46.000  
G16  20203594.818   106170614.122         327.217          46.000                                                                  
G28  22924021.369   120466540.624       -2621.083          41.000    22924011.047    93869985.593       -2042.289          43.000  
G31  21003404.203   110373641.944       -1589.655          47.000    21003391.998    86005377.109       -1238.857          45.000  
G03  24400782.294   128227033.273       -2882.241          35.000    24400777.884    99917100.978       -2246.027          36.000  
G18  25239443.207   132634161.158        1445.499          34.000    25239433.567   103351275.402        1126.121          37.000  
C16  36733474.997   191280808.313           4.247          48.000    36733458.603   147910414.906           3.309          48.000  
C19  23680137.254   123308694.612       -2022.176          47.000                                                                  
C27  23664272.060   123226139.607        1260.132          46.000                                                                  
C06  36291184.949   188977694.802           1.945          47.000    36291164.159   146129478.366           1.515          49.000  
C09  37379567.821   194645198.658         111.208          45.000    37379550.712   150511962.075          85.957          48.000  
C22  24671082.458   128468831.207         807.423          42.000                                                                  
G26  20750803.400   109046216.991       -1857.873          48.000    20750794.158    84971033.771       -1447.760          46.000  
G27  22074394.688   116001731.684        3084.586          43.000    22074385.964    90390931.266        2403.565          42.000  
G09  24045381.773   126359333.386        2851.086          37.000    24045374.689    98461797.173        2221.331          39.000  
C28  24694158.186   128588966.888        -897.455          44.000                                                                  
C07  38084969.087   198318424.046         819.668          40.000    38084950.246   153352316.576         633.862          45.000  
C20  25374004.741   132129098.365       -3602.427          45.000                                                                  
C36  23935851.710   124640259.293        1438.648          44.000                                                                  
C37  24890069.960   129609129.996       -2377.442          42.000                                                                  
C10  39210950.931   204181709.379         752.739          38.000    39210937.799   157886258.644         581.936          44.000  
G08  24372681.409   128079308.967        3622.229          36.000    24372685.076    99802095.334        2822.472          39.000  
G29  25119264.978   132002665.989       -3507.352          34.000    25119259.779   102859175.354       -2733.644          36.000  
C30  25290507.494   131694340.535        2767.399          41.000                                                                  
G32                                                                  25710437.503                       -3244.105          26.000  
C13                                                                  40628226.115   163592988.537       -1891.765          37.000  
C08                                                                  41547630.255   167295086.241       -1848.735          40.000  
> 2025 11 03 07 38 17.0400000  0 27                     
G04  21463240.471   112790099.488        1291.957          44.000    21463230.002    87888336.220        1006.819          46.000  
G16  20203592.331   106170601.036         327.172          46.000                                                                  
G28  22924041.310   120466645.462       -2620.948          41.000    22924030.986    93870067.289       -2042.332          43.000  
G31  21003416.307   110373705.528       -1589.646          47.000    21003404.100    86005426.652       -1238.694          45.000  
G03  24400804.244   128227148.545       -2881.926          35.000    24400799.825    99917190.813       -2245.898          36.000  
G18  25239432.223   132634103.302        1446.173          34.000    25239422.556   103351230.336        1126.493          37.000  
C16  36733474.974   191280808.132           4.420          48.000    36733458.585   147910414.766           3.437          48.000  
C19  23680152.789   123308775.490       -2022.046          47.000                                                                  
C27  23664262.381   123226089.197        1260.212          46.000                                                                  
C06  36291184.927   188977694.714           2.161          47.000    36291164.145   146129478.301           1.606          49.000  
C09  37379566.957   194645194.209         111.206          45.000    37379549.862   150511958.625          86.167          48.000  
C22  24671076.267   128468798.915         807.297          42.000                                                                  
G26  20750817.543   109046291.296       -1857.697          48.000    20750808.268    84971091.668       -1447.559          46.000  
G27  22074371.196   116001608.297        3084.591          43.000    22074362.472    90390835.104        2403.896          42.000  
G09  24045360.051   126359219.326        2851.368          37.000    24045352.979    98461708.282        2221.904          39.000  
C28  24694165.077   128589002.786        -897.525          44.000                                                                  
C07  38084962.792   198318391.240         819.980          40.000    38084943.946   153352291.212         634.029          45.000  
C20  25374032.416   132129242.457       -3602.340          45.000                                                                  
C36  23935840.629   124640201.752        1438.605          44.000                                                                  
C37  24890088.227   129609225.092       -2377.499          42.000                                                                  
C10  39210945.134   204181679.262         752.995          38.000    39210932.024   157886235.368         581.909          44.000  
G08  24372653.856   128079164.059        3622.575          36.000    24372657.483    99801982.423        2822.674          39.000  
G29  25119291.678   132002806.307       -3507.512          34.000    25119286.489   102859284.702       -2733.740          36.000  
C30  25290486.233   131694229.830        2767.517          41.000                                                                  
G32                                                                  25710469.269                       -3243.534          26.000  
C13                                                                  40628244.879   163593064.173       -1891.197          37.000  
C08                                                                  41547648.623   167295160.190       -1848.656          40.000  
> 2025 11 03 07 38 17.0800000  0 27                     
G04  21463230.610   112790047.804        1292.014          44.000    21463220.165    87888295.952        1006.740          46.000  
G16  20203589.858   106170587.950         327.166          46.000                                                                  
G28  22924061.272   120466750.309       -2621.057          41.000    22924050.933    93870148.996       -2042.598          43.000  
G31  21003428.399   110373769.103       -1589.460          47.000    21003416.200    86005476.191       -1238.538          45.000  
G03  24400826.190   128227263.839       -2882.229          35.000    24400821.757    99917280.625       -2245.369          36.000  
G18  25239421.237   132634045.468        1446.036          34.000    25239411.527   103351185.257        1126.784          37.000  
C16  36733474.927   191280807.958           4.396          48.000    36733458.572   147910414.628           3.479          48.000  
C19  23680168.318   123308856.376       -2022.139          47.000                                                                  
C27  23664252.682   123226038.793        1260.125          46.000                                                                  
C06  36291184.908   188977694.628           2.198          47.000    36291164.137   146129478.242           1.528          49.000  
C09  37379566.096   194645189.757         111.249          45.000    37379549.018   150511955.184          86.104          48.000  
C22  24671070.044   128468766.619         807.307          42.000                                                                  
G26  20750831.672   109046365.608       -1857.776          48.000    20750822.424    84971149.574       -1447.620          46.000  
G27  22074347.736   116001484.913        3084.541          43.000    22074338.976    90390738.958        2403.786          42.000  
G09  24045338.341   126359105.294        2851.051          37.000    24045331.269    98461619.419        2221.693          39.000  
C28  24694171.962   128589038.665        -897.188          44.000                                                                  
C07  38084956.459   198318358.440         820.009          40.000    38084937.639   153352265.845         634.127          45.000  
C20  25374060.097   132129386.555       -3602.400          45.000                                                                  
C36  23935829.567   124640144.209        1438.599          44.000                                                                  
C37  24890106.493   129609320.182       -2377.391          42.000                                                                  
C10  39210939.347   204181649.161         752.749          38.000    39210926.259   157886212.081         582.092          44.000  
G08  24372626.309   128079019.166        3622.383          36.000    24372629.915    99801869.521        2822.615          39.000  
G29  25119318.388   132002946.630       -3507.912          34.000    25119313.202   102859394.048       -2733.717          36.000  
C30  25290464.982   131694119.118        2767.714          41.000                                                                  
G32                                                                  25710500.898                       -3243.468          26.000  
C13                                                                  40628263.674   163593139.819       -1891.142          37.000  
C08                                                                  41547667.005   167295234.138       -1848.675          40.000  
> 2025 11 03 07 38 17.1200000  0 27                     
G04  21463220.789   112789996.125        1291.959          44.000    21463210.338    87888255.686        1006.675          46.000  
G16  20203587.354   106170574.864         327.147          46.000                                                                  
G28  22924081.255   120466855.174       -2621.459          41.000    22924070.899    93870230.701       -2042.638          43.000  
G31  21003440.526   110373832.691       -1589.569          47.000    21003428.310    86005525.733       -1238.517          45.000  
G03  24400848.152   128227379.175       -2883.322          35.000    24400843.687    99917370.481       -2245.941          36.000  
G18  25239410.225   132633987.668        1445.436          34.000    25239400.514   103351140.196        1126.703          37.000  
C16  36733474.888   191280807.780           4.455          48.000    36733458.547   147910414.500           3.307          48.000  
C19  23680183.838   123308937.255       -2022.059          47.000                                                                  
C27  23664243.004   123225988.387        1260.088          46.000                                                                  
C06  36291184.913   188977694.556           1.962          47.000    36291164.109   146129478.179           1.548          49.000  
C09  37379565.245   194645185.306         111.253          45.000    37379548.152   150511951.746          85.980          48.000  
C22  24671063.834   128468734.335         807.087          42.000                                                                  
G26  20750845.835   109046439.920       -1857.794          48.000    20750836.563    84971207.478       -1447.638          46.000  
G27  22074324.249   116001361.511        3084.847          43.000    22074315.498    90390642.814        2403.669          42.000  
G09  24045316.621   126358991.243        2851.128          37.000    24045309.583    98461530.541        2221.875          39.000  
C28  24694178.837   128589074.562        -897.304          44.000                                                                  
C07  38084950.158   198318325.648         819.827          40.000    38084931.354   153352240.483         634.075          45.000  
C20  25374087.767   132129530.661       -3602.599          45.000                                                                  
C36  23935818.515   124640086.668        1438.544          44.000                                                                  
C37  24890124.756   129609415.258       -2377.014          42.000                                                                  
C10  39210933.589   204181619.063         752.586          38.000    39210920.471   157886188.809         581.927          44.000  
G08  24372598.733   128078874.281        3622.170          36.000    24372602.351    99801756.620        2822.548          39.000  
G29  25119345.086   132003086.954       -3508.093          34.000    25119339.910   102859503.378       -2733.447          36.000  
C30  25290443.716   131694008.414        2767.691          41.000                                                                  
G32                                                                  25710532.485                       -3243.387          26.000  
C13                                                                  40628282.489   163593215.495       -1891.666          37.000  
C08                                                                  41547685.374   167295308.090       -1848.756          40.000  
> 2025 11 03 07 38 17.1600000  0 27                     
G04  21463210.974   112789944.449        1291.910          44.000    21463200.500    87888215.422        1006.549          46.000  
G16  20203584.875   106170561.784         327.023          46.000                                                                  
G28  22924101.222   120466960.020       -2621.336          41.000    22924090.843    93870312.404       -2042.623          43.000  
G31  21003452.634   110373896.277       -1589.596          47.000    21003440.416    86005575.280       -1238.602          45.000  
G03  24400870.101   128227494.450       -2882.682          35.000    24400865.627    99917460.314       -2245.947          36.000  
G18  25239399.242   132633929.864        1445.143          34.000    25239389.512   103351095.150        1126.363          37.000  
C16  36733474.876   191280807.609           4.362          48.000    36733458.524   147910414.364           3.327          48.000  
C19  23680199.355   123309018.143       -2022.213          47.000                                                                  
C27  23664233.318   123225937.981        1260.081          46.000                                                                  
C06  36291184.907   188977694.485           1.813          47.000    36291164.112   146129478.119           1.521          49.000  
C09  37379564.383   194645180.853         111.271          45.000    37379547.311   150511948.307          85.957          48.000  
C22  24671057.644   128468702.038         807.237          42.000                                                                  
G26  20750859.993   109046514.239       -1857.953          48.000    20750850.727    84971265.382       -1447.632          46.000  
G27  22074300.761   116001238.112        3084.965          43.000    22074292.040    90390546.666        2403.718          42.000  
G09  24045294.916   126358877.199        2851.089          37.000    24045287.856    98461441.673        2221.773          39.000  
C28  24694185.702   128589110.454        -897.318          44.000                                                                  
C07  38084943.864   198318292.850         819.877          40.000    38084925.059   153352215.126         633.957          45.000  
C20  25374115.449   132129674.757       -3602.486          45.000                                                                  
C36  23935807.454   124640029.126        1438.519          44.000                                                                  
C37  24890143.005   129609510.342       -2377.003          42.000                                                                  
C10  39210927.786   204181588.979         752.221          38.000    39210914.707   157886165.535         581.827          44.000  
G08  24372571.130   128078729.397        3622.081          36.000    24372574.789    99801643.744        2822.102          39.000  
G29  25119371.771   132003227.281       -3508.237          34.000    25119366.623   102859612.713       -2733.352          36.000  
C30  25290422.425   131693897.714        2767.588          41.000                                                                  
G32                                                                  25710564.062                       -3243.506          26.000  
C13                                                                  40628301.270   163593291.166       -1891.831          37.000  
C08                                                                  41547703.754   167295382.049       -1848.965          40.000  
> 2025 11 03 07 38 17.2000000  0 27                     
G04  21463201.151   112789892.779        1291.753          44.000    21463190.667    87888175.159        1006.465          46.000  
G16  20203582.363   106170548.697         327.092          46.000                                                                  
G28  22924121.179   120467064.870       -2621.323          41.000    22924110.782    93870394.099       -2042.472          43.000  
G31  21003464.738   110373959.863       -1589.621          47.000    21003452.521    86005624.836       -1238.834          45.000  
G03  24400892.045   128227609.754       -2882.769          35.000    24400887.576    99917550.146       -2245.863          36.000  
G18  25239388.237   132633872.027        1445.621          34.000    25239378.502   103351050.115        1125.922          37.000  
C16  36733474.843   191280807.435           4.329          48.000    36733458.528   147910414.232           3.302          48.000  
C19  23680214.894   123309099.027       -2022.188          47.000                                                                  
C27  23664223.634   123225887.576        1260.076          46.000                                                                  
C06  36291184.871   188977694.396           2.051          47.000    36291164.085   146129478.054           1.567          49.000  
C09  37379563.532   194645176.397         111.387          45.000    37379546.482   150511944.864          86.014          48.000  
C22  24671051.436   128468669.745         807.265          42.000                                                                  
G26  20750874.118   109046588.548       -1857.843          48.000    20750864.864    84971323.291       -1447.711          46.000  
G27  22074277.280   116001114.715        3084.985          43.000    22074268.554    90390450.515        2403.798          42.000  
G09  24045273.198   126358763.135        2851.417          37.000    24045266.141    98461352.811        2221.580          39.000  
C28  24694192.574   128589146.355        -897.488          44.000                                                                  
C07  38084937.589   198318260.049         819.971          40.000    38084918.768   153352189.770         633.877          45.000  
C20  25374143.124   132129818.854       -3602.428          45.000                                                                  
C36  23935796.414   124639971.581        1438.593          44.000                                                                  
C37  24890161.268   129609605.431       -2377.119          42.000                                                                  
C10  39210922.011   204181558.872         752.469          38.000    39210908.931   157886142.263         581.764          44.000  
G08  24372543.560   128078584.506        3622.137          36.000    24372547.189    99801530.843        2822.277          39.000  
G29  25119398.497   132003367.595       -3508.082          34.000    25119393.321   102859722.045       -2733.217          36.000  
C30  25290401.157   131693787.007        2767.599          41.000                                                                  
G32                                                                  25710595.575                       -3243.749          25.000  
C13                                                                  40628320.071   163593366.793       -1891.058          37.000  
C08                                                                  41547722.119   167295456.002       -1848.853          40.000  
> 2025 11 03 07 38 17.2400000  0 27                     
G04  21463191.311   112789841.105        1291.753          44.000    21463180.807    87888134.885        1006.636          46.000  
G16  20203579.864   106170535.622         326.906          46.000                                                                  
G28  22924141.135   120467169.707       -2621.052          41.000    22924130.732    93870475.799       -2042.480          43.000  
G31  21003476.834   110374023.451       -1589.666          47.000    21003464.629    86005674.382       -1238.755          45.000  
G03  24400913.982   128227725.043       -2882.446          35.000    24400909.514    99917639.996       -2246.169          36.000  
G18  25239377.251   132633814.204        1445.635          34.000    25239367.502   103351005.053        1126.200          37.000  
C16  36733474.804   191280807.269           4.158          48.000    36733458.499   147910414.095           3.355          48.000  
C19  23680230.425   123309179.915       -2022.237          47.000                                                                  
C27  23664213.944   123225837.171        1260.088          46.000                                                                  
C06  36291184.844   188977694.316           2.034          47.000    36291164.055   146129477.999           1.415          49.000  
C09  37379562.672   194645171.947         111.309          45.000    37379545.629   150511941.417          86.136          48.000  
C22  24671045.262   128468637.446         807.403          42.000                                                                  
G26  20750888.256   109046662.855       -1857.721          48.000    20750879.006    84971381.194       -1447.644          46.000  
G27  22074253.821   116000991.332        3084.690          43.000    22074245.063    90390354.371        2403.677          42.000  
G09  24045251.495   126358649.091        2851.241          37.000    24045244.432    98461263.956        2221.393          39.000  
C28  24694199.462   128589182.245        -897.386          44.000                                                                  
C07  38084931.254   198318227.261         819.784          40.000    38084912.493   153352164.412         633.872          45.000  
C20  25374170.804   132129962.954       -3602.480          45.000                                                                  
C36  23935785.353   124639914.036        1438.611          44.000                                                                  
C37  24890179.524   129609700.535       -2377.454          42.000                                                                  
C10  39210916.251   204181528.767         752.548          38.000    39210903.137   157886118.991         581.735          44.000  
G08  24372515.998   128078439.630        3621.902          36.000    24372519.639    99801417.951        2822.247          39.000  
G29  25119425.206   132003507.946       -3508.603          34.000    25119420.025   102859831.402       -2733.671          36.000  
C30  25290379.890   131693676.303        2767.579          41.000                                                                  
G32                                                                  25710627.354                       -3243.720          26.000  
C13                                                                  40628338.850   163593442.451       -1891.310          37.000  
C08                                                                  41547740.499   167295529.961       -1848.995          40.000  
> 2025 11 03 07 38 17.2800000  0 27                     
G04  21463181.478   112789789.425        1291.887          44.000    21463170.962    87888094.619        1006.630          46.000  
G16  20203577.364   106170522.540         326.951          46.000                                                                  
G28  22924161.129   120467274.578       -2621.512          41.000    22924150.670    93870557.500       -2042.506          43.000  
G31  21003488.938   110374087.039       -1589.695          47.000    21003476.730    86005723.932       -1238.823          45.000  
G03  24400935.906   128227840.302       -2881.720          35.000    24400931.450    99917729.828       -2245.990          36.000  
G18  25239366.256   132633756.368        1445.850          34.000    25239356.502   103350959.992        1126.388          37.000  
C16  36733474.772   191280807.098           4.176          48.000    36733458.470   147910413.960           3.360          48.000  
C19  23680245.946   123309260.798       -2022.150          47.000                                                                  
C27  23664204.230   123225786.768        1260.076          46.000                                                                  
C06  36291184.836   188977694.236           1.984          47.000    36291164.054   146129477.931           1.567          49.000  
C09  37379561.804   194645167.499         111.205          45.000    37379544.784   150511937.978          86.025          48.000  
C22  24671039.044   128468605.171         807.014          42.000                                                                  
G26  20750902.419   109046737.172       -1857.843          48.000    20750893.144    84971439.104       -1447.748          46.000  
G27  22074230.335   116000867.950        3084.528          43.000    22074221.591    90390258.223        2403.692          42.000  
G09  24045229.796   126358535.063        2850.835          37.000    24045222.737    98461175.094        2221.395          39.000  
C28  24694206.319   128589218.139        -897.388          44.000                                                                  
C07  38084924.972   198318194.455         819.990          40.000    38084906.194   153352139.051         633.953          45.000  
C20  25374198.478   132130107.054       -3602.500          45.000                                                                  
C36  23935774.293   124639856.481        1438.800          44.000                                                                  
C37  24890197.793   129609795.629       -2377.440          42.000                                                                  
C10  39210910.469   204181498.669         752.515          38.000    39210897.367   157886095.706         581.978          44.000  
G08  24372488.425   128078294.741        3621.972          36.000    24372492.065    99801305.031        2822.723          39.000  
G29  25119451.904   132003648.264       -3508.178          34.000    25119446.739   102859940.748       -2733.724          36.000  
C30  25290358.614   131693565.601        2767.515          41.000                                                                  
G32                                                                  25710659.278                       -3243.344          25.000  
C13                                                                  40628357.642   163593518.087       -1891.072          37.000  
C08                                                                  41547758.885   167295603.916       -1848.970          40.000  
> 2025 11 03 07 38 17.3200000  0 27                     
G04  21463171.641   112789737.747        1291.912          44.000    21463161.133    87888054.349        1006.709          46.000  
G16  20203574.878   106170509.462         326.933          46.000                                                                  
G28  22924181.071   120467379.410       -2621.050          41.000    22924170.622    93870639.196       -2042.418          43.000  
G31  21003501.027   110374150.629       -1589.750          47.000    21003488.821    86005773.479       -1238.781          45.000  
G03  24400957.852   128227955.591       -2881.886          35.000    24400953.376    99917819.662       -2245.961          36.000  
G18  25239355.250   132633698.547        1445.711          34.000    25239345.504   103350914.922        1126.648          37.000  
C16  36733474.744   191280806.914           4.446          48.000    36733458.442   147910413.826           3.319          48.000  
C19  23680261.471   123309341.689       -2022.249          47.000                                                                  
C27  23664194.573   123225736.368        1259.984          46.000                                                                  
C06  36291184.822   188977694.160           1.904          47.000    36291164.043   146129477.870           1.526          49.000  
C09  37379560.949   194645163.047         111.253          45.000    37379543.935   150511934.537          86.000          48.000  
C22  24671032.849   128468572.883         807.053          42.000                                                                  
G26  20750916.537   109046811.483       -1857.837          48.000    20750907.275    84971497.017       -1447.815          46.000  
G27  22074206.858   116000744.570        3084.451          43.000    22074198.109    90390162.085        2403.509          42.000  
G09  24045208.082   126358421.026        2850.723          37.000    24045201.029    98461086.212        2221.750          39.000  
C28  24694213.208   128589254.039        -897.498          44.000                                                                  
C07  38084918.688   198318161.659         819.909          40.000    38084899.883   153352113.690         633.997          45.000  
C20  25374226.148   132130251.154       -3602.552          45.000                                                                  
C36  23935763.226   124639798.942        1438.617          44.000                                                                  
C37  24890216.035   129609890.729       -2377.528          42.000                                                                  
C10  39210904.690   204181468.554         752.764          38.000    39210891.596   157886072.425         582.012          44.000  
G08  24372460.853   128078149.825        3622.496          36.000    24372464.501    99801192.119        2822.844          39.000  
G29  25119478.585   132003788.579       -3507.896          34.000    25119473.441   102860050.075       -2733.403          36.000  
C30  25290337.373   131693454.885        2767.714          41.000                                                                  
G32                                                                  25710690.987                       -3242.766          25.000  
C13                                                                  40628376.434   163593593.754       -1891.494          37.000  
C08                                                                  41547777.232   167295677.861       -1848.741          40.000  
> 2025 11 03 07 38 17.3600000  0 27                     
G04  21463161.830   112789686.086        1291.649          44.000    21463151.309    87888014.090        1006.543          46.000  
G16  20203572.385   106170496.381         326.970          46.000                                                                  
G28  22924201.007   120467484.270       -2621.323          41.000    22924190.598    93870720.898       -2042.513          43.000  
G31  21003513.127   110374214.218       -1589.768          47.000    21003500.927    86005823.030       -1238.825          45.000  
G03  24400979.773   128228070.852       -2881.482          35.000    24400975.313    99917909.490       -2245.830          36.000  
G18  25239344.262   132633640.734        1445.441          34.000    25239334.507   103350869.882        1126.199          37.000  
C16  36733474.700   191280806.736           4.447          48.000    36733458.412   147910413.698           3.209          48.000  
C19  23680277.025   123309422.575       -2022.218          47.000                                                                  
C27  23664184.894   123225685.971        1259.904          46.000                                                                  
C06  36291184.805   188977694.078           1.967          47.000    36291164.046   146129477.811           1.447          49.000  
C09  37379560.106   194645158.597         111.246          45.000    37379543.084   150511931.102          85.892          48.000  
C22  24671026.659   128468540.589         807.200          42.000                                                                  
G26  20750930.697   109046885.808       -1858.081          48.000    20750921.425    84971554.926       -1447.821          46.000  
G27  22074183.353   116000621.173        3084.734          43.000    22074174.638    90390065.932        2403.729          42.000  
G09  24045186.355   126358306.978        2850.897          37.000    24045179.321    98460997.361        2221.424          39.000  
C28  24694220.113   128589289.951        -897.762          44.000                                                                  
C07  38084912.411   198318128.880         819.566          40.000    38084893.602   153352088.333         633.915          45.000  
C20  25374253.802   132130395.248       -3602.482          45.000                                                                  
C36  23935752.182   124639741.406        1438.422          44.000                                                                  
C37  24890234.317   129609985.817       -2377.336          42.000                                                                  
C10  39210898.928   204181438.454         752.608          38.000    39210885.810   157886049.146         582.016          44.000  
G08  24372433.280   128078004.947        3622.139          36.000    24372436.943    99801079.229        2822.490          39.000  
G29  25119505.278   132003928.891       -3507.750          34.000    25119500.136   102860159.428       -2733.713          36.000  
C30  25290316.085   131693344.184        2767.577          41.000                                                                  
G32                                                                  25710722.810                       -3243.530          25.000  
C13                                                                  40628395.205   163593669.413       -1891.592          37.000  
C08                                                                  41547795.601   167295751.808       -1848.681          40.000  
> 2025 11 03 07 38 17.4000000  0 27                     
G04  21463151.994   112789634.419        1291.602          44.000    21463141.485    87887973.835        1006.340          46.000  
G16  20203569.916   106170483.310         326.796          46.000                                                                  
G28  22924220.969   120467589.134       -2621.593          41.000    22924210.558    93870802.607       -2042.664          43.000  
G31  21003525.241   110374277.809       -1589.799          47.000    21003513.039    86005872.589       -1238.933          45.000  
G03  24401001.750   128228186.176       -2882.404          35.000    24400997.267    99917999.344       -2246.144          36.000  
G18  25239333.257   132633582.937        1445.031          34.000    25239323.507   103350824.847        1125.951          37.000  
C16  36733474.660   191280806.575           4.184          48.000    36733458.363   147910413.568           3.202          48.000  
C19  23680292.528   123309503.476       -2022.464          47.000                                                                  
C27  23664175.226   123225635.581        1259.738          46.000                                                                  
C06  36291184.788   188977694.015           1.637          47.000    36291164.064   146129477.757           1.338          49.000  
C09  37379559.252   194645154.159         110.989          45.000    37379542.222   150511927.666          85.837          48.000  
C22  24671020.464   128468508.306         807.101          42.000                                                                  
G26  20750944.855   109046960.135       -1858.228          48.000    20750935.567    84971612.838       -1447.852          46.000  
G27  22074159.848   116000497.795        3084.619          43.000    22074151.187    90389969.791        2403.610          42.000  
G09  24045164.661   126358192.945        2850.827          37.000    24045157.634    98460908.512        2221.175          39.000  
C28  24694227.018   128589325.856        -897.794          44.000                                                                  
C07  38084906.111   198318096.082         819.743          40.000    38084887.306   153352062.982         633.772          45.000  
C20  25374281.440   132130539.363       -3602.795          45.000                                                                  
C36  23935741.125   124639683.867        1438.385          44.000                                                                  
C37  24890252.593   129610080.905       -2377.276          42.000                                                                  
C10  39210893.153   204181408.368         752.263          38.000    39210880.017   157886025.889         581.608          44.000  
G08  24372405.710   128077860.059        3622.130          36.000    24372409.384    99800966.347        2822.131          39.000  
G29  25119531.981   132004069.226       -3508.052          34.000    25119526.847   102860268.767       -2733.647          36.000  
C30  25290294.840   131693233.491        2767.375          41.000                                                                  
G32                                                                  25710754.497                       -3244.150          25.000  
C13                                                                  40628414.008   163593745.084       -1891.755          37.000  
C08                                                                  41547813.976   167295825.762       -1848.755          40.000  
> 2025 11 03 07 38 17.4400000  0 27                     
G04  21463142.129   112789582.764        1291.371          44.000    21463131.640    87887933.586        1006.191          46.000  
G16  20203567.427   106170470.241         326.691          46.000                                                                  
G28  22924240.916   120467693.992       -2621.603          41.000    22924230.523    93870884.322       -2042.888          43.000  
G31  21003537.335   110374341.407       -1589.951          47.000    21003525.161    86005922.141       -1238.873          45.000  
G03  24401023.712   128228301.470       -2882.402          35.000    24401019.213    99918089.199       -2246.338          36.000  
G18  25239322.233   132633525.120        1445.246          34.000    25239312.498   103350779.791        1126.168          37.000  
C16  36733474.623   191280806.414           4.006          48.000    36733458.323   147910413.437           3.223          48.000  
C19  23680308.076   123309584.371       -2022.482          47.000                                                                  
C27  23664165.544   123225585.188        1259.702          46.000                                                                  
C06  36291184.783   188977693.939           1.747          47.000    36291164.059   146129477.704           1.277          49.000  
C09  37379558.402   194645149.717         110.957          45.000    37379541.347   150511924.231          85.822          48.000  
C22  24671014.248   128468476.035         806.830          42.000                                                                  
G26  20750959.019   109047034.457       -1858.154          48.000    20750949.710    84971670.748       -1447.797          46.000  
G27  22074136.367   116000374.418        3084.482          44.000    22074127.716    90389873.658        2403.371          42.000  
G09  24045142.966   126358078.904        2850.952          37.000    24045135.926    98460819.647        2221.391          39.000  
C28  24694233.902   128589361.768        -897.836          44.000                                                                  
C07  38084899.803   198318063.297         819.637          40.000    38084881.023   153352037.626         633.804          45.000  
C20  25374309.133   132130683.470       -3602.802          45.000                                                                  
C36  23935730.071   124639626.334        1438.251          44.000                                                                  
C37  24890270.829   129610176.004       -2377.413          42.000                                                                  
C10  39210887.374   204181378.276         752.157          38.000    39210874.231   157886002.622         581.560          44.000  
G08  24372378.171   128077715.197        3621.622          36.000    24372381.809    99800853.454        2822.129          39.000  
G29  25119558.687   132004209.563       -3508.344          34.000    25119553.544   102860378.113       -2733.694          36.000  
C30  25290273.564   131693122.800        2767.219          41.000                                                                  
G32                                                                  25710786.115                       -3244.622          25.000  
C13                                                                  40628432.790   163593820.743       -1891.564          37.000  
C08                                                                  41547832.345   167295899.726       -1849.057          40.000  
> 2025 11 03 07 38 17.4800000  0 27                     
G04  21463132.291   112789531.101        1291.411          44.000    21463121.822    87887893.328        1006.274          46.000  
G16  20203564.931   106170457.174         326.612          46.000                                                                  
G28  22924260.865   120467798.845       -2621.475          41.000    22924250.484    93870966.037       -2042.959          43.000  
G31  21003549.454   110374405.001       -1589.973          47.000    21003537.265    86005971.698       -1238.960          45.000  
G03  24401045.668   128228416.784       -2882.713          35.000    24401041.141    99918179.044       -2246.315          36.000  
G18  25239311.267   132633467.324        1444.891          34.000    25239301.486   103350734.732        1126.307          37.000  
C16  36733474.588   191280806.248           4.033          48.000    36733458.321   147910413.307           3.239          48.000  
C19  23680323.613   123309665.265       -2022.419          47.000                                                                  
C27  23664155.850   123225534.795        1259.752          46.000                                                                  
C06  36291184.793   188977693.865           1.788          47.000    36291164.025   146129477.648           1.315          49.000  
C09  37379557.553   194645145.274         110.985          45.000    37379540.518   150511920.787          85.995          48.000  
C22  24671008.055   128468443.756         806.857          42.000                                                                  
G26  20750973.141   109047108.777       -1858.063          48.000    20750963.878    84971728.668       -1447.986          46.000  
G27  22074112.885   116000251.055        3084.135          44.000    22074104.250    90389777.532        2403.116          42.000  
G09  24045121.264   126357964.869        2850.847          37.000    24045114.225    98460730.774        2221.709          39.000  
C28  24694240.788   128589397.673        -897.755          44.000                                                                  
C07  38084893.503   198318030.507         819.670          40.000    38084874.735   153352012.271         633.805          45.000  
C20  25374336.794   132130827.579       -3602.805          45.000                                                                  
C36  23935719.025   124639568.803        1438.220          44.000                                                                  
C37  24890289.087   129610271.106       -2377.513          42.000                                                                  
C10  39210881.607   204181348.178         752.276          38.000    39210868.427   157885979.356         581.534          44.000  
G08  24372350.593   128077570.310        3621.858          36.000    24372354.235    99800740.570        2822.034          39.000  
G29  25119585.406   132004349.901       -3508.445          34.000    25119580.246   102860487.488       -2734.256          36.000  
C30  25290252.292   131693012.111        2767.143          41.000                                                                  
G32                                                                  25710817.686                       -3244.984          25.000  
C13                                                                  40628451.575   163593896.397       -1891.434          37.000  
C08                                                                  41547850.704   167295973.691       -1849.217          40.000  
> 2025 11 03 07 38 17.5200000  0 27                     
G04  21463122.447   112789479.434        1291.506          44.000    21463111.992    87887853.067        1006.415          46.000  
G16  20203562.424   106170444.103         326.676          46.000                                                                  
G28  22924280.819   120467903.697       -2621.375          41.000    22924270.441    93871047.734       -2042.623          43.000  
G31  21003561.541   110374468.598       -1589.995          47.000    21003549.347    86006021.245       -1238.805          45.000  
G03  24401067.620   128228532.099       -2882.928          35.000    24401063.070    99918268.873       -2246.011          36.000  
G18  25239300.242   132633409.505        1445.113          34.000    25239290.492   103350689.663        1126.572          37.000  
C16  36733474.543   191280806.077           4.141          48.000    36733458.269   147910413.176           3.222          48.000  
C19  23680339.161   123309746.164       -2022.462          47.000                                                                  
C27  23664146.190   123225484.402        1259.777          46.000                                                                  
C06  36291184.787   188977693.787           1.860          47.000    36291164.017   146129477.588           1.410          49.000  
C09  37379556.721   194645140.823         111.179          45.000    37379539.682   150511917.354          85.898          48.000  
C22  24671001.851   128468411.486         806.678          42.000                                                                  
G26  20750987.264   109047183.093       -1857.959          48.000    20750978.033    84971786.584       -1447.961          46.000  
G27  22074089.405   116000127.668        3084.389          43.000    22074080.741    90389681.384        2403.416          42.000  
G09  24045099.565   126357850.833        2850.791          37.000    24045092.514    98460641.929        2221.380          39.000  
C28  24694247.674   128589433.575        -897.636          44.000                                                                  
C07  38084887.201   198317997.697         820.093          40.000    38084868.451   153351986.910         633.917          45.000  
C20  25374364.464   132130971.679       -3602.643          45.000                                                                  
C36  23935708.002   124639511.263        1438.361          44.000                                                                  
C37  24890307.359   129610366.208       -2377.593          42.000                                                                  
C10  39210875.848   204181318.093         752.149          38.000    39210862.637   157885956.091         581.534          44.000  
G08  24372323.022   128077425.412        3622.283          36.000    24372326.662    99800627.664        2822.383          39.000  
G29  25119612.106   132004490.225       -3508.320          34.000    25119606.957   102860596.838       -2733.993          36.000  
C30  25290231.009   131692901.412        2767.360          41.000                                                                  
G32                                                                  25710849.415                       -3244.803          25.000  
C13                                                                  40628470.399   163593972.062       -1891.602          37.000  
C08                                                                  41547869.060   167296047.645       -1849.037          40.000  
> 2025 11 03 07 38 17.5600000  0 27                     
G04  21463112.620   112789427.771        1291.492          44.000    21463102.165    87887812.811        1006.372          46.000  
G16  20203559.927   106170431.034         326.651          46.000                                                                  
G28  22924300.797   120468008.570       -2621.740          41.000    22924290.388    93871129.442       -2042.599          43.000  
G31  21003573.657   110374532.200       -1590.084          47.000    21003561.448    86006070.801       -1238.867          45.000  
G03  24401089.565   128228647.402       -2882.910          35.000    24401084.994    99918358.694       -2245.709          36.000  
G18  25239289.239   132633351.667        1445.659          34.000    25239279.491   103350644.613        1126.321          37.000  
C16  36733474.497   191280805.908           4.171          48.000    36733458.223   147910413.049           3.158          48.000  
C19  23680354.674   123309827.065       -2022.548          47.000                                                                  
C27  23664136.518   123225434.012        1259.746          46.000                                                                  
C06  36291184.782   188977693.716           1.787          47.000    36291163.985   146129477.526           1.521          49.000  
C09  37379555.875   194645136.383         111.062          45.000    37379538.832   150511913.912          86.014          48.000  
C22  24670995.634   128468379.211         806.717          42.000                                                                  
G26  20751001.413   109047257.418       -1858.099          48.000    20750992.159    84971844.495       -1447.852          46.000  
G27  22074065.936   116000004.292        3084.411          43.000    22074057.275    90389585.251        2403.357          42.000  
G09  24045077.880   126357736.800        2850.717          37.000    24045070.824    98460553.062        2221.556          39.000  
C28  24694254.582   128589469.479        -897.592          44.000                                                                  
C07  38084880.885   198317964.913         819.817          40.000    38084862.162   153351961.553         633.917          45.000  
C20  25374392.130   132131115.780       -3602.588          45.000                                                                  
C36  23935696.964   124639453.726        1438.416          44.000                                                                  
C37  24890325.615   129610461.310       -2377.603          42.000                                                                  
C10  39210870.069   204181287.987         752.481          38.000    39210856.857   157885932.819         581.677          44.000  
G08  24372295.408   128077280.503        3622.687          36.000    24372299.079    99800514.755        2822.640          39.000  
G29  25119638.823   132004630.557       -3508.358          34.000    25119633.650   102860706.184       -2733.840          36.000  
C30  25290209.749   131692790.698        2767.703          41.000                                                                  
G32                                                                  25710880.879                       -3244.858          25.000  
C13                                                                  40628489.205   163594047.731       -1891.707          37.000  
C08                                                                  41547887.414   167296121.598       -1848.926          40.000  
> 2025 11 03 07 38 17.6000000  0 27                     
G04  21463102.789   112789376.107        1291.506          44.000    21463092.348    87887772.557        1006.332          46.000  
G16  20203557.457   106170417.959         326.770          46.000                                                                  
G28  22924320.735   120468113.426       -2621.560          41.000    22924310.354    93871211.151       -2042.690          43.000  
G31  21003585.780   110374595.803       -1590.153          47.000    21003573.560    86006120.357       -1238.906          45.000  
G03  24401111.489   128228762.699       -2882.722          35.000    24401106.936    99918448.557       -2246.270          36.000  
G18  25239278.263   132633293.829        1445.953          34.000    25239268.489   103350599.570        1126.027          37.000  
C16  36733474.470   191280805.741           4.186          48.000    36733458.187   147910412.914           3.263          48.000  
C19  23680370.209   123309907.971       -2022.677          47.000                                                                  
C27  23664126.864   123225383.617        1259.827          46.000                                                                  
C06  36291184.767   188977693.642           1.786          47.000    36291163.967   146129477.472           1.418          49.000  
C09  37379555.029   194645131.936         111.120          45.000    37379537.982   150511910.478          85.903          48.000  
C22  24670989.459   128468346.935         806.752          42.000                                                                  
G26  20751015.546   109047331.741       -1858.099          48.000    20751006.300    84971902.407       -1447.821          46.000  
G27  22074042.447   115999880.900        3084.688          44.000    22074033.792    90389489.114        2403.364          42.000  
G09  24045056.183   126357622.775        2850.596          37.000    24045049.120    98460464.208        2221.348          39.000  
C28  24694261.475   128589505.393        -897.770          44.000                                                                  
C07  38084874.574   198317932.135         819.518          40.000    38084855.842   153351936.203         633.785          45.000  
C20  25374419.788   132131259.889       -3602.698          45.000                                                                  
C36  23935685.907   124639396.185        1438.507          44.000                                                                  
C37  24890343.904   129610556.402       -2377.427          42.000                                                                  
C10  39210864.296   204181257.893         752.414          38.000    39210851.072   157885909.542         581.856          44.000  
G08  24372267.828   128077135.617        3622.347          36.000    24372271.511    99800401.878        2822.177          39.000  
G29  25119665.566   132004770.895       -3508.452          34.000    25119660.339   102860815.528       -2733.645          36.000  
C30  25290188.475   131692679.981        2767.911          41.000                                                                  
G32                                                                  25710912.630                       -3244.522          25.000  
C13                                                                  40628507.992   163594123.387       -1891.481          37.000  
C08                                                                  41547905.804   167296195.548       -1848.809          40.000  
> 2025 11 03 07 38 17.6400000  0 27                     
G04  21463092.966   112789324.451        1291.405          44.000    21463082.507    87887732.305        1006.248          46.000  
G16  20203555.006   106170404.897         326.602          46.000                                                                  
G28  22924340.702   120468218.298       -2621.761          41.000    22924330.314    93871292.867       -2042.866          43.000  
G31  21003597.856   110374659.396       -1589.972          47.000    21003585.651    86006169.920       -1239.066          45.000  
G03  24401133.430   128228877.990       -2882.462          35.000    24401128.893    99918538.422       -2246.635          36.000  
G18  25239267.221   132633236.018        1445.531          34.000    25239257.488   103350554.523        1126.116          37.000  
C16  36733474.427   191280805.570           4.222          48.000    36733458.182   147910412.791           3.099          48.000  
C19  23680385.773   123309988.866       -2022.529          47.000                                                                  
C27  23664117.180   123225333.230        1259.697          46.000                                                                  
C06  36291184.737   188977693.571           1.763          47.000    36291163.949   146129477.411           1.471          49.000  
C09  37379554.171   194645127.499         110.965          45.000    37379537.114   150511907.045          85.840          48.000  
C22  24670983.249   128468314.656         806.844          42.000                                                                  
G26  20751029.699   109047406.067       -1858.166          48.000    20751020.431    84971960.323       -1447.864          46.000  
G27  22074018.986   115999757.538        3084.294          44.000    22074010.321    90389392.974        2403.429          42.000  
G09  24045034.490   126357508.743        2850.636          37.000    24045027.416    98460375.369        2220.956          39.000  
C28  24694268.387   128589541.311        -897.923          44.000                                                                  
C07  38084868.284   198317899.359         819.321          40.000    38084849.553   153351910.857         633.631          45.000  
C20  25374447.486   132131403.998       -3602.761          45.000                                                                  
C36  23935674.836   124639338.656        1438.312          44.000                                                                  
C37  24890362.159   129610651.499       -2377.430          42.000                                                                  
C10  39210858.549   204181227.808         752.168          38.000    39210845.262   157885886.270         581.847          44.000  
G08  24372240.251   128076990.770        3621.563          36.000    24372243.934    99800288.983        2822.200          39.000  
G29  25119692.272   132004911.224       -3508.279          34.000    25119687.045   102860924.872       -2733.608          36.000  
C30  25290167.202   131692569.296        2767.432          41.000                                                                  
G32                                                                  25710944.312                       -3244.110          25.000  
C13                                                                  40628526.777   163594199.049       -1891.622          37.000  
C08                                                                  41547924.148   167296269.494       -1848.674          40.000  
> 2025 11 03 07 38 17.6800000  0 27                     
G04  21463083.133   112789272.801        1291.216          44.000    21463072.664    87887692.052        1006.245          46.000  
G16  20203552.527   106170391.831         326.615          46.000                                                                  
G28  22924360.665   120468323.163       -2621.727          41.000    22924350.268    93871374.580       -2042.896          43.000  
G31  21003609.943   110374722.994       -1589.960          47.000    21003597.760    86006219.490       -1239.237          45.000  
G03  24401155.371   128228993.299       -2882.625          35.000    24401150.853    99918628.264       -2246.376          36.000  
G18  25239256.243   132633178.207        1445.322          34.000    25239246.472   103350509.473        1126.195          37.000  
C16  36733474.379   191280805.408           4.085          48.000    36733458.151   147910412.664           3.110          48.000  
C19  23680401.322   123310069.768       -2022.535          47.000                                                                  
C27  23664107.504   123225282.842        1259.654          46.000                                                                  
C06  36291184.738   188977693.503           1.683          47.000    36291163.952   146129477.356           1.389          49.000  
C09  37379553.326   194645123.052         111.043          45.000    37379536.237   150511903.611          85.795          48.000  
C22  24670977.073   128468282.371         807.019          42.000                                                                  
G26  20751043.833   109047480.395       -1858.221          48.000    20751034.557    84972018.236       -1447.839          46.000  
G27  22073995.509   115999634.175        3084.099          44.000    22073986.855    90389296.838        2403.423          42.000  
G09  24045012.783   126357394.708        2850.695          37.000    24045005.729    98460286.516        2221.059          39.000  
C28  24694275.290   128589577.225        -897.939          44.000                                                                  
C07  38084862.028   198317866.579         819.349          40.000    38084843.236   153351885.505         633.701          45.000  
C20  25374475.173   132131548.107       -3602.770          45.000                                                                  
C36  23935663.812   124639281.127        1438.220          44.000                                                                  
C37  24890380.426   129610746.604       -2377.615          42.000                                                                  
C10  39210852.791   204181197.727         752.010          38.000    39210839.478   157885862.999         581.810          44.000  
G08  24372212.657   128076845.906        3621.414          36.000    24372216.351    99800176.079        2822.437          39.000  
G29  25119718.966   132005051.590       -3508.908          34.000    25119713.743   102861034.224       -2733.782          36.000  
C30  25290145.952   131692458.609        2767.188          42.000                                                                  
G32                                                                  25710976.023                       -3243.984          25.000  
C13                                                                  40628545.599   163594274.701       -1891.435          37.000  
C08                                                                  41547942.528   167296343.455       -1848.922          40.000  
> 2025 11 03 07 38 17.7200000  0 27                     
G04  21463073.303   112789221.143        1291.296          44.000    21463062.848    87887651.801        1006.221          46.000  
G16  20203550.054   106170378.770         326.510          46.000                                                                  
G28  22924380.599   120468428.017       -2621.481          41.000    22924370.218    93871456.291       -2042.869          43.000  
G31  21003622.069   110374786.597       -1590.047          47.000    21003609.881    86006269.047       -1239.137          45.000  
G03  24401177.295   128229108.607       -2882.810          35.000    24401172.797    99918718.089       -2245.842          36.000  
G18  25239245.266   132633120.453        1444.155          34.000    25239235.486   103350464.447        1125.866          37.000  
C16  36733474.340   191280805.246           4.002          48.000    36733458.114   147910412.537           3.125          48.000  
C19  23680416.880   123310150.670       -2022.565          47.000                                                                  
C27  23664097.815   123225232.455        1259.648          46.000                                                                  
C06  36291184.747   188977693.430           1.760          47.000    36291163.984   146129477.307           1.268          49.000  
C09  37379552.482   194645118.612         110.979          45.000    37379535.352   150511900.173          85.854          48.000  
C22  24670970.868   128468250.101         806.837          42.000                                                                  
G26  20751057.991   109047554.732       -1858.398          48.000    20751048.701    84972076.152       -1447.882          46.000  
G27  22073972.016   115999510.790        3084.402          44.000    22073963.379    90389200.709        2403.288          42.000  
G09  24044991.099   126357280.684        2850.601          37.000    24044984.027    98460197.648        2221.442          39.000  
C28  24694282.176   128589613.144        -898.041          44.000                                                                  
C07  38084855.743   198317833.777         819.830          40.000    38084836.941   153351860.142         633.963          45.000  
C20  25374502.848   132131692.214       -3602.739          45.000                                                                  
C36  23935652.770   124639223.595        1438.269          44.000                                                                  
C37  24890398.717   129610841.702       -2377.557          42.000                                                                  
C10  39210847.046   204181167.629         752.288          38.000    39210833.697   157885839.729         581.748          44.000  
G08  24372185.094   128076701.040        3621.409          36.000    24372188.784    99800063.197        2822.183          39.000  
G29  25119745.685   132005191.920       -3508.643          34.000    25119740.443   102861143.590       -2734.124          36.000  
C30  25290124.698   131692347.921        2767.116          42.000                                                                  
G32                                                                  25711007.568                       -3244.323          25.000  
C13                                                                  40628564.369   163594350.366       -1891.630          37.000  
C08                                                                  41547960.915   167296417.428       -1849.241          40.000  
> 2025 11 03 07 38 17.7600000  0 27                     
G04  21463063.467   112789169.485        1291.381          44.000    21463053.029    87887611.549        1006.257          46.000  
G16  20203547.558   106170365.700         326.636          46.000                                                                  
G28  22924400.548   120468532.872       -2621.331          41.000    22924390.173    93871537.995       -2042.724          43.000  
G31  21003634.182   110374850.198       -1590.076          47.000    21003621.974    86006318.598       -1238.944          45.000  
G03  24401199.252   128229223.900       -2882.544          35.000    24401194.740    99918807.954       -2246.383          36.000  
G18  25239234.236   132633062.625        1444.925          34.000    25239224.477   103350419.404        1125.945          37.000  
C16  36733474.292   191280805.081           4.031          48.000    36733458.091   147910412.409           3.152          48.000  
C19  23680432.380   123310231.574       -2022.596          47.000                                                                  
C27  23664088.134   123225182.060        1259.784          46.000                                                                  
C06  36291184.732   188977693.353           1.859          47.000    36291163.985   146129477.249           1.378          49.000  
C09  37379551.622   194645114.170         111.001          45.000    37379534.504   150511896.732          85.917          48.000  
C22  24670964.660   128468217.828         806.767          42.000                                                                  
G26  20751072.123   109047629.051       -1858.154          48.000    20751062.830    84972134.069       -1447.937          46.000  
G27  22073948.531   115999387.420        3084.282          44.000    22073939.903    90389104.569        2403.435          42.000  
G09  24044969.385   126357166.667        2850.404          37.000    24044962.325    98460108.798        2221.329          39.000  
C28  24694289.085   128589649.057        -897.964          44.000                                                                  
C07  38084849.437   198317800.989         819.809          40.000    38084830.645   153351834.786         633.936          45.000  
C20  25374530.525   132131836.321       -3602.719          45.000                                                                  
C36  23935641.749   124639166.054        1438.452          44.000                                                                  
C37  24890416.958   129610936.790       -2377.303          42.000                                                                  
C10  39210841.268   204181137.518         752.672          38.000    39210827.927   157885816.461         581.712          44.000  
G08  24372157.513   128076556.137        3622.208          36.000    24372161.235    99799950.311        2822.086          39.000  
G29  25119772.401   132005332.233       -3508.178          34.000    25119767.157   102861252.960       -2734.257          36.000  
C30  25290103.438   131692237.225        2767.203          41.000                                                                  
G32                                                                  25711039.196                       -3243.578          25.000  
C13                                                                  40628583.156   163594426.026       -1891.628          37.000  
C08                                                                  41547979.281   167296491.383       -1849.092          40.000  
> 2025 11 03 07 38 17.8000000  0 27                     
G04  21463053.624   112789117.824        1291.464          44.000    21463043.203    87887571.297        1006.284          46.000  
G16  20203545.064   106170352.638         326.604          46.000                                                                  
G28  22924420.514   120468637.740       -2621.541          41.000    22924410.124    93871619.713       -2042.889          43.000  
G31  21003646.256   110374913.792       -1589.967          47.000    21003634.079    86006368.144       -1238.763          45.000  
G03  24401221.179   128229339.201       -2882.475          35.000    24401216.683    99918897.788       -2246.034          36.000  
G18  25239223.206   132633004.820        1444.984          34.000    25239213.464   103350374.345        1126.300          37.000  
C16  36733474.262   191280804.910           4.178          48.000    36733458.071   147910412.279           3.190          48.000  
C19  23680447.926   123310312.477       -2022.633          47.000                                                                  
C27  23664078.446   123225131.670        1259.747          46.000                                                                  
C06  36291184.721   188977693.277           1.875          47.000    36291163.959   146129477.189           1.449          49.000  
C09  37379550.766   194645109.716         111.232          45.000    37379533.630   150511893.295          85.897          48.000  
C22  24670958.455   128468185.563         806.600          42.000                                                                  
G26  20751086.252   109047703.371       -1858.051          48.000    20751077.004    84972191.992       -1448.065          46.000  
G27  22073925.054   115999264.050        3084.198          43.000    22073916.410    90389008.427        2403.548          42.000  
G09  24044947.691   126357052.621        2850.889          37.000    24044940.607    98460019.928        2221.569          39.000  
C28  24694295.976   128589684.973        -897.963          44.000                                                                  
C07  38084843.125   198317768.201         819.738          40.000    38084824.353   153351809.437         633.787          45.000  
C20  25374558.199   132131980.432       -3602.802          45.000                                                                  
C36  23935630.712   124639108.514        1438.538          44.000                                                                  
C37  24890435.210   129611031.889       -2377.412          42.000                                                                  
C10  39210835.482   204181107.434         752.328          38.000    39210822.161   157885793.191         581.734          44.000  
G08  24372129.928   128076411.251        3622.240          36.000    24372133.661    99799837.403        2822.433          39.000  
G29  25119799.132   132005472.575       -3508.392          34.000    25119793.853   102861362.310       -2733.937          36.000  
C30  25290082.168   131692126.519        2767.513          41.000                                                                  
G32                                                                  25711070.737                       -3243.153          25.000  
C13                                                                  40628601.933   163594501.683       -1891.604          37.000  
C08                                                                  41547997.633   167296565.329       -1848.815          40.000  
> 2025 11 03 07 38 17.8400000  0 27                     
G04  21463043.790   112789066.171        1291.342          44.000    21463033.378    87887531.051        1006.165          46.000  
G16  20203542.575   106170339.577         326.536          46.000                                                                  
G28  22924440.464   120468742.595       -2621.467          41.000    22924430.074    93871701.418       -2042.743          43.000  
G31  21003658.375   110374977.398       -1590.085          47.000    21003646.190    86006417.710       -1239.010          45.000  
G03  24401243.105   128229454.496       -2882.430          35.000    24401238.628    99918987.628       -2245.952          36.000  
G18  25239212.192   132632946.995        1445.448          34.000    25239202.449   103350329.282        1126.529          37.000  
C16  36733474.242   191280804.733           4.351          48.000    36733458.045   147910412.144           3.300          48.000  
C19  23680463.458   123310393.382       -2022.664          47.000                                                                  
C27  23664068.783   123225081.286        1259.636          46.000                                                                  
C06  36291184.695   188977693.207           1.766          47.000    36291163.946   146129477.131           1.447          49.000  
C09  37379549.899   194645105.273         111.131          45.000    37379532.764   150511889.862          85.807          48.000  
C22  24670952.245   128468153.300         806.505          42.000                                                                  
G26  20751100.386   109047777.695       -1858.063          48.000    20751091.152    84972249.910       -1448.029          46.000  
G27  22073901.563   115999140.664        3084.438          43.000    22073892.924    90388912.284        2403.588          42.000  
G09  24044925.990   126356938.600        2850.670          37.000    24044918.897    98459931.067        2221.554          39.000  
C28  24694302.859   128589720.889        -897.963          44.000                                                                  
C07  38084836.823   198317735.399         819.911          40.000    38084818.022   153351784.086         633.762          45.000  
C20  25374585.863   132132124.537       -3602.678          45.000                                                                  
C36  23935619.662   124639050.978        1438.452          44.000                                                                  
C37  24890453.473   129611126.992       -2377.522          42.000                                                                  
C10  39210829.695   204181077.330         752.518          38.000    39210816.367   157885769.926         581.628          44.000  
G08  24372102.358   128076266.329        3622.893          36.000    24372106.081    99799724.501        2822.496          39.000  
G29  25119825.858   132005612.924       -3508.682          34.000    25119820.550   102861471.649       -2733.557          36.000  
C30  25290060.938   131692015.814        2767.650          41.000                                                                  
G32                                                                  25711102.468                       -3243.478          25.000  
C13                                                                  40628620.720   163594577.315       -1891.036          37.000  
C08                                                                  41548016.014   167296639.280       -1848.729          40.000  
> 2025 11 03 07 38 17.8800000  0 27                     
G04  21463033.967   112789014.526        1291.104          44.000    21463023.538    87887490.802        1006.189          46.000  
G16  20203540.087   106170326.513         326.561          46.000                                                                  
G28  22924460.418   120468847.465       -2621.662          41.000    22924450.017    93871783.131       -2042.761          43.000  
G31  21003670.484   110375041.002       -1590.114          47.000    21003658.300    86006467.275       -1239.155          45.000  
G03  24401265.029   128229569.787       -2882.336          35.000    24401260.557    99919077.463       -2245.924          36.000  
G18  25239201.190   132632889.165        1445.676          34.000    25239191.468   103350284.247        1126.126          37.000  
C16  36733474.190   191280804.564           4.293          48.000    36733458.013   147910412.011           3.337          48.000  
C19  23680478.974   123310474.289       -2022.725          47.000                                                                  
C27  23664059.110   123225030.898        1259.643          46.000                                                                  
C06  36291184.703   188977693.130           1.853          47.000    36291163.942   146129477.072           1.458          49.000  
C09  37379549.071   194645100.827         111.150          45.000    37379531.927   150511886.429          85.770          48.000  
C22  24670946.058   128468121.021         806.771          42.000                                                                  
G26  20751114.543   109047852.027       -1858.252          48.000    20751105.294    84972307.822       -1447.888          46.000  
G27  22073878.073   115999017.292        3084.380          43.000    22073869.442    90388816.151        2403.438          42.000  
G09  24044904.300   126356824.550        2851.065          37.000    24044897.210    98459842.226        2221.151          39.000  
C28  24694309.779   128589756.804        -897.935          44.000                                                                  
C07  38084830.542   198317702.632         819.356          40.000    38084811.742   153351758.736         633.744          45.000  
C20  25374613.519   132132268.638       -3602.557          45.000                                                                  
C36  23935608.613   124638993.448        1438.269          44.000                                                                  
C37  24890471.736   129611222.092       -2377.561          42.000                                                                  
C10  39210823.911   204181047.234         752.445          38.000    39210810.568   157885746.654         581.717          44.000  
G08  24372074.801   128076121.456        3622.295          36.000    24372078.508    99799611.605        2822.426          39.000  
G29  25119852.590   132005753.259       -3508.519          34.000    25119847.256   102861580.992       -2733.471          36.000  
C30  25290039.672   131691905.112        2767.660          41.000                                                                  
G32                                                                  25711134.340                       -3243.378          25.000  
C13                                                                  40628639.510   163594652.989       -1891.545          37.000  
C08                                                                  41548034.412   167296713.235       -1848.823          40.000  
> 2025 11 03 07 38 17.9200000  0 27                     
G04  21463024.112   112788962.872        1291.199          44.000    21463013.701    87887450.551        1006.201          46.000  
G16  20203537.603   106170313.449         326.542          46.000                                                                  
G28  22924480.363   120468952.327       -2621.634          41.000    22924469.982    93871864.842       -2042.787          43.000  
G31  21003682.578   110375104.602       -1590.047          47.000    21003670.421    86006516.838       -1239.165          45.000  
G03  24401286.980   128229685.108       -2882.757          35.000    24401282.500    99919167.279       -2245.482          36.000  
G18  25239190.173   132632831.370        1445.123          34.000    25239180.468   103350239.204        1126.060          37.000  
C16  36733474.148   191280804.392           4.303          48.000    36733457.980   147910411.886           3.223          48.000  
C19  23680494.529   123310555.194       -2022.694          47.000                                                                  
C27  23664049.430   123224980.516        1259.563          46.000                                                                  
C06  36291184.675   188977693.056           1.866          47.000    36291163.951   146129477.015           1.416          49.000  
C09  37379548.218   194645096.384         111.085          45.000    37379531.079   150511882.991          85.863          48.000  
C22  24670939.863   128468088.744         806.893          42.000                                                                  
G26  20751128.704   109047926.359       -1858.350          48.000    20751119.450    84972365.735       -1447.839          46.000  
G27  22073854.609   115998893.925        3084.183          43.000    22073845.946    90388720.027        2403.118          42.000  
G09  24044882.602   126356710.508        2851.133          37.000    24044875.530    98459753.380        2221.078          39.000  
C28  24694316.687   128589792.717        -897.877          44.000                                                                  
C07  38084824.210   198317669.836         819.639          40.000    38084805.426   153351733.381         633.826          45.000  
C20  25374641.194   132132412.741       -3602.562          45.000                                                                  
C36  23935597.579   124638935.919        1438.153          44.000                                                                  
C37  24890489.993   129611317.195       -2377.623          42.000                                                                  
C10  39210818.121   204181017.156         752.121          38.000    39210804.777   157885723.379         581.815          44.000  
G08  24372047.243   128075976.595        3621.674          36.000    24372050.944    99799498.715        2822.288          39.000  
G29  25119879.292   132005893.589       -3508.378          34.000    25119873.969   102861690.337       -2733.532          36.000  
C30  25290018.404   131691794.426        2767.336          41.000                                                                  
G32                                                                  25711165.853                       -3243.725          25.000  
C13                                                                  40628658.290   163594728.657       -1891.746          37.000  
C08                                                                  41548052.794   167296787.195       -1848.964          40.000  
> 2025 11 03 07 38 17.9600000  0 27                     
G04  21463014.285   112788911.223        1291.169          44.000    21463003.882    87887410.307        1006.088          46.000  
G16  20203535.151   106170300.397         326.337          46.000                                                                  
G28  22924500.315   120469057.190       -2621.576          41.000    22924489.953    93871946.562       -2042.983          43.000  
G31  21003694.695   110375168.208       -1590.127          47.000    21003682.536    86006566.412       -1239.316          45.000  
G03  24401308.921   128229800.402       -2882.603          35.000    24401304.456    99919257.175       -2246.686          36.000  
G18  25239179.195   132632773.586        1444.731          34.000    25239169.470   103350194.144        1126.363          37.000  
C16  36733474.089   191280804.239           3.976          48.000    36733457.949   147910411.763           3.073          48.000  
C19  23680510.086   123310636.104       -2022.774          47.000                                                                  
C27  23664039.756   123224930.137        1259.446          46.000                                                                  
C06  36291184.681   188977692.986           1.766          47.000    36291163.968   146129476.965           1.285          49.000  
C09  37379547.379   194645091.943         111.030          45.000    37379530.211   150511879.551          85.958          48.000  
C22  24670933.658   128468056.484         806.628          42.000                                                                  
G26  20751142.826   109048000.692       -1858.398          48.000    20751133.613    84972423.659       -1448.041          46.000  
G27  22073831.122   115998770.562        3084.005          43.000    22073822.485    90388623.907        2402.975          42.000  
G09  24044860.895   126356596.493        2850.650          37.000    24044853.834    98459664.530        2221.142          39.000  
C28  24694323.584   128589828.643        -898.087          44.000                                                                  
C07  38084817.899   198317637.059         819.472          40.000    38084799.133   153351708.027         633.857          45.000  
C20  25374668.855   132132556.860       -3602.873          45.000                                                                  
C36  23935586.540   124638878.389        1438.141          44.000                                                                  
C37  24890508.249   129611412.300       -2377.700          42.000                                                                  
C10  39210812.342   204180987.070         752.094          38.000    39210798.994   157885700.106         581.855          44.000  
G08  24372019.698   128075831.733        3621.403          36.000    24372023.388    99799385.839        2821.991          39.000  
G29  25119906.004   132006033.920       -3508.303          34.000    25119900.676   102861799.666       -2733.236          36.000  
C30  25289997.140   131691683.745        2767.085          41.000                                                                  
G32                                                                  25711197.652                       -3243.680          25.000  
C13                                                                  40628677.093   163594804.317       -1891.697          37.000  
C08                                                                  41548071.154   167296861.158       -1849.081          40.000  
> 2025 11 03 07 38 18.0000000  0 27                     
G04  21463004.444   112788859.579        1291.080          44.000    21462994.043    87887370.061        1006.079          46.000  
G16  20203532.668   106170287.349         326.158          46.000                                                                  
G28  22924520.290   120469162.071       -2621.851          41.000    22924509.920    93872028.274       -2042.886          43.000  
G31  21003706.786   110375231.816       -1590.213          47.000    21003694.650    86006615.964       -1239.004          45.000  
G03  24401330.878   128229915.715       -2882.805          35.000    24401326.398    99919347.034       -2246.708          36.000  
G18  25239168.169   132632715.767        1445.204          34.000    25239158.474   103350149.113        1126.015          37.000  
C16  36733474.031   191280804.082           3.853          48.000    36733457.928   147910411.642           3.013          48.000  
C19  23680525.635   123310717.016       -2022.860          47.000                                                                  
C27  23664030.056   123224879.764        1259.299          46.000                                                                  
C06  36291184.657   188977692.918           1.697          47.000    36291163.931   146129476.910           1.311          49.000  
C09  37379546.545   194645087.503         111.000          45.000    37379529.364   150511876.114          85.923          48.000  
C22  24670927.473   128468024.233         806.325          42.000                                                                  
G26  20751156.959   109048075.026       -1858.435          48.000    20751147.758    84972481.581       -1448.096          46.000  
G27  22073807.654   115998647.198        3083.966          43.000    22073799.000    90388527.778        2403.046          42.000  
G09  24044839.202   126356482.478        2850.330          37.000    24044832.149    98459575.671        2221.381          39.000  
C28  24694330.450   128589864.568        -898.181          44.000                                                                  
C07  38084811.623   198317604.282         819.380          40.000    38084792.831   153351682.678         633.762          45.000  
C20  25374696.546   132132700.977       -3602.995          45.000                                                                  
C36  23935575.528   124638820.862        1438.092          44.000                                                                  
C37  24890526.520   129611507.402       -2377.684          42.000                                                                  
C10  39210806.568   204180956.978         752.200          38.000    39210793.199   157885676.836         581.796          44.000  
G08  24371992.145   128075686.902        3620.758          36.000    24371995.812    99799272.937        2822.306          39.000  
G29  25119932.705   132006174.262       -3508.475          34.000    25119927.379   102861909.051       -2734.143          36.000  
C30  25289975.888   131691573.059        2767.004          42.000                                                                  
G32                                                                  25711229.386                       -3244.232          25.000  
C13                                                                  40628695.901   163594879.970       -1891.445          37.000  
C08                                                                  41548089.525   167296935.113       -1848.969          40.000  
> 2025 11 03 07 38 18.0400000  0 27                     
G04  21462994.610   112788807.933        1291.113          44.000    21462984.210    87887329.823        1005.958          46.000  
G16  20203530.185   106170274.293         326.222          46.000                                                                  
G28  22924540.242   120469266.937       -2621.748          41.000    22924529.879    93872109.998       -2043.048          43.000  
G31  21003718.898   110375295.430       -1590.383          47.000    21003706.744    86006665.526       -1239.002          45.000  
G03  24401352.818   128230031.027       -2882.911          35.000    24401348.314    99919436.881       -2246.437          36.000  
G18  25239157.164   132632657.968        1445.187          34.000    25239147.464   103350104.085        1125.771          37.000  
C16  36733473.997   191280803.915           3.983          48.000    36733457.905   147910411.513           3.115          48.000  
C19  23680541.178   123310797.932       -2022.939          47.000                                                                  
C27  23664020.390   123224829.391        1259.250          46.000                                                                  
C06  36291184.645   188977692.853           1.588          47.000    36291163.912   146129476.858           1.301          49.000  
C09  37379545.677   194645083.067         110.899          45.000    37379528.518   150511872.681          85.840          48.000  
C22  24670921.278   128467991.966         806.513          42.000                                                                  
G26  20751171.101   109048149.359       -1858.405          48.000    20751161.916    84972539.505       -1448.145          46.000  
G27  22073784.181   115998523.837        3083.947          44.000    22073775.525    90388431.643        2403.243          42.000  
G09  24044817.502   126356368.459        2850.294          37.000    24044810.447    98459486.816        2221.444          39.000  
C28  24694337.346   128589900.488        -898.131          44.000                                                                  
C07  38084805.308   198317571.492         819.561          40.000    38084786.528   153351657.335         633.601          45.000  
C20  25374724.218   132132845.094       -3603.062          45.000                                                                  
C36  23935564.472   124638763.337        1438.055          44.000                                                                  
C37  24890544.797   129611602.500       -2377.565          42.000                                                                  
C10  39210800.804   204180926.865         752.587          38.000    39210787.429   157885653.578         581.536          44.000  
G08  24371964.583   128075541.999        3621.956          36.000    24371968.247    99799160.063        2822.000          39.000  
G29  25119959.432   132006314.612       -3508.726          34.000    25119954.090   102862018.446       -2734.903          36.000  
C30  25289954.639   131691462.352        2767.381          42.000                                                                  
G32                                                                  25711260.915                       -3245.162          25.000  
C13                                                                  40628714.686   163594955.642       -1891.655          37.000  
C08                                                                  41548107.890   167297009.056       -1848.648          40.000  
> 2025 11 03 07 38 18.0800000  0 27                     
G04  21462984.782   112788756.289        1291.077          44.000    21462974.381    87887289.575        1006.074          46.000  
G16  20203527.684   106170261.235         326.354          46.000                                                                  
G28  22924560.219   120469371.818       -2621.961          41.000    22924549.822    93872191.711       -2042.927          43.000  
G31  21003730.977   110375359.039       -1590.335          47.000    21003718.844    86006715.091       -1239.088          45.000  
G03  24401374.784   128230146.340       -2882.950          35.000    24401370.254    99919526.719       -2246.105          36.000  
G18  25239146.155   132632600.164        1445.191          34.000    25239136.454   103350059.049        1125.736          37.000  
C16  36733473.947   191280803.753           3.984          48.000    36733457.897   147910411.386           3.149          48.000  
C19  23680556.734   123310878.842       -2022.834          47.000                                                                  
C27  23664010.733   123224779.006        1259.454          46.000                                                                  
C06  36291184.626   188977692.785           1.613          47.000    36291163.880   146129476.799           1.414          49.000  
C09  37379544.820   194645078.621         111.063          45.000    37379527.658   150511869.253          85.726          48.000  
C22  24670915.078   128467959.695         806.663          42.000                                                                  
G26  20751185.241   109048223.689       -1858.325          48.000    20751176.060    84972597.435       -1448.285          46.000  
G27  22073760.700   115998400.469        3084.060          44.000    22073752.033    90388335.507        2403.397          42.000  
G09  24044795.801   126356254.447        2850.200          37.000    24044788.749    98459397.976        2221.171          39.000  
C28  24694344.219   128589936.420        -898.312          44.000                                                                  
C07  38084799.036   198317538.692         819.904          40.000    38084780.242   153351631.988         633.603          45.000  
C20  25374751.893   132132989.195       -3602.770          45.000                                                                  
C36  23935553.452   124638705.795        1438.379          44.000                                                                  
C37  24890563.065   129611697.603       -2377.572          42.000                                                                  
C10  39210795.010   204180896.791         752.116          38.000    39210781.658   157885630.311         581.507          44.000  
G08  24371937.000   128075397.064        3622.986          36.000    24371940.660    99799047.171        2822.130          39.000  
G29  25119986.131   132006454.948       -3508.556          34.000    25119980.811   102862127.784       -2734.093          36.000  
C30  25289933.380   131691351.649        2767.571          42.000                                                                  
G32                                                                  25711292.663                       -3245.540          25.000  
C13                                                                  40628733.483   163595031.312       -1891.710          37.000  
C08                                                                  41548126.272   167297083.018       -1848.877          40.000  
> 2025 11 03 07 38 18.1200000  0 27                     
G04  21462974.933   112788704.638        1291.188          44.000    21462964.549    87887249.327        1006.134          46.000  
G16  20203525.202   106170248.179         326.353          46.000                                                                  
G28  22924580.160   120469476.687       -2621.891          41.000    22924569.774    93872273.425       -2042.890          43.000  
G31  21003743.077   110375422.645       -1590.275          47.000    21003730.964    86006764.660       -1239.206          45.000  
G03  24401396.745   128230261.645       -2882.794          35.000    24401392.195    99919616.553       -2245.850          36.000  
G18  25239135.153   132632542.355        1445.270          34.000    25239125.451   103350014.002        1125.936          37.000  
C16  36733473.925   191280803.585           4.123          48.000    36733457.879   147910411.252           3.303          48.000  
C19  23680572.267   123310959.751       -2022.791          47.000                                                                  
C27  23664001.070   123224728.616        1259.694          46.000                                                                  
C06  36291184.630   188977692.711           1.747          47.000    36291163.866   146129476.742           1.431          49.000  
C09  37379543.957   194645074.166         111.283          45.000    37379526.813   150511865.818          85.767          48.000  
C22  24670908.874   128467927.439         806.505          42.000                                                                  
G26  20751199.391   109048298.021       -1858.331          48.000    20751190.219    84972655.348       -1448.016          46.000  
G27  22073737.214   115998277.098        3084.202          44.000    22073728.569    90388239.382        2403.177          42.000  
G09  24044774.096   126356140.414        2850.592          37.000    24044767.040    98459309.121        2221.261          39.000  
C28  24694351.139   128589972.342        -898.188          44.000                                                                  
C07  38084792.738   198317505.909         819.745          40.000    38084773.942   153351606.633         633.752          45.000  
C20  25374779.567   132133133.302       -3602.715          45.000                                                                  
C36  23935542.401   124638648.256        1438.495          44.000                                                                  
C37  24890581.336   129611792.709       -2377.615          42.000                                                                  
C10  39210789.221   204180866.697         752.167          38.000    39210775.892   157885607.048         581.510          44.000  
G08  24371909.414   128075252.195        3622.303          36.000    24371913.083    99798934.268        2822.435          39.000  
G29  25120012.884   132006595.311       -3508.909          34.000    25120007.511   102862237.147       -2734.055          36.000  
C30  25289912.095   131691240.959        2767.414          41.000                                                                  
G32                                                                  25711324.408                       -3244.406          25.000  
C13                                                                  40628752.287   163595106.961       -1891.332          37.000  
C08                                                                  41548144.625   167297156.979       -1849.007          40.000  
> 2025 11 03 07 38 18.1600000  0 27                     
G04  21462965.127   112788652.996        1291.107          44.000    21462954.737    87887209.085        1006.080          46.000  
G16  20203522.724   106170235.123         326.360          46.000                                                                  
G28  22924600.122   120469581.558       -2621.840          41.000    22924589.738    93872355.142       -2042.928          43.000  
G31  21003755.192   110375486.254       -1590.281          47.000    21003743.075    86006814.225       -1239.211          45.000  
G03  24401418.672   128230376.962       -2882.961          35.000    24401414.153    99919706.420       -2246.323          36.000  
G18  25239124.141   132632484.557        1445.089          34.000    25239114.438   103349968.946        1126.243          37.000  
C16  36733473.903   191280803.418           4.167          48.000    36733457.857   147910411.122           3.259          48.000  
C19  23680587.804   123311040.662       -2022.797          47.000                                                                  
C27  23663991.375   123224678.240        1259.484          46.000                                                                  
C06  36291184.625   188977692.635           1.837          47.000    36291163.867   146129476.691           1.329          49.000  
C09  37379543.112   194645069.729         111.067          45.000    37379525.983   150511862.381          85.865          48.000  
C22  24670902.687   128467895.179         806.459          42.000                                                                  
G26  20751213.556   109048372.356       -1858.392          48.000    20751204.359    84972713.271       -1448.023          46.000  
G27  22073713.741   115998153.723        3084.348          44.000    22073705.091    90388143.248        2403.241          42.000  
G09  24044752.379   126356026.375        2850.832          37.000    24044745.345    98459220.276        2221.117          39.000  
C28  24694358.025   128590008.264        -898.136          44.000                                                                  
C07  38084786.443   198317473.136         819.434          40.000    38084767.636   153351581.276         633.857          45.000  
C20  25374807.270   132133277.407       -3602.646          45.000                                                                  
C36  23935531.356   124638590.725        1438.367          44.000                                                                  
C37  24890599.592   129611887.804       -2377.461          42.000                                                                  
C10  39210783.455   204180836.600         752.270          38.000    39210770.124   157885583.785         581.522          44.000  
G08  24371881.845   128075107.315        3622.013          36.000    24371885.497    99798821.375        2822.371          39.000  
G29  25120039.571   132006735.649       -3508.682          34.000    25120034.223   102862346.490       -2733.702          36.000  
C30  25289890.826   131691130.259        2767.503          42.000                                                                  
G32                                                                  25711356.153                       -3245.056          25.000  
C13                                                                  40628771.105   163595182.624       -1891.400          37.000  
C08                                                                  41548162.979   167297230.927       -1848.846          40.000  
> 2025 11 03 07 38 18.2000000  0 27                     
G04  21462955.302   112788601.361        1290.918          44.000    21462944.925    87887168.855        1005.846          46.000  
G16  20203520.254   106170222.076         326.186          46.000                                                                  
G28  22924620.061   120469686.424       -2621.722          41.000    22924609.708    93872436.863       -2043.048          43.000  
G31  21003767.325   110375549.864       -1590.293          47.000    21003755.177    86006863.797       -1239.321          45.000  
G03  24401440.618   128230492.259       -2882.683          35.000    24401436.079    99919796.277       -2246.436          36.000  
G18  25239113.143   132632426.761        1444.888          34.000    25239103.426   103349923.913        1126.022          37.000  
C16  36733473.862   191280803.255           4.098          48.000    36733457.830   147910410.997           3.179          48.000  
C19  23680603.324   123311121.581       -2022.939          47.000                                                                  
C27  23663981.686   123224627.869        1259.299          46.000                                                                  
C06  36291184.628   188977692.567           1.747          47.000    36291163.870   146129476.648           1.113          49.000  
C09  37379542.260   194645065.294         110.901          45.000    37379525.117   150511858.945          85.896          48.000  
C22  24670896.495   128467862.921         806.410          42.000                                                                  
G26  20751227.701   109048446.694       -1858.478          48.000    20751218.505    84972771.200       -1448.193          46.000  
G27  22073690.290   115998030.362        3084.156          44.000    22073681.620    90388047.125        2403.095          42.000  
G09  24044730.680   126355912.354        2850.641          37.000    24044723.642    98459131.433        2221.017          39.000  
C28  24694364.928   128590044.191        -898.195          44.000                                                                  
C07  38084780.150   198317440.355         819.391          40.000    38084761.347   153351555.935         633.588          45.000  
C20  25374834.945   132133421.528       -3602.898          45.000                                                                  
C36  23935520.310   124638533.212        1437.952          44.000                                                                  
C37  24890617.843   129611982.916       -2377.698          42.000                                                                  
C10  39210777.678   204180806.529         751.942          38.000    39210764.359   157885560.514         581.677          44.000  
G08  24371854.290   128074962.450        3621.569          36.000    24371857.929    99798708.492        2822.158          39.000  
G29  25120066.313   132006876.013       -3509.054          34.000    25120060.912   102862455.854       -2733.890          36.000  
C30  25289869.572   131691019.578        2767.195          42.000                                                                  
G32                                                                  25711387.763                       -3243.872          25.000  
C13                                                                  40628789.905   163595258.285       -1891.495          37.000  
C08                                                                  41548181.330   167297304.891       -1849.063          40.000  
> 2025 11 03 07 38 18.2400000  0 27                     
G04  21462945.473   112788549.723        1290.898          44.000    21462935.109    87887128.618        1005.825          46.000  
G16  20203517.800   106170209.033         326.056          46.000                                                                  
G28  22924640.009   120469791.309       -2622.038          41.000    22924629.666    93872518.575       -2042.915          43.000  
G31  21003779.435   110375613.483       -1590.464          47.000    21003767.282    86006913.365       -1239.287          45.000  
G03  24401462.568   128230607.578       -2882.896          35.000    24401458.005    99919886.141       -2246.565          36.000  
G18  25239102.133   132632368.968        1444.698          34.000    25239092.407   103349878.882        1125.812          37.000  
C16  36733473.773   191280803.103           3.863          48.000    36733457.815   147910410.879           2.993          48.000  
C19  23680618.864   123311202.505       -2023.099          47.000                                                                  
C27  23663972.009   123224577.500        1259.158          46.000                                                                  
C06  36291184.592   188977692.508           1.536          47.000    36291163.866   146129476.599           1.127          49.000  
C09  37379541.397   194645060.862         110.757          45.000    37379524.275   150511855.513          85.810          48.000  
C22  24670890.297   128467830.672         806.244          42.000                                                                  
G26  20751241.858   109048521.036       -1858.594          48.000    20751232.642    84972829.132       -1448.328          46.000  
G27  22073666.824   115997907.012        3083.833          44.000    22073658.162    90387951.017        2402.762          42.000  
G09  24044708.998   126355798.351        2850.245          37.000    24044701.920    98459042.583        2221.116          39.000  
C28  24694371.823   128590080.126        -898.336          44.000                                                                  
C07  38084773.857   198317407.599         818.970          40.000    38084755.091   153351530.598         633.397          45.000  
C20  25374862.603   132133565.648       -3603.042          45.000                                                                  
C36  23935509.243   124638475.698        1437.756          44.000                                                                  
C37  24890636.097   129612078.026       -2377.783          42.000                                                                  
C10  39210771.882   204180776.441         752.052          38.000    39210758.572   157885537.244         581.730          44.000  
G08  24371826.719   128074817.607        3621.000          36.000    24371830.355    99798595.611        2822.040          39.000  
G29  25120093.031   132007016.362       -3508.949          34.000    25120087.609   102862565.204       -2733.886          36.000  
C30  25289848.335   131690908.893        2767.075          42.000                                                                  
G32                                                                  25711419.187                       -3243.911          25.000  
C13                                                                  40628808.704   163595333.966       -1891.926          37.000  
C08                                                                  41548199.671   167297378.842       -1848.883          40.000  
> 2025 11 03 07 38 18.2800000  0 27                     
G04  21462935.635   112788498.092        1290.757          44.000    21462925.313    87887088.396        1005.602          46.000  
G16  20203515.324   106170195.994         325.908          46.000                                                                  
G28  22924659.982   120469896.184       -2621.983          41.000    22924649.629    93872600.305       -2043.193          43.000  
G31  21003791.528   110375677.102       -1590.543          47.000    21003779.394    86006962.942       -1239.431          45.000  
G03  24401484.510   128230722.896       -2882.919          35.000    24401479.945    99919976.008       -2246.738          36.000  
G18  25239091.131   132632311.171        1444.724          34.000    25239081.417   103349833.848        1125.777          37.000  
C16  36733473.712   191280802.950           3.771          48.000    36733457.777   147910410.761           2.906          48.000  
C19  23680634.396   123311283.433       -2023.234          47.000                                                                  
C27  23663962.323   123224527.140        1258.974          46.000                                                                  
C06  36291184.561   188977692.455           1.298          47.000    36291163.838   146129476.546           1.223          49.000  
C09  37379540.550   194645056.440         110.559          45.000    37379523.433   150511852.089          85.659          48.000  
C22  24670884.106   128467798.427         806.107          42.000                                                                  
G26  20751256.025   109048595.387       -1858.765          48.000    20751246.780    84972887.069       -1448.450          46.000  
G27  22073643.352   115997783.672        3083.458          44.000    22073634.675    90387854.898        2402.749          42.000  
G09  24044687.313   126355684.354        2849.956          37.000    24044680.219    98458953.739        2221.075          39.000  
C28  24694378.769   128590116.068        -898.539          44.000                                                                  
C07  38084767.565   198317374.826         819.093          40.000    38084748.796   153351505.249         633.574          45.000  
C20  25374890.259   132133709.770       -3603.121          45.000                                                                  
C36  23935498.210   124638418.175        1437.872          44.000                                                                  
C37  24890654.360   129612173.140       -2377.869          42.000                                                                  
C10  39210766.098   204180746.375         751.687          38.000    39210752.782   157885513.987         581.507          44.000  
G08  24371799.180   128074672.763        3620.747          36.000    24371802.788    99798482.731        2821.968          39.000  
G29  25120119.752   132007156.728       -3509.198          34.000    25120114.315   102862674.590       -2734.480          36.000  
C30  25289827.050   131690798.211        2766.963          42.000                                                                  
G32                                                                  25711450.884                       -3244.445          25.000  
C13                                                                  40628827.488   163595409.631       -1891.798          37.000  
C08                                                                  41548218.058   167297452.815       -1849.160          40.000  
> 2025 11 03 07 38 18.3200000  0 27                     
G04  21462925.799   112788446.468        1290.558          44.000    21462915.479    87887048.167        1005.604          46.000  
G16  20203512.831   106170182.948         326.011          46.000                                                                  
G28  22924679.937   120470001.060       -2621.957          41.000    22924669.585    93872682.038       -2043.377          43.000  
G31  21003803.657   110375740.728       -1590.661          47.000    21003791.505    86007012.520       -1239.505          45.000  
G03  24401506.452   128230838.221       -2883.118          35.000    24401501.887    99920065.825       -2245.836          36.000  
G18  25239080.127   132632253.383        1444.660          34.000    25239070.430   103349788.831        1125.446          37.000  
C16  36733473.662   191280802.799           3.706          48.000    36733457.749   147910410.642           2.879          48.000  
C19  23680649.956   123311364.361       -2023.306          47.000                                                                  
C27  23663952.655   123224476.771        1259.043          46.000                                                                  
C06  36291184.573   188977692.394           1.361          47.000    36291163.834   146129476.494           1.256          49.000  
C09  37379539.683   194645052.010         110.597          45.000    37379522.583   150511848.663          85.565          48.000  
C22  24670877.905   128467766.184         806.004          42.000                                                                  
G26  20751270.155   109048669.735       -1858.813          48.000    20751260.906    84972944.991       -1448.242          46.000  
G27  22073619.882   115997660.328        3083.415          44.000    22073611.200    90387758.766        2403.061          42.000  
G09  24044665.606   126355570.342        2850.033          37.000    24044658.527    98458864.923        2220.517          39.000  
C28  24694385.659   128590152.011        -898.655          44.000                                                                  
C07  38084761.277   198317342.040         819.430          40.000    38084742.524   153351479.910         633.481          45.000  
C20  25374917.938   132133853.892       -3603.149          45.000                                                                  
C36  23935487.159   124638360.654        1437.915          44.000                                                                  
C37  24890672.639   129612268.249       -2377.758          42.000                                                                  
C10  39210760.296   204180716.289         751.920          38.000    39210747.027   157885490.731         581.364          44.000  
G08  24371771.633   128074527.883        3621.360          36.000    24371775.201    99798369.840        2822.159          39.000  
G29  25120146.473   132007297.064       -3508.801          34.000    25120141.028   102862783.967       -2734.560          36.000  
C30  25289805.810   131690687.535        2766.841          41.000                                                                  
G32                                                                  25711482.577                       -3243.979          25.000  
C13                                                                  40628846.258   163595485.314       -1892.056          37.000  
C08                                                                  41548236.401   167297526.787       -1849.276          40.000  
> 2025 11 03 07 38 18.3600000  0 27                     
G04  21462915.968   112788394.838        1290.594          44.000    21462905.645    87887007.932        1005.763          46.000  
G16  20203510.338   106170169.910         325.949          46.000                                                                  
G28  22924699.902   120470105.940       -2622.000          41.000    22924689.573    93872763.764       -2043.259          43.000  
G31  21003815.756   110375804.349       -1590.654          47.000    21003803.617    86007062.090       -1239.426          45.000  
G03  24401528.407   128230953.529       -2882.949          35.000    24401523.796    99920155.675       -2246.041          36.000  
G18  25239069.121   132632195.613        1444.352          34.000    25239059.434   103349743.809        1125.403          37.000  
C16  36733473.622   191280802.640           3.842          48.000    36733457.735   147910410.524           2.882          48.000  
C19  23680665.490   123311445.284       -2023.194          47.000                                                                  
C27  23663942.967   123224426.412        1258.945          46.000                                                                  
C06  36291184.574   188977692.327           1.512          47.000    36291163.832   146129476.449           1.149          49.000  
C09  37379538.844   194645047.565         110.920          45.000    37379521.742   150511845.237          85.568          48.000  
C22  24670871.729   128467733.935         806.089          42.000                                                                  
G26  20751284.294   109048744.080       -1858.740          48.000    20751275.048    84973002.921       -1448.224          46.000  
G27  22073596.395   115997536.969        3083.736          44.000    22073587.717    90387662.634        2403.224          42.000  
G09  24044643.917   126355456.333        2850.096          37.000    24044636.822    98458776.086        2220.631          39.000  
C28  24694392.579   128590187.950        -898.574          44.000                                                                  
C07  38084754.972   198317309.273         819.286          40.000    38084736.232   153351454.566         633.531          45.000  
C20  25374945.641   132133998.008       -3603.004          45.000                                                                  
C36  23935476.123   124638303.130        1438.025          44.000                                                                  
C37  24890690.917   129612363.366       -2377.815          42.000                                                                  
C10  39210754.523   204180686.201         752.118          38.000    39210741.247   157885467.475         581.312          44.000  
G08  24371744.068   128074382.981        3622.142          36.000    24371747.618    99798256.946        2822.317          39.000  
G29  25120173.196   132007437.393       -3508.449          34.000    25120167.723   102862893.325       -2734.263          36.000  
C30  25289784.554   131690576.834        2767.229          42.000                                                                  
G32                                                                  25711514.095                       -3244.507          25.000  
C13                                                                  40628865.043   163595560.964       -1891.504          37.000  
C08                                                                  41548254.772   167297600.763       -1849.430          40.000  
> 2025 11 03 07 38 18.4000000  0 27                     
G04  21462906.129   112788343.211        1290.586          44.000    21462895.816    87886967.690        1005.972          46.000  
G16  20203507.885   106170156.871         325.950          46.000                                                                  
G28  22924719.862   120470210.810       -2621.921          41.000    22924709.534    93872845.491       -2043.234          43.000  
G31  21003827.873   110375867.963       -1590.498          47.000    21003815.723    86007111.669       -1239.461          45.000  
G03  24401550.347   128231068.859       -2883.276          35.000    24401545.739    99920245.563       -2246.885          36.000  
G18  25239058.094   132632137.812        1444.703          34.000    25239048.447   103349698.767        1125.773          37.000  
C16  36733473.570   191280802.479           3.946          48.000    36733457.702   147910410.399           3.002          48.000  
C19  23680681.044   123311526.207       -2023.126          47.000                                                                  
C27  23663933.304   123224376.045        1259.051          46.000                                                                  
C06  36291184.565   188977692.259           1.642          47.000    36291163.806   146129476.405           1.079          49.000  
C09  37379537.990   194645043.122         111.036          45.000    37379520.891   150511841.810          85.596          48.000  
C22  24670865.513   128467701.672         806.361          42.000                                                                  
G26  20751298.426   109048818.428       -1858.734          48.000    20751289.198    84973060.851       -1448.260          46.000  
G27  22073572.914   115997413.607        3083.925          44.000    22073564.270    90387566.524        2402.944          42.000  
G09  24044622.209   126355342.303        2850.548          37.000    24044615.125    98458687.247        2220.787          39.000  
C28  24694399.492   128590223.894        -898.631          44.000                                                                  
C07  38084748.691   198317276.487         819.541          40.000    38084729.929   153351429.217         633.636          45.000  
C20  25374973.317   132134142.128       -3603.019          45.000                                                                  
C36  23935465.083   124638245.608        1438.037          44.000                                                                  
C37  24890709.194   129612458.481       -2377.875          42.000                                                                  
C10  39210748.741   204180656.117         752.173          38.000    39210735.480   157885444.219         581.326          44.000  
G08  24371716.502   128074238.099        3622.163          36.000    24371720.051    99798144.080        2821.838          39.000  
G29  25120199.902   132007577.750       -3508.790          34.000    25120194.435   102863002.705       -2734.456          36.000  
C30  25289763.288   131690466.144        2767.271          42.000                                                                  
G32                                                                  25711546.140                       -3244.347          25.000  
C13                                                                  40628883.822   163595636.629       -1891.615          37.000  
C08                                                                  41548273.146   167297674.717       -1849.015          40.000  
> 2025 11 03 07 38 18.4400000  0 27                     
G04  21462896.308   112788291.590        1290.498          44.000    21462886.001    87886927.465        1005.780          46.000  
G16  20203505.403   106170143.836         325.845          46.000                                                                  
G28  22924739.813   120470315.698       -2622.178          41.000    22924729.490    93872927.212       -2043.095          43.000  
G31  21003840.001   110375931.580       -1590.462          47.000    21003827.840    86007161.242       -1239.415          45.000  
G03  24401572.321   128231184.178       -2883.201          35.000    24401567.693    99920335.423       -2246.757          36.000  
G18  25239047.112   132632080.020        1444.873          34.000    25239037.446   103349653.730        1125.965          37.000  
C16  36733473.531   191280802.326           3.871          48.000    36733457.673   147910410.281           2.968          48.000  
C19  23680696.571   123311607.141       -2023.287          47.000                                                                  
C27  23663923.643   123224325.677        1259.131          46.000                                                                  
C06  36291184.543   188977692.206           1.414          47.000    36291163.790   146129476.359           1.083          49.000  
C09  37379537.133   194645038.701         110.673          45.000    37379520.037   150511838.385          85.585          48.000  
C22  24670859.319   128467669.431         806.164          42.000                                                                  
G26  20751312.560   109048892.774       -1858.691          48.000    20751303.369    84973118.794       -1448.517          46.000  
G27  22073549.439   115997290.245        3084.001          44.000    22073540.799    90387470.406        2402.922          42.000  
G09  24044600.514   126355228.296        2850.360          37.000    24044593.440    98458598.403        2220.953          39.000  
C28  24694406.419   128590259.833        -898.550          44.000                                                                  
C07  38084742.417   198317243.721         819.259          40.000    38084723.632   153351403.874         633.567          45.000  
C20  25375000.977   132134286.254       -3603.127          45.000                                                                  
C36  23935454.038   124638188.089        1437.988          44.000                                                                  
C37  24890727.452   129612553.605       -2378.067          42.000                                                                  
C10  39210742.967   204180626.035         752.092          38.000    39210729.712   157885420.962         581.344          44.000  
G08  24371688.919   128074093.230        3621.857          36.000    24371692.495    99798031.205        2821.770          39.000  
G29  25120226.647   132007718.117       -3509.142          34.000    25120221.137   102863112.061       -2734.117          36.000  
C30  25289742.016   131690355.462        2767.121          42.000                                                                  
G32                                                                  25711577.787                       -3243.688          25.000  
C13                                                                  40628902.635   163595712.306       -1891.837          37.000  
C08                                                                  41548291.494   167297748.677       -1848.936          40.000  
> 2025 11 03 07 38 18.4800000  0 27                     
G04  21462886.472   112788239.953        1290.734          44.000    21462876.177    87886887.237        1005.680          46.000  
G16  20203502.896   106170130.789         326.038          46.000                                                                  
G28  22924759.779   120470420.584       -2622.218          41.000    22924749.445    93873008.932       -2043.022          43.000  
G31  21003852.129   110375995.204       -1590.568          47.000    21003839.954    86007210.812       -1239.295          45.000  
G03  24401594.279   128231299.501       -2883.160          35.000    24401589.644    99920425.297       -2246.919          36.000  
G18  25239036.110   132632022.204        1445.234          34.000    25239026.443   103349608.687        1126.059          37.000  
C16  36733473.504   191280802.163           3.988          48.000    36733457.648   147910410.162           2.933          48.000  
C19  23680712.147   123311688.065       -2023.169          47.000                                                                  
C27  23663913.970   123224275.316        1259.038          46.000                                                                  
C06  36291184.530   188977692.145           1.473          47.000    36291163.766   146129476.308           1.196          49.000  
C09  37379536.289   194645034.264         110.753          45.000    37379519.178   150511834.946          85.829          48.000  
C22  24670853.157   128467637.178         806.236          42.000                                                                  
G26  20751326.696   109048967.118       -1858.643          48.000    20751317.503    84973176.730       -1448.499          46.000  
G27  22073525.974   115997166.893        3083.883          44.000    22073517.319    90387374.297        2402.750          42.000  
G09  24044578.834   126355114.292        2850.193          37.000    24044571.762    98458509.556        2221.135          39.000  
C28  24694413.310   128590295.771        -898.485          44.000                                                                  
C07  38084736.130   198317210.950         819.216          40.000    38084717.340   153351378.536         633.455          45.000  
C20  25375028.658   132134430.374       -3603.066          45.000                                                                  
C36  23935443.008   124638130.564        1438.068          44.000                                                                  
C37  24890745.729   129612648.707       -2377.744          42.000                                                                  
C10  39210737.179   204180595.956         752.033          38.000    39210723.946   157885397.694         581.572          44.000  
G08  24371661.354   128073948.380        3621.366          36.000    24371664.928    99797918.303        2822.210          39.000  
G29  25120253.366   132007858.470       -3509.104          34.000    25120247.845   102863221.413       -2733.863          36.000  
C30  25289720.750   131690244.778        2767.084          42.000                                                                  
G32                                                                  25711609.370                       -3243.857          25.000  
C13                                                                  40628921.426   163595787.980       -1891.923          37.000  
C08                                                                  41548309.873   167297822.635       -1848.838          40.000  
> 2025 11 03 07 38 18.5200000  0 27                     
G04  21462876.640   112788188.315        1290.886          44.000    21462866.347    87886847.008        1005.657          46.000  
G16  20203500.422   106170117.746         326.075          46.000                                                                  
G28  22924779.731   120470525.466       -2622.192          41.000    22924769.422    93873090.658       -2043.104          43.000  
G31  21003864.248   110376058.828       -1590.619          47.000    21003852.053    86007260.383       -1239.294          45.000  
G03  24401616.227   128231414.813       -2883.011          36.000    24401611.601    99920515.159       -2246.758          36.000  
G18  25239025.093   132631964.391        1445.291          34.000    25239015.441   103349563.650        1125.977          37.000  
C16  36733473.470   191280802.008           3.921          48.000    36733457.632   147910410.043           2.922          48.000  
C19  23680727.705   123311768.987       -2023.077          47.000                                                                  
C27  23663904.304   123224224.948        1259.100          46.000                                                                  
C06  36291184.518   188977692.071           1.731          47.000    36291163.758   146129476.254           1.306          49.000  
C09  37379535.441   194645029.825         110.856          45.000    37379518.304   150511831.508          85.959          48.000  
C22  24670846.953   128467604.933         806.114          42.000                                                                  
G26  20751340.857   109049041.463       -1858.643          48.000    20751331.632    84973234.662       -1448.413          46.000  
G27  22073502.513   115997043.547        3083.689          44.000    22073493.867    90387278.171        2403.008          42.000  
G09  24044557.114   126355000.273        2850.416          37.000    24044550.067    98458420.703        2221.335          39.000  
C28  24694420.189   128590331.704        -898.397          44.000                                                                  
C07  38084729.815   198317178.166         819.498          40.000    38084711.039   153351353.190         633.556          45.000  
C20  25375056.333   132134574.486       -3602.914          45.000                                                                  
C36  23935431.986   124638073.041        1438.092          44.000                                                                  
C37  24890763.980   129612743.801       -2377.427          42.000                                                                  
C10  39210731.392   204180565.886         751.830          39.000    39210718.141   157885374.420         581.806          44.000  
G08  24371633.793   128073803.505        3621.580          36.000    24371637.356    99797805.410        2822.286          39.000  
G29  25120280.054   132007998.832       -3509.140          34.000    25120274.556   102863330.771       -2733.811          36.000  
C30  25289699.494   131690134.095        2767.013          42.000                                                                  
G32                                                                  25711640.913                       -3244.203          25.000  
C13                                                                  40628940.241   163595863.631       -1891.488          37.000  
C08                                                                  41548328.228   167297896.597       -1848.919          40.000  
> 2025 11 03 07 38 18.5600000  0 27                     
G04  21462866.819   112788136.687        1290.773          44.000    21462856.513    87886806.778        1005.660          46.000  
G16  20203497.942   106170104.705         326.037          46.000                                                                  
G28  22924799.727   120470630.351       -2622.229          41.000    22924789.398    93873172.388       -2043.230          43.000  
G31  21003876.345   110376122.453       -1590.677          47.000    21003864.170    86007309.969       -1239.554          45.000  
G03  24401638.172   128231530.112       -2882.679          35.000    24401633.526    99920605.002       -2246.299          36.000  
G18  25239014.086   132631906.611        1444.761          34.000    25239004.430   103349518.627        1125.655          37.000  
C16  36733473.419   191280801.851           3.901          48.000    36733457.605   147910409.924           2.929          48.000  
C19  23680743.235   123311849.913       -2023.139          47.000                                                                  
C27  23663894.643   123224174.579        1259.149          46.000                                                                  
C06  36291184.529   188977692.007           1.670          47.000    36291163.757   146129476.203           1.294          49.000  
C09  37379534.568   194645025.378         111.079          45.000    37379517.442   150511828.082          85.748          48.000  
C22  24670840.754   128467572.697         805.875          42.000                                                                  
G26  20751355.007   109049115.809       -1858.667          48.000    20751345.790    84973292.592       -1448.315          46.000  
G27  22073479.039   115996920.181        3083.944          44.000    22073470.398    90387182.055        2402.933          42.000  
G09  24044535.415   126354886.268        2850.234          37.000    24044528.385    98458331.871        2221.037          39.000  
C28  24694427.095   128590367.648        -898.531          44.000                                                                  
C07  38084723.524   198317145.394         819.390          40.000    38084704.730   153351327.845         633.587          45.000  
C20  25375084.008   132134718.599       -3602.841          45.000                                                                  
C36  23935420.944   124638015.513        1438.159          44.000                                                                  
C37  24890782.239   129612838.905       -2377.455          42.000                                                                  
C10  39210725.636   204180535.795         752.123          39.000    39210712.342   157885351.157         581.722          44.000  
G08  24371606.236   128073658.608        3622.272          36.000    24371609.788    99797692.529        2822.080          39.000  
G29  25120306.786   132008139.188       -3508.908          34.000    25120301.264   102863440.177       -2734.640          35.000  
C30  25289678.250   131690023.408        2767.067          42.000                                                                  
G32                                                                  25711672.661                       -3243.907          25.000  
C13                                                                  40628959.016   163595939.317       -1891.892          37.000  
C08                                                                  41548346.594   167297970.557       -1848.919          40.000  
> 2025 11 03 07 38 18.6000000  0 27                     
G04  21462857.006   112788085.073        1290.450          44.000    21462846.703    87886766.559        1005.497          46.000  
G16  20203495.462   106170091.670         325.881          46.000                                                                  
G28  22924819.715   120470735.228       -2621.987          41.000    22924809.360    93873254.120       -2043.355          43.000  
G31  21003888.460   110376186.081       -1590.748          47.000    21003876.252    86007359.540       -1239.424          45.000  
G03  24401660.119   128231645.418       -2882.651          35.000    24401655.461    99920694.858       -2246.298          36.000  
G18  25239003.109   132631848.823        1444.683          34.000    25238993.437   103349473.604        1125.452          37.000  
C16  36733473.331   191280801.692           3.941          48.000    36733457.598   147910409.800           3.021          48.000  
C19  23680758.739   123311930.848       -2023.330          47.000                                                                  
C27  23663884.987   123224124.211        1259.136          46.000                                                                  
C06  36291184.502   188977691.947           1.542          47.000    36291163.758   146129476.153           1.260          49.000  
C09  37379533.713   194645020.946         110.875          45.000    37379516.557   150511824.655          85.660          48.000  
C22  24670834.577   128467540.460         805.800          42.000                                                                  
G26  20751369.158   109049190.157       -1858.716          48.000    20751359.956    84973350.524       -1448.322          46.000  
G27  22073455.584   115996796.841        3083.604          44.000    22073446.917    90387085.935        2402.950          42.000  
G09  24044513.735   126354772.262        2850.107          38.000    24044506.692    98458243.027        2221.073          39.000  
C28  24694433.965   128590403.598        -898.733          44.000                                                                  
C07  38084717.224   198317112.629         819.166          40.000    38084698.456   153351302.503         633.569          45.000  
C20  25375111.670   132134862.726       -3603.061          45.000                                                                  
C36  23935409.879   124637958.009        1437.738          44.000                                                                  
C37  24890800.477   129612934.029       -2377.887          42.000                                                                  
C10  39210719.844   204180505.714         752.063          39.000    39210706.607   157885327.912         581.317          44.000  
G08  24371578.675   128073513.746        3621.895          36.000    24371582.227    99797579.650        2821.881          39.000  
G29  25120333.463   132008279.537       -3508.787          34.000    25120327.966   102863549.546       -2734.562          35.000  
C30  25289657.004   131689912.722        2767.126          42.000                                                                  
G32                                                                  25711704.401                       -3244.304          25.000  
C13                                                                  40628977.789   163596014.987       -1891.844          37.000  
C08                                                                  41548364.954   167298044.524       -1849.073          40.000  
> 2025 11 03 07 38 18.6400000  0 27                     
G04  21462847.198   112788033.462        1290.194          44.000    21462836.878    87886726.330        1005.582          46.000  
G16  20203492.994   106170078.638         325.757          46.000                                                                  
G28  22924839.668   120470840.104       -2621.869          41.000    22924829.297    93873335.846       -2043.278          43.000  
G31  21003900.565   110376249.707       -1590.757          47.000    21003888.367    86007409.125       -1239.603          45.000  
G03  24401682.065   128231760.757       -2883.218          35.000    24401677.402    99920784.713       -2246.292          36.000  
G18  25238992.104   132631791.078        1443.870          34.000    25238982.450   103349428.581        1125.396          37.000  
C16  36733473.287   191280801.537           3.875          48.000    36733457.559   147910409.673           3.136          48.000  
C19  23680774.269   123312011.784       -2023.428          47.000                                                                  
C27  23663875.312   123224073.861        1258.828          46.000                                                                  
C06  36291184.486   188977691.888           1.478          47.000    36291163.755   146129476.110           1.122          49.000  
C09  37379532.845   194645016.522         110.635          45.000    37379515.726   150511821.232          85.554          48.000  
C22  24670828.368   128467508.220         805.860          42.000                                                                  
G26  20751383.319   109049264.510       -1858.813          48.000    20751374.100    84973408.460       -1448.395          46.000  
G27  22073432.108   115996673.499        3083.502          44.000    22073423.434    90386989.811        2403.068          42.000  
G09  24044492.058   126354658.255        2850.086          37.000    24044484.993    98458154.193        2220.942          39.000  
C28  24694440.853   128590439.541        -898.714          44.000                                                                  
C07  38084710.937   198317079.859         819.136          40.000    38084692.165   153351277.171         633.369          45.000  
C20  25375139.331   132135006.856       -3603.218          45.000                                                                  
C36  23935398.861   124637900.489        1437.836          44.000                                                                  
C37  24890818.747   129613029.153       -2378.101          42.000                                                                  
C10  39210714.074   204180475.636         751.994          39.000    39210700.845   157885304.657         581.304          44.000  
G08  24371551.120   128073368.881        3621.764          36.000    24371554.650    99797466.778        2821.721          39.000  
G29  25120360.176   132008419.891       -3508.826          34.000    25120354.661   102863658.920       -2734.496          36.000  
C30  25289635.760   131689802.038        2767.080          42.000                                                                  
G32                                                                  25711736.041                       -3244.768          25.000  
C13                                                                  40628996.580   163596090.634       -1891.360          37.000  
C08                                                                  41548383.332   167298118.488       -1849.104          40.000  
> 2025 11 03 07 38 18.6800000  0 27                     
G04  21462837.365   112787981.834        1290.416          44.000    21462827.053    87886686.100        1005.654          46.000  
G16  20203490.519   106170065.604         325.753          46.000                                                                  
G28  22924859.627   120470944.984       -2621.909          41.000    22924849.251    93873417.568       -2043.159          43.000  
G31  21003912.650   110376313.326       -1590.599          47.000    21003900.468    86007458.696       -1239.408          45.000  
G03  24401704.040   128231876.107       -2883.767          35.000    24401699.351    99920874.568       -2246.310          36.000  
G18  25238981.091   132631733.273        1444.538          34.000    25238971.452   103349383.549        1125.642          37.000  
C16  36733473.225   191280801.380           3.881          48.000    36733457.519   147910409.548           3.132          48.000  
C19  23680789.825   123312092.721       -2023.501          47.000                                                                  
C27  23663865.650   123224023.502        1258.854          46.000                                                                  
C06  36291184.485   188977691.829           1.462          47.000    36291163.752   146129476.068           1.041          49.000  
C09  37379531.992   194645012.089         110.696          45.000    37379514.858   150511817.794          85.808          48.000  
C22  24670822.155   128467475.969         806.132          42.000                                                                  
G26  20751397.467   109049338.859       -1858.801          48.000    20751388.252    84973466.392       -1448.322          46.000  
G27  22073408.633   115996550.151        3083.558          44.000    22073399.980    90386893.698        2402.931          42.000  
G09  24044470.370   126354544.254        2849.927          38.000    24044463.294    98458065.355        2220.904          39.000  
C28  24694447.757   128590475.485        -898.691          44.000                                                                  
C07  38084704.624   198317047.092         819.138          40.000    38084685.896   153351251.827         633.483          45.000  
C20  25375167.015   132135150.979       -3603.175          45.000                                                                  
C36  23935387.817   124637842.966        1437.982          44.000                                                                  
C37  24890837.017   129613124.266       -2378.022          42.000                                                                  
C10  39210708.306   204180445.550         752.083          39.000    39210695.046   157885281.396         581.373          44.000  
G08  24371523.550   128073224.014        3621.751          36.000    24371527.073    99797353.892        2821.949          39.000  
G29  25120386.868   132008560.250       -3508.869          34.000    25120381.364   102863768.288       -2734.276          36.000  
C30  25289614.490   131689691.351        2767.125          41.000                                                                  
G32                                                                  25711767.599                       -3244.378          25.000  
C13                                                                  40629015.371   163596166.311       -1891.718          37.000  
C08                                                                  41548401.706   167298192.446       -1849.005          40.000  
> 2025 11 03 07 38 18.7200000  0 27                     
G04  21462827.552   112787930.198        1290.709          44.000    21462817.241    87886645.873        1005.632          46.000  
G16  20203488.011   106170052.563         325.922          46.000                                                                  
G28  22924879.587   120471049.871       -2622.087          41.000    22924869.205    93873499.281       -2042.933          43.000  
G31  21003924.742   110376376.943       -1590.477          47.000    21003912.585    86007508.261       -1239.200          45.000  
G03  24401725.997   128231991.409       -2883.108          35.000    24401721.281    99920964.425       -2246.364          36.000  
G18  25238970.082   132631675.485        1444.603          34.000    25238960.445   103349338.501        1126.083          37.000  
C16  36733473.203   191280801.215           4.018          48.000    36733457.506   147910409.424           3.096          48.000  
C19  23680805.382   123312173.647       -2023.303          47.000                                                                  
C27  23663855.990   123223973.136        1259.052          46.000                                                                  
C06  36291184.454   188977691.758           1.663          47.000    36291163.748   146129476.014           1.224          49.000  
C09  37379531.130   194645007.641         111.013          45.000    37379514.001   150511814.360          85.850          48.000  
C22  24670816.005   128467443.715         806.357          42.000                                                                  
G26  20751411.597   109049413.203       -1858.685          48.000    20751402.405    84973524.323       -1448.279          46.000  
G27  22073385.167   115996426.793        3083.836          44.000    22073376.520    90386797.587        2402.844          42.000  
G09  24044448.660   126354430.230        2850.307          38.000    24044441.608    98457976.526        2220.793          39.000  
C28  24694454.646   128590511.435        -898.719          44.000                                                                  
C07  38084698.309   198317014.304         819.524          41.000    38084679.623   153351226.477         633.669          45.000  
C20  25375194.693   132135295.096       -3603.039          45.000                                                                  
C36  23935376.747   124637785.442        1438.062          44.000                                                                  
C37  24890855.275   129613219.378       -2377.928          42.000                                                                  
C10  39210702.526   204180415.457         752.260          38.000    39210689.277   157885258.125         581.627          44.000  
G08  24371495.990   128073079.173        3621.245          36.000    24371499.516    99797241.001        2822.168          39.000  
G29  25120413.561   132008700.610       -3509.048          34.000    25120408.062   102863877.619       -2733.539          36.000  
C30  25289593.245   131689580.659        2767.252          41.000                                                                  
G32                                                                  25711799.229                       -3245.295          25.000  
C13                                                                  40629034.168   163596241.985       -1891.909          37.000  
C08                                                                  41548420.080   167298266.413       -1849.135          40.000  
> 2025 11 03 07 38 18.7600000  0 27                     
G04  21462817.718   112787878.571        1290.724          44.000    21462807.414    87886605.647        1005.606          46.000  
G16  20203485.522   106170039.524         325.952          46.000                                                                  
G28  22924899.528   120471154.751       -2622.061          41.000    22924889.169    93873581.010       -2043.111          43.000  
G31  21003936.848   110376440.561       -1590.449          47.000    21003924.723    86007557.843       -1239.420          45.000  
G03  24401747.951   128232106.731       -2883.044          35.000    24401743.211    99921054.286       -2246.392          36.000  
G18  25238959.103   132631617.681        1444.922          34.000    25238949.447   103349293.461        1126.071          37.000  
C16  36733473.136   191280801.057           3.964          48.000    36733457.477   147910409.295           3.154          48.000  
C19  23680820.937   123312254.570       -2023.125          47.000                                                                  
C27  23663846.322   123223922.764        1259.249          46.000                                                                  
C06  36291184.446   188977691.682           1.849          47.000    36291163.712   146129475.958           1.388          49.000  
C09  37379530.301   194645003.195         111.135          45.000    37379513.148   150511810.928          85.822          48.000  
C22  24670809.809   128467411.469         806.261          42.000                                                                  
G26  20751425.744   109049487.550       -1858.679          48.000    20751416.558    84973582.251       -1448.199          46.000  
G27  22073361.676   115996303.427        3084.088          44.000    22073353.023    90386701.467        2402.908          42.000  
G09  24044426.986   126354316.209        2850.466          38.000    24044419.918    98457887.685        2220.857          39.000  
C28  24694461.542   128590547.370        -898.495          44.000                                                                  
C07  38084692.000   198316981.519         819.690          41.000    38084673.338   153351201.125         633.786          45.000  
C20  25375222.352   132135439.206       -3602.862          45.000                                                                  
C36  23935365.718   124637727.910        1438.257          44.000                                                                  
C37  24890873.547   129613314.473       -2377.567          42.000                                                                  
C10  39210696.751   204180385.379         752.088          39.000    39210683.509   157885234.860         581.668          44.000  
G08  24371468.413   128072934.295        3621.669          36.000    24371471.931    99797128.104        2822.434          39.000  
G29  25120440.254   132008840.960       -3508.962          34.000    25120434.752   102863986.984       -2733.845          36.000  
C30  25289571.993   131689469.973        2767.192          41.000                                                                  
G32                                                                  25711831.051                       -3244.635          25.000  
C13                                                                  40629052.978   163596317.655       -1891.938          37.000  
C08                                                                  41548438.461   167298340.374       -1849.098          40.000  
> 2025 11 03 07 38 18.8000000  0 27                     
G04  21462807.906   112787826.933        1290.889          44.000    21462797.577    87886565.416        1005.693          46.000  
G16  20203483.037   106170026.484         325.989          46.000                                                                  
G28  22924919.490   120471259.636       -2622.104          41.000    22924909.119    93873662.742       -2043.301          43.000  
G31  21003948.950   110376504.176       -1590.395          47.000    21003936.850    86007607.424       -1239.525          45.000  
G03  24401769.889   128232221.988       -2881.813          35.000    24401765.130    99921144.133       -2246.208          36.000  
G18  25238948.088   132631559.895        1444.950          34.000    25238938.469   103349248.431        1125.875          37.000  
C16  36733473.075   191280800.891           4.081          48.000    36733457.430   147910409.165           3.232          48.000  
C19  23680836.482   123312335.492       -2023.002          47.000                                                                  
C27  23663836.648   123223872.396        1259.266          46.000                                                                  
C06  36291184.456   188977691.610           1.887          47.000    36291163.684   146129475.898           1.511          49.000  
C09  37379529.438   194644998.757         110.995          45.000    37379512.324   150511807.493          85.873          48.000  
C22  24670803.587   128467379.228         806.121          42.000                                                                  
G26  20751439.877   109049561.887       -1858.484          48.000    20751430.689    84973640.179       -1448.206          46.000  
G27  22073338.181   115996180.069        3084.012          44.000    22073329.541    90386605.335        2403.193          42.000  
G09  24044405.287   126354202.194        2850.452          38.000    24044398.232    98457798.824        2221.249          39.000  
C28  24694468.408   128590583.307        -898.417          44.000                                                                  
C07  38084685.725   198316948.733         819.762          41.000    38084667.033   153351175.780         633.710          45.000  
C20  25375250.034   132135583.309       -3602.616          45.000                                                                  
C36  23935354.665   124637670.392        1438.068          44.000                                                                  
C37  24890891.817   129613409.576       -2377.469          42.000                                                                  
C10  39210690.976   204180355.301         752.012          38.000    39210677.711   157885211.591         581.722          44.000  
G08  24371440.846   128072789.384        3622.445          36.000    24371444.360    99797015.219        2822.288          39.000  
G29  25120467.005   132008981.312       -3508.780          34.000    25120461.457   102864096.365       -2734.416          36.000  
C30  25289550.721   131689359.277        2767.344          41.000                                                                  
G32                                                                  25711862.641                       -3244.256          25.000  
C13                                                                  40629071.734   163596393.306       -1891.580          37.000  
C08                                                                  41548456.816   167298414.325       -1848.844          40.000  
> 2025 11 03 07 38 18.8400000  0 27                     
G04  21462798.090   112787775.313        1290.630          44.000    21462787.742    87886525.184        1005.758          46.000  
G16  20203480.555   106170013.439         326.094          46.000                                                                  
G28  22924939.431   120471364.505       -2621.871          41.000    22924929.083    93873744.467       -2043.222          43.000  
G31  21003961.057   110376567.798       -1590.505          47.000    21003948.958    86007656.987       -1239.268          45.000  
G03  24401791.835   128232337.304       -2882.323          35.000    24401787.060    99921233.982       -2246.224          36.000  
G18  25238937.098   132631502.065        1445.662          34.000    25238927.483   103349203.410        1125.661          37.000  
C16  36733473.017   191280800.727           4.119          48.000    36733457.418   147910409.038           3.217          48.000  
C19  23680852.039   123312416.416       -2023.046          47.000                                                                  
C27  23663826.985   123223822.027        1259.272          46.000                                                                  
C06  36291184.455   188977691.537           1.881          47.000    36291163.694   146129475.838           1.549          49.000  
C09  37379528.569   194644994.317         110.982          45.000    37379511.489   150511804.056          85.916          48.000  
C22  24670797.430   128467346.982         806.102          42.000                                                                  
G26  20751454.012   109049636.225       -1858.417          48.000    20751444.827    84973698.108       -1448.255          46.000  
G27  22073314.688   115996056.712        3084.006          44.000    22073306.054    90386509.215        2403.068          42.000  
G09  24044383.609   126354088.188        2850.249          38.000    24044376.522    98457709.986        2221.092          39.000  
C28  24694475.305   128590619.243        -898.397          44.000                                                                  
C07  38084679.417   198316915.956         819.567          41.000    38084660.751   153351150.436         633.647          45.000  
C20  25375277.717   132135727.426       -3602.804          45.000                                                                  
C36  23935343.648   124637612.864        1438.129          44.000                                                                  
C37  24890910.077   129613504.684       -2377.585          42.000                                                                  
C10  39210685.221   204180325.192         752.476          38.000    39210671.939   157885188.322         581.715          44.000  
G08  24371413.290   128072644.515        3622.148          36.000    24371416.788    99796902.316        2822.466          39.000  
G29  25120493.721   132009121.655       -3508.610          34.000    25120488.173   102864205.737       -2734.473          36.000  
C30  25289529.467   131689248.575        2767.480          42.000                                                                  
G32                                                                  25711894.181                       -3243.125          25.000  
C13                                                                  40629090.527   163596468.967       -1891.533          37.000  
C08                                                                  41548475.193   167298488.272       -1848.673          40.000  
> 2025 11 03 07 38 18.8800000  0 27                     
G04  21462788.277   112787723.686        1290.601          44.000    21462777.930    87886484.956        1005.723          46.000  
G16  20203478.078   106170000.403         325.975          46.000                                                                  
G28  22924959.402   120471469.389       -2622.037          41.000    22924949.039    93873826.187       -2043.097          43.000  
G31  21003973.168   110376631.422       -1590.619          47.000    21003961.068    86007706.560       -1239.278          45.000  
G03  24401813.800   128232452.636       -2883.027          35.000    24401809.018    99921323.886       -2247.144          36.000  
G18  25238926.070   132631444.281        1445.193          34.000    25238916.485   103349158.373        1125.852          37.000  
C16  36733472.959   191280800.567           4.049          48.000    36733457.393   147910408.911           3.184          48.000  
C19  23680867.576   123312497.347       -2023.226          47.000                                                                  
C27  23663817.298   123223771.667        1259.062          46.000                                                                  
C06  36291184.435   188977691.475           1.665          47.000    36291163.710   146129475.787           1.372          49.000  
C09  37379527.712   194644989.874         111.008          45.000    37379510.645   150511800.624          85.836          48.000  
C22  24670791.231   128467314.747         805.878          42.000                                                                  
G26  20751468.157   109049710.573       -1858.606          48.000    20751458.989    84973756.044       -1448.389          46.000  
G27  22073291.208   115995933.368        3083.760          44.000    22073282.582    90386413.103        2402.862          42.000  
G09  24044361.904   126353974.175        2850.244          37.000    24044354.822    98457621.150        2220.922          39.000  
C28  24694482.204   128590655.186        -898.518          44.000                                                                  
C07  38084673.123   198316883.179         819.429          41.000    38084654.450   153351125.082         633.733          45.000  
C20  25375305.414   132135871.540       -3602.875          45.000                                                                  
C36  23935332.600   124637555.339        1438.110          44.000                                                                  
C37  24890928.343   129613599.803       -2377.894          42.000                                                                  
C10  39210679.423   204180295.117         752.110          38.000    39210666.149   157885165.059         581.634          44.000  
G08  24371385.719   128072499.641        3621.963          36.000    24371389.237    99796789.439        2822.076          39.000  
G29  25120520.451   132009262.025       -3509.011          35.000    25120514.877   102864315.123       -2734.753          36.000  
C30  25289508.213   131689137.882        2767.415          42.000                                                                  
G32                                                                  25711925.975                       -3243.668          25.000  
C13                                                                  40629109.307   163596544.623       -1891.440          37.000  
C08                                                                  41548493.557   167298562.222       -1848.693          40.000  
> 2025 11 03 07 38 18.9200000  0 27                     
G04  21462778.457   112787672.079        1290.248          44.000    21462768.089    87886444.738        1005.519          46.000  
G16  20203475.620   106169987.370         325.838          46.000                                                                  
G28  22924979.369   120471574.273       -2622.151          41.000    22924968.989    93873907.909       -2043.047          43.000  
G31  21003985.292   110376695.049       -1590.728          47.000    21003973.167    86007756.143       -1239.497          45.000  
G03  24401835.777   128232567.988       -2883.762          35.000    24401830.980    99921413.724       -2246.504          36.000  
G18  25238915.072   132631386.533        1444.051          34.000    25238905.493   103349113.339        1125.870          37.000  
C16  36733472.893   191280800.402           4.068          48.000    36733457.381   147910408.791           3.018          48.000  
C19  23680883.107   123312578.286       -2023.478          47.000                                                                  
C27  23663807.614   123223721.318        1258.760          46.000                                                                  
C06  36291184.433   188977691.415           1.505          47.000    36291163.703   146129475.745           1.095          49.000  
C09  37379526.858   194644985.433         110.994          45.000    37379509.817   150511797.197          85.683          48.000  
C22  24670785.032   128467282.508         805.825          42.000                                                                  
G26  20751482.303   109049784.927       -1858.832          48.000    20751473.138    84973813.986       -1448.553          46.000  
G27  22073267.732   115995810.037        3083.281          43.000    22073259.121    90386316.993        2402.723          42.000  
G09  24044340.190   126353860.169        2850.134          37.000    24044333.118    98457532.317        2220.823          39.000  
C28  24694489.124   128590691.143        -898.863          44.000                                                                  
C07  38084666.823   198316850.409         819.307          40.000    38084648.172   153351099.740         633.559          45.000  
C20  25375333.073   132136015.659       -3602.989          45.000                                                                  
C36  23935321.502   124637497.823        1437.933          44.000                                                                  
C37  24890946.634   129613694.912       -2377.842          42.000                                                                  
C10  39210673.649   204180265.024         752.264          39.000    39210660.377   157885141.803         581.450          44.000  
G08  24371358.149   128072354.798        3621.239          36.000    24371361.672    99796676.567        2821.771          39.000  
G29  25120547.141   132009402.371       -3508.897          35.000    25120541.589   102864424.499       -2734.545          36.000  
C30  25289486.941   131689027.207        2767.010          42.000                                                                  
G32                                                                  25711957.682                       -3243.888          25.000  
C13                                                                  40629128.103   163596620.281       -1891.450          37.000  
C08                                                                  41548511.925   167298636.192       -1849.156          40.000  
> 2025 11 03 07 38 18.9600000  0 27                     
G04  21462768.656   112787620.475        1290.009          44.000    21462758.273    87886404.528        1005.294          46.000  
G16  20203473.171   106169974.354         325.460          46.000                                                                  
G28  22924999.347   120471679.169       -2622.374          41.000    22924988.934    93873989.647       -2043.312          43.000  
G31  21003997.426   110376758.681       -1590.854          47.000    21003985.276    86007805.734       -1239.758          45.000  
G03  24401857.724   128232683.325       -2883.762          35.000    24401852.904    99921503.589       -2246.559          36.000  
G18  25238904.088   132631328.768        1443.901          34.000    25238894.511   103349068.321        1125.526          37.000  
C16  36733472.828   191280800.251           3.839          48.000    36733457.345   147910408.686           2.697          48.000  
C19  23680898.644   123312659.232       -2023.680          47.000                                                                  
C27  23663797.949   123223670.977        1258.466          46.000                                                                  
C06  36291184.403   188977691.359           1.346          47.000    36291163.699   146129475.709           0.887          49.000  
C09  37379526.002   194644981.009         110.675          45.000    37379508.967   150511793.778          85.487          48.000  
C22  24670778.873   128467250.283         805.626          42.000                                                                  
G26  20751496.476   109049859.288       -1859.058          48.000    20751487.305    84973871.925       -1448.572          46.000  
G27  22073244.256   115995686.689        3083.417          43.000    22073235.655    90386220.879        2402.715          42.000  
G09  24044318.493   126353746.159        2850.116          37.000    24044311.419    98457443.490        2220.635          39.000  
C28  24694496.034   128590727.107        -899.161          44.000                                                                  
C07  38084660.527   198316817.647         819.066          40.000    38084641.878   153351074.408         633.317          45.000  
C20  25375360.726   132136159.796       -3603.356          45.000                                                                  
C36  23935310.452   124637440.316        1437.677          44.000                                                                  
C37  24890964.898   129613790.026       -2377.884          42.000                                                                  
C10  39210667.840   204180234.957         751.899          39.000    39210654.602   157885118.551         581.276          44.000  
G08  24371330.594   128072209.925        3621.559          36.000    24371334.104    99796563.694        2821.710          39.000  
G29  25120573.844   132009542.722       -3508.821          34.000    25120568.300   102864533.855       -2734.072          36.000  
C30  25289465.694   131688916.525        2766.953          41.000                                                                  
G32                                                                  25711989.122                       -3244.928          25.000  
C13                                                                  40629146.887   163596695.949       -1891.600          37.000  
C08                                                                  41548530.283   167298710.166       -1849.420          40.000  
> 2025 11 03 07 38 19.0000000  0 27                     
G04  21462758.828   112787568.868        1289.990          44.000    21462748.450    87886364.317        1005.192          46.000  
G16  20203470.685   106169961.332         325.395          46.000                                                                  
G28  22925019.301   120471784.055       -2622.269          41.000    22925008.900    93874071.384       -2043.486          43.000  
G31  21004009.543   110376822.313       -1590.891          47.000    21003997.381    86007855.310       -1239.598          45.000  
G03  24401879.663   128232798.670       -2883.793          35.000    24401874.852    99921593.441       -2246.417          36.000  
G18  25238893.085   132631270.980        1444.211          34.000    25238883.531   103349023.312        1125.117          37.000  
C16  36733472.767   191280800.106           3.611          48.000    36733457.296   147910408.572           2.667          48.000  
C19  23680914.189   123312740.173       -2023.678          47.000                                                                  
C27  23663788.268   123223620.623        1258.610          46.000                                                                  
C06  36291184.397   188977691.303           1.311          47.000    36291163.680   146129475.669           0.840          49.000  
C09  37379525.134   194644976.578         110.650          45.000    37379508.125   150511790.347          85.615          48.000  
C22  24670772.680   128467218.046         805.731          42.000                                                                  
G26  20751510.638   109049933.655       -1859.247          48.000    20751501.458    84973929.869       -1448.621          46.000  
G27  22073220.805   115995563.357        3083.274          43.000    22073212.183    90386124.775        2402.578          42.000  
G09  24044296.769   126353632.164        2849.931          37.000    24044289.726    98457354.674        2220.372          39.000  
C28  24694502.936   128590763.062        -899.094          44.000                                                                  
C07  38084654.226   198316784.880         819.069          41.000    38084635.560   153351049.080         633.146          45.000  
C20  25375388.410   132136303.919       -3603.292          45.000                                                                  
C36  23935299.399   124637382.805        1437.665          44.000                                                                  
C37  24890983.164   129613885.148       -2378.035          42.000                                                                  
C10  39210662.057   204180204.873         751.965          39.000    39210648.798   157885095.296         581.260          44.000  
G08  24371302.993   128072065.049        3621.866          36.000    24371306.525    99796450.796        2822.107          39.000  
G29  25120600.555   132009683.107       -3509.477          34.000    25120595.006   102864643.219       -2733.970          36.000  
C30  25289444.417   131688805.856        2766.694          41.000                                                                  
G32                                                                  25712020.767                       -3244.720          25.000  
C13                                                                  40629165.666   163596771.627       -1891.890          37.000  
C08                                                                  41548548.649   167298784.135       -1849.368          40.000  
> 2025 11 03 07 38 19.0400000  0 27                     
G04  21462749.016   112787517.250        1290.217          44.000    21462738.618    87886324.096        1005.338          46.000  
G16  20203468.189   106169948.308         325.479          46.000                                                                  
G28  22925039.253   120471888.946       -2622.294          41.000    22925028.852    93874153.120       -2043.527          43.000  
G31  21004021.608   110376885.948       -1590.958          47.000    21004009.479    86007904.891       -1239.584          45.000  
G03  24401901.607   128232913.975       -2883.177          35.000    24401896.807    99921683.297       -2246.302          36.000  
G18  25238882.079   132631213.179        1444.695          34.000    25238872.549   103348978.293        1125.147          37.000  
C16  36733472.695   191280799.958           3.595          48.000    36733457.276   147910408.448           2.890          48.000  
C19  23680929.736   123312821.118       -2023.696          47.000                                                                  
C27  23663778.606   123223570.271        1258.697          46.000                                                                  
C06  36291184.400   188977691.243           1.382          47.000    36291163.681   146129475.619           1.061          49.000  
C09  37379524.278   194644972.143         110.749          45.000    37379507.294   150511786.922          85.597          48.000  
C22  24670766.496   128467185.825         805.546          42.000                                                                  
G26  20751524.764   109050008.011       -1859.088          48.000    20751515.601    84973987.809       -1448.572          46.000  
G27  22073197.333   115995440.004        3083.585          43.000    22073188.700    90386028.665        2402.676          42.000  
G09  24044275.045   126353518.170        2849.800          37.000    24044268.031    98457265.851        2220.368          39.000  
C28  24694509.828   128590799.021        -899.058          44.000                                                                  
C07  38084647.941   198316752.103         819.332          41.000    38084629.272   153351023.748         633.174          45.000  
C20  25375416.095   132136448.049       -3603.318          45.000                                                                  
C36  23935288.363   124637325.285        1437.848          44.000                                                                  
C37  24891001.431   129613980.275       -2378.192          42.000                                                                  
C10  39210656.295   204180174.822         751.408          39.000    39210643.020   157885072.035         581.415          44.000  
G08  24371275.430   128071920.200        3621.466          36.000    24371278.940    99796337.913        2822.074          39.000  
G29  25120627.265   132009823.485       -3509.714          35.000    25120621.724   102864752.566       -2733.649          36.000  
C30  25289423.166   131688695.176        2766.812          41.000                                                                  
G32                                                                  25712052.473                       -3244.353          25.000  
C13                                                                  40629184.454   163596847.308       -1892.030          37.000  
C08                                                                  41548567.024   167298858.098       -1849.244          40.000  
> 2025 11 03 07 38 19.0800000  0 27                     
G04  21462739.215   112787465.636        1290.319          44.000    21462728.787    87886283.875        1005.431          46.000  
G16  20203465.682   106169935.277         325.685          46.000                                                                  
G28  22925059.200   120471993.832       -2622.256          41.000    22925048.816    93874234.855       -2043.499          43.000  
G31  21004033.713   110376949.571       -1590.761          47.000    21004021.589    86007954.478       -1239.676          45.000  
G03  24401923.538   128233029.262       -2882.435          35.000    24401918.731    99921773.154       -2246.466          36.000  
G18  25238871.079   132631155.387        1444.818          34.000    25238861.540   103348933.269        1125.326          37.000  
C16  36733472.629   191280799.802           3.743          48.000    36733457.237   147910408.324           3.026          48.000  
C19  23680945.301   123312902.053       -2023.504          47.000                                                                  
C27  23663768.941   123223519.911        1258.894          46.000                                                                  
C06  36291184.416   188977691.178           1.516          47.000    36291163.670   146129475.566           1.223          49.000  
C09  37379523.421   194644967.713         110.724          45.000    37379506.440   150511783.490          85.699          48.000  
C22  24670760.317   128467153.596         805.590          42.000                                                                  
G26  20751538.903   109050082.359       -1858.813          48.000    20751529.729    84974045.743       -1448.419          46.000  
G27  22073173.856   115995316.662        3083.563          43.000    22073165.208    90385932.549        2402.859          42.000  
G09  24044253.368   126353404.166        2849.908          37.000    24044246.320    98457176.997        2220.966          39.000  
C28  24694516.722   128590834.971        -898.844          44.000                                                                  
C07  38084641.668   198316719.330         819.356          41.000    38084622.984   153350998.400         633.499          45.000  
C20  25375443.777   132136592.164       -3603.047          45.000                                                                  
C36  23935277.341   124637267.768        1437.909          44.000                                                                  
C37  24891019.715   129614075.375       -2377.752          42.000                                                                  
C10  39210650.524   204180144.742         751.668          39.000    39210637.268   157885048.782         581.326          44.000  
G08  24371247.849   128071775.326        3621.653          36.000    24371251.369    99796225.034        2822.045          39.000  
G29  25120653.963   132009963.848       -3509.480          35.000    25120648.438   102864861.952       -2734.221          36.000  
C30  25289401.924   131688584.479        2767.177          41.000                                                                  
G32                                                                  25712083.910                       -3245.217          25.000  
C13                                                                  40629203.228   163596922.981       -1891.928          37.000  
C08                                                                  41548585.407   167298932.063       -1849.151          40.000  
> 2025 11 03 07 38 19.1200000  0 27                     
G04  21462729.371   112787414.017        1290.432          44.000    21462718.951    87886243.659        1005.417          46.000  
G16  20203463.202   106169922.247         325.715          46.000                                                                  
G28  22925079.177   120472098.730       -2622.387          41.000    22925068.786    93874316.589       -2043.442          43.000  
G31  21004045.832   110377013.203       -1590.788          47.000    21004033.679    86008004.059       -1239.668          45.000  
G03  24401945.507   128233144.588       -2882.764          35.000    24401940.676    99921863.051       -2247.244          36.000  
G18  25238860.112   132631097.593        1444.923          34.000    25238850.558   103348888.234        1125.701          37.000  
C16  36733472.565   191280799.638           3.970          48.000    36733457.246   147910408.198           3.105          48.000  
C19  23680960.854   123312982.991       -2023.449          47.000                                                                  
C27  23663759.280   123223469.555        1258.936          46.000                                                                  
C06  36291184.436   188977691.115           1.552          47.000    36291163.649   146129475.518           1.223          49.000  
C09  37379522.572   194644963.283         110.720          45.000    37379505.589   150511780.061          85.703          48.000  
C22  24670754.139   128467121.360         805.799          42.000                                                                  
G26  20751553.038   109050156.712       -1858.765          48.000    20751543.865    84974103.679       -1448.407          46.000  
G27  22073150.387   115995193.319        3083.568          43.000    22073141.724    90385836.438        2402.808          42.000  
G09  24044231.671   126353290.165        2849.950          37.000    24044224.633    98457088.160        2220.937          39.000  
C28  24694523.600   128590870.923        -898.812          44.000                                                                  
C07  38084635.356   198316686.566         819.168          41.000    38084616.708   153350973.056         633.609          45.000  
C20  25375471.453   132136736.283       -3602.979          45.000                                                                  
C36  23935266.315   124637210.242        1438.092          44.000                                                                  
C37  24891037.987   129614170.494       -2377.903          42.000                                                                  
C10  39210644.734   204180114.650         752.086          39.000    39210631.496   157885025.522         581.421          44.000  
G08  24371220.301   128071630.479        3621.339          36.000    24371223.798    99796112.158        2821.917          39.000  
G29  25120680.684   132010104.193       -3508.880          35.000    25120675.135   102864971.332       -2734.386          35.000  
C30  25289380.659   131688473.793        2767.185          41.000                                                                  
G32                                                                  25712115.601                       -3244.295          25.000  
C13                                                                  40629222.011   163596998.667       -1892.104          37.000  
C08                                                                  41548603.806   167299006.019       -1848.911          40.000  
> 2025 11 03 07 38 19.1600000  0 27                     
G04  21462719.559   112787362.411        1290.249          44.000    21462709.124    87886203.440        1005.408          46.000  
G16  20203460.742   106169909.226         325.571          46.000                                                                  
G28  22925099.139   120472203.617       -2622.279          41.000    22925088.739    93874398.312       -2043.209          43.000  
G31  21004057.955   110377076.833       -1590.789          47.000    21004045.796    86008053.639       -1239.575          45.000  
G03  24401967.438   128233259.929       -2883.314          35.000    24401962.645    99921952.914       -2247.073          36.000  
G18  25238849.170   132631039.815        1444.647          34.000    25238839.574   103348843.192        1126.049          37.000  
C16  36733472.532   191280799.481           3.958          48.000    36733457.228   147910408.075           3.095          48.000  
C19  23680976.377   123313063.931       -2023.474          47.000                                                                  
C27  23663749.581   123223419.204        1258.794          46.000                                                                  
C06  36291184.451   188977691.048           1.613          47.000    36291163.653   146129475.462           1.323          49.000  
C09  37379521.716   194644958.840         110.938          45.000    37379504.730   150511776.629          85.761          48.000  
C22  24670747.929   128467089.121         805.966          42.000                                                                  
G26  20751567.179   109050231.063       -1858.752          48.000    20751558.014    84974161.620       -1448.468          46.000  
G27  22073126.937   115995069.975        3083.573          43.000    22073118.255    90385740.339        2402.608          42.000  
G09  24044209.963   126353176.183        2849.640          37.000    24044202.909    98456999.317        2221.006          39.000  
C28  24694530.501   128590906.873        -898.791          44.000                                                                  
C07  38084629.085   198316653.797         819.136          40.000    38084610.402   153350947.712         633.626          45.000  
C20  25375499.118   132136880.407       -3603.066          45.000                                                                  
C36  23935255.266   124637152.727        1437.976          44.000                                                                  
C37  24891056.229   129614265.595       -2377.659          42.000                                                                  
C10  39210638.954   204180084.579         751.987          39.000    39210625.733   157885002.258         581.544          44.000  
G08  24371192.720   128071485.612        3621.541          36.000    24371196.239    99795999.272        2822.018          39.000  
G29  25120707.425   132010244.547       -3508.646          35.000    25120701.845   102865080.724       -2734.664          35.000  
C30  25289359.426   131688363.099        2767.270          41.000                                                                  
G32                                                                  25712146.947                       -3246.110          25.000  
C13                                                                  40629240.807   163597074.301       -1891.228          37.000  
C08                                                                  41548622.139   167299079.982       -1848.993          40.000  
> 2025 11 03 07 38 19.2000000  0 27                     
G04  21462709.736   112787310.800        1290.225          44.000    21462699.290    87886163.219        1005.466          46.000  
G16  20203458.284   106169896.204         325.509          46.000                                                                  
G28  22925119.093   120472308.508       -2622.311          41.000    22925108.710    93874480.034       -2043.073          43.000  
G31  21004070.055   110377140.464       -1590.803          47.000    21004057.931    86008103.219       -1239.539          45.000  
G03  24401989.375   128233375.232       -2882.876          35.000    24401984.583    99922042.775       -2246.753          36.000  
G18  25238838.186   132630982.092        1443.471          34.000    25238828.591   103348798.165        1125.864          37.000  
C16  36733472.492   191280799.319           4.020          48.000    36733457.193   147910407.953           3.061          48.000  
C19  23680991.923   123313144.870       -2023.487          47.000                                                                  
C27  23663739.912   123223368.854        1258.763          46.000                                                                  
C06  36291184.443   188977690.990           1.506          47.000    36291163.659   146129475.416           1.215          49.000  
C09  37379520.846   194644954.398         111.036          45.000    37379503.866   150511773.200          85.734          48.000  
C22  24670741.747   128467056.893         805.800          42.000                                                                  
G26  20751581.339   109050305.424       -1858.936          48.000    20751572.177    84974219.564       -1448.602          46.000  
G27  22073103.469   115994946.626        3083.643          43.000    22073094.782    90385644.226        2402.680          42.000  
G09  24044188.272   126353062.177        2849.872          37.000    24044181.213    98456910.486        2220.872          39.000  
C28  24694537.394   128590942.833        -898.944          44.000                                                                  
C07  38084622.777   198316621.027         819.131          40.000    38084604.114   153350922.368         633.612          45.000  
C20  25375526.805   132137024.528       -3603.027          45.000                                                                  
C36  23935244.225   124637095.208        1437.982          44.000                                                                  
C37  24891074.487   129614360.719       -2377.953          42.000                                                                  
C10  39210633.190   204180054.485         752.245          38.000    39210619.950   157884979.002         581.453          44.000  
G08  24371165.170   128071340.734        3621.835          36.000    24371168.675    99795886.399        2821.815          39.000  
G29  25120734.120   132010384.912       -3508.908          35.000    25120728.571   102865190.117       -2734.898          35.000  
C30  25289338.177   131688252.416        2767.153          41.000                                                                  
G32                                                                  25712178.809                       -3245.050          25.000  
C13                                                                  40629259.587   163597149.969       -1891.462          37.000  
C08                                                                  41548640.497   167299153.921       -1848.624          40.000  
> 2025 11 03 07 38 19.2400000  0 27                     
G04  21462699.919   112787259.191        1290.187          44.000    21462689.482    87886123.012        1005.250          46.000  
G16  20203455.791   106169883.176         325.597          46.000                                                                  
G28  22925139.040   120472413.388       -2622.109          41.000    22925128.662    93874561.768       -2043.214          43.000  
G31  21004082.143   110377204.097       -1590.835          47.000    21004070.040    86008152.807       -1239.655          45.000  
G03  24402011.339   128233490.573       -2883.317          35.000    24402006.524    99922132.622       -2246.298          36.000  
G18  25238827.207   132630924.287        1444.335          34.000    25238817.613   103348753.160        1125.404          37.000  
C16  36733472.427   191280799.162           3.994          48.000    36733457.173   147910407.835           2.976          48.000  
C19  23681007.477   123313225.811       -2023.499          47.000                                                                  
C27  23663730.250   123223318.504        1258.714          46.000                                                                  
C06  36291184.465   188977690.925           1.559          47.000    36291163.653   146129475.373           1.090          49.000  
C09  37379519.980   194644949.958         111.052          45.000    37379503.009   150511769.774          85.664          48.000  
C22  24670735.561   128467024.664         805.721          42.000                                                                  
G26  20751595.483   109050379.781       -1858.960          48.000    20751586.337    84974277.502       -1448.541          46.000  
G27  22073080.019   115994823.293        3083.424          43.000    22073071.311    90385548.115        2402.707          42.000  
G09  24044166.581   126352948.159        2850.285          37.000    24044159.534    98456821.668        2220.542          39.000  
C28  24694544.294   128590978.794        -899.065          44.000                                                                  
C07  38084616.491   198316588.262         819.140          40.000    38084597.824   153350897.036         633.382          45.000  
C20  25375554.482   132137168.652       -3603.073          45.000                                                                  
C36  23935233.179   124637037.694        1437.885          44.000                                                                  
C37  24891092.747   129614455.830       -2377.872          42.000                                                                  
C10  39210627.429   204180024.423         751.824          38.000    39210614.187   157884955.739         581.510          44.000  
G08  24371137.591   128071195.856        3621.977          36.000    24371141.098    99795773.522        2821.765          39.000  
G29  25120760.847   132010525.297       -3509.441          35.000    25120755.271   102865299.457       -2733.969          35.000  
C30  25289316.905   131688141.731        2767.088          41.000                                                                  
G32                                                                  25712210.521                       -3243.706          25.000  
C13                                                                  40629278.384   163597225.622       -1891.371          37.000  
C08                                                                  41548658.878   167299227.882       -1848.860          40.000  
> 2025 11 03 07 38 19.2800000  0 27                     
G04  21462690.081   112787207.579        1290.248          44.000    21462679.656    87886082.804        1005.162          46.000  
G16  20203453.325   106169870.154         325.560          46.000                                                                  
G28  22925158.999   120472518.277       -2622.122          41.000    22925148.633    93874643.501       -2043.302          43.000  
G31  21004094.233   110377267.731       -1590.865          47.000    21004082.169    86008202.387       -1239.563          45.000  
G03  24402033.293   128233605.907       -2883.453          35.000    24402028.466    99922222.490       -2246.489          36.000  
G18  25238816.231   132630866.487        1444.848          34.000    25238806.621   103348708.137        1125.455          37.000  
C16  36733472.399   191280799.004           3.986          48.000    36733457.153   147910407.714           2.965          48.000  
C19  23681023.023   123313306.760       -2023.696          47.000                                                                  
C27  23663720.592   123223268.152        1258.789          46.000                                                                  
C06  36291184.449   188977690.864           1.520          47.000    36291163.640   146129475.325           1.143          49.000  
C09  37379519.095   194644945.527         110.924          45.000    37379502.144   150511766.342          85.748          48.000  
C22  24670729.388   128466992.429         805.795          42.000                                                                  
G26  20751609.625   109050454.134       -1858.893          48.000    20751600.481    84974335.439       -1448.474          46.000  
G27  22073056.525   115994699.940        3083.671          43.000    22073047.834    90385451.997        2402.875          42.000  
G09  24044144.890   126352834.151        2850.283          37.000    24044137.841    98456732.837        2220.627          39.000  
C28  24694551.184   128591014.751        -899.020          44.000                                                                  
C07  38084610.197   198316555.473         819.524          40.000    38084591.534   153350871.701         633.346          45.000  
C20  25375582.161   132137312.766       -3602.905          45.000                                                                  
C36  23935222.140   124636980.174        1437.946          44.000                                                                  
C37  24891111.016   129614550.950       -2377.968          42.000                                                                  
C10  39210621.640   204179994.339         751.978          38.000    39210608.400   157884932.489         581.317          44.000  
G08  24371110.030   128071050.968        3622.210          36.000    24371113.529    99795660.625        2822.162          39.000  
G29  25120787.555   132010665.660       -3509.322          35.000    25120781.958   102865408.823       -2733.943          35.000  
C30  25289295.674   131688031.064        2766.765          41.000                                                                  
G32                                                                  25712242.280                       -3243.482          25.000  
C13                                                                  40629297.170   163597301.299       -1891.728          37.000  
C08                                                                  41548677.241   167299301.842       -1849.007          40.000  
> 2025 11 03 07 38 19.3200000  0 27                     
G04  21462680.285   112787155.976        1290.104          44.000    21462669.844    87886042.586        1005.273          46.000  
G16  20203450.849   106169857.126         325.609          46.000                                                                  
G28  22925178.934   120472623.157       -2622.038          41.000    22925168.587    93874725.237       -2043.408          43.000  
G31  21004106.339   110377331.358       -1590.765          47.000    21004094.283    86008251.970       -1239.557          45.000  
G03  24402055.253   128233721.222       -2883.134          35.000    24402050.407    99922312.363       -2246.688          36.000  
G18  25238805.218   132630808.665        1445.424          34.000    25238795.620   103348663.104        1125.655          37.000  
C16  36733472.308   191280798.841           4.022          48.000    36733457.142   147910407.589           3.065          48.000  
C19  23681038.566   123313387.702       -2023.634          47.000                                                                  
C27  23663710.955   123223217.796        1258.881          46.000                                                                  
C06  36291184.447   188977690.797           1.599          47.000    36291163.639   146129475.272           1.248          49.000  
C09  37379518.234   194644941.088         110.950          45.000    37379501.304   150511762.906          85.869          48.000  
C22  24670723.204   128466960.208         805.557          42.000                                                                  
G26  20751623.800   109050528.491       -1858.911          48.000    20751614.644    84974393.371       -1448.352          46.000  
G27  22073033.053   115994576.607        3083.428          43.000    22073024.350    90385355.885        2402.839          42.000  
G09  24044123.193   126352720.133        2850.427          37.000    24044116.142    98456644.005        2220.705          39.000  
C28  24694558.092   128591050.713        -899.097          44.000                                                                  
C07  38084603.915   198316522.707         819.310          40.000    38084585.238   153350846.353         633.565          45.000  
C20  25375609.824   132137456.892       -3603.062          45.000                                                                  
C36  23935211.116   124636922.659        1437.885          44.000                                                                  
C37  24891129.288   129614646.057       -2377.806          42.000                                                                  
C10  39210615.861   204179964.252         752.136          38.000    39210602.629   157884909.226         581.480          44.000  
G08  24371082.470   128070906.111        3621.709          36.000    24371085.953    99795547.730        2822.333          39.000  
G29  25120814.301   132010806.018       -3509.124          35.000    25120808.680   102865518.198       -2734.111          35.000  
C30  25289274.406   131687920.371        2767.113          41.000                                                                  
G32                                                                  25712273.912                       -3244.085          25.000  
C13                                                                  40629315.972   163597376.962       -1891.647          37.000  
C08                                                                  41548695.623   167299375.803       -1849.037          40.000  
> 2025 11 03 07 38 19.3600000  0 27                     
G04  21462670.452   112787104.363        1290.212          44.000    21462660.019    87886002.365        1005.453          46.000  
G16  20203448.372   106169844.101         325.609          46.000                                                                  
G28  22925198.874   120472728.051       -2622.266          41.000    22925188.529    93874806.966       -2043.312          43.000  
G31  21004118.435   110377394.985       -1590.700          47.000    21004106.387    86008301.557       -1239.662          45.000  
G03  24402077.187   128233836.551       -2883.253          35.000    24402072.368    99922402.219       -2246.531          36.000  
G18  25238794.219   132630750.902        1444.553          34.000    25238784.614   103348618.079        1125.574          37.000  
C16  36733472.249   191280798.683           3.990          48.000    36733457.124   147910407.463           3.142          48.000  
C19  23681054.143   123313468.640       -2023.535          47.000                                                                  
C27  23663701.299   123223167.441        1258.881          46.000                                                                  
C06  36291184.472   188977690.733           1.604          47.000    36291163.617   146129475.221           1.257          49.000  
C09  37379517.413   194644936.649         110.947          45.000    37379500.460   150511759.471          85.872          48.000  
C22  24670716.991   128466927.984         805.485          42.000                                                                  
G26  20751637.945   109050602.844       -1858.850          48.000    20751628.793    84974451.309       -1448.376          46.000  
G27  22073009.593   115994453.268        3083.407          43.000    22073000.889    90385259.773        2402.818          42.000  
G09  24044101.498   126352606.148        2849.913          37.000    24044094.459    98456555.179        2220.637          39.000  
C28  24694564.985   128591086.667        -898.949          44.000                                                                  
C07  38084597.614   198316489.938         819.204          40.000    38084578.933   153350821.008         633.613          45.000  
C20  25375637.482   132137601.009       -3602.972          45.000                                                                  
C36  23935200.096   124636865.133        1438.043          44.000                                                                  
C37  24891147.537   129614741.165       -2377.704          42.000                                                                  
C10  39210610.063   204179934.175         751.974          38.000    39210596.858   157884885.962         581.591          44.000  
G08  24371054.900   128070761.236        3621.695          36.000    24371058.378    99795434.856        2822.012          39.000  
G29  25120841.016   132010946.372       -3509.002          34.000    25120835.386   102865627.561       -2734.064          35.000  
C30  25289253.162   131687809.675        2767.367          41.000                                                                  
G32                                                                  25712305.589                       -3244.121          25.000  
C13                                                                  40629334.747   163597452.623       -1891.584          37.000  
C08                                                                  41548713.977   167299449.763       -1849.062          40.000  
> 2025 11 03 07 38 19.4000000  0 27                     
G04  21462660.653   112787052.747        1290.332          44.000    21462650.184    87885962.149        1005.442          46.000  
G16  20203445.900   106169831.074         325.634          46.000                                                                  
G28  22925218.844   120472832.943       -2622.339          41.000    22925208.475    93874888.694       -2043.217          43.000  
G31  21004130.546   110377458.613       -1590.691          47.000    21004118.467    86008351.125       -1239.372          45.000  
G03  24402099.116   128233951.884       -2883.347          35.000    24402094.314    99922492.060       -2246.229          36.000  
G18  25238783.253   132630693.150        1443.976          34.000    25238773.617   103348573.050        1125.624          37.000  
C16  36733472.204   191280798.522           4.030          48.000    36733457.095   147910407.337           3.172          48.000  
C19  23681069.706   123313549.579       -2023.486          47.000                                                                  
C27  23663691.578   123223117.091        1258.782          46.000                                                                  
C06  36291184.463   188977690.668           1.573          47.000    36291163.618   146129475.164           1.368          49.000  
C09  37379516.584   194644932.205         111.024          45.000    37379499.580   150511756.042          85.747          48.000  
C22  24670710.790   128466895.743         805.799          42.000                                                                  
G26  20751652.071   109050677.191       -1858.728          48.000    20751642.945    84974509.251       -1448.474          46.000  
G27  22072986.123   115994329.923        3083.533          43.000    22072977.436    90385163.663        2402.794          42.000  
G09  24044079.806   126352492.137        2850.121          37.000    24044072.766    98456466.339        2220.865          39.000  
C28  24694571.891   128591122.621        -898.860          44.000                                                                  
C07  38084591.289   198316457.152         819.523          40.000    38084572.653   153350795.665         633.606          45.000  
C20  25375665.143   132137745.120       -3602.812          45.000                                                                  
C36  23935189.063   124636807.609        1438.098          44.000                                                                  
C37  24891165.800   129614836.274       -2377.715          42.000                                                                  
C10  39210604.288   204179904.095         751.912          38.000    39210591.097   157884862.697         581.623          44.000  
G08  24371027.335   128070616.391        3621.177          36.000    24371030.819    99795321.973        2822.024          39.000  
G29  25120867.751   132011086.738       -3509.148          35.000    25120862.095   102865736.948       -2734.487          35.000  
C30  25289231.895   131687698.975        2767.554          41.000                                                                  
G32                                                                  25712336.982                       -3244.244          25.000  
C13                                                                  40629353.521   163597528.276       -1891.361          37.000  
C08                                                                  41548732.354   167299523.728       -1849.185          40.000  
> 2025 11 03 07 38 19.4400000  0 27                     
G04  21462650.843   112787001.136        1290.302          44.000    21462640.344    87885921.931        1005.430          46.000  
G16  20203443.416   106169818.055         325.510          46.000                                                                  
G28  22925238.799   120472937.825       -2622.154          41.000    22925228.446    93874970.415       -2043.074          43.000  
G31  21004142.658   110377522.242       -1590.704          47.000    21004130.583    86008400.715       -1239.590          45.000  
G03  24402121.060   128234067.212       -2883.240          35.000    24402116.267    99922581.943       -2246.847          36.000  
G18  25238772.245   132630635.353        1444.623          34.000    25238762.602   103348528.015        1125.792          37.000  
C16  36733472.174   191280798.363           4.010          48.000    36733457.066   147910407.211           3.149          48.000  
C19  23681085.251   123313630.520       -2023.517          47.000                                                                  
C27  23663681.911   123223066.739        1258.763          46.000                                                                  
C06  36291184.454   188977690.598           1.665          47.000    36291163.611   146129475.110           1.376          49.000  
C09  37379515.744   194644927.760         111.099          45.000    37379498.706   150511752.609          85.782          48.000  
C22  24670704.587   128466863.506         805.906          42.000                                                                  
G26  20751666.256   109050751.543       -1858.759          48.000    20751657.083    84974567.185       -1448.395          46.000  
G27  22072962.661   115994206.577        3083.581          43.000    22072953.980    90385067.543        2402.902          42.000  
G09  24044058.090   126352378.145        2849.910          37.000    24044051.051    98456377.509        2220.771          39.000  
C28  24694578.798   128591158.579        -898.923          44.000                                                                  
C07  38084584.977   198316424.371         819.571          40.000    38084566.372   153350770.324         633.511          45.000  
C20  25375692.783   132137889.245       -3603.002          45.000                                                                  
C36  23935178.002   124636750.094        1437.952          44.000                                                                  
C37  24891184.083   129614931.380       -2377.645          42.000                                                                  
C10  39210598.513   204179873.999         752.208          38.000    39210585.308   157884839.438         581.539          44.000  
G08  24370999.757   128070471.511        3621.515          36.000    24371003.244    99795209.088        2822.065          39.000  
G29  25120894.498   132011227.104       -3509.203          35.000    25120888.819   102865846.332       -2734.612          35.000  
C30  25289210.626   131687588.281        2767.488          41.000                                                                  
G32                                                                  25712368.629                       -3243.445          25.000  
C13                                                                  40629372.284   163597603.947       -1891.658          37.000  
C08                                                                  41548750.734   167299597.672       -1848.833          40.000  
> 2025 11 03 07 38 19.4800000  0 27                     
G04  21462641.041   112786949.527        1290.212          44.000    21462630.539    87885881.717        1005.349          46.000  
G16  20203440.914   106169805.024         325.653          46.000                                                                  
G28  22925258.759   120473042.708       -2622.028          41.000    22925248.410    93875052.137       -2043.052          43.000  
G31  21004154.775   110377585.872       -1590.753          47.000    21004142.698    86008450.296       -1239.575          45.000  
G03  24402142.988   128234182.520       -2882.854          35.000    24402138.210    99922671.778       -2246.266          36.000  
G18  25238761.224   132630577.571        1444.643          34.000    25238751.601   103348483.007        1125.365          37.000  
C16  36733472.122   191280798.197           4.099          48.000    36733457.035   147910407.086           3.149          48.000  
C19  23681100.808   123313711.458       -2023.493          47.000                                                                  
C27  23663672.247   123223016.383        1258.831          46.000                                                                  
C06  36291184.451   188977690.528           1.724          47.000    36291163.597   146129475.055           1.393          49.000  
C09  37379514.879   194644923.317         111.103          45.000    37379497.841   150511749.170          85.898          48.000  
C22  24670698.426   128466831.280         805.744          42.000                                                                  
G26  20751680.445   109050825.892       -1858.752          48.000    20751671.226    84974625.122       -1448.413          46.000  
G27  22072939.221   115994083.234        3083.540          43.000    22072930.508    90384971.444        2402.569          42.000  
G09  24044036.397   126352264.153        2849.781          37.000    24044029.336    98456288.651        2221.266          39.000  
C28  24694585.695   128591194.531        -898.885          44.000                                                                  
C07  38084578.666   198316391.610         819.158          40.000    38084560.091   153350744.972         633.693          45.000  
C20  25375720.469   132138033.365       -3603.014          45.000                                                                  
C36  23935166.973   124636692.570        1438.000          44.000                                                                  
C37  24891202.337   129615026.492       -2377.738          42.000                                                                  
C10  39210592.737   204179843.921         752.071          38.000    39210579.537   157884816.173         581.578          44.000  
G08  24370972.193   128070326.644        3621.531          36.000    24370975.675    99795096.204        2822.116          39.000  
G29  25120921.188   132011367.442       -3508.778          35.000    25120915.515   102865955.711       -2734.594          35.000  
C30  25289189.387   131687477.613        2766.959          41.000                                                                  
G32                                                                  25712400.447                       -3243.938          25.000  
C13                                                                  40629391.067   163597679.615       -1891.759          37.000  
C08                                                                  41548769.137   167299671.626       -1848.840          40.000  
> 2025 11 03 07 38 19.5200000  0 27                     
G04  21462631.230   112786897.924        1290.077          44.000    21462620.723    87885841.502        1005.331          46.000  
G16  20203438.461   106169792.004         325.535          46.000                                                                  
G28  22925278.743   120473147.597       -2622.144          41.000    22925268.372    93875133.881       -2043.437          43.000  
G31  21004166.903   110377649.505       -1590.825          47.000    21004154.806    86008499.888       -1239.761          45.000  
G03  24402164.943   128234297.844       -2883.000          35.000    24402160.154    99922761.676       -2247.100          36.000  
G18  25238750.231   132630519.784        1444.594          34.000    25238740.624   103348437.990        1125.275          37.000  
C16  36733472.086   191280798.030           4.155          48.000    36733457.000   147910406.964           3.077          48.000  
C19  23681116.361   123313792.400       -2023.561          47.000                                                                  
C27  23663662.562   123222966.035        1258.720          46.000                                                                  
C06  36291184.449   188977690.456           1.759          47.000    36291163.586   146129475.011           1.179          49.000  
C09  37379514.038   194644918.885         110.884          45.000    37379496.986   150511745.739          85.805          48.000  
C22  24670692.216   128466799.059         805.562          42.000                                                                  
G26  20751694.590   109050900.253       -1858.966          48.000    20751685.376    84974683.066       -1448.560          46.000  
G27  22072915.749   115993959.895        3083.468          43.000    22072907.040    90384875.342        2402.430          42.000  
G09  24044014.703   126352150.125        2850.337          37.000    24044007.628    98456199.814        2221.122          39.000  
C28  24694592.567   128591230.491        -898.984          44.000                                                                  
C07  38084572.374   198316358.856         818.881          40.000    38084553.791   153350719.631         633.548          45.000  
C20  25375748.140   132138177.480       -3602.930          45.000                                                                  
C36  23935155.937   124636635.043        1438.129          44.000                                                                  
C37  24891220.591   129615121.608       -2377.927          42.000                                                                  
C10  39210586.962   204179813.852         751.797          38.000    39210573.767   157884792.916         581.450          44.000  
G08  24370944.627   128070181.762        3621.786          36.000    24370948.099    99794983.308        2822.332          39.000  
G29  25120947.876   132011507.809       -3509.125          35.000    25120942.227   102866065.078       -2734.429          35.000  
C30  25289168.128   131687366.920        2767.119          41.000                                                                  
G32                                                                  25712432.360                       -3244.134          25.000  
C13                                                                  40629409.851   163597755.299       -1892.137          37.000  
C08                                                                  41548787.508   167299745.586       -1848.945          40.000  
