     3.04           OBSERVATION DATA    M: Mixed            RINEX VERSION / TYPE
RTKCONV 2.4.3 b34                       20251103 075519 UTC PGM / RUN BY / DATE 
format: u-blox UBX                                          COMMENT             
log: D:\GPdata\11_3\fingure_230_11_3_1.ubx                  COMMENT             
                                                            MARKER NAME         
                                                            MARKER NUMBER       
                                                            MARKER TYPE         
                                                            OBSERVER / AGENCY   
                                                            REC # / TYPE / VERS 
                                                            ANT # / TYPE        
        0.0000        0.0000        0.0000                  APPROX POSITION XYZ 
        0.0000        0.0000        0.0000                  ANTENNA: DELTA H/E/N
G    8 C1C L1C D1C S1C C2L L2L D2L S2L                      SYS / # / OBS TYPES 
C    8 C2I L2I D2I S2I C7I L7I D7I S7I                      SYS / # / OBS TYPES 
  2025    11    03    07    37   45.4800000     GPS         TIME OF FIRST OBS   
  2025    11    03    07    38   04.0400000     GPS         TIME OF LAST OBS    
G L1C                                                       SYS / PHASE SHIFT   
G L2L  0.00000                                              SYS / PHASE SHIFT   
C L2I                                                       SYS / PHASE SHIFT   
C L7I                                                       SYS / PHASE SHIFT   
  0                                                         GLONASS SLOT / FRQ #
 C1C    0.000 C1P    0.000 C2C    0.000 C2P    0.000        GLONASS COD/PHS/BIS 
                                                            END OF HEADER       
> 2025 11 03 07 37 45.4800000  0 27                     
G04  21471053.260   112831152.4671       1311.265          44.000    21471041.846    87920325.4951       1021.832          46.000  
G16  20205600.348   106181152.0741        343.322          46.000                                                                  
G28  22908321.816   120384034.4121      -2612.101          42.000    22908310.855    93805695.1211      -2035.428          43.000  
G31  20993899.112   110323689.3141      -1578.099          46.000    20993885.399    85966452.9701      -1229.744          44.000  
G03  24383509.666   128136266.9521      -2874.771          36.000    24383504.754    99846374.1351      -2240.217          37.000  
G18  25248138.965   132679856.5161       1456.290          34.000    25248129.817   103386882.0521       1134.280          39.000  
C16  36733495.716   191280919.4251          4.514          48.000    36733479.336   147910500.8011          3.360          48.000  
C19  23667939.372   123245176.1891      -2006.503          47.000                                                                  
C27  23671937.541   123266054.9641       1274.314          46.000                                                                  
C06  36291189.523   188977732.5101          2.169          47.000    36291169.210   146129507.5011          1.626          49.000  
C09  37380233.501   194648664.9561        110.482          45.000    37380216.540   150514642.4221         85.456          48.000  
C22  24676018.566   128494530.0981        825.177          41.000                                                                  
G26  20739685.613   108987792.0891      -1847.430          48.000    20739676.534    84925507.8611      -1439.551          46.000  
G27  22092927.703   116099123.9861       3096.850          43.000    22092919.731    90466821.2281       2413.064          42.000  
G09  24062510.290   126449337.1841       2861.040          36.000    24062502.405    98531929.7561       2229.503          38.000  
C28  24688774.174   128560932.7061       -879.685          44.000                                                                  
C07  38089937.234   198344293.9081        823.447          41.000    38089918.480   153372320.7161        636.778          45.000  
C20  25352202.150   132015566.2851      -3599.481          44.000                                                                  
C36  23944566.317   124685638.3101       1442.572          43.000                                                                  
C37  24875682.819   129534213.3941      -2374.586          42.000                                                                  
C10  39215510.183   204205446.4811        755.533          38.000    39215496.365   157904613.5531        584.117          44.000  
G32  25685438.480                3      -4162.458          19.000                                                                  
G08  24394410.505   128193492.9021       3624.624          34.000    24394414.629    99891068.7351       2824.386          39.000  
G29  25098246.927   131892220.8651      -3498.078          32.000    25098243.038   102773114.2991      -2725.448          36.000  
C30  25307258.703   131781565.5351       2768.709          42.000                                                                  
C13                                                                  40613412.740   163533341.8141      -1892.023          38.000  
C08                                                                  41533145.659   167236763.9081      -1850.256          40.000  
> 2025 11 03 07 37 45.5200000  0 27                     
G04  21471043.261   112831100.006        1311.387          44.000    21471031.859    87920284.613        1021.906          46.000  
G16  20205597.728   106181138.342         343.219          46.000                                                                  
G28  22908341.678   120384138.901       -2612.194          42.000    22908330.736    93805776.537       -2035.427          43.000  
G31  20993911.108   110323752.443       -1578.207          47.000    20993897.411    85966502.154       -1229.690          44.000  
G03  24383531.573   128136381.984       -2875.476          36.000    24383526.630    99846463.734       -2239.998          37.000  
G18  25248127.847   132679798.259        1456.413          34.000    25248118.759   103386836.691        1134.052          39.000  
C16  36733495.670   191280919.247           4.415          48.000    36733479.322   147910500.654           3.484          48.000  
C19  23667954.822   123245256.445       -2006.490          47.000                                                                  
C27  23671927.788   123266003.987        1274.333          46.000                                                                  
C06  36291189.513   188977732.420           2.163          47.000    36291169.220   146129507.425           1.769          49.000  
C09  37380232.649   194648660.533         110.532          45.000    37380215.686   150514639.000          85.502          48.000  
C22  24676012.227   128494497.103         824.928          41.000                                                                  
G26  20739699.676   108987865.988       -1847.485          48.000    20739690.600    84925565.446       -1439.630          46.000  
G27  22092904.138   116099000.125        3096.569          43.000    22092896.154    90466724.707        2413.008          42.000  
G09  24062488.505   126449222.691        2861.834          36.000    24062480.616    98531840.562        2229.597          38.000  
C28  24688780.924   128560967.903        -879.973          44.000                                                                  
C07  38089930.923   198344260.967         823.441          41.000    38089912.158   153372295.249         636.698          45.000  
C20  25352229.780   132015710.267       -3599.576          44.000                                                                  
C36  23944555.222   124685580.608        1442.529          43.000                                                                  
C37  24875701.057   129534308.370       -2374.491          42.000                                                                  
C10  39215504.380   204205416.244         755.906          38.000    39215490.559   157904590.185         584.127          44.000  
G32  25685470.061                3      -4162.458          19.000                                                                  
G08  24394382.902   128193347.924        3624.286          34.000    24394387.046    99890955.771        2824.094          39.000  
G29  25098273.524   131892360.827       -3498.966          32.000    25098269.640   102773223.314       -2725.255          36.000  
C30  25307237.445   131781454.780        2768.771          42.000                                                                  
C13                                                                  40613431.546   163533417.497       -1892.153          38.000  
C08                                                                  41533164.046   167236837.925       -1850.386          40.000  
> 2025 11 03 07 37 45.5600000  0 27                     
G04  21471033.276   112831047.541        1311.519          44.000    21471021.867    87920243.738        1021.836          46.000  
G16  20205595.095   106181124.603         343.327          46.000                                                                  
G28  22908361.554   120384243.387       -2612.238          42.000    22908350.617    93805857.933       -2035.076          43.000  
G31  20993923.110   110323815.565       -1578.114          47.000    20993909.408    85966551.343       -1229.777          44.000  
G03  24383553.444   128136496.991       -2875.486          36.000    24383548.514    99846553.366       -2240.508          37.000  
G18  25248116.776   132679740.055        1455.515          34.000    25248107.693   103386791.328        1133.974          39.000  
C16  36733495.657   191280919.065           4.427          48.000    36733479.312   147910500.510           3.557          48.000  
C19  23667970.245   123245336.709       -2006.638          47.000                                                                  
C27  23671917.975   123265953.017        1274.235          46.000                                                                  
C06  36291189.492   188977732.333           2.108          47.000    36291169.178   146129507.350           1.854          49.000  
C09  37380231.800   194648656.104         110.641          45.000    37380214.834   150514635.578          85.535          48.000  
C22  24676005.891   128494464.092         825.080          41.000                                                                  
G26  20739713.758   108987939.892       -1847.620          48.000    20739704.678    84925623.031       -1439.661          46.000  
G27  22092880.594   116098876.263        3096.401          43.000    22092872.561    90466628.187        2412.925          42.000  
G09  24062466.707   126449108.219        2861.829          36.000    24062458.834    98531751.368        2229.689          38.000  
C28  24688787.687   128561003.081        -879.733          44.000                                                                  
C07  38089924.597   198344228.030         823.392          41.000    38089905.821   153372269.775         636.767          45.000  
C20  25352257.430   132015854.243       -3599.490          44.000                                                                  
C36  23944544.141   124685522.897        1442.676          43.000                                                                  
C37  24875719.319   129534403.345       -2374.431          42.000                                                                  
C10  39215498.588   204205386.033         755.541          38.000    39215484.737   157904566.814         584.231          45.000  
G32  25685502.079                3      -4162.458          19.000                                                                  
G08  24394355.301   128193202.958        3624.037          34.000    24394359.464    99890842.789        2824.363          39.000  
G29  25098300.141   131892500.721       -3498.080          32.000    25098296.281   102773332.363       -2725.820          36.000  
C30  25307216.174   131781344.020        2768.904          42.000                                                                  
C13                                                                  40613450.341   163533493.168       -1891.937          38.000  
C08                                                                  41533182.419   167236911.931       -1850.219          40.000  
> 2025 11 03 07 37 45.6000000  0 27                     
G04  21471023.282   112830995.079        1311.556          44.000    21471011.871    87920202.856        1021.940          46.000  
G16  20205592.491   106181110.867         343.365          46.000                                                                  
G28  22908381.436   120384347.870       -2612.160          42.000    22908370.505    93805939.358       -2035.450          43.000  
G31  20993935.120   110323878.688       -1578.096          47.000    20993921.431    85966600.532       -1229.794          44.000  
G03  24383575.336   128136611.987       -2875.258          36.000    24383570.399    99846642.969       -2240.277          37.000  
G18  25248105.735   132679681.883        1454.533          34.000    25248096.612   103386745.941        1134.430          39.000  
C16  36733495.641   191280918.871           4.710          48.000    36733479.275   147910500.366           3.562          48.000  
C19  23667985.671   123245416.965       -2006.532          47.000                                                                  
C27  23671908.211   123265902.041        1274.303          46.000                                                                  
C06  36291189.484   188977732.242           2.170          47.000    36291169.175   146129507.278           1.810          49.000  
C09  37380230.940   194648651.681         110.626          45.000    37380213.938   150514632.154          85.578          48.000  
C22  24675999.542   128494431.102         824.805          41.000                                                                  
G26  20739727.798   108988013.792       -1847.601          48.000    20739718.734    84925680.616       -1439.661          46.000  
G27  22092857.000   116098752.391        3096.579          43.000    22092848.989    90466531.655        2413.123          42.000  
G09  24062444.915   126448993.751        2861.745          36.000    24062437.031    98531662.171        2229.896          38.000  
C28  24688794.451   128561038.267        -879.712          44.000                                                                  
C07  38089918.272   198344195.104         823.175          41.000    38089899.481   153372244.307         636.679          45.000  
C20  25352285.072   132015998.220       -3599.458          44.000                                                                  
C36  23944533.060   124685465.186        1442.780          43.000                                                                  
C37  24875737.550   129534498.330       -2374.585          42.000                                                                  
C10  39215492.789   204205355.822         755.322          38.000    39215478.943   157904543.447         584.216          45.000  
G32  25685533.609                3      -4162.458          19.000                                                                  
G08  24394327.718   128193057.940        3624.835          35.000    24394331.868    99890729.801        2824.572          39.000  
G29  25098326.743   131892640.650       -3498.160          32.000    25098322.908   102773441.397       -2725.953          36.000  
C30  25307194.892   131781233.266        2768.858          42.000                                                                  
C13                                                                  40613469.118   163533568.825       -1891.564          38.000  
C08                                                                  41533200.811   167236985.941       -1850.269          40.000  
> 2025 11 03 07 37 45.6400000  0 27                     
G04  21471013.299   112830942.622        1311.420          44.000    21471001.883    87920161.985        1021.821          45.000  
G16  20205589.878   106181097.129         343.408          46.000                                                                  
G28  22908401.316   120384452.354       -2612.103          42.000    22908390.374    93806020.783       -2035.618          43.000  
G31  20993947.128   110323941.810       -1578.079          47.000    20993933.431    85966649.711       -1229.610          44.000  
G03  24383597.245   128136727.010       -2875.651          36.000    24383592.285    99846732.588       -2240.475          37.000  
G18  25248094.682   132679623.652        1455.093          34.000    25248085.540   103386700.575        1134.318          39.000  
C16  36733495.608   191280918.687           4.680          48.000    36733479.237   147910500.225           3.522          48.000  
C19  23668001.061   123245497.222       -2006.482          47.000                                                                  
C27  23671898.415   123265851.068        1274.303          46.000                                                                  
C06  36291189.461   188977732.143           2.356          47.000    36291169.178   146129507.207           1.783          49.000  
C09  37380230.094   194648647.260         110.535          45.000    37380213.061   150514628.731          85.563          48.000  
C22  24675993.210   128494398.098         824.930          41.000                                                                  
G26  20739741.848   108988087.691       -1847.540          48.000    20739732.802    84925738.197       -1439.569          46.000  
G27  22092833.418   116098628.514        3096.815          43.000    22092825.410    90466435.124        2413.226          42.000  
G09  24062423.130   126448879.285        2861.638          36.000    24062415.242    98531572.971        2229.985          38.000  
C28  24688801.223   128561073.454        -879.711          44.000                                                                  
C07  38089911.958   198344162.157         823.450          41.000    38089893.154   153372218.837         636.717          45.000  
C20  25352312.752   132016142.193       -3599.369          44.000                                                                  
C36  23944521.967   124685407.486        1442.597          43.000                                                                  
C37  24875755.799   129534593.306       -2374.524          42.000                                                                  
C10  39215486.975   204205325.601         755.391          38.000    39215473.121   157904520.083         584.127          45.000  
G32  25685565.193                3      -4162.458          18.000                                                                  
G08  24394300.115   128192912.924        3625.287          35.000    24394304.266    99890616.821        2824.525          39.000  
G29  25098353.370   131892780.588       -3498.467          32.000    25098349.524   102773550.418       -2725.734          36.000  
C30  25307173.619   131781122.508        2768.915          42.000                                                                  
C13                                                                  40613487.914   163533644.498       -1891.665          38.000  
C08                                                                  41533219.188   167237059.971       -1850.664          40.000  
> 2025 11 03 07 37 45.6800000  0 27                     
G04  21471003.286   112830890.164        1311.388          44.000    21470991.905    87920121.112        1021.814          45.000  
G16  20205587.264   106181083.400         343.258          46.000                                                                  
G28  22908421.179   120384556.826       -2611.884          42.000    22908410.256    93806102.193       -2035.432          43.000  
G31  20993959.140   110324004.938       -1578.158          47.000    20993945.444    85966698.904       -1229.733          44.000  
G03  24383619.120   128136841.975       -2874.613          36.000    24383614.174    99846822.197       -2240.313          37.000  
G18  25248083.589   132679565.387        1455.979          34.000    25248074.451   103386655.186        1134.560          39.000  
C16  36733495.571   191280918.500           4.696          48.000    36733479.208   147910500.077           3.615          48.000  
C19  23668016.479   123245577.476       -2006.390          47.000                                                                  
C27  23671888.649   123265800.085        1274.482          46.000                                                                  
C06  36291189.442   188977732.044           2.451          47.000    36291169.191   146129507.132           1.852          49.000  
C09  37380229.262   194648642.837         110.516          45.000    37380212.210   150514625.306          85.595          49.000  
C22  24675986.881   128494365.094         825.023          41.000                                                                  
G26  20739755.886   108988161.591       -1847.528          48.000    20739746.861    84925795.780       -1439.587          46.000  
G27  22092809.836   116098504.629        3097.069          43.000    22092801.856    90466338.606        2413.055          42.000  
G09  24062401.359   126448764.840        2861.259          36.000    24062393.466    98531483.787        2229.718          38.000  
C28  24688807.998   128561108.642        -879.704          44.000                                                                  
C07  38089905.616   198344129.208         823.674          41.000    38089886.860   153372193.368         636.705          45.000  
C20  25352340.405   132016286.170       -3599.397          44.000                                                                  
C36  23944510.901   124685349.778        1442.603          43.000                                                                  
C37  24875774.022   129534688.274       -2374.328          42.000                                                                  
C10  39215481.164   204205295.378         755.543          38.000    39215467.332   157904496.712         584.167          45.000  
G32  25685596.763                3      -4162.458          18.000                                                                  
G08  24394272.534   128192767.921        3625.297          35.000    24394276.690    99890503.842        2824.468          39.000  
G29  25098379.971   131892920.496       -3498.013          32.000    25098376.161   102773659.475       -2726.210          36.000  
C30  25307152.330   131781011.748        2768.931          42.000                                                                  
C13                                                                  40613506.694   163533720.166       -1891.621          38.000  
C08                                                                  41533237.567   167237133.992       -1850.631          40.000  
> 2025 11 03 07 37 45.7200000  0 27                     
G04  21470993.286   112830837.710        1311.321          44.000    21470981.928    87920080.245        1021.676          45.000  
G16  20205584.655   106181069.663         343.315          46.000                                                                  
G28  22908441.055   120384661.315       -2612.146          42.000    22908430.140    93806183.610       -2035.419          43.000  
G31  20993971.176   110324068.068       -1578.256          47.000    20993957.452    85966748.099       -1229.858          44.000  
G03  24383641.001   128136956.991       -2874.938          36.000    24383636.080    99846911.836       -2240.774          37.000  
G18  25248072.504   132679507.146        1456.090          34.000    25248063.366   103386609.824        1134.196          39.000  
C16  36733495.566   191280918.310           4.733          48.000    36733479.171   147910499.936           3.533          48.000  
C19  23668031.876   123245657.731       -2006.372          47.000                                                                  
C27  23671878.865   123265749.108        1274.463          46.000                                                                  
C06  36291189.438   188977731.954           2.339          47.000    36291169.168   146129507.067           1.713          49.000  
C09  37380228.417   194648638.410         110.573          45.000    37380211.393   150514621.888          85.505          49.000  
C22  24675980.554   128494332.076         825.315          41.000                                                                  
G26  20739769.940   108988235.487       -1847.467          48.000    20739760.917    84925853.369       -1439.734          46.000  
G27  22092786.265   116098380.764        3096.775          43.000    22092778.300    90466242.093        2412.863          42.000  
G09  24062379.570   126448650.364        2861.547          36.000    24062371.683    98531394.587        2229.849          38.000  
C28  24688814.764   128561143.828        -879.711          44.000                                                                  
C07  38089899.277   198344096.269         823.565          41.000    38089880.523   153372167.902         636.656          45.000  
C20  25352368.036   132016430.151       -3599.493          45.000                                                                  
C36  23944499.808   124685292.069        1442.627          43.000                                                                  
C37  24875792.268   129534783.251       -2374.373          42.000                                                                  
C10  39215475.357   204205265.158         755.519          38.000    39215461.534   157904473.350         584.097          45.000  
G32  25685628.354                3      -4162.458          18.000                                                                  
G08  24394244.976   128192622.942        3624.849          35.000    24394249.101    99890390.870        2824.310          39.000  
G29  25098406.584   131893060.407       -3497.840          32.000    25098402.770   102773768.501       -2725.986          36.000  
C30  25307131.083   131780900.998        2768.811          42.000                                                                  
C13                                                                  40613525.476   163533795.860       -1892.144          38.000  
C08                                                                  41533255.935   167237208.007       -1850.482          40.000  
> 2025 11 03 07 37 45.7600000  0 27                     
G04  21470983.289   112830785.263        1311.158          44.000    21470971.937    87920039.366        1021.846          45.000  
G16  20205582.029   106181055.926         343.358          46.000                                                                  
G28  22908460.940   120384765.796       -2612.132          42.000    22908450.019    93806265.026       -2035.433          43.000  
G31  20993983.192   110324131.196       -1578.258          47.000    20993969.471    85966797.295       -1229.946          44.000  
G03  24383662.887   128137071.998       -2875.061          36.000    24383657.996    99847001.441       -2240.427          37.000  
G18  25248061.425   132679448.964        1455.033          34.000    25248052.278   103386564.439        1134.423          39.000  
C16  36733495.546   191280918.126           4.632          48.000    36733479.164   147910499.800           3.404          48.000  
C19  23668047.277   123245737.994       -2006.545          47.000                                                                  
C27  23671869.057   123265698.143        1274.216          46.000                                                                  
C06  36291189.409   188977731.860           2.333          47.000    36291169.123   146129506.996           1.720          49.000  
C09  37380227.578   194648633.990         110.504          45.000    37380210.534   150514618.469          85.435          49.000  
C22  24675974.214   128494299.071         825.243          41.000                                                                  
G26  20739784.004   108988309.387       -1847.491          48.000    20739774.985    84925910.954       -1439.716          46.000  
G27  22092762.700   116098256.896        3096.707          43.000    22092754.732    90466145.573        2412.935          42.000  
G09  24062357.779   126448535.912        2861.391          37.000    24062349.895    98531305.408        2229.589          38.000  
C28  24688821.538   128561179.025        -879.894          44.000                                                                  
C07  38089892.954   198344063.335         823.385          41.000    38089874.215   153372142.432         636.706          45.000  
C20  25352395.664   132016574.132       -3599.569          45.000                                                                  
C36  23944488.731   124685234.362        1442.633          43.000                                                                  
C37  24875810.514   129534878.225       -2374.366          42.000                                                                  
C10  39215469.570   204205234.940         755.498          38.000    39215455.725   157904449.976         584.216          45.000  
G32  25685659.914                3      -4162.458          18.000                                                                  
G08  24394217.393   128192477.964        3624.630          35.000    24394221.518    99890277.900        2824.167          39.000  
G29  25098433.217   131893200.337       -3498.160          32.000    25098429.403   102773877.537       -2726.026          36.000  
C30  25307109.813   131780790.255        2768.601          42.000                                                                  
C13                                                                  40613544.271   163533871.523       -1891.833          38.000  
C08                                                                  41533274.315   167237282.023       -1850.402          40.000  
> 2025 11 03 07 37 45.8000000  0 27                     
G04  21470973.309   112830732.816        1311.080          44.000    21470961.956    87919998.497        1021.764          45.000  
G16  20205579.412   106181042.204         343.122          46.000                                                                  
G28  22908480.839   120384870.284       -2612.174          42.000    22908469.905    93806346.449       -2035.526          43.000  
G31  20993995.221   110324194.331       -1578.381          47.000    20993981.500    85966846.491       -1229.973          44.000  
G03  24383684.780   128137187.035       -2875.574          36.000    24383679.872    99847091.063       -2240.493          37.000  
G18  25248050.313   132679390.726        1455.434          34.000    25248041.223   103386519.094        1133.807          39.000  
C16  36733495.536   191280917.956           4.334          48.000    36733479.140   147910499.660           3.441          48.000  
C19  23668062.685   123245818.258       -2006.649          47.000                                                                  
C27  23671859.262   123265647.174        1274.156          46.000                                                                  
C06  36291189.400   188977731.763           2.395          47.000    36291169.127   146129506.931           1.622          49.000  
C09  37380226.746   194648629.572         110.462          45.000    37380209.659   150514615.060          85.232          49.000  
C22  24675967.861   128494266.090         824.737          41.000                                                                  
G26  20739798.064   108988383.296       -1847.674          48.000    20739789.050    84925968.549       -1439.893          46.000  
G27  22092739.108   116098133.040        3096.390          43.000    22092731.164    90466049.055        2412.943          42.000  
G09  24062335.992   126448421.470        2861.074          37.000    24062328.113    98531216.225        2229.477          38.000  
C28  24688828.301   128561214.227        -880.099          44.000                                                                  
C07  38089886.627   198344030.398         823.348          41.000    38089867.861   153372116.965         636.656          45.000  
C20  25352423.303   132016718.118       -3599.643          45.000                                                                  
C36  23944477.643   124685176.665        1442.499          43.000                                                                  
C37  24875828.723   129534973.211       -2374.570          42.000                                                                  
C10  39215463.785   204205204.716         755.562          38.000    39215449.935   157904426.619         584.002          45.000  
G32  25685691.853                3      -4162.458          18.000                                                                  
G08  24394189.820   128192332.977        3624.623          35.000    24394193.926    99890164.922        2824.231          39.000  
G29  25098459.833   131893340.276       -3498.507          32.000    25098456.024   102773986.552       -2725.683          36.000  
C30  25307088.546   131780679.512        2768.503          42.000                                                                  
C13                                                                  40613563.062   163533947.192       -1891.785          38.000  
C08                                                                  41533292.679   167237356.038       -1850.378          40.000  
> 2025 11 03 07 37 45.8400000  0 27                     
G04  21470963.326   112830680.368        1311.115          44.000    21470951.982    87919957.628        1021.699          45.000  
G16  20205576.812   106181028.475         343.130          46.000                                                                  
G28  22908500.704   120384974.773       -2612.262          42.000    22908489.779    93806427.860       -2035.387          43.000  
G31  20994007.227   110324257.461       -1578.329          47.000    20993993.516    85966895.676       -1229.754          44.000  
G03  24383706.682   128137302.036       -2875.197          36.000    24383701.752    99847180.678       -2240.380          37.000  
G18  25248039.239   132679332.491        1455.672          34.000    25248030.123   103386473.724        1133.964          39.000  
C16  36733495.525   191280917.776           4.375          48.000    36733479.114   147910499.521           3.443          48.000  
C19  23668078.085   123245898.524       -2006.692          47.000                                                                  
C27  23671849.477   123265596.210        1274.051          46.000                                                                  
C06  36291189.388   188977731.663           2.491          47.000    36291169.118   146129506.859           1.707          49.000  
C09  37380225.892   194648625.142         110.649          45.000    37380208.835   150514611.646          85.245          49.000  
C22  24675961.541   128494233.097         824.682          41.000                                                                  
G26  20739812.112   108988457.206       -1847.778          48.000    20739803.094    84926026.133       -1439.740          46.000  
G27  22092715.522   116098009.163        3096.657          43.000    22092707.571    90465952.530        2413.059          42.000  
G09  24062314.205   126448306.997        2861.507          37.000    24062306.329    98531127.035        2229.534          38.000  
C28  24688835.066   128561249.413        -879.888          44.000                                                                  
C07  38089880.283   198343997.466         823.281          41.000    38089861.515   153372091.494         636.706          45.000  
C20  25352450.972   132016862.100       -3599.628          45.000                                                                  
C36  23944466.564   124685118.967        1442.401          43.000                                                                  
C37  24875846.973   129535068.191       -2374.625          42.000                                                                  
C10  39215457.971   204205174.506         755.332          38.000    39215444.123   157904403.253         584.054          45.000  
G32  25685723.641                3      -4162.458          18.000                                                                  
G08  24394162.248   128192187.996        3624.592          35.000    24394166.323    99890051.940        2824.393          39.000  
G29  25098486.482   131893480.199       -3498.443          32.000    25098482.638   102774095.572       -2725.456          36.000  
C30  25307067.256   131780568.747        2768.839          42.000                                                                  
C13                                                                  40613581.851   163534022.862       -1891.774          38.000  
C08                                                                  41533311.025   167237430.040       -1850.120          40.000  
> 2025 11 03 07 37 45.8800000  0 27                     
G04  21470953.327   112830627.912        1311.277          44.000    21470941.980    87919916.754        1021.782          45.000  
G16  20205574.196   106181014.748         343.157          46.000                                                                  
G28  22908520.585   120385079.267       -2612.360          42.000    22908509.655    93806509.278       -2035.426          43.000  
G31  20994019.239   110324320.583       -1578.140          47.000    20994005.540    85966944.860       -1229.654          44.000  
G03  24383728.562                       -2874.977          36.000    24383723.645    99847270.291       -2240.374          37.000  
G18  25248028.129   132679274.258        1455.866          34.000    25248019.039   103386428.347        1134.264          39.000  
C16  36733495.506   191280917.590           4.509          48.000    36733479.105   147910499.372           3.626          48.000  
C19  23668093.513   123245978.789       -2006.703          47.000                                                                  
C27  23671839.711   123265545.238        1274.194          46.000                                                                  
C06  36291189.367   188977731.563           2.521          47.000    36291169.100   146129506.784           1.812          49.000  
C09  37380225.048   194648620.714         110.723          45.000    37380207.960   150514608.221          85.483          48.000  
C22  24675955.185   128494200.098         824.814          41.000                                                                  
G26  20739826.179   108988531.106       -1847.620          48.000    20739817.153    84926083.722       -1439.734          46.000  
G27  22092691.942   116097885.292        3096.714          43.000    22092683.976    90465856.004        2413.100          42.000  
G09  24062292.423   126448192.526        2861.649          37.000    24062284.547    98531037.833        2229.833          38.000  
C28  24688841.833   128561284.599        -879.723          44.000                                                                  
C07  38089873.965   198343964.532         823.288          41.000    38089855.209   153372066.021         636.799          45.000  
C20  25352478.633   132017006.075       -3599.492          45.000                                                                  
C36  23944455.476   124685061.260        1442.529          43.000                                                                  
C37  24875865.219   129535163.175       -2374.638          42.000                                                                  
C10  39215452.185   204205144.284         755.433          38.000    39215438.313   157904379.877         584.261          45.000  
G32  25685755.412                3      -4162.458          17.000                                                                  
G08  24394134.644   128192043.034        3624.058          34.000    24394138.720    99889938.956        2824.509          39.000  
G29  25098513.107   131893620.142       -3498.581          32.000    25098509.244   102774204.600       -2725.611          36.000  
C30  25307045.975   131780457.996        2768.804          42.000                                                                  
C13                                                                  40613600.615   163534098.533       -1891.713          38.000  
C08                                                                  41533329.381   167237504.042       -1849.979          40.000  
> 2025 11 03 07 37 45.9200000  0 27                     
G04  21470943.340   112830575.453        1311.432          44.000    21470931.984    87919875.880        1021.827          45.000  
G16  20205571.561   106181001.014         343.262          46.000                                                                  
G28  22908540.467   120385183.751       -2612.194          42.000    22908529.551    93806590.698       -2035.502          43.000  
G31  20994031.250   110324383.701       -1577.987          47.000    20994017.539    85966994.047       -1229.653          44.000  
G03  24383750.450                       -2874.808          36.000    24383745.534    99847359.912       -2240.540          37.000  
G18  25248017.019   132679216.049        1455.469          34.000    25248007.939   103386382.969        1134.394          39.000  
C16  36733495.482   191280917.401           4.664          48.000    36733479.060   147910499.219           3.791          48.000  
C19  23668108.924   123246059.048       -2006.574          47.000                                                                  
C27  23671829.920   123265494.267        1274.249          46.000                                                                  
C06  36291189.360   188977731.472           2.344          47.000    36291169.078   146129506.709           1.874          49.000  
C09  37380224.195   194648616.288         110.695          45.000    37380207.083   150514604.797          85.597          49.000  
C22  24675948.847   128494167.093         825.005          41.000                                                                  
G26  20739840.220   108988605.004       -1847.498          48.000    20739831.215    84926141.303       -1439.587          46.000  
G27  22092668.382   116097761.427        3096.581          43.000    22092660.414    90465759.481        2413.086          42.000  
G09  24062270.657   126448078.066        2861.527          37.000    24062262.754    98530948.630        2230.032          38.000  
C28  24688848.570   128561319.794        -879.790          44.000                                                                  
C07  38089867.625   198343931.590         823.463          41.000    38089848.884   153372040.550         636.786          45.000  
C20  25352506.285   132017150.045       -3599.336          45.000                                                                  
C36  23944444.403   124685003.545        1442.743          43.000                                                                  
C37  24875883.464   129535258.148       -2374.454          42.000                                                                  
C10  39215446.377   204205114.065         755.497          38.000    39215432.495   157904356.505         584.323          45.000  
G32  25685787.303                3      -4162.458          17.000                                                                  
G08  24394107.068   128191898.003        3625.143          35.000    24394111.128    99889825.966        2824.641          39.000  
G29  25098539.684   131893760.052       -3498.104          32.000    25098535.881   102774313.646       -2726.006          36.000  
C30  25307024.705   131780347.236        2768.957          42.000                                                                  
C13                                                                  40613619.415   163534174.217       -1891.968          38.000  
C08                                                                  41533347.733   167237578.058       -1850.195          40.000  
> 2025 11 03 07 37 45.9600000  0 27                     
G04  21470933.358   112830523.001        1311.387          44.000    21470922.015    87919835.009        1021.805          45.000  
G16  20205568.924   106180987.281         343.280          46.000                                                                  
G28  22908560.335   120385288.225       -2611.912          42.000    22908549.436    93806672.119       -2035.591          43.000  
G31  20994043.272   110324446.829       -1578.094          47.000    20994029.572    85967043.238       -1229.722          44.000  
G03  24383772.339   128137647.062       -2875.601          36.000    24383767.424    99847449.533       -2240.586          37.000  
G18  25248005.950   132679157.837        1455.375          34.000    25247996.862   103386337.592        1134.448          39.000  
C16  36733495.465   191280917.211           4.745          48.000    36733479.052   147910499.081           3.569          48.000  
C19  23668124.358   123246139.307       -2006.506          47.000                                                                  
C27  23671820.135   123265443.293        1274.329          46.000                                                                  
C06  36291189.341   188977731.378           2.321          47.000    36291169.079   146129506.634           1.882          49.000  
C09  37380223.352   194648611.861         110.700          45.000    37380206.230   150514601.372          85.631          49.000  
C22  24675942.479   128494134.097         824.936          41.000                                                                  
G26  20739854.275   108988678.904       -1847.467          48.000    20739845.285    84926198.884       -1439.478          46.000  
G27  22092644.818   116097637.556        3096.621          43.000    22092636.863    90465662.970        2412.852          42.000  
G09  24062248.864   126447963.612        2861.352          37.000    24062240.982    98530859.451        2229.718          38.000  
C28  24688855.320   128561354.981        -879.742          44.000                                                                  
C07  38089861.320   198343898.648         823.499          41.000    38089842.588   153372015.076         636.829          45.000  
C20  25352533.922   132017294.027       -3599.459          45.000                                                                  
C36  23944433.299   124684945.840        1442.694          43.000                                                                  
C37  24875901.726   129535353.124       -2374.397          42.000                                                                  
C10  39215440.568   204205083.857         755.287          38.000    39215426.724   157904333.132         584.351          45.000  
G32  25685818.945                3      -4162.458          17.000                                                                  
G08  24394079.470   128191752.977        3625.606          35.000    24394083.529    99889712.980        2824.669          39.000  
G29  25098566.280   131893899.943       -3497.554          32.000    25098562.506   102774422.668       -2725.812          36.000  
C30  25307003.449   131780236.477        2769.013          42.000                                                                  
C13                                                                  40613638.194   163534249.896       -1891.965          38.000  
C08                                                                  41533366.135   167237652.073       -1850.325          40.000  
> 2025 11 03 07 37 46.0000000  0 26                     
G04  21470923.386   112830470.550        1311.310          44.000    21470912.043    87919794.144        1021.647          45.000  
G16  20205566.321   106180973.554         343.205          46.000                                                                  
G28  22908580.212   120385392.709       -2611.952          42.000    22908569.304    93806753.531       -2035.445          43.000  
G31  20994055.313   110324509.967       -1578.354          47.000    20994041.607    85967092.433       -1229.855          44.000  
G03  24383794.215   128137762.089       -2875.874          36.000    24383789.309    99847539.133       -2240.176          37.000  
G18  25247994.874   132679099.612        1455.498          34.000    25247985.782   103386292.229        1134.241          39.000  
C16  36733495.423   191280917.020           4.778          48.000    36733479.014   147910498.936           3.583          48.000  
C19  23668139.780   123246219.571       -2006.562          47.000                                                                  
C27  23671810.330   123265392.322        1274.304          46.000                                                                  
C06  36291189.325   188977731.288           2.224          47.000    36291169.076   146129506.562           1.820          49.000  
C09  37380222.491   194648607.440         110.590          45.000    37380205.405   150514597.941          85.755          49.000  
C22  24675936.147   128494101.080         825.240          41.000                                                                  
G26  20739868.318   108988752.801       -1847.400          48.000    20739859.344    84926256.469       -1439.575          46.000  
G27  22092621.245   116097513.684        3096.763          43.000    22092613.273    90465566.450        2412.874          42.000  
G09  24062227.083   126447849.142        2861.551          37.000    24062219.202    98530770.266        2229.666          38.000  
C28  24688862.102   128561390.172        -879.798          44.000                                                                  
C07  38089854.987   198343865.708         823.479          41.000    38089836.240   153371989.607         636.747          45.000  
C20  25352561.564   132017438.005       -3599.432          45.000                                                                  
C36  23944422.221   124684888.134        1442.658          43.000                                                                  
C37  24875919.945   129535448.106       -2374.519          42.000                                                                  
C10  39215434.761   204205053.634         755.468          38.000    39215420.905   157904309.770         584.184          45.000  
G08  24394051.886   128191607.993        3624.999          35.000    24394055.923    99889600.004        2824.473          39.000  
G29  25098592.903   131894039.867       -3497.920          32.000    25098589.132   102774531.700       -2725.837          37.000  
C30  25306982.165   131780125.724        2768.928          42.000                                                                  
C13                                                                  40613656.977   163534325.558       -1891.586          38.000  
C08                                                                  41533384.515   167237726.088       -1850.392          40.000  
> 2025 11 03 07 37 46.0400000  0 26                     
G04  21470913.405   112830418.104        1311.180          44.000    21470902.047    87919753.269        1021.749          45.000  
G16  20205563.702   106180959.820         343.254          46.000                                                                  
G28  22908600.102   120385497.194       -2612.037          42.000    22908589.199    93806834.946       -2035.420          43.000  
G31  20994067.337   110324573.100       -1578.403          47.000    20994053.622    85967141.624       -1229.817          44.000  
G03  24383816.081                       -2875.056          36.000    24383811.188    99847628.724       -2239.797          37.000  
G18  25247983.791   132679041.379        1455.740          34.000    25247974.727   103386246.879        1133.812          39.000  
C16  36733495.401   191280916.841           4.544          48.000    36733479.001   147910498.791           3.625          48.000  
C19  23668155.186   123246299.835       -2006.605          47.000                                                                  
C27  23671800.556   123265341.350        1274.292          46.000                                                                  
C06  36291189.327   188977731.191           2.344          47.000    36291169.052   146129506.490           1.793          49.000  
C09  37380221.646   194648603.019         110.508          45.000    37380204.596   150514594.516          85.688          49.000  
C22  24675929.797   128494068.087         824.965          41.000                                                                  
G26  20739882.408   108988826.706       -1847.559          48.000    20739873.385    84926314.052       -1439.575          46.000  
G27  22092597.679   116097389.813        3096.814          43.000    22092589.703    90465469.930        2412.895          42.000  
G09  24062205.302   126447734.682        2861.447          37.000    24062197.414    98530681.073        2229.777          38.000  
C28  24688868.871   128561425.368        -879.901          44.000                                                                  
C07  38089848.673   198343832.775         823.374          41.000    38089829.912   153371964.136         636.754          45.000  
C20  25352589.197   132017581.980       -3599.415          45.000                                                                  
C36  23944411.131   124684830.434        1442.535          43.000                                                                  
C37  24875938.159   129535543.077       -2374.430          42.000                                                                  
C10  39215428.954   204205023.400         755.726          38.000    39215415.111   157904286.408         584.059          45.000  
G08  24394024.281   128191463.006        3624.676          35.000    24394028.321    99889487.030        2824.310          39.000  
G29  25098619.558   131894179.830       -3498.977          32.000    25098615.764   102774640.730       -2725.701          37.000  
C30  25306960.879   131780014.975        2768.759          42.000                                                                  
C13                                                                  40613675.756   163534401.221       -1891.432          38.000  
C08                                                                  41533402.907   167237800.103       -1850.410          40.000  
> 2025 11 03 07 37 46.0800000  0 26                     
G04  21470903.427   112830365.659        1311.091          44.000    21470892.076    87919712.403        1021.691          45.000  
G16  20205561.072   106180946.084         343.348          46.000                                                                  
G28  22908619.981   120385601.684       -2612.161          42.000    22908609.087    93806916.358       -2035.345          43.000  
G31  20994079.343   110324636.226       -1578.291          47.000    20994065.644    85967190.821       -1229.907          44.000  
G03  24383837.951                       -2874.254          36.000    24383833.092    99847718.360       -2240.514          37.000  
G18  25247972.723   132678983.160        1455.751          34.000    25247963.666   103386201.515        1133.897          39.000  
C16  36733495.372   191280916.649           4.688          48.000    36733478.974   147910498.646           3.639          48.000  
C19  23668170.589   123246380.098       -2006.586          47.000                                                                  
C27  23671790.717   123265290.381        1274.199          46.000                                                                  
C06  36291189.296   188977731.099           2.317          47.000    36291169.035   146129506.421           1.708          49.000  
C09  37380220.803   194648598.591         110.572          45.000    37380203.756   150514591.098          85.506          49.000  
C22  24675923.447   128494035.099         824.774          41.000                                                                  
G26  20739896.476   108988900.610       -1847.620          48.000    20739887.430    84926371.646       -1439.789          46.000  
G27  22092574.136   116097265.954        3096.625          43.000    22092566.111    90465373.408        2412.967          42.000  
G09  24062183.519   126447620.234        2861.240          37.000    24062175.642    98530591.884        2229.776          38.000  
C28  24688875.612   128561460.569        -880.042          44.000                                                                  
C07  38089842.353   198343799.831         823.499          41.000    38089823.593   153371938.670         636.648          45.000  
C20  25352616.856   132017725.955       -3599.410          45.000                                                                  
C36  23944400.063   124684772.725        1442.603          43.000                                                                  
C37  24875956.408   129535638.051       -2374.418          42.000                                                                  
C10  39215423.137   204204993.171         755.753          38.000    39215409.331   157904263.037         584.156          45.000  
G08  24393996.671   128191318.021        3624.562          35.000    24394000.745    99889374.069        2824.058          39.000  
G29  25098646.191   131894319.768       -3498.862          32.000    25098642.377   102774749.762       -2725.737          36.000  
C30  25306939.593   131779904.213        2768.961          42.000                                                                  
C13                                                                  40613694.522   163534476.882       -1891.336          38.000  
C08                                                                  41533421.299   167237874.125       -1850.571          40.000  
> 2025 11 03 07 37 46.1200000  0 26                     
G04  21470893.415   112830313.213        1311.085          44.000    21470882.096    87919671.538        1021.635          45.000  
G16  20205558.477   106180932.357         343.248          46.000                                                                  
G28  22908639.865   120385706.167       -2612.123          42.000    22908628.961    93806997.779       -2035.497          43.000  
G31  20994091.328   110324699.357       -1578.310          47.000    20994077.653    85967240.012       -1229.858          44.000  
G03  24383859.830                       -2874.832          36.000    24383854.981    99847807.973       -2240.472          37.000  
G18  25247961.634   132678924.917        1456.113          34.000    25247952.593   103386156.138        1134.202          39.000  
C16  36733495.361   191280916.460           4.719          48.000    36733478.930   147910498.507           3.540          48.000  
C19  23668185.983   123246460.369       -2006.747          47.000                                                                  
C27  23671780.911   123265239.417        1274.076          46.000                                                                  
C06  36291189.271   188977731.001           2.380          47.000    36291168.991   146129506.351           1.705          49.000  
C09  37380219.949   194648594.166         110.566          45.000    37380202.922   150514587.678          85.458          49.000  
C22  24675917.115   128494002.108         824.724          41.000                                                                  
G26  20739910.556   108988974.525       -1847.864          48.000    20739901.510    84926429.240       -1439.893          46.000  
G27  22092550.563   116097142.098        3096.411          43.000    22092542.540    90465276.889        2412.966          42.000  
G09  24062161.734   126447505.772        2861.372          37.000    24062153.862    98530502.695        2229.740          38.000  
C28  24688882.368   128561495.764        -880.018          44.000                                                                  
C07  38089836.031   198343766.894         823.468          41.000    38089817.285   153371913.201         636.662          45.000  
C20  25352644.488   132017869.932       -3599.436          45.000                                                                  
C36  23944388.971   124684715.018        1442.621          43.000                                                                  
C37  24875974.645   129535733.034       -2374.548          42.000                                                                  
C10  39215417.332   204204962.965         755.326          38.000    39215403.522   157904239.666         584.231          45.000  
G08  24393969.086   128191173.022        3624.769          35.000    24393973.145    99889261.084        2824.386          39.000  
G29  25098672.777   131894459.675       -3498.245          32.000    25098669.010   102774858.803       -2725.946          36.000  
C30  25306918.300   131779793.452        2769.009          42.000                                                                  
C13                                                                  40613713.303   163534552.556       -1891.681          38.000  
C08                                                                  41533439.710   167237948.140       -1850.446          40.000  
> 2025 11 03 07 37 46.1600000  0 26                     
G04  21470883.439   112830260.771        1311.030          44.000    21470872.118    87919630.667        1021.675          45.000  
G16  20205555.889   106180918.643         342.937          46.000                                                                  
G28  22908659.755   120385810.667       -2612.412          42.000    22908648.827    93807079.208       -2035.728          43.000  
G31  20994103.374   110324762.488       -1578.308          47.000    20994089.687    85967289.211       -1229.964          44.000  
G03  24383881.727                       -2875.461          36.000    24383876.877    99847897.602       -2240.781          37.000  
G18  25247950.544   132678866.684        1456.117          34.000    25247941.508   103386110.765        1134.288          39.000  
C16  36733495.325   191280916.281           4.547          48.000    36733478.918   147910498.364           3.533          48.000  
C19  23668201.410   123246540.637       -2006.758          47.000                                                                  
C27  23671771.113   123265188.452        1274.052          46.000                                                                  
C06  36291189.256   188977730.913           2.241          47.000    36291168.996   146129506.278           1.747          49.000  
C09  37380219.106   194648589.738         110.618          45.000    37380202.094   150514584.257          85.454          49.000  
C22  24675910.785   128493969.129         824.527          41.000                                                                  
G26  20739924.623   108989048.434       -1847.833          48.000    20739915.571    84926486.833       -1439.880          46.000  
G27  22092526.997   116097018.238        3096.397          43.000    22092518.982    90465180.373        2412.902          42.000  
G09  24062139.942   126447391.301        2861.650          37.000    24062132.079    98530413.512        2229.518          38.000  
C28  24688889.135   128561530.966        -880.120          44.000                                                                  
C07  38089829.723   198343733.948         823.623          41.000    38089810.942   153371887.738         636.556          45.000  
C20  25352672.141   132018013.912       -3599.493          45.000                                                                  
C36  23944377.864   124684657.329        1442.291          43.000                                                                  
C37  24875992.896   129535828.015       -2374.598          42.000                                                                  
C10  39215411.534   204204932.739         755.464          38.000    39215397.705   157904216.306         584.053          45.000  
G08  24393941.493   128191028.029        3624.840          35.000    24393945.546    99889148.095        2824.640          39.000  
G29  25098699.417   131894599.604       -3498.261          32.000    25098695.620   102774967.852       -2726.228          36.000  
C30  25306897.023   131779682.703        2768.801          42.000                                                                  
C13                                                                  40613732.069   163534628.258       -1892.364          38.000  
C08                                                                  41533458.069   167238022.136       -1850.052          40.000  
> 2025 11 03 07 37 46.2000000  0 26                     
G04  21470873.458   112830208.324        1311.078          44.000    21470862.144    87919589.801        1021.635          45.000  
G16  20205553.284   106180904.920         342.946          46.000                                                                  
G28  22908679.641   120385915.155       -2612.295          42.000    22908668.705    93807160.628       -2035.630          43.000  
G31  20994115.402   110324825.626       -1578.420          47.000    20994101.701    85967338.393       -1229.707          44.000  
G03  24383903.634                       -2875.906          36.000    24383898.784    99847987.234       -2240.847          37.000  
G18  25247939.491   132678808.475        1455.578          34.000    25247930.435   103386065.395        1134.271          39.000  
C16  36733495.298   191280916.097           4.558          48.000    36733478.901   147910498.221           3.554          48.000  
C19  23668216.837   123246620.904       -2006.746          47.000                                                                  
C27  23671761.340   123265137.486        1274.102          46.000                                                                  
C06  36291189.266   188977730.821           2.263          47.000    36291168.987   146129506.201           1.844          49.000  
C09  37380218.258   194648585.311         110.670          45.000    37380201.241   150514580.838          85.445          49.000  
C22  24675904.426   128493936.124         824.845          41.000                                                                  
G26  20739938.664   108989122.339       -1847.723          48.000    20739929.624    84926544.423       -1439.819          46.000  
G27  22092503.407   116096894.367        3096.616          43.000    22092495.417    90465083.855        2412.939          42.000  
G09  24062118.167   126447276.865        2861.207          37.000    24062110.310    98530324.335        2229.362          38.000  
C28  24688895.890   128561566.169        -880.134          44.000                                                                  
C07  38089823.410   198343701.025         823.223          41.000    38089804.611   153371862.271         636.550          45.000  
C20  25352699.786   132018157.892       -3599.523          45.000                                                                  
C36  23944366.788   124684599.618        1442.572          43.000                                                                  
C37  24876011.105   129535922.994       -2374.556          42.000                                                                  
C10  39215405.734   204204902.537         755.141          38.000    39215391.918   157904192.936         584.110          45.000  
G08  24393913.909   128190883.075        3624.169          35.000    24393917.944    99889035.105        2824.750          39.000  
G29  25098726.028   131894739.521       -3498.156          32.000    25098722.250   102775076.869       -2725.706          36.000  
C30  25306875.766   131779571.955        2768.649          42.000                                                                  
C13                                                                  40613750.867   163534703.931       -1892.124          38.000  
C08                                                                  41533476.483   167238096.139       -1849.985          40.000  
> 2025 11 03 07 37 46.2400000  0 26                     
G04  21470863.495   112830155.872        1311.245          44.000    21470852.140    87919548.936        1021.595          45.000  
G16  20205550.654   106180891.194         343.009          46.000                                                                  
G28  22908699.521   120386019.644       -2612.276          42.000    22908688.571    93807242.044       -2035.503          43.000  
G31  20994127.397   110324888.748       -1578.210          47.000    20994113.709    85967387.588       -1229.785          44.000  
G03  24383925.512   128138452.113       -2875.387          36.000    24383920.648    99848076.831       -2240.275          37.000  
G18  25247928.376   132678750.271        1455.092          34.000    25247919.363   103386020.029        1134.195          39.000  
C16  36733495.274   191280915.906           4.670          48.000    36733478.870   147910498.079           3.542          48.000  
C19  23668232.257   123246701.164       -2006.622          47.000                                                                  
C27  23671751.555   123265086.523        1274.084          46.000                                                                  
C06  36291189.280   188977730.716           2.473          47.000    36291168.942   146129506.123           1.920          49.000  
C09  37380217.409   194648580.881         110.692          45.000    37380200.371   150514577.413          85.554          49.000  
C22  24675898.078   128493903.121         825.010          41.000                                                                  
G26  20739952.726   108989196.235       -1847.510          48.000    20739943.675    84926602.005       -1439.630          46.000  
G27  22092479.822   116096770.498        3096.669          43.000    22092471.851    90464987.340        2412.907          42.000  
G09  24062096.373   126447162.398        2861.474          37.000    24062088.536    98530235.146        2229.540          38.000  
C28  24688902.639   128561601.369        -880.085          44.000                                                                  
C07  38089817.087   198343668.080         823.443          41.000    38089798.298   153371836.797         636.757          45.000  
C20  25352727.465   132018301.872       -3599.542          45.000                                                                  
C36  23944355.712   124684541.891        1443.036          43.000                                                                  
C37  24876029.349   129536017.954       -2374.163          42.000                                                                  
C10  39215399.910   204204872.317         755.308          38.000    39215386.127   157904169.565         584.203          45.000  
G08  24393886.301   128190738.071        3624.641          35.000    24393890.344    99888922.125        2824.586          39.000  
G29  25098752.653   131894879.448       -3498.264          32.000    25098748.875   102775185.894       -2725.530          36.000  
C30  25306854.509   131779461.190        2768.896          42.000                                                                  
C13                                                                  40613769.678   163534779.590       -1891.722          38.000  
C08                                                                  41533494.881   167238170.148       -1850.079          40.000  
> 2025 11 03 07 37 46.2800000  0 26                     
G04  21470853.514   112830103.425        1311.206          44.000    21470842.144    87919508.072        1021.531          45.000  
G16  20205548.030   106180877.474         342.953          46.000                                                                  
G28  22908719.414   120386124.130       -2612.240          42.000    22908708.443    93807323.457       -2035.385          43.000  
G31  20994139.421   110324951.879       -1578.220          47.000    20994125.735    85967436.792       -1230.000          44.000  
G03  24383947.385                       -2874.420          36.000    24383942.534    99848166.456       -2240.511          37.000  
G18  25247917.271   132678692.051        1455.179          34.000    25247908.293   103385974.674        1133.967          39.000  
C16  36733495.226   191280915.721           4.641          48.000    36733478.815   147910497.933           3.574          48.000  
C19  23668247.655   123246781.434       -2006.709          47.000                                                                  
C27  23671741.779   123265035.563        1273.966          46.000                                                                  
C06  36291189.277   188977730.626           2.295          47.000    36291168.936   146129506.053           1.798          49.000  
C09  37380216.519   194648576.459         110.536          45.000    37380199.519   150514573.991          85.540          49.000  
C22  24675891.751   128493870.139         824.697          41.000                                                                  
G26  20739966.791   108989270.143       -1847.644          48.000    20739957.742    84926659.594       -1439.685          46.000  
G27  22092456.268   116096646.642        3096.440          43.000    22092448.277    90464890.825        2412.833          42.000  
G09  24062074.599   126447047.948        2861.317          37.000    24062066.733    98530145.932        2230.094          38.000  
C28  24688909.401   128561636.570        -880.070          44.000                                                                  
C07  38089810.786   198343635.145         823.342          41.000    38089791.959   153371811.320         636.873          45.000  
C20  25352755.079   132018445.862       -3599.707          45.000                                                                  
C36  23944344.610   124684484.185        1442.798          43.000                                                                  
C37  24876047.596   129536112.937       -2374.393          42.000                                                                  
C10  39215394.108   204204842.095         755.418          38.000    39215380.310   157904146.203         584.095          45.000  
G08  24393858.734   128190593.095        3624.503          35.000    24393862.754    99888809.162        2824.219          39.000  
G29  25098779.273   131895019.382       -3498.388          32.000    25098775.497   102775294.932       -2725.771          36.000  
C30  25306833.224   131779350.437        2768.783          42.000                                                                  
C13                                                                  40613788.456   163534855.244       -1891.428          38.000  
C08                                                                  41533513.260   167238244.164       -1850.282          40.000  
> 2025 11 03 07 37 46.3200000  0 26                     
G04  21470843.550   112830050.985        1311.046          44.000    21470832.189    87919467.214        1021.429          45.000  
G16  20205545.394   106180863.750         343.035          46.000                                                                  
G28  22908739.292   120386228.619       -2612.311          42.000    22908728.322    93807404.882       -2035.499          43.000  
G31  20994151.443   110325015.017       -1578.381          47.000    20994137.756    85967485.985       -1229.941          44.000  
G03  24383969.286                       -2875.544          36.000    24383964.406    99848256.071       -2240.480          37.000  
G18  25247906.185   132678633.827        1455.365          34.000    25247897.205   103385929.307        1134.047          39.000  
C16  36733495.183   191280915.537           4.582          48.000    36733478.801   147910497.793           3.529          48.000  
C19  23668263.074   123246861.707       -2006.832          47.000                                                                  
C27  23671731.995   123264984.597        1274.072          46.000                                                                  
C06  36291189.252   188977730.534           2.252          47.000    36291168.923   146129505.984           1.715          49.000  
C09  37380215.687   194648572.034         110.565          45.000    37380198.666   150514570.566          85.590          49.000  
C22  24675885.414   128493837.154         824.613          41.000                                                                  
G26  20739980.868   108989344.055       -1847.784          48.000    20739971.807    84926717.181       -1439.703          46.000  
G27  22092432.700   116096522.771        3096.617          43.000    22092424.698    90464794.304        2412.967          42.000  
G09  24062052.802   126446933.482        2861.562          37.000    24062044.942    98530056.763        2229.583          38.000  
C28  24688916.169   128561671.773        -880.069          44.000                                                                  
C07  38089804.453   198343602.211         823.306          41.000    38089785.620   153371785.858         636.629          45.000  
C20  25352782.726   132018589.840       -3599.595          45.000                                                                  
C36  23944333.508   124684426.487        1442.517          43.000                                                                  
C37  24876065.839   129536207.917       -2374.458          42.000                                                                  
C10  39215388.315   204204811.874         755.484          38.000    39215374.507   157904122.841         584.002          45.000  
G08  24393831.131   128190448.072        3625.293          35.000    24393835.150    99888696.186        2824.248          39.000  
G29  25098805.880   131895159.248       -3497.097          32.000    25098802.121   102775403.974       -2725.999          36.000  
C30  25306811.953   131779239.696        2768.529          42.000                                                                  
C13                                                                  40613807.251   163534930.917       -1891.599          38.000  
C08                                                                  41533531.636   167238318.190       -1850.602          40.000  
> 2025 11 03 07 37 46.3600000  0 26                     
G04  21470833.572   112829998.548        1310.902          44.000    21470822.197    87919426.349        1021.514          45.000  
G16  20205542.782   106180850.028         343.022          46.000                                                                  
G28  22908759.171   120386333.102       -2612.164          42.000    22908748.215    93807486.304       -2035.497          43.000  
G31  20994163.472   110325078.158       -1578.503          47.000    20994149.776    85967535.177       -1229.903          44.000  
G03  24383991.185                       -2875.726          36.000    24383986.291    99848345.693       -2240.521          37.000  
G18  25247895.117   132678575.595        1455.709          34.000    25247886.125   103385883.937        1134.217          39.000  
C16  36733495.164   191280915.351           4.603          48.000    36733478.762   147910497.643           3.673          48.000  
C19  23668278.486   123246941.978       -2006.832          47.000                                                                  
C27  23671722.239   123264933.629        1274.164          46.000                                                                  
C06  36291189.260   188977730.443           2.217          47.000    36291168.921   146129505.918           1.641          49.000  
C09  37380214.833   194648567.603         110.695          45.000    37380197.837   150514567.145          85.551          48.000  
C22  24675879.080   128493804.166         824.596          41.000                                                                  
G26  20739994.929   108989417.963       -1847.784          48.000    20739985.839    84926774.771       -1439.746          46.000  
G27  22092409.148   116096398.902        3096.723          43.000    22092401.124    90464697.788        2412.885          42.000  
G09  24062031.026   126446819.029        2861.458          37.000    24062023.175    98529967.588        2229.333          38.000  
C28  24688922.936   128561706.963        -879.868          44.000                                                                  
C07  38089798.126   198343569.267         823.506          41.000    38089779.321   153371760.393         636.574          45.000  
C20  25352810.407   132018733.820       -3599.530          45.000                                                                  
C36  23944322.423   124684368.784        1442.505          43.000                                                                  
C37  24876084.094   129536302.894       -2374.484          42.000                                                                  
C10  39215382.526   204204781.636         755.803          38.000    39215368.691   157904099.469         584.124          45.000  
G08  24393803.520   128190303.059        3625.537          35.000    24393807.557    99888583.205        2824.350          39.000  
G29  25098832.492   131895299.196       -3497.894          32.000    25098828.788   102775513.031       -2726.386          36.000  
C30  25306790.659   131779128.953        2768.465          42.000                                                                  
C13                                                                  40613826.043   163535006.598       -1891.906          37.000  
C08                                                                  41533550.028   167238392.199       -1850.435          40.000  
> 2025 11 03 07 37 46.4000000  0 26                     
G04  21470823.598   112829946.114        1310.763          44.000    21470812.223    87919385.475        1021.726          45.000  
G16  20205540.173   106180836.306         343.028          46.000                                                                  
G28  22908779.035   120386437.588       -2612.165          42.000    22908768.094    93807567.713       -2035.311          43.000  
G31  20994175.488   110325141.293       -1578.485          47.000    20994161.803    85967584.380       -1230.076          44.000  
G03  24384013.068                       -2874.960          36.000    24384008.135    99848435.293       -2240.193          37.000  
G18  25247884.022   132678517.374        1455.556          34.000    25247875.051   103385838.585        1133.978          39.000  
C16  36733495.133   191280915.165           4.616          48.000    36733478.726   147910497.497           3.670          48.000  
C19  23668293.882   123247022.255       -2006.979          47.000                                                                  
C27  23671712.450   123264882.667        1274.083          46.000                                                                  
C06  36291189.271   188977730.340           2.437          47.000    36291168.902   146129505.840           1.815          49.000  
C09  37380213.961   194648563.181         110.584          45.000    37380196.966   150514563.714          85.684          49.000  
C22  24675872.739   128493771.179         824.600          41.000                                                                  
G26  20740008.984   108989491.868       -1847.693          48.000    20739999.889    84926832.357       -1439.703          46.000  
G27  22092385.588   116096275.038        3096.626          43.000    22092377.531    90464601.264        2412.993          42.000  
G09  24062009.233   126446704.565        2861.610          37.000    24062001.382    98529878.398        2229.516          38.000  
C28  24688929.709   128561742.168        -880.058          44.000                                                                  
C07  38089791.804   198343536.330         823.474          41.000    38089772.986   153371734.922         636.663          45.000  
C20  25352838.049   132018877.791       -3599.358          45.000                                                                  
C36  23944311.357   124684311.084        1442.456          43.000                                                                  
C37  24876102.310   129536397.873       -2374.473          42.000                                                                  
C10  39215376.724   204204751.424         755.535          38.000    39215362.856   157904076.105         584.063          45.000  
G08  24393775.919   128190158.052        3625.419          35.000    24393779.970    99888470.227        2824.413          39.000  
G29  25098859.092   131895439.140       -3498.199          32.000    25098855.424   102775622.070       -2726.262          36.000  
C30  25306769.404   131779018.176        2769.051          42.000                                                                  
C13                                                                  40613844.844   163535082.264       -1891.840          37.000  
C08                                                                  41533568.399   167238466.205       -1850.274          40.000  
> 2025 11 03 07 37 46.4400000  0 26                     
G04  21470813.615   112829893.678        1310.771          44.000    21470802.242    87919344.624        1021.438          45.000  
G16  20205537.584   106180822.587         342.947          46.000                                                                  
G28  22908798.905   120386542.091       -2612.460          42.000    22908787.983    93807649.140       -2035.577          43.000  
G31  20994187.503   110325204.425       -1578.389          47.000    20994173.811    85967633.571       -1229.951          44.000  
G03  24384034.976   128139027.167       -2875.323          36.000    24384030.012    99848524.927       -2240.575          37.000  
G18  25247872.934   132678459.165        1455.234          34.000    25247863.973   103385793.217        1134.027          39.000  
C16  36733495.110   191280914.979           4.595          48.000    36733478.699   147910497.362           3.460          48.000  
C19  23668309.276   123247102.528       -2006.929          47.000                                                                  
C27  23671702.679   123264831.710        1273.929          46.000                                                                  
C06  36291189.264   188977730.254           2.261          47.000    36291168.874   146129505.767           1.820          49.000  
C09  37380213.105   194648558.755         110.599          45.000    37380196.108   150514560.296          85.529          49.000  
C22  24675866.422   128493738.189         824.659          41.000                                                                  
G26  20740023.053   108989565.782       -1847.797          48.000    20740013.957    84926889.954       -1439.856          46.000  
G27  22092362.050   116096151.186        3096.354          43.000    22092353.973    90464504.753        2412.832          42.000  
G09  24061987.428   126446590.112        2861.409          36.000    24061979.582    98529789.206        2229.649          38.000  
C28  24688936.452   128561777.378        -880.252          44.000                                                                  
C07  38089785.480   198343503.402         823.243          41.000    38089766.661   153371709.456         636.638          45.000  
C20  25352865.696   132019021.767       -3599.382          45.000                                                                  
C36  23944300.281   124684253.381        1442.499          43.000                                                                  
C37  24876120.544   129536492.857       -2374.583          42.000                                                                  
C10  39215370.951   204204721.206         755.413          38.000    39215357.031   157904052.727         584.284          45.000  
G08  24393748.305   128190013.086        3624.578          35.000    24393752.379    99888357.235        2824.688          39.000  
G29  25098885.747   131895579.073       -3498.287          32.000    25098882.047   102775731.075       -2725.480          36.000  
C30  25306748.120   131778907.418        2769.018          42.000                                                                  
C13                                                                  40613863.650   163535157.941       -1892.005          38.000  
C08                                                                  41533586.811   167238540.207       -1850.096          40.000  
> 2025 11 03 07 37 46.4800000  0 26                     
G04  21470803.629   112829841.241        1310.833          44.000    21470792.287    87919303.759        1021.531          45.000  
G16  20205534.993   106180808.872         342.848          46.000                                                                  
G28  22908818.788   120386646.588       -2612.488          42.000    22908807.873    93807730.571       -2035.757          43.000  
G31  20994199.507   110325267.560       -1578.390          47.000    20994185.829    85967682.777       -1230.110          44.000  
G03  24384056.843   128139142.176       -2875.344          36.000    24384051.897    99848614.554       -2240.637          37.000  
G18  25247861.857   132678400.974        1454.706          34.000    25247852.893   103385747.839        1134.330          39.000  
C16  36733495.076   191280914.797           4.524          48.000    36733478.667   147910497.221           3.463          48.000  
C19  23668324.656   123247182.805       -2006.941          47.000                                                                  
C27  23671692.885   123264780.754        1273.850          46.000                                                                  
C06  36291189.252   188977730.167           2.166          47.000    36291168.840   146129505.696           1.779          49.000  
C09  37380212.253   194648554.327         110.651          45.000    37380195.271   150514556.880          85.396          49.000  
C22  24675860.061   128493705.204         824.586          41.000                                                                  
G26  20740037.120   108989639.687       -1847.687          48.000    20740028.013    84926947.552       -1439.960          46.000  
G27  22092338.499   116096027.333        3096.231          43.000    22092330.405    90464408.240        2412.804          42.000  
G09  24061965.661   126446475.668        2861.204          36.000    24061957.797    98529700.007        2229.785          38.000  
C28  24688943.177   128561812.591        -880.368          44.000                                                                  
C07  38089779.168   198343470.473         823.139          41.000    38089760.346   153371683.987         636.701          45.000  
C20  25352893.335   132019165.754       -3599.624          45.000                                                                  
C36  23944289.177   124684195.686        1442.365          43.000                                                                  
C37  24876138.805   129536587.838       -2374.574          42.000                                                                  
C10  39215365.143   204204691.015         754.922          38.000    39215351.259   157904029.368         584.074          45.000  
G08  24393720.720   128189868.114        3624.243          35.000    24393724.791    99888244.260        2824.488          39.000  
G29  25098912.340   131895718.991       -3498.113          32.000    25098908.658   102775840.129       -2725.992          36.000  
C30  25306726.853   131778796.673        2768.725          42.000                                                                  
C13                                                                  40613882.439   163535233.614       -1891.944          37.000  
C08                                                                  41533605.181   167238614.218       -1850.189          40.000  
> 2025 11 03 07 37 46.5200000  0 26                     
G04  21470793.653   112829788.798        1310.942          44.000    21470782.317    87919262.904        1021.425          45.000  
G16  20205532.376   106180795.152         342.905          46.000                                                                  
G28  22908838.653   120386751.076       -2612.336          42.000    22908827.745    93807811.996       -2035.742          43.000  
G31  20994211.541   110325330.698       -1578.437          47.000    20994197.828    85967731.969       -1229.981          44.000  
G03  24384078.741   128139257.199       -2875.639          36.000    24384073.782    99848704.174       -2240.588          37.000  
G18  25247850.777   132678342.749        1455.149          34.000    25247841.815   103385702.479        1134.107          39.000  
C16  36733495.036   191280914.613           4.546          48.000    36733478.639   147910497.077           3.531          48.000  
C19  23668340.073   123247263.075       -2006.861          47.000                                                                  
C27  23671683.097   123264729.798        1273.857          46.000                                                                  
C06  36291189.237   188977730.076           2.216          47.000    36291168.843   146129505.628           1.720          49.000  
C09  37380211.402   194648549.901         110.629          45.000    37380194.429   150514553.461          85.391          49.000  
C22  24675853.762   128493672.214         824.653          41.000                                                                  
G26  20740051.201   108989713.600       -1847.797          48.000    20740042.083    84927005.144       -1439.893          46.000  
G27  22092314.932   116095903.480        3096.226          43.000    22092306.838    90464311.734        2412.671          42.000  
G09  24061943.879   126446361.216        2861.247          36.000    24061936.013    98529610.825        2229.611          38.000  
C28  24688949.922   128561847.795        -880.229          44.000                                                                  
C07  38089772.830   198343437.534         823.328          41.000    38089754.062   153371658.520         636.681          45.000  
C20  25352920.968   132019309.736       -3599.645          45.000                                                                  
C36  23944278.102   124684137.977        1442.609          43.000                                                                  
C37  24876157.028   129536682.815       -2374.521          42.000                                                                  
C10  39215359.350   204204660.791         755.210          38.000    39215345.458   157904006.003         584.066          45.000  
G08  24393693.126   128189723.134        3624.255          35.000    24393697.181    99888131.289        2824.312          39.000  
G29  25098938.935   131895858.932       -3498.410          32.000    25098935.294   102775949.165       -2726.046          36.000  
C30  25306705.580   131778685.922        2768.690          42.000                                                                  
C13                                                                  40613901.220   163535309.281       -1891.796          38.000  
C08                                                                  41533623.563   167238688.234       -1850.344          40.000  
> 2025 11 03 07 37 46.5600000  0 26                     
G04  21470783.685   112829736.367        1310.808          44.000    21470772.340    87919222.047        1021.389          45.000  
G16  20205529.757   106180781.431         342.955          46.000                                                                  
G28  22908858.539   120386855.578       -2612.493          42.000    22908847.611    93807893.419       -2035.671          43.000  
G31  20994223.551   110325393.837       -1578.484          47.000    20994209.846    85967781.164       -1229.933          44.000  
G03  24384100.616   128139372.199       -2875.387          36.000    24384095.656    99848793.794       -2240.554          37.000  
G18  25247839.665   132678284.534        1455.368          34.000    25247830.754   103385657.118        1134.012          39.000  
C16  36733494.996   191280914.427           4.565          48.000    36733478.597   147910496.928           3.634          48.000  
C19  23668355.490   123247343.349       -2006.854          47.000                                                                  
C27  23671673.302   123264678.836        1273.956          46.000                                                                  
C06  36291189.256   188977729.982           2.288          47.000    36291168.851   146129505.556           1.761          49.000  
C09  37380210.541   194648545.479         110.559          45.000    37380193.561   150514550.043          85.394          49.000  
C22  24675847.415   128493639.227         824.661          41.000                                                                  
G26  20740065.275   108989787.512       -1847.809          48.000    20740056.158    84927062.737       -1439.856          46.000  
G27  22092291.355   116095779.612        3096.536          43.000    22092283.278    90464215.222        2412.673          42.000  
G09  24061922.092   126446246.765        2861.305          36.000    24061914.244    98529521.654        2229.344          38.000  
C28  24688956.664   128561882.998        -880.131          44.000                                                                  
C07  38089766.511   198343404.598         823.396          41.000    38089747.723   153371633.050         636.686          45.000  
C20  25352948.630   132019453.717       -3599.583          45.000                                                                  
C36  23944267.017   124684080.273        1442.615          43.000                                                                  
C37  24876175.248   129536777.799       -2374.601          42.000                                                                  
C10  39215353.552   204204630.577         755.251          38.000    39215339.648   157903982.638         584.087          45.000  
G08  24393665.556   128189578.126        3624.800          35.000    24393669.575    99888018.306        2824.434          39.000  
G29  25098965.539   131895998.863       -3498.250          32.000    25098961.934   102776058.211       -2726.197          36.000  
C30  25306684.313   131778575.159        2768.937          42.000                                                                  
C13                                                                  40613919.992   163535384.951       -1891.752          38.000  
C08                                                                  41533641.933   167238762.254       -1850.491          40.000  
> 2025 11 03 07 37 46.6000000  0 26                     
G04  21470773.703   112829683.927        1310.884          44.000    21470762.377    87919181.187        1021.466          45.000  
G16  20205527.131   106180767.714         342.905          46.000                                                                  
G28  22908878.429   120386960.060       -2612.241          42.000    22908867.479    93807974.836       -2035.508          43.000  
G31  20994235.571   110325456.975       -1578.487          47.000    20994221.847    85967830.362       -1230.005          44.000  
G03  24384122.470   128139487.181       -2874.786          36.000    24384117.532    99848883.400       -2240.250          37.000  
G18  25247828.626   132678226.294        1455.848          34.000    25247819.680   103385611.756        1134.023          39.000  
C16  36733494.979   191280914.240           4.610          48.000    36733478.597   147910496.788           3.560          48.000  
C19  23668370.875   123247423.621       -2006.824          47.000                                                                  
C27  23671663.512   123264627.876        1273.993          46.000                                                                  
C06  36291189.262   188977729.880           2.451          47.000    36291168.845   146129505.482           1.820          49.000  
C09  37380209.701   194648541.056         110.548          45.000    37380192.687   150514546.608          85.722          49.000  
C22  24675841.082   128493606.246         824.536          41.000                                                                  
G26  20740079.336   108989861.427       -1847.894          48.000    20740070.216    84927120.323       -1439.703          46.000  
G27  22092267.799   116095655.741        3096.724          43.000    22092259.687    90464118.710        2412.720          42.000  
G09  24061900.300   126446132.303        2861.446          36.000    24061892.459    98529432.470        2229.427          38.000  
C28  24688963.407   128561918.202        -880.115          44.000                                                                  
C07  38089760.201   198343371.665         823.390          41.000    38089741.378   153371607.585         636.593          45.000  
C20  25352976.270   132019597.703       -3599.640          45.000                                                                  
C36  23944255.940   124684022.567        1442.615          43.000                                                                  
C37  24876193.483   129536872.780       -2374.572          42.000                                                                  
C10  39215347.752   204204600.342         755.666          38.000    39215333.869   157903959.272         584.110          45.000  
G08  24393637.974   128189433.155        3624.491          35.000    24393641.977    99887905.341        2824.141          39.000  
G29  25098992.168   131896138.824       -3498.835          32.000    25098988.584   102776167.231       -2725.784          36.000  
C30  25306663.042   131778464.398        2769.011          42.000                                                                  
C13                                                                  40613938.787   163535460.605       -1891.456          38.000  
C08                                                                  41533660.334   167238836.270       -1850.484          40.000  
> 2025 11 03 07 37 46.6400000  0 26                     
G04  21470763.724   112829631.496        1310.792          44.000    21470752.398    87919140.330        1021.437          45.000  
G16  20205524.531   106180754.011         342.638          46.000                                                                  
G28  22908898.329   120387064.554       -2612.338          42.000    22908887.357    93808056.248       -2035.333          43.000  
G31  20994247.583   110325520.113       -1578.493          47.000    20994233.875    85967879.561       -1230.007          44.000  
G03  24384144.327   128139602.204       -2875.274          36.000    24384139.430    99848973.043       -2240.779          37.000  
G18  25247817.567   132678168.094        1455.363          34.000    25247808.604   103385566.387        1134.125          39.000  
C16  36733494.963   191280914.055           4.575          48.000    36733478.568   147910496.645           3.554          48.000  
C19  23668386.278   123247503.901       -2006.966          47.000                                                                  
C27  23671653.715   123264576.918        1273.956          46.000                                                                  
C06  36291189.231   188977729.789           2.345          47.000    36291168.852   146129505.410           1.804          49.000  
C09  37380208.849   194648536.627         110.638          45.000    37380191.835   150514543.176          85.825          49.000  
C22  24675834.752   128493573.272         824.377          41.000                                                                  
G26  20740093.393   108989935.339       -1847.864          48.000    20740084.274    84927177.917       -1439.807          46.000  
G27  22092244.239   116095531.891        3096.426          43.000    22092236.099    90464022.193        2412.811          42.000  
G09  24061878.524   126446017.854        2861.367          36.000    24061870.674    98529343.295        2229.301          38.000  
C28  24688970.173   128561953.415        -880.272          44.000                                                                  
C07  38089753.874   198343338.734         823.327          41.000    38089735.075   153371582.116         636.663          45.000  
C20  25353003.928   132019741.679       -3599.504          45.000                                                                  
C36  23944244.875   124683964.867        1442.542          43.000                                                                  
C37  24876211.716   129536967.750       -2374.340          42.000                                                                  
C10  39215341.926   204204570.123         755.599          38.000    39215328.059   157903935.914         583.990          45.000  
G08  24393610.406   128189288.143        3625.066          35.000    24393614.389    99887792.366        2824.208          39.000  
G29  25099018.756   131896278.793       -3499.079          32.000    25099015.228   102776276.276       -2726.023          36.000  
C30  25306641.755   131778353.655        2768.734          42.000                                                                  
C13                                                                  40613957.577   163535536.270       -1891.572          37.000  
C08                                                                  41533678.715   167238910.286       -1850.440          40.000  
> 2025 11 03 07 37 46.6800000  0 26                     
G04  21470753.748   112829579.065        1310.708          44.000    21470742.419    87919099.477        1021.324          45.000  
G16  20205521.916   106180740.294         342.790          46.000                                                                  
G28  22908918.240   120387169.052       -2612.445          42.000    22908907.261    93808137.668       -2035.405          43.000  
G31  20994259.597   110325583.252       -1578.477          47.000    20994245.893    85967928.765       -1230.091          44.000  
G03  24384166.229   128139717.245       -2875.765          36.000    24384161.311    99849062.655       -2240.542          37.000  
G18  25247806.490   132678109.883        1455.244          34.000    25247797.526   103385521.028        1134.034          39.000  
C16  36733494.929   191280913.867           4.636          48.000    36733478.530   147910496.495           3.657          48.000  
C19  23668401.707   123247584.175       -2006.922          47.000                                                                  
C27  23671643.943   123264525.957        1273.999          46.000                                                                  
C06  36291189.207   188977729.696           2.313          47.000    36291168.849   146129505.334           1.836          49.000  
C09  37380208.004   194648532.202         110.604          45.000    37380191.004   150514539.752          85.706          49.000  
C22  24675828.428   128493540.288         824.455          41.000                                                                  
G26  20740107.456   108990009.245       -1847.717          48.000    20740098.354    84927235.512       -1439.893          46.000  
G27  22092220.662   116095408.040        3096.280          43.000    22092212.512    90463925.684        2412.786          42.000  
G09  24061856.755   126445903.408        2861.203          36.000    24061848.886    98529254.104        2229.525          38.000  
C28  24688976.916   128561988.616        -880.133          44.000                                                                  
C07  38089747.542   198343305.798         823.408          41.000    38089728.762   153371556.649         636.619          45.000  
C20  25353031.590   132019885.654       -3599.384          45.000                                                                  
C36  23944233.801   124683907.165        1442.529          43.000                                                                  
C37  24876229.964   129537062.725       -2374.271          42.000                                                                  
C10  39215336.120   204204539.928         755.080          38.000    39215322.215   157903912.547         584.094          45.000  
G08  24393582.844   128189143.175        3624.542          35.000    24393586.776    99887679.390        2824.279          39.000  
G29  25099045.346   131896418.685       -3497.923          32.000    25099041.843   102776385.315       -2726.033          36.000  
C30  25306620.497   131778242.905        2768.705          42.000                                                                  
C13                                                                  40613976.397   163535611.953       -1891.926          38.000  
C08                                                                  41533697.083   167238984.287       -1850.157          40.000  
> 2025 11 03 07 37 46.7200000  0 26                     
G04  21470743.776   112829526.629        1310.797          44.000    21470732.430    87919058.609        1021.553          45.000  
G16  20205519.285   106180726.572         342.946          46.000                                                                  
G28  22908938.137   120387273.551       -2612.486          42.000    22908927.129    93808219.100       -2035.663          43.000  
G31  20994271.592   110325646.389       -1578.471          47.000    20994257.927    85967977.962       -1230.036          44.000  
G03  24384188.105                       -2875.361          36.000    24384183.203    99849152.253       -2240.135          37.000  
G18  25247795.387   132678051.679        1455.007          34.000    25247786.453   103385475.665        1134.021          39.000  
C16  36733494.908   191280913.674           4.767          48.000    36733478.503   147910496.353           3.570          48.000  
C19  23668417.150   123247664.452       -2006.959          47.000                                                                  
C27  23671634.166   123264474.998        1273.987          46.000                                                                  
C06  36291189.220   188977729.599           2.382          47.000    36291168.826   146129505.266           1.743          49.000  
C09  37380207.153   194648527.769         110.759          45.000    37380190.156   150514536.341          85.391          49.000  
C22  24675822.087   128493507.305         824.510          41.000                                                                  
G26  20740121.527   108990083.148       -1847.614          48.000    20740112.408    84927293.110       -1439.941          46.000  
G27  22092197.074   116095284.178        3096.400          43.000    22092188.941    90463829.164        2412.933          42.000  
G09  24061834.987   126445788.948        2861.365          36.000    24061827.109    98529164.929        2229.339          38.000  
C28  24688983.674   128562023.837        -880.428          44.000                                                                  
C07  38089741.207   198343272.846         823.706          41.000    38089722.455   153371531.177         636.718          45.000  
C20  25353059.220   132020029.625       -3599.291          45.000                                                                  
C36  23944222.709   124683849.462        1442.529          43.000                                                                  
C37  24876248.205   129537157.710       -2374.473          42.000                                                                  
C10  39215330.292   204204509.703         755.326          38.000    39215316.424   157903889.175         584.224          45.000  
G08  24393555.256   128188998.186        3624.642          35.000    24393559.172    99887566.386        2824.874          39.000  
G29  25099071.942   131896558.596       -3497.686          32.000    25099068.462   102776494.340       -2725.807          36.000  
C30  25306599.224   131778132.152        2768.773          42.000                                                                  
C13                                                                  40613995.199   163535687.632       -1892.062          38.000  
C08                                                                  41533715.464   167239058.283       -1849.917          40.000  
> 2025 11 03 07 37 46.7600000  0 26                     
G04  21470733.794   112829474.193        1310.837          44.000    21470722.452    87919017.752        1021.489          45.000  
G16  20205516.666   106180712.850         343.057          46.000                                                                  
G28  22908958.027   120387378.044       -2612.442          42.000    22908947.020    93808300.531       -2035.806          43.000  
G31  20994283.592   110325709.522       -1578.371          47.000    20994269.946    85968027.162       -1230.000          44.000  
G03  24384209.998                       -2875.653          36.000    24384205.115    99849241.905       -2240.869          37.000  
G18  25247784.287   132677993.443        1455.566          34.000    25247775.381   103385430.294        1134.210          39.000  
C16  36733494.878   191280913.485           4.756          48.000    36733478.484   147910496.206           3.624          48.000  
C19  23668432.570   123247744.726       -2006.879          47.000                                                                  
C27  23671624.385   123264424.044        1273.900          46.000                                                                  
C06  36291189.239   188977729.503           2.406          47.000    36291168.798   146129505.188           1.885          49.000  
C09  37380206.309   194648523.343         110.698          45.000    37380189.328   150514532.912          85.557          49.000  
C22  24675815.758   128493474.315         824.673          41.000                                                                  
G26  20740135.591   108990157.060       -1847.729          48.000    20740126.447    84927350.700       -1439.825          46.000  
G27  22092173.482   116095160.324        3096.342          43.000    22092165.365    90463732.641        2413.073          42.000  
G09  24061813.225   126445674.509        2861.151          36.000    24061805.344    98529075.729        2229.732          38.000  
C28  24688990.432   128562059.045        -880.330          44.000                                                                  
C07  38089734.872   198343239.912         823.485          41.000    38089716.122   153371505.707         636.724          45.000  
C20  25353086.875   132020173.611       -3599.486          45.000                                                                  
C36  23944211.643   124683791.739        1442.944          43.000                                                                  
C37  24876266.458   129537252.688       -2374.487          42.000                                                                  
C10  39215324.475   204204479.470         755.675          38.000    39215310.628   157903865.817         584.068          45.000  
G08  24393527.688   128188853.143        3625.555          35.000    24393531.555    99887453.398        2824.863          39.000  
G29  25099098.524   131896698.547       -3498.329          32.000    25099095.093   102776603.390       -2726.135          36.000  
C30  25306577.960   131778021.381        2769.131          42.000                                                                  
C13                                                                  40614013.992   163535763.303       -1891.962          38.000  
C08                                                                  41533733.827   167239132.291       -1850.030          40.000  
> 2025 11 03 07 37 46.8000000  0 26                     
G04  21470723.802   112829421.758        1310.857          44.000    21470712.487    87918976.896        1021.423          45.000  
G16  20205514.067   106180699.134         342.981          46.000                                                                  
G28  22908977.907   120387482.524       -2612.147          42.000    22908966.898    93808381.949       -2035.634          43.000  
G31  20994295.598   110325772.659       -1578.409          47.000    20994281.956    85968076.349       -1229.755          44.000  
G03  24384231.884                       -2875.472          36.000    24384226.996    99849331.525       -2240.775          37.000  
G18  25247773.170   132677935.220        1455.643          34.000    25247764.294   103385384.941        1133.930          39.000  
C16  36733494.838   191280913.290           4.845          48.000    36733478.460   147910496.059           3.650          48.000  
C19  23668447.980   123247825.002       -2006.916          47.000                                                                  
C27  23671614.593   123264373.082        1273.980          46.000                                                                  
C06  36291189.218   188977729.408           2.371          47.000    36291168.760   146129505.111           1.941          49.000  
C09  37380205.456   194648518.907         110.812          45.000    37380188.481   150514529.486          85.620          49.000  
C22  24675809.410   128493441.322         824.790          41.000                                                                  
G26  20740149.656   108990230.971       -1847.790          48.000    20740140.506    84927408.291       -1439.801          46.000  
G27  22092149.904   116095036.457        3096.578          43.000    22092141.797    90463636.124        2413.017          42.000  
G09  24061791.449   126445560.050        2861.287          36.000    24061783.566    98528986.559        2229.403          38.000  
C28  24688997.196   128562094.246        -880.140          44.000                                                                  
C07  38089728.554   198343206.978         823.361          41.000    38089709.816   153371480.240         636.680          45.000  
C20  25353114.521   132020317.588       -3599.486          45.000                                                                  
C36  23944200.528   124683734.032        1442.871          43.000                                                                  
C37  24876284.698   129537347.662       -2374.394          42.000                                                                  
C10  39215318.676   204204449.251         755.641          38.000    39215304.834   157903842.439         584.315          45.000  
G08  24393500.122   128188708.174        3624.682          35.000    24393503.964    99887340.416        2824.717          39.000  
G29  25099125.153   131896838.449       -3497.746          32.000    25099121.727   102776712.433       -2726.243          36.000  
C30  25306556.689   131777910.625        2769.041          42.000                                                                  
C13                                                                  40614032.781   163535838.975       -1891.918          38.000  
C08                                                                  41533752.248   167239206.300       -1850.122          40.000  
> 2025 11 03 07 37 46.8400000  0 26                     
G04  21470713.846   112829369.324        1310.829          44.000    21470702.493    87918936.035        1021.505          45.000  
G16  20205511.460   106180685.414         343.006          46.000                                                                  
G28  22908997.791   120387587.009       -2612.106          42.000    22908986.781    93808463.375       -2035.666          43.000  
G31  20994307.603   110325835.788       -1578.284          47.000    20994293.972    85968125.545       -1229.818          44.000  
G03  24384253.784                       -2874.983          36.000    24384248.866    99849421.118       -2240.114          37.000  
G18  25247762.097   132677876.992        1455.727          34.000    25247753.216   103385339.572        1134.108          39.000  
C16  36733494.812   191280913.096           4.855          48.000    36733478.436   147910495.908           3.753          48.000  
C19  23668463.372   123247905.277       -2006.885          47.000                                                                  
C27  23671604.787   123264322.121        1273.992          46.000                                                                  
C06  36291189.221   188977729.308           2.463          47.000    36291168.749   146129505.031           1.975          49.000  
C09  37380204.601   194648514.475         110.856          45.000    37380187.599   150514526.054          85.747          49.000  
C22  24675803.106   128493408.337         824.671          41.000                                                                  
G26  20740163.712   108990304.882       -1847.852          48.000    20740154.561    84927465.879       -1439.752          46.000  
G27  22092126.327   116094912.592        3096.651          43.000    22092118.237    90463539.616        2412.800          42.000  
G09  24061769.665   126445445.590        2861.427          36.000    24061761.789    98528897.357        2229.854          38.000  
C28  24689003.946   128562129.452        -880.151          44.000                                                                  
C07  38089722.230   198343174.037         823.468          41.000    38089703.461   153371454.767         636.761          45.000  
C20  25353142.170   132020461.560       -3599.369          45.000                                                                  
C36  23944189.454   124683676.324        1442.792          43.000                                                                  
C37  24876302.932   129537442.639       -2374.416          42.000                                                                  
C10  39215312.897   204204419.027         755.649          38.000    39215299.034   157903819.069         584.328          44.000  
G08  24393472.557   128188563.181        3624.697          35.000    24393476.366    99887227.444        2824.381          39.000  
G29  25099151.771   131896978.397       -3498.332          32.000    25099148.365   102776821.457       -2725.853          36.000  
C30  25306535.438   131777799.863        2769.057          42.000                                                                  
C13                                                                  40614051.573   163535914.630       -1891.576          37.000  
C08                                                                  41533770.619   167239280.314       -1850.301          40.000  
> 2025 11 03 07 37 46.8800000  0 26                     
G04  21470703.853   112829316.892        1310.804          44.000    21470692.524    87918895.190        1021.218          45.000  
G16  20205508.840   106180671.704         342.825          46.000                                                                  
G28  22909017.669   120387691.500       -2612.234          42.000    22909006.673    93808544.788       -2035.458          43.000  
G31  20994319.642   110325898.932       -1578.515          47.000    20994305.990    85968174.745       -1229.949          44.000  
G03  24384275.678                       -2875.063          36.000    24384270.748    99849510.724       -2240.010          37.000  
G18  25247751.017   132677818.774        1455.536          34.000    25247742.128   103385294.198        1134.318          39.000  
C16  36733494.775   191280912.911           4.695          48.000    36733478.397   147910495.764           3.659          48.000  
C19  23668478.791   123247985.556       -2006.978          47.000                                                                  
C27  23671595.005   123264271.171        1273.802          46.000                                                                  
C06  36291189.236   188977729.209           2.458          47.000    36291168.720   146129504.959           1.853          49.000  
C09  37380203.738   194648510.046         110.763          45.000    37380186.745   150514522.634          85.584          49.000  
C22  24675796.788   128493375.366         824.406          41.000                                                                  
G26  20740177.767   108990378.791       -1847.809          48.000    20740168.623    84927523.467       -1439.740          46.000  
G27  22092102.765   116094788.734        3096.530          43.000    22092094.656    90463443.096        2412.893          42.000  
G09  24061747.873   126445331.124        2861.604          36.000    24061740.021    98528808.178        2229.611          38.000  
C28  24689010.714   128562164.666        -880.352          44.000                                                                  
C07  38089715.919   198343141.093         823.593          41.000    38089697.138   153371429.294         636.792          45.000  
C20  25353169.826   132020605.536       -3599.365          45.000                                                                  
C36  23944178.363   124683618.630        1442.468          43.000                                                                  
C37  24876321.188   129537537.619       -2374.483          42.000                                                                  
C10  39215307.093   204204388.808         755.573          38.000    39215293.264   157903795.702         584.194          44.000  
G08  24393444.998   128188418.190        3624.729          35.000    24393448.786    99887114.470        2824.301          39.000  
G29  25099178.377   131897118.339       -3498.476          32.000    25099174.994   102776930.497       -2725.936          36.000  
C30  25306514.170   131777689.108        2768.934          42.000                                                                  
C13                                                                  40614070.366   163535990.285       -1891.370          37.000  
C08                                                                  41533788.986   167239354.323       -1850.295          40.000  
> 2025 11 03 07 37 46.9200000  0 26                     
G04  21470693.866   112829264.464        1310.762          44.000    21470682.551    87918854.333        1021.271          45.000  
G16  20205506.256   106180657.998         342.620          46.000                                                                  
G28  22909037.570   120387796.008       -2612.605          42.000    22909026.555    93808626.217       -2035.649          43.000  
G31  20994331.651   110325962.079       -1578.669          47.000    20994317.996    85968223.946       -1230.052          44.000  
G03  24384297.534                       -2875.470          36.000    24384292.633    99849600.357       -2240.511          37.000  
G18  25247739.922   132677760.559        1455.316          34.000    25247731.048   103385248.836        1134.160          39.000  
C16  36733494.737   191280912.735           4.458          48.000    36733478.388   147910495.623           3.556          48.000  
C19  23668494.206   123248065.838       -2007.057          47.000                                                                  
C27  23671585.194   123264220.219        1273.740          46.000                                                                  
C06  36291189.201   188977729.120           2.288          47.000    36291168.693   146129504.887           1.782          49.000  
C09  37380202.899   194648505.624         110.577          45.000    37380185.872   150514519.207          85.604          49.000  
C22  24675790.469   128493342.396         824.251          41.000                                                                  
G26  20740191.838   108990452.712       -1847.980          48.000    20740182.688    84927581.069       -1440.009          46.000  
G27  22092079.215   116094664.886        3096.271          43.000    22092071.097    90463346.595        2412.610          42.000  
G09  24061726.094   126445216.660        2861.689          36.000    24061718.251    98528718.993        2229.564          38.000  
C28  24689017.446   128562199.881        -880.459          44.000                                                                  
C07  38089709.616   198343108.164         823.361          41.000    38089690.822   153371403.831         636.611          45.000  
C20  25353197.452   132020749.522       -3599.604          45.000                                                                  
C36  23944167.244   124683560.935        1442.322          43.000                                                                  
C37  24876339.426   129537632.604       -2374.617          42.000                                                                  
C10  39215301.292   204204358.608         755.173          38.000    39215287.443   157903772.346         583.927          45.000  
G08  24393417.419   128188273.191        3624.904          35.000    24393421.193    99887001.497        2824.220          39.000  
G29  25099205.006   131897258.308       -3499.058          32.000    25099201.631   102777039.534       -2726.004          36.000  
C30  25306492.904   131777578.345        2768.985          42.000                                                                  
C13                                                                  40614089.116   163536065.946       -1891.420          38.000  
C08                                                                  41533807.362   167239428.344       -1850.472          40.000  
> 2025 11 03 07 37 46.9600000  0 26                     
G04  21470683.871   112829212.043        1310.592          44.000    21470672.574    87918813.483        1021.207          45.000  
G16  20205503.646   106180644.290         342.585          46.000                                                                  
G28  22909057.448   120387900.515       -2612.757          42.000    22909046.468    93808707.650       -2035.811          43.000  
G31  20994343.657   110326025.226       -1578.740          47.000    20994330.011    85968273.154       -1230.229          44.000  
G03  24384319.411                       -2875.245          36.000    24384314.517    99849690.012       -2241.151          37.000  
G18  25247728.799   132677702.362        1455.006          34.000    25247719.972   103385203.492        1133.710          39.000  
C16  36733494.724   191280912.558           4.348          48.000    36733478.350   147910495.479           3.571          48.000  
C19  23668509.633   123248146.123       -2007.125          47.000                                                                  
C27  23671575.418   123264169.267        1273.710          46.000                                                                  
C06  36291189.203   188977729.028           2.245          47.000    36291168.713   146129504.824           1.589          49.000  
C09  37380202.057   194648501.206         110.395          45.000    37380185.002   150514515.790          85.458          49.000  
C22  24675784.134   128493309.430         824.089          41.000                                                                  
G26  20740205.908   108990526.631       -1848.047          48.000    20740196.744    84927638.673       -1440.137          46.000  
G27  22092055.641   116094541.030        3096.276          43.000    22092047.527    90463250.088        2412.557          42.000  
G09  24061704.331   126445102.233        2860.972          36.000    24061696.483    98528629.821        2229.314          38.000  
C28  24689024.237   128562235.100        -880.515          44.000                                                                  
C07  38089703.305   198343075.238         823.169          41.000    38089684.503   153371378.373         636.444          45.000  
C20  25353225.079   132020893.510       -3599.720          45.000                                                                  
C36  23944156.189   124683503.239        1442.291          43.000                                                                  
C37  24876357.674   129537727.588       -2374.659          42.000                                                                  
C10  39215295.472   204204328.397         755.157          38.000    39215281.696   157903748.993         583.782          45.000  
G08  24393389.824   128188128.171        3625.294          35.000    24393393.612    99886888.524        2824.199          39.000  
G29  25099231.609   131897398.204       -3498.099          32.000    25099228.282   102777148.583       -2726.174          36.000  
C30  25306471.625   131777467.608        2768.557          42.000                                                                  
C13                                                                  40614107.913   163536141.623       -1891.792          37.000  
C08                                                                  41533825.756   167239502.354       -1850.429          40.000  
> 2025 11 03 07 37 47.0000000  0 26                     
G04  21470673.906   112829159.622        1310.471          44.000    21470662.599    87918772.634        1021.180          45.000  
G16  20205501.048   106180630.581         342.637          46.000                                                                  
G28  22909077.327   120388005.012       -2612.608          42.000    22909066.357    93808789.070       -2035.638          43.000  
G31  20994355.666   110326088.373       -1578.768          47.000    20994342.010    85968322.359       -1230.226          44.000  
G03  24384341.311                       -2875.442          36.000    24384336.408    99849779.631       -2240.857          37.000  
G18  25247717.705   132677644.156        1455.002          34.000    25247708.903   103385158.130        1133.833          39.000  
C16  36733494.709   191280912.373           4.471          48.000    36733478.312   147910495.330           3.636          48.000  
C19  23668525.075   123248226.406       -2007.130          47.000                                                                  
C27  23671565.625   123264118.319        1273.649          46.000                                                                  
C06  36291189.203   188977728.938           2.195          47.000    36291168.698   146129504.754           1.650          49.000  
C09  37380201.193   194648496.779         110.523          45.000    37380184.162   150514512.371          85.422          49.000  
C22  24675777.810   128493276.448         824.318          41.000                                                                  
G26  20740219.962   108990600.549       -1848.016          48.000    20740210.822    84927696.273       -1440.100          46.000  
G27  22092032.083   116094417.182        3096.192          43.000    22092023.945    90463153.586        2412.526          42.000  
G09  24061682.561   126444987.790        2860.875          36.000    24061674.723    98528540.644        2229.298          38.000  
C28  24689030.996   128562270.321        -880.561          44.000                                                                  
C07  38089696.974   198343042.303         823.214          41.000    38089678.189   153371352.904         636.602          45.000  
C20  25353252.719   132021037.489       -3599.607          45.000                                                                  
C36  23944145.115   124683445.531        1442.566          43.000                                                                  
C37  24876375.914   129537822.577       -2374.781          42.000                                                                  
C10  39215289.648   204204298.172         755.397          38.000    39215275.887   157903725.626         583.965          45.000  
G08  24393362.248   128187983.227        3624.143          35.000    24393366.044    99886775.550        2824.268          39.000  
G29  25099258.251   131897538.111       -3497.603          32.000    25099254.910   102777257.629       -2726.195          36.000  
C30  25306450.344   131777356.846        2768.821          42.000                                                                  
C13                                                                  40614126.727   163536217.304       -1892.001          37.000  
C08                                                                  41533844.151   167239576.348       -1850.022          40.000  
> 2025 11 03 07 37 47.0400000  0 26                     
G04  21470663.922   112829107.194        1310.548          44.000    21470652.602    87918731.776        1021.348          45.000  
G16  20205498.403   106180616.865         342.799          46.000                                                                  
G28  22909097.205   120388109.497       -2612.254          42.000    22909086.240    93808870.494       -2035.601          43.000  
G31  20994367.672   110326151.507       -1578.550          47.000    20994354.017    85968371.559       -1230.133          44.000  
G03  24384363.187                       -2875.599          36.000    24384358.296    99849869.247       -2240.558          37.000  
G18  25247706.637   132677585.949        1455.064          34.000    25247697.815   103385112.760        1134.066          39.000  
C16  36733494.677   191280912.177           4.753          48.000    36733478.289   147910495.186           3.603          48.000  
C19  23668540.489   123248306.684       -2007.019          47.000                                                                  
C27  23671555.835   123264067.363        1273.785          46.000                                                                  
C06  36291189.202   188977728.838           2.357          47.000    36291168.662   146129504.675           1.837          49.000  
C09  37380200.350   194648492.347         110.710          45.000    37380183.348   150514508.937          85.679          49.000  
C22  24675771.478   128493243.476         824.245          41.000                                                                  
G26  20740234.017   108990674.454       -1847.736          48.000    20740224.887    84927753.860       -1439.825          46.000  
G27  22092008.492   116094293.332        3096.160          43.000    22092000.382    90463057.077        2412.605          42.000  
G09  24061660.782   126444873.341        2860.975          36.000    24061652.953    98528451.473        2229.256          38.000  
C28  24689037.771   128562305.531        -880.381          44.000                                                                  
C07  38089690.649   198343009.361         823.382          41.000    38089671.853   153371327.425         636.901          45.000  
C20  25353280.385   132021181.467       -3599.518          45.000                                                                  
C36  23944134.048   124683387.830        1442.554          43.000                                                                  
C37  24876394.164   129537917.548       -2374.496          42.000                                                                  
C10  39215283.832   204204267.960         755.335          38.000    39215270.070   157903702.249         584.265          44.000  
G08  24393334.671   128187838.246        3624.288          35.000    24393338.456    99886662.561        2824.563          39.000  
G29  25099284.902   131897678.073       -3498.421          32.000    25099281.539   102777366.675       -2726.178          36.000  
C30  25306429.059   131777246.101        2768.655          42.000                                                                  
C13                                                                  40614145.538   163536292.999       -1892.410          37.000  
C08                                                                  41533862.558   167239650.363       -1850.201          40.000  
> 2025 11 03 07 37 47.0800000  0 26                     
G04  21470653.938   112829054.768        1310.542          44.000    21470642.610    87918690.933        1021.182          45.000  
G16  20205495.796   106180603.160         342.686          46.000                                                                  
G28  22909117.093   120388213.997       -2612.416          42.000    22909106.144    93808951.928       -2035.823          43.000  
G31  20994379.686   110326214.649       -1578.552          47.000    20994366.037    85968420.759       -1230.025          44.000  
G03  24384385.073   128140867.382       -2875.317          36.000    24384380.186    99849958.883       -2240.753          37.000  
G18  25247695.570   132677527.741        1455.138          34.000    25247686.752   103385067.416        1133.704          39.000  
C16  36733494.638   191280911.983           4.852          48.000    36733478.261   147910495.042           3.590          48.000  
C19  23668555.900   123248386.971       -2007.155          47.000                                                                  
C27  23671546.044   123264016.410        1273.797          46.000                                                                  
C06  36291189.187   188977728.743           2.375          47.000    36291168.644   146129504.600           1.879          49.000  
C09  37380199.476   194648487.916         110.764          45.000    37380182.495   150514505.516          85.593          49.000  
C22  24675765.144   128493210.497         824.336          41.000                                                                  
G26  20740248.073   108990748.366       -1847.778          48.000    20740238.951    84927811.452       -1439.764          46.000  
G27  22091984.916   116094169.471        3096.350          43.000    22091976.810    90462960.566        2412.729          42.000  
G09  24061638.995   126444758.901        2860.908          36.000    24061631.175    98528362.283        2229.559          38.000  
C28  24689044.572   128562340.747        -880.417          44.000                                                                  
C07  38089684.326   198342976.425         823.350          41.000    38089665.517   153371301.953         636.867          45.000  
C20  25353308.030   132021325.448       -3599.540          45.000                                                                  
C36  23944122.951   124683330.130        1442.517          43.000                                                                  
C37  24876412.393   129538012.510       -2374.137          42.000                                                                  
C10  39215278.034   204204237.737         755.467          38.000    39215264.259   157903678.885         584.182          45.000  
G08  24393307.077   128187693.256        3624.607          35.000    24393310.853    99886549.572        2824.736          39.000  
G29  25099311.528   131897818.053       -3499.387          32.000    25099308.160   102777475.718       -2726.083          36.000  
C30  25306407.792   131777135.349        2768.748          42.000                                                                  
C13                                                                  40614164.335   163536368.650       -1891.747          38.000  
C08                                                                  41533880.897   167239724.372       -1850.251          40.000  
> 2025 11 03 07 37 47.1200000  0 26                     
G04  21470643.990   112829002.356        1310.333          44.000    21470632.617    87918650.082        1021.216          45.000  
G16  20205493.183   106180589.463         342.487          46.000                                                                  
G28  22909136.987   120388318.503       -2612.592          42.000    22909126.018    93809033.361       -2035.929          43.000  
G31  20994391.693   110326277.794       -1578.617          47.000    20994378.042    85968469.966       -1230.092          44.000  
G03  24384406.965   128140982.404       -2875.461          36.000    24384402.080    99850048.495       -2240.424          37.000  
G18  25247684.445   132677469.539        1455.080          34.000    25247675.665   103385022.063        1133.670          39.000  
C16  36733494.587   191280911.799           4.695          48.000    36733478.211   147910494.900           3.545          48.000  
C19  23668571.286   123248467.263       -2007.309          47.000                                                                  
C27  23671536.249   123263965.462        1273.723          46.000                                                                  
C06  36291189.167   188977728.651           2.313          47.000    36291168.633   146129504.532           1.770          49.000  
C09  37380198.627   194648483.494         110.573          45.000    37380181.675   150514502.104          85.363          49.000  
C22  24675758.815   128493177.538         824.021          41.000                                                                  
G26  20740262.143   108990822.288       -1847.992          48.000    20740253.032    84927869.054       -1439.954          46.000  
G27  22091961.342   116094045.621        3096.277          43.000    22091953.239    90462864.064        2412.638          42.000  
G09  24061617.203   126444644.454        2861.035          36.000    24061609.392    98528273.106        2229.487          38.000  
C28  24689051.321   128562375.980        -880.710          44.000                                                                  
C07  38089678.016   198342943.497         823.239          41.000    38089659.194   153371276.496         636.530          45.000  
C20  25353335.690   132021469.436       -3599.707          45.000                                                                  
C36  23944111.890   124683272.430        1442.493          43.000                                                                  
C37  24876430.651   129538107.498       -2374.449          42.000                                                                  
C10  39215272.225   204204207.540         755.128          38.000    39215258.468   157903655.526         584.031          45.000  
G08  24393279.479   128187548.256        3624.917          35.000    24393283.265    99886436.609        2824.373          39.000  
G29  25099338.183   131897957.983       -3498.759          32.000    25099334.789   102777584.779       -2726.397          36.000  
C30  25306386.524   131777024.597        2768.787          42.000                                                                  
C13                                                                  40614183.131   163536444.327       -1891.846          37.000  
C08                                                                  41533899.298   167239798.386       -1850.325          40.000  
> 2025 11 03 07 37 47.1600000  0 26                     
G04  21470634.021   112828949.932        1310.447          44.000    21470622.649    87918609.235        1021.165          45.000  
G16  20205490.563   106180575.765         342.389          46.000                                                                  
G28  22909156.839   120388422.995       -2612.446          42.000    22909145.902    93809114.802       -2036.070          43.000  
G31  20994403.720   110326340.949       -1578.820          47.000    20994390.056    85968519.175       -1230.200          44.000  
G03  24384428.881   128141097.439       -2875.830          36.000    24384423.971    99850138.107       -2240.208          37.000  
G18  25247673.386   132677411.326        1455.273          34.000    25247664.582   103384976.691        1134.093          39.000  
C16  36733494.557   191280911.620           4.512          48.000    36733478.184   147910494.767           3.344          48.000  
C19  23668586.715   123248547.559       -2007.450          47.000                                                                  
C27  23671526.463   123263914.521        1273.544          46.000                                                                  
C06  36291189.167   188977728.562           2.242          47.000    36291168.628   146129504.464           1.692          49.000  
C09  37380197.794   194648479.067         110.589          45.000    37380180.820   150514498.680          85.463          49.000  
C22  24675752.460   128493144.581         823.862          41.000                                                                  
G26  20740276.222   108990896.217       -1848.254          48.000    20740267.113    84927926.658       -1440.094          46.000  
G27  22091937.774   116093921.785        3095.988          43.000    22091929.667    90462767.569        2412.417          42.000  
G09  24061595.422   126444530.019        2860.985          36.000    24061587.617    98528183.930        2229.432          38.000  
C28  24689058.097   128562411.200        -880.624          44.000                                                                  
C07  38089671.697   198342910.565         823.259          41.000    38089652.879   153371251.031         636.538          45.000  
C20  25353363.356   132021613.429       -3599.870          45.000                                                                  
C36  23944100.816   124683214.728        1442.529          43.000                                                                  
C37  24876448.895   129538202.490       -2374.696          42.000                                                                  
C10  39215266.431   204204177.322         755.238          38.000    39215252.669   157903632.164         584.038          45.000  
G08  24393251.920   128187403.277        3624.696          35.000    24393255.684    99886323.629        2824.457          39.000  
G29  25099364.754   131898097.914       -3498.382          32.000    25099361.410   102777693.808       -2725.991          36.000  
C30  25306365.269   131776913.848        2768.787          42.000                                                                  
C13                                                                  40614201.924   163536519.985       -1891.549          38.000  
C08                                                                  41533917.679   167239872.402       -1850.442          40.000  
> 2025 11 03 07 37 47.2000000  0 26                     
G04  21470624.060   112828897.522        1310.299          44.000    21470612.680    87918568.399        1020.942          45.000  
G16  20205487.946   106180562.067         342.341          46.000                                                                  
G28  22909176.728   120388527.505       -2612.691          42.000    22909165.795    93809196.226       -2035.834          43.000  
G31  20994415.715   110326404.103       -1578.898          47.000    20994402.089    85968568.385       -1230.292          44.000  
G03  24384450.777   128141212.464       -2875.727          36.000    24384445.867    99850227.749       -2240.753          37.000  
G18  25247662.314   132677353.118        1455.258          34.000    25247653.507   103384931.338        1133.960          39.000  
C16  36733494.538   191280911.450           4.264          48.000    36733478.163   147910494.626           3.389          48.000  
C19  23668602.139   123248627.853       -2007.436          47.000                                                                  
C27  23671516.676   123263863.578        1273.496          46.000                                                                  
C06  36291189.127   188977728.479           2.107          47.000    36291168.618   146129504.398           1.616          49.000  
C09  37380196.951   194648474.651         110.425          45.000    37380179.972   150514495.260          85.456          49.000  
C22  24675746.121   128493111.613         823.999          41.000                                                                  
G26  20740290.308   108990970.147       -1848.340          48.000    20740281.185    84927984.263       -1440.192          46.000  
G27  22091914.213   116093797.946        3095.905          43.000    22091906.085    90462671.066        2412.460          42.000  
G09  24061573.652   126444415.588        2860.823          36.000    24061565.841    98528094.768        2229.141          38.000  
C28  24689064.883   128562446.422        -880.616          44.000                                                                  
C07  38089665.362   198342877.643         823.110          41.000    38089646.552   153371225.573         636.414          45.000  
C20  25353391.021   132021757.417       -3599.813          45.000                                                                  
C36  23944089.721   124683157.036        1442.340          43.000                                                                  
C37  24876467.142   129538297.473       -2374.711          42.000                                                                  
C10  39215260.662   204204147.114         755.218          38.000    39215246.874   157903608.804         583.993          45.000  
G08  24393224.323   128187258.286        3624.651          35.000    24393228.082    99886210.668        2824.082          39.000  
G29  25099391.335   131898237.856       -3498.326          32.000    25099388.025   102777802.856       -2726.147          36.000  
C30  25306344.002   131776803.089        2768.900          42.000                                                                  
C13                                                                  40614220.732   163536595.656       -1891.616          38.000  
C08                                                                  41533936.063   167239946.414       -1850.373          40.000  
> 2025 11 03 07 37 47.2400000  0 26                     
G04  21470614.069   112828845.095        1310.529          44.000    21470602.708    87918527.556        1020.977          45.000  
G16  20205485.346   106180548.358         342.541          46.000                                                                  
G28  22909196.602   120388632.004       -2612.633          42.000    22909185.687    93809277.653       -2035.703          43.000  
G31  20994427.693   110326467.246       -1578.738          47.000    20994414.100    85968617.590       -1230.227          44.000  
G03  24384472.647   128141327.461       -2875.283          36.000    24384467.767    99850317.370       -2240.709          37.000  
G18  25247651.234   132677294.915        1455.181          34.000    25247642.426   103384885.992        1133.755          39.000  
C16  36733494.523   191280911.265           4.450          48.000    36733478.160   147910494.481           3.508          48.000  
C19  23668617.561   123248708.140       -2007.294          47.000                                                                  
C27  23671506.883   123263812.642        1273.349          46.000                                                                  
C06  36291189.107   188977728.389           2.167          47.000    36291168.610   146129504.328           1.659          49.000  
C09  37380196.123   194648470.225         110.512          45.000    37380179.129   150514491.838          85.489          49.000  
C22  24675739.805   128493078.631         824.341          41.000                                                                  
G26  20740304.357   108991044.063       -1848.096          48.000    20740295.256    84928041.867       -1440.204          46.000  
G27  22091890.637   116093674.092        3096.156          43.000    22091882.509    90462574.557        2412.610          42.000  
G09  24061551.868   126444301.131        2861.214          36.000    24061544.045    98528005.581        2229.456          38.000  
C28  24689071.641   128562481.640        -880.532          44.000                                                                  
C07  38089659.009   198342844.712         823.192          41.000    38089640.230   153371200.113         636.422          45.000  
C20  25353418.689   132021901.399       -3599.684          45.000                                                                  
C36  23944078.650   124683099.345        1442.230          43.000                                                                  
C37  24876485.392   129538392.458       -2374.719          42.000                                                                  
C10  39215254.860   204204116.905         755.161          38.000    39215241.103   157903585.444         583.977          45.000  
G08  24393196.739   128187113.293        3624.703          35.000    24393200.472    99886097.681        2824.374          39.000  
G29  25099417.956   131898377.812       -3498.678          32.000    25099414.655   102777911.891       -2726.019          36.000  
C30  25306322.727   131776692.332        2768.936          42.000                                                                  
C13                                                                  40614239.532   163536671.331       -1891.783          37.000  
C08                                                                  41533954.462   167240020.423       -1850.299          40.000  
> 2025 11 03 07 37 47.2800000  0 26                     
G04  21470604.096   112828792.682        1310.365          44.000    21470592.747    87918486.718        1020.909          45.000  
G16  20205482.753   106180534.657         342.516          46.000                                                                  
G28  22909216.496   120388736.511       -2612.707          42.000    22909205.589    93809359.087       -2035.844          43.000  
G31  20994439.724   110326530.405       -1578.906          47.000    20994426.115    85968666.808       -1230.431          44.000  
G03  24384494.507   128141442.494       -2875.791          36.000    24384489.649    99850407.015       -2241.101          37.000  
G18  25247640.165   132677236.694        1455.382          34.000    25247631.369   103384840.646        1133.643          39.000  
C16  36733494.479   191280911.087           4.431          48.000    36733478.132   147910494.346           3.416          48.000  
C19  23668633.014   123248788.425       -2007.183          47.000                                                                  
C27  23671497.122   123263761.696        1273.516          46.000                                                                  
C06  36291189.081   188977728.299           2.201          47.000    36291168.634   146129504.263           1.600          49.000  
C09  37380195.262   194648465.793         110.704          45.000    37380178.270   150514488.416          85.507          49.000  
C22  24675733.463   128493045.666         824.294          41.000                                                                  
G26  20740318.410   108991117.988       -1848.120          48.000    20740309.343    84928099.472       -1440.186          46.000  
G27  22091867.066   116093550.241        3096.244          43.000    22091858.929    90462478.054        2412.563          42.000  
G09  24061530.077   126444186.687        2861.089          36.000    24061522.274    98527916.403        2229.457          38.000  
C28  24689078.396   128562516.866        -880.624          44.000                                                                  
C07  38089652.690   198342811.789         823.086          41.000    38089633.888   153371174.646         636.553          45.000  
C20  25353446.370   132022045.390       -3599.788          45.000                                                                  
C36  23944067.578   124683041.653        1442.230          43.000                                                                  
C37  24876503.634   129538487.450       -2374.800          42.000                                                                  
C10  39215249.057   204204086.688         755.298          38.000    39215235.289   157903562.087         583.941          45.000  
G08  24393169.136   128186968.298        3624.835          35.000    24393172.862    99885984.710        2824.339          39.000  
G29  25099444.568   131898517.744       -3498.458          32.000    25099441.259   102778020.929       -2726.113          36.000  
C30  25306301.441   131776581.586        2768.728          42.000                                                                  
C13                                                                  40614258.318   163536747.017       -1892.080          38.000  
C08                                                                  41533972.845   167240094.436       -1850.349          40.000  
> 2025 11 03 07 37 47.3200000  0 26                     
G04  21470594.117   112828740.269        1310.315          44.000    21470582.763    87918445.870        1021.100          45.000  
G16  20205480.171   106180520.955         342.534          46.000                                                                  
G28  22909236.390   120388841.020       -2612.755          42.000    22909225.482    93809440.521       -2035.869          43.000  
G31  20994451.742   110326593.551       -1578.796          47.000    20994438.142    85968716.005       -1230.124          44.000  
G03  24384516.387   128141557.480       -2875.156          36.000    24384511.546    99850496.634       -2240.734          37.000  
G18  25247629.113   132677178.511        1454.790          34.000    25247620.291   103384795.293        1133.724          39.000  
C16  36733494.468   191280910.898           4.601          48.000    36733478.087   147910494.200           3.556          48.000  
C19  23668648.422   123248868.720       -2007.301          47.000                                                                  
C27  23671487.305   123263710.746        1273.689          46.000                                                                  
C06  36291189.077   188977728.198           2.444          47.000    36291168.617   146129504.188           1.748          49.000  
C09  37380194.409   194648461.364         110.761          45.000    37380177.416   150514484.990          85.557          49.000  
C22  24675727.160   128493012.699         824.272          41.000                                                                  
G26  20740332.478   108991191.910       -1848.065          48.000    20740323.402    84928157.082       -1440.253          46.000  
G27  22091843.507   116093426.401        3096.099          43.000    22091835.343    90462381.550        2412.564          42.000  
G09  24061508.285   126444072.243        2861.126          36.000    24061500.510    98527827.218        2229.480          38.000  
C28  24689085.167   128562552.092        -880.673          44.000                                                                  
C07  38089646.354   198342778.845         823.455          41.000    38089627.556   153371149.176         636.690          45.000  
C20  25353474.036   132022189.365       -3599.537          45.000                                                                  
C36  23944056.486   124682983.955        1442.334          43.000                                                                  
C37  24876521.857   129538582.430       -2374.576          42.000                                                                  
C10  39215243.249   204204056.469         755.415          38.000    39215229.459   157903538.719         584.094          45.000  
G08  24393141.569   128186823.334        3624.382          35.000    24393145.284    99885871.735        2824.301          39.000  
G29  25099471.217   131898657.673       -3498.220          32.000    25099467.891   102778130.015       -2726.942          36.000  
C30  25306280.199   131776470.839        2768.681          42.000                                                                  
C13                                                                  40614277.121   163536822.690       -1891.967          37.000  
C08                                                                  41533991.210   167240168.458       -1850.583          40.000  
> 2025 11 03 07 37 47.3600000  0 26                     
G04  21470584.145   112828687.853        1310.303          44.000    21470572.783    87918405.026        1021.122          45.000  
G16  20205477.570   106180507.253         342.535          46.000                                                                  
G28  22909256.262   120388945.523       -2612.647          42.000    22909245.359    93809521.951       -2035.810          43.000  
G31  20994463.741   110326656.696       -1578.682          47.000    20994450.165    85968765.212       -1230.143          44.000  
G03  24384538.287   128141672.524       -2875.658          36.000    24384533.437    99850586.239       -2240.287          37.000  
G18  25247618.017   132677120.293        1455.063          34.000    25247609.198   103384749.940        1133.803          39.000  
C16  36733494.454   191280910.707           4.761          48.000    36733478.053   147910494.051           3.689          48.000  
C19  23668663.840   123248949.012       -2007.332          47.000                                                                  
C27  23671477.536   123263659.798        1273.744          46.000                                                                  
C06  36291189.050   188977728.100           2.474          47.000    36291168.611   146129504.113           1.838          49.000  
C09  37380193.566   194648456.940         110.647          45.000    37380176.587   150514481.564          85.615          49.000  
C22  24675720.815   128492979.736         824.117          41.000                                                                  
G26  20740346.539   108991265.829       -1847.998          48.000    20740337.444    84928214.673       -1439.935          46.000  
G27  22091819.925   116093302.558        3096.097          43.000    22091811.768    90462285.046        2412.556          42.000  
G09  24061486.501   126443957.792        2861.189          36.000    24061478.731    98527738.048        2229.287          38.000  
C28  24689091.919   128562587.320        -880.724          44.000                                                                  
C07  38089640.029   198342745.901         823.614          41.000    38089621.234   153371123.712         636.639          45.000  
C20  25353501.722   132022333.343       -3599.450          45.000                                                                  
C36  23944045.410   124682926.250        1442.548          43.000                                                                  
C37  24876540.128   129538677.413       -2374.542          42.000                                                                  
C10  39215237.474   204204026.260         755.311          38.000    39215223.655   157903515.357         584.061          45.000  
G08  24393114.013   128186678.356        3624.351          35.000    24393117.689    99885758.751        2824.436          39.000  
G29  25099497.855   131898797.621       -3498.538          32.000    25099494.513   102778239.049       -2726.407          36.000  
C30  25306258.943   131776360.090        2768.671          42.000                                                                  
C13                                                                  40614295.914   163536898.346       -1891.558          37.000  
C08                                                                  41534009.588   167240242.463       -1850.317          40.000  
> 2025 11 03 07 37 47.4000000  0 26                     
G04  21470574.143   112828635.435        1310.337          44.000    21470562.804    87918364.175        1021.223          45.000  
G16  20205474.957   106180493.557         342.397          46.000                                                                  
G28  22909276.111   120389050.012       -2612.332          42.000    22909265.228    93809603.371       -2035.642          43.000  
G31  20994475.760   110326719.844       -1578.685          47.000    20994462.184    85968814.418       -1230.145          44.000  
G03  24384560.195   128141787.566       -2876.024          36.000    24384555.315    99850675.851       -2240.226          37.000  
G18  25247606.965   132677062.086        1455.110          34.000    25247598.128   103384704.572        1134.069          39.000  
C16  36733494.391   191280910.514           4.853          48.000    36733478.034   147910493.905           3.684          48.000  
C19  23668679.266   123249029.302       -2007.269          47.000                                                                  
C27  23671467.748   123263608.853        1273.682          46.000                                                                  
C06  36291189.042   188977728.007           2.397          47.000    36291168.608   146129504.036           1.919          49.000  
C09  37380192.716   194648452.505         110.786          45.000    37380175.718   150514478.138          85.658          49.000  
C22  24675714.490   128492946.763         824.194          41.000                                                                  
G26  20740360.599   108991339.749       -1847.986          48.000    20740351.519    84928272.273       -1439.935          46.000  
G27  22091796.348   116093178.702        3096.317          43.000    22091788.224    90462188.555        2412.357          42.000  
G09  24061464.728   126443843.356        2860.988          36.000    24061456.946    98527648.877        2229.221          38.000  
C28  24689098.692   128562622.541        -880.637          44.000                                                                  
C07  38089633.694   198342712.972         823.349          41.000    38089614.907   153371098.245         636.645          45.000  
C20  25353529.362   132022477.325       -3599.493          45.000                                                                  
C36  23944034.319   124682868.545        1442.627          43.000                                                                  
C37  24876558.354   129538772.384       -2374.317          42.000                                                                  
C10  39215231.656   204203996.048         755.277          38.000    39215217.863   157903492.002         583.899          44.000  
G08  24393086.432   128186533.362        3624.634          35.000    24393090.096    99885645.790        2824.055          39.000  
G29  25099524.480   131898937.571       -3498.772          32.000    25099521.146   102778348.097       -2726.315          36.000  
C30  25306237.659   131776249.335        2768.788          42.000                                                                  
C13                                                                  40614314.682   163536974.024       -1891.781          37.000  
C08                                                                  41534027.969   167240316.467       -1850.120          40.000  
> 2025 11 03 07 37 47.4400000  0 26                     
G04  21470564.174   112828583.010        1310.515          44.000    21470552.842    87918323.334        1021.101          45.000  
G16  20205472.338   106180479.853         342.491          46.000                                                                  
G28  22909296.016   120389154.520       -2612.513          42.000    22909285.112    93809684.796       -2035.594          43.000  
G31  20994487.770   110326782.986       -1578.602          47.000    20994474.175    85968863.621       -1230.109          44.000  
G03  24384582.088   128141902.574       -2875.526          36.000    24384577.207    99850765.495       -2240.759          37.000  
G18  25247595.895   132677003.878        1455.183          34.000    25247587.053   103384659.212        1134.076          39.000  
C16  36733494.348   191280910.319           4.932          48.000    36733478.020   147910493.765           3.545          48.000  
C19  23668694.651   123249109.592       -2007.245          47.000                                                                  
C27  23671457.947   123263557.910        1273.589          46.000                                                                  
C06  36291189.018   188977727.914           2.358          47.000    36291168.593   146129503.953           2.045          49.000  
C09  37380191.873   194648448.076         110.720          45.000    37380174.844   150514474.712          85.649          49.000  
C22  24675708.153   128492913.793         824.214          41.000                                                                  
G26  20740374.645   108991413.666       -1847.955          48.000    20740365.570    84928329.868       -1439.886          46.000  
G27  22091772.773   116093054.851        3096.318          43.000    22091764.640    90462092.039        2412.698          42.000  
G09  24061442.947   126443728.916        2860.896          36.000    24061435.182    98527559.699        2229.319          38.000  
C28  24689105.466   128562657.759        -880.541          44.000                                                                  
C07  38089627.374   198342680.038         823.300          41.000    38089608.584   153371072.784         636.526          45.000  
C20  25353557.013   132022621.307       -3599.553          45.000                                                                  
C36  23944023.223   124682810.839        1442.639          43.000                                                                  
C37  24876576.586   129538867.370       -2374.475          42.000                                                                  
C10  39215225.868   204203965.823         755.477          38.000    39215212.055   157903468.637         584.018          44.000  
G08  24393058.828   128186388.342        3625.182          35.000    24393062.491    99885532.815        2824.143          39.000  
G29  25099551.078   131899077.527       -3499.040          32.000    25099547.753   102778457.131       -2725.992          36.000  
C30  25306216.397   131776138.572        2768.957          42.000                                                                  
C13                                                                  40614333.481   163537049.701       -1891.907          38.000  
C08                                                                  41534046.340   167240390.463       -1849.874          40.000  
> 2025 11 03 07 37 47.4800000  0 26                     
G04  21470554.197   112828530.604        1310.292          44.000    21470542.859    87918282.492        1021.049          45.000  
G16  20205469.729   106180466.157         342.385          46.000                                                                  
G28  22909315.890   120389259.014       -2612.426          42.000    22909305.008    93809766.231       -2035.816          43.000  
G31  20994499.805   110326846.135       -1578.678          47.000    20994486.213    85968912.833       -1230.293          44.000  
G03  24384603.975   128142017.575       -2875.138          36.000    24384599.113    99850855.126       -2240.857          37.000  
G18  25247584.839   132676945.672        1455.115          34.000    25247575.978   103384613.860        1133.886          39.000  
C16  36733494.291   191280910.135           4.709          48.000    36733478.001   147910493.620           3.571          48.000  
C19  23668710.097   123249189.881       -2007.251          47.000                                                                  
C27  23671448.174   123263506.964        1273.601          46.000                                                                  
C06  36291189.057   188977727.814           2.437          47.000    36291168.602   146129503.885           1.842          49.000  
C09  37380191.024   194648443.649         110.683          45.000    37380173.976   150514471.292          85.500          49.000  
C22  24675701.825   128492880.833         824.095          41.000                                                                  
G26  20740388.716   108991487.586       -1847.961          48.000    20740379.638    84928387.468       -1439.990          46.000  
G27  22091749.224   116092931.009        3096.114          43.000    22091741.075    90461995.536        2412.634          42.000  
G09  24061421.171   126443614.463        2861.129          36.000    24061413.411    98527470.530        2229.230          38.000  
C28  24689112.232   128562692.990        -880.711          44.000                                                                  
C07  38089621.055   198342647.106         823.194          41.000    38089602.262   153371047.318         636.576          45.000  
C20  25353584.654   132022765.292       -3599.635          45.000                                                                  
C36  23944012.124   124682753.142        1442.480          43.000                                                                  
C37  24876594.831   129538962.347       -2374.486          42.000                                                                  
C10  39215220.056   204203935.625         755.136          38.000    39215206.248   157903445.268         584.135          44.000  
G08  24393031.268   128186243.370        3624.730          35.000    24393034.883    99885419.837        2824.312          39.000  
G29  25099577.713   131899217.451       -3498.725          32.000    25099574.376   102778566.168       -2725.911          36.000  
C30  25306195.129   131776027.819        2768.889          42.000                                                                  
C13                                                                  40614352.275   163537125.366       -1891.681          38.000  
C08                                                                  41534064.716   167240464.470       -1850.005          40.000  
> 2025 11 03 07 37 47.5200000  0 26                     
G04  21470544.217   112828478.202        1310.076          44.000    21470532.881    87918241.653        1020.957          45.000  
G16  20205467.133   106180452.458         342.399          46.000                                                                  
G28  22909335.793   120389363.521       -2612.609          42.000    22909324.930    93809847.670       -2035.990          43.000  
G31  20994511.824   110326909.287       -1578.772          47.000    20994498.233    85968962.047       -1230.388          44.000  
G03  24384625.831   128142132.599       -2875.414          36.000    24384620.995    99850944.769       -2241.078          37.000  
G18  25247573.749   132676887.466        1455.009          34.000    25247564.910   103384568.509        1133.792          39.000  
C16  36733494.230   191280909.959           4.444          48.000    36733477.963   147910493.477           3.546          48.000  
C19  23668725.512   123249270.180       -2007.430          47.000                                                                  
C27  23671438.384   123263456.027        1273.429          46.000                                                                  
C06  36291189.019   188977727.729           2.195          47.000    36291168.574   146129503.818           1.678          49.000  
C09  37380190.155   194648439.231         110.459          45.000    37380173.121   150514467.873          85.453          49.000  
C22  24675695.503   128492847.878         823.915          41.000                                                                  
G26  20740402.774   108991561.514       -1848.157          48.000    20740393.695    84928445.074       -1440.137          46.000  
G27  22091725.657   116092807.174        3095.876          43.000    22091717.499    90461899.037        2412.496          42.000  
G09  24061399.379   126443500.027        2860.944          36.000    24061391.616    98527381.323        2229.833          38.000  
C28  24689118.992   128562728.224        -880.874          44.000                                                                  
C07  38089614.728   198342614.191         822.916          41.000    38089595.937   153371021.853         636.570          45.000  
C20  25353612.309   132022909.277       -3599.652          45.000                                                                  
C36  23944001.037   124682695.448        1442.328          43.000                                                                  
C37  24876613.053   129539057.338       -2374.707          42.000                                                                  
C10  39215214.261   204203905.409         755.284          38.000    39215200.427   157903421.903         584.111          44.000  
G08  24393003.687   128186098.374        3624.780          35.000    24393007.288    99885306.846        2824.609          39.000  
G29  25099604.293   131899357.395       -3498.768          32.000    25099601.008   102778675.222       -2726.229          36.000  
C30  25306173.851   131775917.066        2768.837          42.000                                                                  
C13                                                                  40614371.064   163537201.035       -1891.652          38.000  
C08                                                                  41534083.092   167240538.477       -1850.086          40.000  
> 2025 11 03 07 37 47.5600000  0 26                     
G04  21470534.262   112828425.795        1310.057          44.000    21470522.903    87918200.820        1020.809          45.000  
G16  20205464.531   106180438.763         342.356          46.000                                                                  
G28  22909355.671   120389468.028       -2612.702          42.000    22909344.827    93809929.098       -2035.868          43.000  
G31  20994523.833   110326972.447       -1578.954          47.000    20994510.230    85969011.256       -1230.335          44.000  
G03  24384647.725   128142247.628       -2875.557          36.000    24384642.903    99851034.384       -2240.651          37.000  
G18  25247562.640   132676829.264        1455.002          34.000    25247553.841   103384523.160        1133.685          39.000  
C16  36733494.231   191280909.780           4.372          48.000    36733477.967   147910493.333           3.560          48.000  
C19  23668740.958   123249350.467       -2007.300          47.000                                                                  
C27  23671428.577   123263405.084        1273.473          46.000                                                                  
C06  36291189.020   188977727.633           2.261          47.000    36291168.569   146129503.750           1.644          49.000  
C09  37380189.302   194648434.794         110.732          45.000    37380172.268   150514464.446          85.591          49.000  
C22  24675689.172   128492814.911         824.037          41.000                                                                  
G26  20740416.840   108991635.441       -1848.199          48.000    20740407.774    84928502.684       -1440.259          46.000  
G27  22091702.097   116092683.329        3095.975          43.000    22091693.932    90461802.546        2412.250          42.000  
G09  24061377.600   126443385.607        2860.586          36.000    24061369.852    98527292.168        2229.275          38.000  
C28  24689125.764   128562763.456        -880.905          44.000                                                                  
C07  38089608.381   198342581.252         823.256          41.000    38089589.614   153370996.390         636.558          45.000  
C20  25353639.952   132023053.260       -3599.611          45.000                                                                  
C36  23943989.949   124682637.748        1442.407          43.000                                                                  
C37  24876631.290   129539152.320       -2374.641          42.000                                                                  
C10  39215208.471   204203875.184         755.553          38.000    39215194.625   157903398.542         584.057          44.000  
G08  24392976.094   128185953.388        3624.756          35.000    24392979.701    99885193.873        2824.484          39.000  
G29  25099630.938   131899497.327       -3498.475          32.000    25099627.665   102778784.292       -2726.643          36.000  
C30  25306152.605   131775806.309        2768.889          42.000                                                                  
C13                                                                  40614389.833   163537276.704       -1891.640          38.000  
C08                                                                  41534101.464   167240612.499       -1850.431          40.000  
> 2025 11 03 07 37 47.6000000  0 26                     
G04  21470524.276   112828373.372        1310.332          44.000    21470512.938    87918159.983        1020.823          45.000  
G16  20205461.927   106180425.069         342.306          46.000                                                                  
G28  22909375.558   120389572.534       -2612.738          42.000    22909364.716    93810010.531       -2035.861          43.000  
G31  20994535.840   110327035.600       -1578.940          47.000    20994522.244    85969060.467       -1230.339          44.000  
G03  24384669.617   128142362.672       -2875.934          36.000    24384664.775    99851124.004       -2240.585          37.000  
G18  25247551.586   132676771.045        1455.313          34.000    25247542.749   103384477.796        1133.905          39.000  
C16  36733494.205   191280909.594           4.462          48.000    36733477.952   147910493.189           3.566          48.000  
C19  23668756.388   123249430.772       -2007.565          47.000                                                                  
C27  23671418.782   123263354.149        1273.356          46.000                                                                  
C06  36291189.018   188977727.541           2.256          47.000    36291168.564   146129503.680           1.676          49.000  
C09  37380188.452   194648430.367         110.692          45.000    37380171.419   150514461.020          85.628          49.000  
C22  24675682.827   128492781.948         824.051          41.000                                                                  
G26  20740430.903   108991709.361       -1848.089          48.000    20740421.813    84928560.286       -1440.173          46.000  
G27  22091678.525   116092559.481        3096.080          43.000    22091670.365    90461706.039        2412.410          42.000  
G09  24061355.820   126443271.174        2860.611          36.000    24061348.083    98527203.015        2228.875          38.000  
C28  24689132.534   128562798.685        -880.816          44.000                                                                  
C07  38089602.060   198342548.320         823.292          41.000    38089583.270   153370970.931         636.490          45.000  
C20  25353667.608   132023197.250       -3599.727          45.000                                                                  
C36  23943978.874   124682580.059        1442.255          43.000                                                                  
C37  24876649.544   129539247.310       -2374.744          42.000                                                                  
C10  39215202.668   204203844.963         755.564          38.000    39215188.831   157903375.184         583.957          44.000  
G08  24392948.539   128185808.410        3624.653          35.000    24392952.118    99885080.909        2824.189          39.000  
G29  25099657.566   131899637.282       -3498.673          32.000    25099654.291   102778893.325       -2726.111          36.000  
C30  25306131.348   131775695.559        2768.733          42.000                                                                  
C13                                                                  40614408.645   163537352.382       -1891.839          38.000  
C08                                                                  41534119.853   167240686.513       -1850.473          40.000  
> 2025 11 03 07 37 47.6400000  0 26                     
G04  21470514.312   112828320.966        1310.231          44.000    21470502.975    87918119.148        1020.815          45.000  
G16  20205459.301   106180411.374         342.307          46.000                                                                  
G28  22909395.434   120389677.051       -2612.925          42.000    22909384.609    93810091.962       -2035.855          43.000  
G31  20994547.846   110327098.756       -1578.949          47.000    20994534.256    85969109.674       -1230.265          44.000  
G03  24384691.516   128142477.680       -2875.501          36.000    24384686.668    99851213.634       -2240.692          37.000  
G18  25247540.543   132676712.844        1455.101          34.000    25247531.682   103384432.450        1133.759          39.000  
C16  36733494.171   191280909.412           4.493          48.000    36733477.915   147910493.044           3.593          48.000  
C19  23668771.841   123249511.070       -2007.564          47.000                                                                  
C27  23671408.999   123263303.214        1273.282          46.000                                                                  
C06  36291188.985   188977727.454           2.194          47.000    36291168.557   146129503.609           1.731          49.000  
C09  37380187.595   194648425.946         110.578          45.000    37380170.540   150514457.596          85.627          49.000  
C22  24675676.453   128492748.991         823.953          41.000                                                                  
G26  20740444.987   108991783.288       -1848.163          48.000    20740435.867    84928617.896       -1440.283          46.000  
G27  22091654.957   116092435.636        3096.091          43.000    22091646.803    90461609.543        2412.349          42.000  
G09  24061334.050   126443156.734        2860.747          36.000    24061326.312    98527113.839        2229.077          38.000  
C28  24689139.296   128562833.922        -880.913          44.000                                                                  
C07  38089595.770   198342515.381         823.421          41.000    38089576.967   153370945.466         636.553          45.000  
C20  25353695.274   132023341.238       -3599.731          45.000                                                                  
C36  23943967.804   124682522.367        1442.236          43.000                                                                  
C37  24876667.789   129539342.295       -2374.737          42.000                                                                  
C10  39215196.867   204203814.775         755.004          38.000    39215183.051   157903351.827         583.909          45.000  
G08  24392920.942   128185663.431        3624.604          35.000    24392924.511    99884967.918        2824.497          39.000  
G29  25099684.211   131899777.238       -3498.765          32.000    25099680.921   102779002.366       -2726.014          36.000  
C30  25306110.079   131775584.813        2768.635          42.000                                                                  
C13                                                                  40614427.412   163537428.051       -1891.800          38.000  
C08                                                                  41534138.262   167240760.531       -1850.527          40.000  
> 2025 11 03 07 37 47.6800000  0 26                     
G04  21470504.343   112828268.558        1310.192          44.000    21470493.006    87918078.302        1021.035          45.000  
G16  20205456.681   106180397.678         342.344          46.000                                                                  
G28  22909415.316   120389781.554       -2612.758          42.000    22909404.501    93810173.394       -2035.849          43.000  
G31  20994559.864   110327161.907       -1578.853          47.000    20994546.281    85969158.883       -1230.268          44.000  
G03  24384713.404   128142592.695       -2875.570          36.000    24384708.561    99851303.253       -2240.532          37.000  
G18  25247529.477   132676654.651        1454.886          34.000    25247520.603   103384387.094        1133.803          39.000  
C16  36733494.145   191280909.224           4.625          48.000    36733477.873   147910492.903           3.526          48.000  
C19  23668787.265   123249591.371       -2007.601          47.000                                                                  
C27  23671399.203   123263252.276        1273.351          46.000                                                                  
C06  36291188.964   188977727.356           2.347          47.000    36291168.547   146129503.533           1.842          49.000  
C09  37380186.755   194648421.519         110.637          45.000    37380169.682   150514454.169          85.657          49.000  
C22  24675670.129   128492716.028         824.008          41.000                                                                  
G26  20740459.066   108991857.218       -1848.248          48.000    20740449.939    84928675.495       -1440.100          46.000  
G27  22091631.385   116092311.811        3095.722          43.000    22091623.224    90461513.042        2412.442          42.000  
G09  24061312.270   126443042.293        2860.888          36.000    24061304.529    98527024.676        2229.010          38.000  
C28  24689146.059   128562869.150        -880.798          44.000                                                                  
C07  38089589.430   198342482.454         823.245          41.000    38089570.670   153370919.994         636.721          45.000  
C20  25353722.937   132023485.218       -3599.596          45.000                                                                  
C36  23943956.715   124682464.664        1442.462          43.000                                                                  
C37  24876686.007   129539437.280       -2374.742          42.000                                                                  
C10  39215191.066   204203784.557         755.188          38.000    39215177.242   157903328.454         584.151          45.000  
G08  24392893.356   128185518.423        3624.886          35.000    24392896.931    99884854.954        2824.182          39.000  
G29  25099710.840   131899917.169       -3498.401          32.000    25099707.562   102779111.421       -2726.281          36.000  
C30  25306088.826   131775474.064        2768.651          42.000                                                                  
C13                                                                  40614446.231   163537503.727       -1891.887          38.000  
C08                                                                  41534156.654   167240834.529       -1850.145          40.000  
> 2025 11 03 07 37 47.7200000  0 26                     
G04  21470494.363   112828216.151        1310.139          44.000    21470483.032    87918037.464        1020.978          45.000  
G16  20205454.062   106180383.982         342.344          46.000                                                                  
G28  22909435.195   120389886.061       -2612.701          42.000    22909424.392    93810254.829       -2035.867          43.000  
G31  20994571.893   110327225.062       -1578.908          47.000    20994558.312    85969208.095       -1230.342          44.000  
G03  24384735.280   128142707.698       -2875.242          36.000    24384730.462    99851392.886       -2240.671          37.000  
G18  25247518.389   132676596.447        1454.975          34.000    25247509.539   103384341.749        1133.650          39.000  
C16  36733494.109   191280909.035           4.727          48.000    36733477.847   147910492.761           3.521          48.000  
C19  23668802.699   123249671.667       -2007.508          47.000                                                                  
C27  23671389.449   123263201.337        1273.406          46.000                                                                  
C06  36291188.927   188977727.266           2.271          47.000    36291168.523   146129503.458           1.857          49.000  
C09  37380185.932   194648417.081         110.861          45.000    37380168.845   150514450.745          85.591          49.000  
C22  24675663.817   128492683.075         823.836          41.000                                                                  
G26  20740473.113   108991931.144       -1848.193          48.000    20740463.990    84928733.097       -1440.070          46.000  
G27  22091607.829   116092187.963        3095.942          43.000    22091599.652    90461416.534        2412.604          42.000  
G09  24061290.488   126442927.833        2861.273          36.000    24061282.767    98526935.512        2229.000          38.000  
C28  24689152.815   128562904.376        -880.655          44.000                                                                  
C07  38089583.105   198342449.525         823.146          41.000    38089564.321   153370894.530         636.638          45.000  
C20  25353750.586   132023629.206       -3599.675          45.000                                                                  
C36  23943945.624   124682406.962        1442.548          43.000                                                                  
C37  24876704.231   129539532.263       -2374.689          42.000                                                                  
C10  39215185.275   204203754.352         755.127          38.000    39215171.433   157903305.093         584.108          45.000  
G08  24392865.774   128185373.460        3624.430          35.000    24392869.350    99884741.982        2824.247          39.000  
G29  25099737.448   131900057.128       -3498.759          32.000    25099734.176   102779220.464       -2726.229          36.000  
C30  25306067.559   131775363.309        2768.767          42.000                                                                  
C13                                                                  40614465.025   163537579.398       -1891.876          37.000  
C08                                                                  41534175.035   167240908.521       -1849.837          40.000  
> 2025 11 03 07 37 47.7600000  0 26                     
G04  21470484.395   112828163.753        1309.963          44.000    21470473.053    87917996.628        1020.879          45.000  
G16  20205451.464   106180370.297         342.151          46.000                                                                  
G28  22909455.078   120389990.567       -2612.697          42.000    22909444.299    93810336.269       -2035.999          43.000  
G31  20994583.915   110327288.220       -1578.968          47.000    20994570.326    85969257.311       -1230.403          44.000  
G03  24384757.198   128142822.736       -2875.702          36.000    24384752.355    99851482.516       -2240.758          37.000  
G18  25247507.330   132676538.276        1454.554          34.000    25247498.457   103384296.393        1133.816          39.000  
C16  36733494.086   191280908.848           4.715          48.000    36733477.840   147910492.619           3.489          48.000  
C19  23668818.123   123249751.965       -2007.508          47.000                                                                  
C27  23671379.672   123263150.400        1273.406          46.000                                                                  
C06  36291188.916   188977727.176           2.209          47.000    36291168.502   146129503.386           1.802          49.000  
C09  37380185.070   194648412.657         110.669          45.000    37380167.983   150514447.329          85.405          49.000  
C22  24675657.471   128492650.121         823.776          41.000                                                                  
G26  20740487.211   108992005.074       -1848.248          48.000    20740478.080    84928790.703       -1440.137          46.000  
G27  22091584.283   116092064.132        3095.801          43.000    22091576.092    90461320.045        2412.362          42.000  
G09  24061268.729   126442813.407        2860.941          36.000    24061260.984    98526846.332        2229.323          38.000  
C28  24689159.553   128562939.614        -880.850          44.000                                                                  
C07  38089576.788   198342416.608         822.911          41.000    38089557.980   153370869.076         636.395          45.000  
C20  25353778.237   132023773.193       -3599.713          45.000                                                                  
C36  23943934.534   124682349.269        1442.395          43.000                                                                  
C37  24876722.491   129539627.252       -2374.705          42.000                                                                  
C10  39215179.471   204203724.144         755.150          38.000    39215165.647   157903281.735         584.000          45.000  
G08  24392838.193   128185228.474        3624.451          35.000    24392841.769    99884629.011        2824.257          39.000  
G29  25099764.086   131900197.082       -3498.858          32.000    25099760.800   102779329.520       -2726.374          36.000  
C30  25306046.287   131775252.569        2768.569          42.000                                                                  
C13                                                                  40614483.808   163537655.065       -1891.740          37.000  
C08                                                                  41534193.412   167240982.532       -1850.024          40.000  
> 2025 11 03 07 37 47.8000000  0 26                     
G04  21470474.438   112828111.356        1309.843          44.000    21470463.086    87917955.799        1020.676          45.000  
G16  20205448.872   106180356.615         342.010          46.000                                                                  
G28  22909474.959   120390095.073       -2612.678          42.000    22909464.182    93810417.704       -2035.953          43.000  
G31  20994595.946   110327351.381       -1579.045          47.000    20994582.356    85969306.526       -1230.410          44.000  
G03  24384779.107   128142937.781       -2876.053          36.000    24384774.262    99851572.164       -2241.061          37.000  
G18  25247496.201   132676480.081        1454.688          34.000    25247487.387   103384251.052        1133.635          39.000  
C16  36733493.992   191280908.669           4.543          48.000    36733477.808   147910492.484           3.352          48.000  
C19  23668833.543   123249832.268       -2007.570          47.000                                                                  
C27  23671369.872   123263099.468        1273.289          46.000                                                                  
C06  36291188.905   188977727.090           2.119          47.000    36291168.506   146129503.321           1.664          49.000  
C09  37380184.215   194648408.242         110.441          45.000    37380167.105   150514443.911          85.377          49.000  
C22  24675651.134   128492617.181         823.540          41.000                                                                  
G26  20740501.265   108992079.005       -1848.291          48.000    20740492.148    84928848.317       -1440.338          46.000  
G27  22091560.714   116091940.297        3095.771          43.000    22091552.544    90461223.550        2412.305          42.000  
G09  24061246.946   126442698.974        2860.822          36.000    24061239.195    98526757.159        2229.363          38.000  
C28  24689166.319   128562974.864        -881.188          44.000                                                                  
C07  38089570.459   198342383.677         823.081          41.000    38089551.657   153370843.621         636.310          45.000  
C20  25353805.879   132023917.187       -3599.846          45.000                                                                  
C36  23943923.448   124682291.585        1442.181          43.000                                                                  
C37  24876740.745   129539722.241       -2374.723          42.000                                                                  
C10  39215173.639   204203693.930         755.343          38.000    39215159.842   157903258.387         583.772          45.000  
G08  24392810.608   128185083.495        3624.487          35.000    24392814.175    99884516.021        2824.572          39.000  
G29  25099790.706   131900337.043       -3498.960          32.000    25099787.423   102779438.562       -2726.188          36.000  
C30  25306025.019   131775141.822        2768.591          42.000                                                                  
C13                                                                  40614502.587   163537730.726       -1891.583          37.000  
C08                                                                  41534211.803   167241056.545       -1850.221          40.000  
> 2025 11 03 07 37 47.8400000  0 26                     
G04  21470464.472   112828058.954        1309.856          44.000    21470453.140    87917914.981        1020.421          45.000  
G16  20205446.278   106180342.936         341.913          46.000                                                                  
G28  22909494.868   120390199.588       -2612.830          42.000    22909484.086    93810499.141       -2035.958          43.000  
G31  20994607.984   110327414.547       -1579.186          47.000    20994594.363    85969355.744       -1230.417          44.000  
G03  24384800.987   128143052.805       -2875.848          36.000    24384796.154    99851661.796       -2240.932          37.000  
G18  25247485.103   132676421.856        1455.334          34.000    25247476.324   103384205.713        1133.539          39.000  
C16  36733493.967   191280908.492           4.428          48.000    36733477.777   147910492.348           3.332          48.000  
C19  23668848.953   123249912.583       -2007.847          47.000                                                                  
C27  23671360.094   123263048.545        1273.080          46.000                                                                  
C06  36291188.900   188977727.009           1.992          47.000    36291168.506   146129503.264           1.431          49.000  
C09  37380183.372   194648403.824         110.389          45.000    37380166.231   150514440.500          85.220          49.000  
C22  24675644.821   128492584.219         823.775          41.000                                                                  
G26  20740515.342   108992152.942       -1848.425          48.000    20740506.233    84928905.934       -1440.448          46.000  
G27  22091537.139   116091816.455        3095.922          43.000    22091528.991    90461127.052        2412.340          42.000  
G09  24061225.196   126442584.566        2860.372          36.000    24061217.417    98526667.987        2229.330          38.000  
C28  24689173.096   128563010.106        -881.210          44.000                                                                  
C07  38089564.150   198342350.764         822.902          41.000    38089545.333   153370818.163         636.356          45.000  
C20  25353833.532   132024061.181       -3599.933          45.000                                                                  
C36  23943912.379   124682233.908        1441.937          43.000                                                                  
C37  24876758.976   129539817.234       -2374.822          42.000                                                                  
C10  39215167.821   204203663.718         755.305          38.000    39215154.042   157903235.031         583.813          45.000  
G08  24392783.012   128184938.472        3625.317          35.000    24392786.593    99884403.065        2824.135          39.000  
G29  25099817.311   131900476.982       -3498.647          32.000    25099814.056   102779547.641       -2726.801          36.000  
C30  25306003.746   131775031.077        2768.586          42.000                                                                  
C13                                                                  40614521.397   163537806.409       -1891.910          37.000  
C08                                                                  41534230.186   167241130.564       -1850.455          40.000  
> 2025 11 03 07 37 47.8800000  0 26                     
G04  21470454.498   112828006.564        1309.709          44.000    21470443.169    87917874.157        1020.427          45.000  
G16  20205443.674   106180329.258         341.903          46.000                                                                  
G28  22909514.741   120390304.112       -2613.072          42.000    22909503.958    93810580.582       -2036.027          43.000  
G31  20994620.003   110327477.716       -1579.279          47.000    20994606.387    85969404.970       -1230.613          44.000  
G03  24384822.878   128143167.867       -2876.296          36.000    24384818.053    99851751.444       -2241.187          37.000  
G18  25247474.012   132676363.655        1455.148          34.000    25247465.232   103384160.363        1133.681          39.000  
C16  36733493.953   191280908.323           4.232          48.000    36733477.767   147910492.216           3.237          48.000  
C19  23668864.378   123249992.897       -2007.957          47.000                                                                  
C27  23671350.309   123262997.625        1272.946          46.000                                                                  
C06  36291188.889   188977726.925           2.001          47.000    36291168.453   146129503.203           1.422          49.000  
C09  37380182.523   194648399.401         110.483          45.000    37380165.394   150514437.084          85.269          48.000  
C22  24675638.507   128492551.292         823.332          41.000                                                                  
G26  20740529.422   108992226.884       -1848.566          48.000    20740520.292    84928963.547       -1440.417          46.000  
G27  22091513.579   116091692.628        3095.740          43.000    22091505.437    90461030.565        2412.194          42.000  
G09  24061203.412   126442470.151        2860.267          36.000    24061195.639    98526578.826        2229.099          38.000  
C28  24689179.833   128563045.365        -881.486          44.000                                                                  
C07  38089557.850   198342317.850         822.823          41.000    38089538.999   153370792.705         636.381          45.000  
C20  25353861.176   132024205.178       -3599.987          45.000                                                                  
C36  23943901.294   124682176.214        1442.163          43.000                                                                  
C37  24876777.213   129539912.227       -2374.876          42.000                                                                  
C10  39215162.002   204203633.520         755.065          38.000    39215148.259   157903211.672         583.889          45.000  
G08  24392755.426   128184793.529        3624.193          35.000    24392759.017    99884290.114        2823.794          39.000  
G29  25099843.950   131900616.938       -3498.726          32.000    25099840.691   102779656.704       -2726.802          36.000  
C30  25305982.503   131774920.329        2768.624          42.000                                                                  
C13                                                                  40614540.219   163537882.093       -1892.083          37.000  
C08                                                                  41534248.579   167241204.597       -1850.830          40.000  
> 2025 11 03 07 37 47.9200000  0 26                     
G04  21470444.510   112827954.173        1309.686          44.000    21470433.188    87917833.336        1020.396          45.000  
G16  20205441.071   106180315.575         341.985          46.000                                                                  
G28  22909534.620   120390408.633       -2613.086          42.000    22909523.870    93810662.032       -2036.253          43.000  
G31  20994632.000   110327540.878       -1579.184          47.000    20994618.401    85969454.197       -1230.724          44.000  
G03  24384844.768   128143282.881       -2875.641          36.000    24384839.936    99851841.086       -2241.129          37.000  
G18  25247462.962   132676305.492        1454.317          34.000    25247454.154   103384115.019        1133.595          39.000  
C16  36733493.920   191280908.150           4.234          48.000    36733477.723   147910492.077           3.387          48.000  
C19  23668879.823   123250073.209       -2007.919          47.000                                                                  
C27  23671340.536   123262946.700        1273.015          46.000                                                                  
C06  36291188.879   188977726.839           2.063          47.000    36291168.464   146129503.135           1.566          49.000  
C09  37380181.664   194648394.984         110.419          45.000    37380164.554   150514433.668          85.310          49.000  
C22  24675632.176   128492518.342         823.505          41.000                                                                  
G26  20740543.486   108992300.820       -1848.517          48.000    20740534.375    84929021.158       -1440.350          46.000  
G27  22091490.037   116091568.807        3095.496          43.000    22091481.850    90460934.070        2412.275          42.000  
G09  24061181.605   126442355.706        2860.805          36.000    24061173.863    98526489.677        2228.730          38.000  
C28  24689186.607   128563080.613        -881.423          44.000                                                                  
C07  38089551.554   198342284.912         823.235          41.000    38089532.667   153370767.250         636.357          45.000  
C20  25353888.836   132024349.167       -3599.849          45.000                                                                  
C36  23943890.215   124682118.527        1442.169          43.000                                                                  
C37  24876795.467   129540007.221       -2374.900          42.000                                                                  
C10  39215156.200   204203603.321         754.924          38.000    39215142.439   157903188.317         583.869          45.000  
G08  24392727.827   128184648.548        3624.270          35.000    24392731.416    99884177.149        2823.908          39.000  
G29  25099870.575   131900756.897       -3498.882          32.000    25099867.309   102779765.768       -2726.837          36.000  
C30  25305961.257   131774809.576        2768.720          42.000                                                                  
C13                                                                  40614559.013   163537957.790       -1892.443          37.000  
C08                                                                  41534266.987   167241278.598       -1850.316          40.000  
> 2025 11 03 07 37 47.9600000  0 26                     
G04  21470434.539   112827901.781        1309.725          44.000    21470423.212    87917792.500        1020.670          45.000  
G16  20205438.448   106180301.888         342.110          46.000                                                                  
G28  22909554.479   120390513.150       -2613.047          42.000    22909543.748    93810743.480       -2036.307          43.000  
G31  20994644.019   110327604.042       -1579.155          47.000    20994630.412    85969503.412       -1230.560          44.000  
G03  24384866.672   128143397.897       -2875.292          36.000    24384861.820    99851930.717       -2240.933          37.000  
G18  25247451.882   132676247.291        1454.653          34.000    25247443.077   103384069.687        1133.386          39.000  
C16  36733493.890   191280907.972           4.356          48.000    36733477.692   147910491.933           3.530          48.000  
C19  23668895.260   123250153.515       -2007.751          47.000                                                                  
C27  23671330.774   123262895.765        1273.224          46.000                                                                  
C06  36291188.859   188977726.753           2.083          47.000    36291168.451   146129503.065           1.713          49.000  
C09  37380180.821   194648390.566         110.420          45.000    37380163.730   150514430.247          85.438          49.000  
C22  24675625.830   128492485.390         823.677          41.000                                                                  
G26  20740557.559   108992374.751       -1848.376          48.000    20740548.440    84929078.770       -1440.326          46.000  
G27  22091466.462   116091444.975        3095.606          43.000    22091458.292    90460837.587        2412.093          42.000  
G09  24061159.831   126442241.268        2860.916          36.000    24061152.105    98526400.521        2228.779          38.000  
C28  24689193.400   128563115.855        -881.206          44.000                                                                  
C07  38089545.230   198342251.981         823.339          41.000    38089526.340   153370741.796         636.351          45.000  
C20  25353916.484   132024493.166       -3599.972          45.000                                                                  
C36  23943879.155   124682060.836        1442.242          43.000                                                                  
C37  24876813.706   129540102.208       -2374.760          42.000                                                                  
C10  39215150.409   204203573.129         754.730          38.000    39215136.635   157903164.963         583.822          45.000  
G08  24392700.249   128184503.566        3624.448          35.000    24392703.802    99884064.172        2824.186          39.000  
G29  25099897.212   131900896.862       -3499.117          32.000    25099893.949   102779874.833       -2726.824          36.000  
C30  25305939.991   131774698.841        2768.442          42.000                                                                  
C13                                                                  40614577.800   163538033.464       -1892.142          37.000  
C08                                                                  41534285.376   167241352.616       -1850.378          40.000  
> 2025 11 03 07 37 48.0000000  0 26                     
G04  21470424.541   112827849.385        1309.819          44.000    21470413.239    87917751.673        1020.702          45.000  
G16  20205435.852   106180288.214         341.928          46.000                                                                  
G28  22909574.355   120390617.670       -2613.033          42.000    22909563.609    93810824.918       -2036.115          43.000  
G31  20994656.023   110327667.212       -1579.241          47.000    20994642.426    85969552.626       -1230.470          44.000  
G03  24384888.557   128143512.924       -2875.417          36.000    24384883.696    99852020.329       -2240.417          37.000  
G18  25247440.819   132676189.110        1454.502          34.000    25247431.991   103384024.346        1133.429          39.000  
C16  36733493.854   191280907.795           4.382          48.000    36733477.683   147910491.802           3.395          48.000  
C19  23668910.695   123250233.823       -2007.715          47.000                                                                  
C27  23671321.000   123262844.846        1273.064          46.000                                                                  
C06  36291188.837   188977726.672           2.002          47.000    36291168.442   146129503.001           1.661          49.000  
C09  37380179.973   194648386.146         110.480          45.000    37380162.912   150514426.828          85.456          49.000  
C22  24675619.495   128492452.445         823.642          41.000                                                                  
G26  20740571.640   108992448.685       -1848.346          48.000    20740562.505    84929136.378       -1440.259          46.000  
G27  22091442.906   116091321.152        3095.532          43.000    22091434.717    90460741.099        2412.118          42.000  
G09  24061138.051   126442126.846        2860.681          36.000    24061130.330    98526311.357        2228.948          38.000  
C28  24689200.166   128563151.092        -880.994          44.000                                                                  
C07  38089538.893   198342219.062         823.137          41.000    38089519.993   153370716.339         636.376          45.000  
C20  25353944.118   132024637.161       -3599.957          45.000                                                                  
C36  23943868.076   124682003.150        1442.181          43.000                                                                  
C37  24876831.954   129540197.217       -2375.102          42.000                                                                  
C10  39215144.640   204203542.915         755.039          38.000    39215130.863   157903141.611         583.793          45.000  
G08  24392672.643   128184358.580        3624.637          35.000    24392676.225    99883951.191        2824.412          39.000  
G29  25099923.828   131901036.838       -3499.442          32.000    25099920.571   102779983.880       -2726.451          36.000  
C30  25305918.716   131774588.112        2768.230          42.000                                                                  
C13                                                                  40614596.596   163538109.124       -1891.685          37.000  
C08                                                                  41534303.772   167241426.634       -1850.434          40.000  
> 2025 11 03 07 37 48.0400000  0 26                     
G04  21470414.577   112827797.003        1309.585          44.000    21470403.284    87917710.855        1020.554          45.000  
G16  20205433.237   106180274.537         341.879          46.000                                                                  
G28  22909594.244   120390722.187       -2612.990          42.000    22909583.474    93810906.351       -2035.876          43.000  
G31  20994668.031   110327730.377       -1579.184          47.000    20994654.442    85969601.853       -1230.652          44.000  
G03  24384910.423   128143627.968       -2875.800          36.000    24384905.585    99852109.978       -2240.854          37.000  
G18  25247429.764   132676130.922        1454.549          34.000    25247420.902   103383978.981        1133.884          39.000  
C16  36733493.831   191280907.615           4.466          48.000    36733477.680   147910491.665           3.396          48.000  
C19  23668926.099   123250314.137       -2007.839          47.000                                                                  
C27  23671311.212   123262793.923        1273.027          46.000                                                                  
C06  36291188.835   188977726.585           2.078          47.000    36291168.407   146129502.935           1.647          49.000  
C09  37380179.124   194648381.730         110.428          45.000    37380162.055   150514423.410          85.454          49.000  
C22  24675613.174   128492419.513         823.340          41.000                                                                  
G26  20740585.708   108992522.624       -1848.438          48.000    20740576.565    84929193.992       -1440.320          46.000  
G27  22091419.342   116091197.320        3095.698          43.000    22091411.146    90460644.617        2412.017          42.000  
G09  24061116.284   126442012.429        2860.437          36.000    24061108.552    98526222.161        2229.588          38.000  
C28  24689206.937   128563186.340        -881.126          44.000                                                                  
C07  38089532.591   198342186.148         822.933          41.000    38089513.667   153370690.876         636.513          45.000  
C20  25353971.766   132024781.146       -3599.758          45.000                                                                  
C36  23943856.979   124681945.464        1442.133          43.000                                                                  
C37  24876850.201   129540292.212       -2375.017          42.000                                                                  
C10  39215138.836   204203512.710         755.033          38.000    39215125.079   157903118.262         583.728          44.000  
G08  24392645.033   128184213.605        3624.511          35.000    24392648.622    99883838.215        2824.471          39.000  
G29  25099950.471   131901176.792       -3499.000          32.000    25099947.197   102780092.928       -2726.303          36.000  
C30  25305897.435   131774477.360        2768.558          42.000                                                                  
C13                                                                  40614615.381   163538184.790       -1891.624          37.000  
C08                                                                  41534322.157   167241500.656       -1850.551          40.000  
> 2025 11 03 07 37 48.0800000  0 26                     
G04  21470404.625   112827744.615        1309.592          44.000    21470393.313    87917670.031        1020.529          45.000  
G16  20205430.652   106180260.867         341.730          46.000                                                                  
G28  22909614.124   120390826.708       -2613.060          42.000    22909603.360    93810987.799       -2036.068          43.000  
G31  20994680.059   110327793.552       -1579.315          47.000    20994666.462    85969651.079       -1230.685          44.000  
G03  24384932.292   128143743.029       -2876.362          36.000    24384927.476    99852199.609       -2240.801          37.000  
G18  25247418.688   132676072.750        1454.288          34.000    25247409.827   103383933.640        1133.731          39.000  
C16  36733493.803   191280907.439           4.424          48.000    36733477.658   147910491.526           3.441          48.000  
C19  23668941.508   123250394.454       -2007.924          47.000                                                                  
C27  23671301.454   123262743.001        1273.009          46.000                                                                  
C06  36291188.812   188977726.501           2.090          47.000    36291168.375   146129502.866           1.697          49.000  
C09  37380178.300   194648377.311         110.435          45.000    37380161.218   150514419.991          85.447          49.000  
C22  24675606.826   128492386.578         823.262          41.000                                                                  
G26  20740599.778   108992596.566       -1848.547          48.000    20740590.638    84929251.616       -1440.533          46.000  
G27  22091395.782   116091073.492        3095.704          43.000    22091387.582    90460548.134        2411.988          42.000  
G09  24061094.503   126441898.012        2860.319          36.000    24061086.782    98526132.998        2229.325          38.000  
C28  24689213.708   128563221.590        -881.229          44.000                                                                  
C07  38089526.271   198342153.236         822.816          41.000    38089507.336   153370665.418         636.486          45.000  
C20  25353999.428   132024925.143       -3599.856          45.000                                                                  
C36  23943845.914   124681887.778        1442.120          43.000                                                                  
C37  24876868.426   129540387.197       -2374.751          42.000                                                                  
C10  39215133.040   204203482.509         754.988          38.000    39215119.279   157903094.908         583.764          44.000  
G08  24392617.457   128184068.664        3623.784          35.000    24392621.047    99883725.269        2823.961          39.000  
G29  25099977.086   131901316.750       -3498.936          32.000    25099973.841   102780201.987       -2726.392          36.000  
C30  25305876.184   131774366.614        2768.611          42.000                                                                  
C13                                                                  40614634.186   163538260.467       -1891.832          37.000  
C08                                                                  41534340.540   167241574.678       -1850.663          40.000  
> 2025 11 03 07 37 48.1200000  0 26                     
G04  21470394.655   112827692.229        1309.597          44.000    21470383.355    87917629.208        1020.537          45.000  
G16  20205428.049   106180247.187         341.863          46.000                                                                  
G28  22909634.004   120390931.241       -2613.285          42.000    22909623.262    93811069.248       -2036.186          43.000  
G31  20994692.060   110327856.716       -1579.207          47.000    20994678.479    85969700.295       -1230.565          44.000  
G03  24384954.172   128143858.092       -2876.731          36.000    24384949.371    99852289.253       -2240.956          37.000  
G18  25247407.598   132676014.565        1454.348          34.000    25247398.772   103383888.318        1133.263          39.000  
C16  36733493.790   191280907.261           4.423          48.000    36733477.610   147910491.393           3.377          48.000  
C19  23668956.926   123250474.774       -2008.010          47.000                                                                  
C27  23671291.690   123262692.079        1273.003          46.000                                                                  
C06  36291188.807   188977726.423           1.970          47.000    36291168.371   146129502.806           1.550          49.000  
C09  37380177.466   194648372.890         110.492          45.000    37380160.389   150514416.572          85.447          49.000  
C22  24675600.506   128492353.639         823.348          41.000                                                                  
G26  20740613.828   108992670.508       -1848.572          48.000    20740604.704    84929309.226       -1440.375          46.000  
G27  22091372.215   116090949.669        3095.624          43.000    22091364.009    90460451.643        2412.152          42.000  
G09  24061072.721   126441783.594        2860.301          36.000    24061065.025    98526043.864        2228.653          38.000  
C28  24689220.481   128563256.835        -881.181          44.000                                                                  
C07  38089519.964   198342120.316         822.880          41.000    38089501.008   153370639.967         636.356          45.000  
C20  25354027.101   132025069.143       -3599.985          45.000                                                                  
C36  23943834.837   124681830.088        1442.181          43.000                                                                  
C37  24876886.688   129540482.182       -2374.620          42.000                                                                  
C10  39215127.237   204203452.311         754.924          38.000    39215113.497   157903071.552         583.802          44.000  
G08  24392589.898   128183923.687        3624.069          35.000    24392593.450    99883612.298        2824.077          39.000  
G29  25100003.712   131901456.687       -3498.576          32.000    25100000.482   102780311.049       -2726.619          36.000  
C30  25305854.959   131774255.868        2768.648          42.000                                                                  
C13                                                                  40614652.981   163538336.173       -1892.452          37.000  
C08                                                                  41534358.924   167241648.675       -1850.168          40.000  
> 2025 11 03 07 37 48.1600000  0 26                     
G04  21470384.668   112827639.839        1309.670          44.000    21470373.368    87917588.382        1020.583          45.000  
G16  20205425.463   106180233.507         341.968          46.000                                                                  
G28  22909653.908   120391035.748       -2612.905          42.000    22909643.124    93811150.691       -2036.115          43.000  
G31  20994704.094   110327919.886       -1579.249          47.000    20994690.519    85969749.516       -1230.544          44.000  
G03  24384976.076   128143973.091       -2875.715          36.000    24384971.262    99852378.903       -2241.263          37.000  
G18  25247396.510   132675956.352        1454.873          34.000    25247387.704   103383842.978        1133.333          39.000  
C16  36733493.786   191280907.084           4.408          48.000    36733477.592   147910491.255           3.396          48.000  
C19  23668972.365   123250555.087       -2007.929          47.000                                                                  
C27  23671281.917   123262641.152        1273.089          46.000                                                                  
C06  36291188.816   188977726.333           2.125          47.000    36291168.380   146129502.745           1.479          49.000  
C09  37380176.625   194648368.465         110.601          45.000    37380159.543   150514413.156          85.382          49.000  
C22  24675594.185   128492320.682         823.736          41.000                                                                  
G26  20740627.877   108992744.450       -1848.578          48.000    20740618.757    84929366.836       -1440.289          46.000  
G27  22091348.638   116090825.839        3095.703          43.000    22091340.447    90460355.145        2412.343          42.000  
G09  24061050.952   126441669.158        2860.714          36.000    24061043.257    98525954.727        2228.296          38.000  
C28  24689227.249   128563292.090        -881.317          44.000                                                                  
C07  38089513.641   198342087.399         822.938          41.000    38089494.646   153370614.511         636.338          45.000  
C20  25354054.773   132025213.133       -3599.854          45.000                                                                  
C36  23943823.772   124681772.395        1442.303          43.000                                                                  
C37  24876904.932   129540577.173       -2374.672          42.000                                                                  
C10  39215121.444   204203422.102         755.135          38.000    39215107.713   157903048.189         583.988          44.000  
G08  24392562.316   128183778.693        3624.537          35.000    24392565.849    99883499.321        2824.250          39.000  
G29  25100030.337   131901596.620       -3498.279          32.000    25100027.127   102780420.089       -2726.284          36.000  
C30  25305833.709   131774145.117        2768.748          42.000                                                                  
C13                                                                  40614671.767   163538411.850       -1892.200          37.000  
C08                                                                  41534377.315   167241722.690       -1850.256          40.000  
> 2025 11 03 07 37 48.2000000  0 26                     
G04  21470374.685   112827587.441        1309.833          44.000    21470363.408    87917547.569        1020.374          45.000  
G16  20205422.879   106180219.833         341.881          46.000                                                                  
G28  22909673.796   120391140.248       -2612.568          42.000    22909663.019    93811232.134       -2036.123          43.000  
G31  20994716.146   110327983.060       -1579.349          47.000    20994702.544    85969798.732       -1230.424          44.000  
G03  24384997.955   128144088.134       -2875.916          36.000    24384993.141    99852468.546       -2241.332          37.000  
G18  25247385.440   132675898.143        1455.291          34.000    25247376.641   103383797.636        1133.473          39.000  
C16  36733493.770   191280906.904           4.447          48.000    36733477.600   147910491.116           3.448          48.000  
C19  23668987.783   123250635.398       -2007.824          47.000                                                                  
C27  23671272.117   123262590.233        1273.009          46.000                                                                  
C06  36291188.813   188977726.242           2.234          47.000    36291168.357   146129502.681           1.516          49.000  
C09  37380175.767   194648364.048         110.482          45.000    37380158.706   150514409.740          85.364          49.000  
C22  24675587.859   128492287.731         823.811          41.000                                                                  
G26  20740641.938   108992818.393       -1848.620          48.000    20740632.825    84929424.456       -1440.436          46.000  
G27  22091325.086   116090702.015        3095.659          43.000    22091316.902    90460258.655        2412.301          42.000  
G09  24061029.173   126441554.725        2860.879          36.000    24061021.489    98525865.565        2228.625          38.000  
C28  24689234.020   128563327.339        -881.315          44.000                                                                  
C07  38089507.304   198342054.469         823.154          41.000    38089488.327   153370589.054         636.376          45.000  
C20  25354082.434   132025357.129       -3599.907          45.000                                                                  
C36  23943812.678   124681714.712        1442.145          43.000                                                                  
C37  24876923.187   129540672.171       -2374.842          42.000                                                                  
C10  39215115.641   204203391.900         755.032          38.000    39215101.898   157903024.838         583.843          44.000  
G08  24392534.723   128183633.704        3624.681          35.000    24392538.267    99883386.354        2824.232          39.000  
G29  25100056.957   131901736.596       -3498.715          32.000    25100053.764   102780529.151       -2726.436          36.000  
C30  25305812.437   131774034.379        2768.560          42.000                                                                  
C13                                                                  40614690.539   163538487.527       -1892.073          37.000  
C08                                                                  41534395.689   167241796.697       -1850.188          40.000  
> 2025 11 03 07 37 48.2400000  0 26                     
G04  21470364.728   112827535.053        1309.769          44.000    21470353.416    87917506.745        1020.457          45.000  
G16  20205420.294   106180206.158         341.856          46.000                                                                  
G28  22909693.686   120391244.774       -2612.880          42.000    22909682.925    93811313.570       -2035.985          43.000  
G31  20994728.171   110328046.226       -1579.266          47.000    20994714.573    85969847.960       -1230.644          44.000  
G03  24385019.849   128144203.169       -2875.948          36.000    24385015.027    99852558.173       -2240.935          37.000  
G18  25247374.371   132675839.979        1454.594          34.000    25247365.554   103383752.302        1133.414          39.000  
C16  36733493.723   191280906.730           4.389          48.000    36733477.561   147910490.981           3.388          48.000  
C19  23669003.215   123250715.714       -2007.917          47.000                                                                  
C27  23671262.354   123262539.305        1273.133          46.000                                                                  
C06  36291188.780   188977726.154           2.202          47.000    36291168.342   146129502.609           1.654          49.000  
C09  37380174.883   194648359.632         110.406          45.000    37380157.849   150514406.323          85.378          49.000  
C22  24675581.529   128492254.785         823.726          41.000                                                                  
G26  20740656.018   108992892.339       -1848.663          48.000    20740646.910    84929482.078       -1440.552          46.000  
G27  22091301.502   116090578.182        3095.795          43.000    22091293.347    90460162.177        2412.060          42.000  
G09  24061007.389   126441440.308        2860.634          36.000    24060999.722    98525776.375        2229.359          38.000  
C28  24689240.783   128563362.590        -881.318          44.000                                                                  
C07  38089500.998   198342021.542         823.183          41.000    38089481.983   153370563.603         636.289          45.000  
C20  25354110.090   132025501.129       -3600.002          45.000                                                                  
C36  23943801.613   124681657.020        1442.236          43.000                                                                  
C37  24876941.433   129540767.163       -2374.836          42.000                                                                  
C10  39215109.855   204203361.689         755.193          38.000    39215096.096   157903001.486         583.790          44.000  
G08  24392507.133   128183488.729        3624.486          35.000    24392510.678    99883273.381        2824.282          39.000  
G29  25100083.574   131901876.600       -3499.702          32.000    25100080.406   102780638.228       -2726.896          36.000  
C30  25305791.196   131773923.635        2768.503          42.000                                                                  
C13                                                                  40614709.335   163538563.188       -1891.647          37.000  
C08                                                                  41534414.086   167241870.704       -1850.158          40.000  
> 2025 11 03 07 37 48.2800000  0 26                     
G04  21470354.762   112827482.675        1309.554          44.000    21470343.411    87917465.930        1020.358          45.000  
G16  20205417.680   106180192.478         341.944          46.000                                                                  
G28  22909713.543   120391349.292       -2612.962          42.000    22909702.803    93811395.012       -2036.024          43.000  
G31  20994740.181   110328109.385       -1579.094          47.000    20994726.594    85969897.182       -1230.605          44.000  
G03  24385041.721   128144318.202       -2875.930          36.000    24385036.930    99852647.822       -2241.150          37.000  
G18  25247363.332   132675781.796        1454.469          34.000    25247354.466   103383706.957        1133.555          39.000  
C16  36733493.696   191280906.551           4.436          48.000    36733477.532   147910490.840           3.461          48.000  
C19  23669018.656   123250796.028       -2007.899          47.000                                                                  
C27  23671252.581   123262488.377        1273.163          46.000                                                                  
C06  36291188.748   188977726.070           2.129          47.000    36291168.307   146129502.541           1.671          49.000  
C09  37380174.018   194648355.210         110.472          45.000    37380156.992   150514402.906          85.404          49.000  
C22  24675575.211   128492221.859         823.298          41.000                                                                  
G26  20740670.072   108992966.270       -1848.401          48.000    20740660.982    84929539.693       -1440.472          46.000  
G27  22091277.942   116090454.359        3095.649          43.000    22091269.777    90460065.690        2412.096          42.000  
G09  24060985.620   126441325.889        2860.530          36.000    24060977.934    98525687.204        2229.405          38.000  
C28  24689247.560   128563397.845        -881.381          44.000                                                                  
C07  38089494.674   198341988.617         823.208          41.000    38089475.650   153370538.139         636.495          45.000  
C20  25354137.742   132025645.122       -3599.904          45.000                                                                  
C36  23943790.528   124681599.336        1442.151          43.000                                                                  
C37  24876959.682   129540862.151       -2374.749          42.000                                                                  
C10  39215104.052   204203331.486         755.160          38.000    39215090.304   157902978.125         583.911          44.000  
G08  24392479.546   128183343.743        3624.602          35.000    24392483.091    99883160.409        2824.342          39.000  
G29  25100110.209   131902016.560       -3499.392          32.000    25100107.045   102780747.308       -2727.137          36.000  
C30  25305769.928   131773812.886        2768.626          42.000                                                                  
C13                                                                  40614728.118   163538638.867       -1891.873          37.000  
C08                                                                  41534432.497   167241944.715       -1850.258          40.000  
> 2025 11 03 07 37 48.3200000  0 26                     
G04  21470344.785   112827430.286        1309.619          44.000    21470333.441    87917425.103        1020.510          45.000  
G16  20205415.025   106180178.799         341.949          46.000                                                                  
G28  22909733.425   120391453.822       -2613.193          42.000    22909722.674    93811476.463       -2036.212          43.000  
G31  20994752.203   110328172.554       -1579.144          47.000    20994738.615    85969946.405       -1230.589          44.000  
G03  24385063.621   128144433.239       -2876.003          36.000    24385058.820    99852737.442       -2240.757          37.000  
G18  25247352.284   132675723.587        1454.914          34.000    25247343.400   103383661.607        1133.719          39.000  
C16  36733493.658   191280906.369           4.514          48.000    36733477.510   147910490.697           3.523          48.000  
C19  23669034.082   123250876.339       -2007.825          47.000                                                                  
C27  23671242.762   123262437.456        1273.051          46.000                                                                  
C06  36291188.734   188977725.981           2.141          47.000    36291168.292   146129502.475           1.636          49.000  
C09  37380173.162   194648350.780         110.671          45.000    37380156.121   150514399.482          85.545          49.000  
C22  24675568.868   128492188.928         823.166          41.000                                                                  
G26  20740684.132   108993040.204       -1848.364          48.000    20740675.072    84929597.311       -1440.448          46.000  
G27  22091254.392   116090330.531        3095.697          43.000    22091246.202    90459969.199        2412.222          42.000  
G09  24060963.829   126441211.464        2860.588          36.000    24060956.153    98525598.051        2229.066          38.000  
C28  24689254.315   128563433.093        -881.261          44.000                                                                  
C07  38089488.353   198341955.699         823.070          41.000    38089469.315   153370512.677         636.524          45.000  
C20  25354165.403   132025789.108       -3599.712          45.000                                                                  
C36  23943779.465   124681541.649        1442.151          43.000                                                                  
C37  24876977.917   129540957.145       -2374.822          42.000                                                                  
C10  39215098.254   204203301.284         755.077          38.000    39215084.498   157902954.773         583.830          44.000  
G08  24392451.940   128183198.744        3624.838          35.000    24392455.514    99883047.428        2824.481          39.000  
G29  25100136.846   131902156.525       -3499.314          32.000    25100133.674   102780856.369       -2726.839          36.000  
C30  25305748.656   131773702.141        2768.579          42.000                                                                  
C13                                                                  40614746.884   163538714.541       -1891.899          37.000  
C08                                                                  41534450.868   167242018.742       -1850.571          40.000  
> 2025 11 03 07 37 48.3600000  0 26                     
G04  21470334.829   112827377.891        1309.763          44.000    21470323.456    87917384.282        1020.476          45.000  
G16  20205412.434   106180165.127         341.786          46.000                                                                  
G28  22909753.309   120391558.345       -2613.184          42.000    22909742.564    93811557.908       -2036.198          43.000  
G31  20994764.200   110328235.724       -1579.256          47.000    20994750.626    85969995.624       -1230.509          44.000  
G03  24385085.472   128144548.258       -2875.698          36.000    24385080.716    99852827.074       -2240.765          37.000  
G18  25247341.201   132675665.409        1454.616          34.000    25247332.316   103383616.246        1133.942          39.000  
C16  36733493.632   191280906.190           4.450          48.000    36733477.473   147910490.565           3.350          48.000  
C19  23669049.484   123250956.661       -2008.029          47.000                                                                  
C27  23671232.963   123262386.549        1272.713          46.000                                                                  
C06  36291188.721   188977725.899           2.063          47.000    36291168.303   146129502.406           1.689          49.000  
C09  37380172.286   194648346.360         110.576          45.000    37380155.273   150514396.066          85.479          49.000  
C22  24675562.539   128492155.993         823.276          41.000                                                                  
G26  20740698.219   108993114.150       -1848.578          48.000    20740689.143    84929654.921       -1440.314          46.000  
G27  22091230.815   116090206.707        3095.618          43.000    22091222.641    90459872.712        2412.200          42.000  
G09  24060942.050   126441097.021        2860.999          36.000    24060934.386    98525508.889        2228.998          38.000  
C28  24689261.073   128563468.345        -881.318          44.000                                                                  
C07  38089482.018   198341922.789         822.790          41.000    38089462.962   153370487.218         636.473          45.000  
C20  25354193.073   132025933.100       -3599.774          45.000                                                                  
C36  23943768.364   124681483.959        1442.194          43.000                                                                  
C37  24876996.146   129541052.146       -2374.992          42.000                                                                  
C10  39215092.474   204203271.072         755.225          38.000    39215078.686   157902931.410         584.008          44.000  
G08  24392424.366   128183053.796        3624.160          35.000    24392427.935    99882934.465        2824.232          39.000  
G29  25100163.462   131902296.490       -3499.236          32.000    25100160.294   102780965.423       -2726.651          36.000  
C30  25305727.382   131773591.405        2768.387          42.000                                                                  
C13                                                                  40614765.667   163538790.230       -1892.171          37.000  
C08                                                                  41534469.264   167242092.759       -1850.620          40.000  
> 2025 11 03 07 37 48.4000000  0 26                     
G04  21470324.873   112827325.524        1309.352          44.000    21470313.496    87917343.474        1020.219          45.000  
G16  20205409.839   106180151.475         341.358          46.000                                                                  
G28  22909773.192   120391662.866       -2613.126          42.000    22909762.451    93811639.361       -2036.348          43.000  
G31  20994776.238   110328298.911       -1579.605          47.000    20994762.669    85970044.860       -1230.770          44.000  
G03  24385107.355   128144663.319       -2876.313          36.000    24385102.610    99852916.728       -2241.202          37.000  
G18  25247330.127   132675607.272        1453.665          34.000    25247321.244   103383570.925        1133.342          39.000  
C16  36733493.586   191280906.020           4.295          48.000    36733477.439   147910490.434           3.258          48.000  
C19  23669064.866   123251036.991       -2008.262          47.000                                                                  
C27  23671223.157   123262335.642        1272.560          46.000                                                                  
C06  36291188.708   188977725.826           1.841          47.000    36291168.331   146129502.347           1.545          49.000  
C09  37380171.467   194648341.956         110.224          45.000    37380154.408   150514392.661          85.197          49.000  
C22  24675556.222   128492123.078         822.930          41.000                                                                  
G26  20740712.301   108993188.109       -1848.938          48.000    20740703.246    84929712.544       -1440.491          46.000  
G27  22091207.248   116090082.900        3095.256          43.000    22091199.064    90459776.231        2412.036          42.000  
G09  24060920.259   126440982.597        2860.802          36.000    24060912.622    98525419.761        2228.336          38.000  
C28  24689267.842   128563503.618        -881.722          44.000                                                                  
C07  38089475.705   198341889.889         822.474          41.000    38089456.670   153370461.778         636.100          45.000  
C20  25354220.712   132026077.113       -3600.178          45.000                                                                  
C36  23943757.292   124681426.286        1441.882          43.000                                                                  
C37  24877014.376   129541147.150       -2375.164          42.000                                                                  
C10  39215086.678   204203240.884         754.842          38.000    39215072.907   157902908.059         583.854          44.000  
G08  24392396.804   128182908.840        3623.821          35.000    24392400.341    99882821.519        2823.710          39.000  
G29  25100190.098   131902436.455       -3499.369          32.000    25100186.940   102781074.485       -2726.640          36.000  
C30  25305706.141   131773480.662        2768.457          42.000                                                                  
C13                                                                  40614784.471   163538865.916       -1892.268          37.000  
C08                                                                  41534487.637   167242166.780       -1850.650          40.000  
> 2025 11 03 07 37 48.4400000  0 26                     
G04  21470314.896   112827273.159        1309.106          44.000    21470303.534    87917302.667        1020.122          45.000  
G16  20205407.233   106180137.817         341.256          46.000                                                                  
G28  22909793.102   120391767.399       -2613.275          42.000    22909782.334    93811720.814       -2036.415          43.000  
G31  20994788.263   110328362.096       -1579.723          47.000    20994774.710    85970094.098       -1230.948          44.000  
G03  24385129.261   128144778.348       -2876.003          36.000    24385124.519    99853006.370       -2241.146          37.000  
G18  25247319.051   132675549.068        1454.454          34.000    25247310.188   103383525.589        1133.298          39.000  
C16  36733493.541   191280905.857           4.085          48.000    36733477.389   147910490.308           3.131          48.000  
C19  23669080.273   123251117.323       -2008.359          47.000                                                                  
C27  23671213.369   123262284.736        1272.500          46.000                                                                  
C06  36291188.704   188977725.751           1.791          47.000    36291168.331   146129502.292           1.384          49.000  
C09  37380170.607   194648337.551         110.056          45.000    37380153.599   150514389.255          85.100          49.000  
C22  24675549.878   128492090.149         822.990          41.000                                                                  
G26  20740726.399   108993262.068       -1849.091          48.000    20740717.350    84929770.169       -1440.601          46.000  
G27  22091183.677   116089959.089        3095.182          43.000    22091175.507    90459679.748        2412.001          42.000  
G09  24060898.496   126440868.220        2859.850          36.000    24060890.839    98525330.606        2228.500          38.000  
C28  24689274.617   128563538.890        -881.872          44.000                                                                  
C07  38089469.368   198341856.960         822.876          41.000    38089450.353   153370436.331         636.072          45.000  
C20  25354248.354   132026221.119       -3600.261          45.000                                                                  
C36  23943746.191   124681368.612        1441.791          43.000                                                                  
C37  24877032.638   129541242.149       -2375.154          42.000                                                                  
C10  39215080.896   204203210.720         754.227          38.000    39215067.132   157902884.716         583.636          44.000  
G08  24392369.230   128182763.860        3624.248          35.000    24392372.757    99882708.560        2823.771          39.000  
G29  25100216.709   131902576.435       -3499.527          32.000    25100213.582   102781183.544       -2726.523          36.000  
C30  25305684.871   131773369.926        2768.361          42.000                                                                  
C13                                                                  40614803.267   163538941.601       -1892.278          37.000  
C08                                                                  41534506.029   167242240.801       -1850.649          40.000  
> 2025 11 03 07 37 48.4800000  0 26                     
G04  21470304.912   112827220.782        1309.210          44.000    21470293.558    87917261.861        1020.060          45.000  
G16  20205404.640   106180124.153         341.421          46.000                                                                  
G28  22909812.983   120391871.933       -2613.374          42.000    22909802.241    93811802.269       -2036.458          43.000  
G31  20994800.292   110328425.277       -1579.676          47.000    20994786.747    85970143.329       -1230.920          44.000  
G03  24385151.162   128144893.415       -2876.521          36.000    24385146.427    99853096.024       -2241.304          37.000  
G18  25247307.958   132675490.876        1454.658          34.000    25247299.118   103383480.273        1132.898          39.000  
C16  36733493.524   191280905.686           4.145          48.000    36733477.355   147910490.174           3.228          48.000  
C19  23669095.727   123251197.649       -2008.297          47.000                                                                  
C27  23671203.587   123262233.821        1272.680          46.000                                                                  
C06  36291188.696   188977725.675           1.826          47.000    36291168.319   146129502.235           1.344          49.000  
C09  37380169.753   194648333.139         110.114          45.000    37380152.760   150514385.840          85.219          49.000  
C22  24675543.570   128492057.220         823.081          41.000                                                                  
G26  20740740.469   108993336.016       -1848.883          48.000    20740731.413    84929827.798       -1440.741          46.000  
G27  22091160.128   116089835.270        3095.278          43.000    22091151.936    90459583.273        2411.875          42.000  
G09  24060876.729   126440753.820        2859.737          36.000    24060869.064    98525241.463        2228.416          38.000  
C28  24689281.398   128563574.155        -881.810          44.000                                                                  
C07  38089463.035   198341824.044         822.875          41.000    38089444.046   153370410.881         636.167          45.000  
C20  25354276.007   132026365.122       -3600.210          45.000                                                                  
C36  23943735.107   124681310.932        1441.876          43.000                                                                  
C37  24877050.866   129541337.146       -2375.040          42.000                                                                  
C10  39215075.100   204203180.489         755.094          38.000    39215061.320   157902861.376         583.457          44.000  
G08  24392341.620   128182618.900        3624.159          35.000    24392345.143    99882595.592        2823.933          39.000  
G29  25100243.290   131902716.370       -3498.812          32.000    25100240.211   102781292.624       -2726.922          36.000  
C30  25305663.589   131773259.198        2768.225          42.000                                                                  
C13                                                                  40614822.065   163539017.277       -1892.059          37.000  
C08                                                                  41534524.382   167242314.819       -1850.513          40.000  
> 2025 11 03 07 37 48.5200000  0 26                     
G04  21470294.922   112827168.406        1309.290          44.000    21470283.578    87917221.050        1020.166          45.000  
G16  20205402.027   106180110.488         341.541          46.000                                                                  
G28  22909832.872   120391976.453       -2613.119          42.000    22909822.117    93811883.722       -2036.424          43.000  
G31  20994812.290   110328488.459       -1579.651          47.000    20994798.766    85970192.571       -1231.037          44.000  
G03  24385173.030   128145008.449       -2876.224          36.000    24385168.318    99853185.665       -2241.167          37.000  
G18  25247296.853   132675432.689        1454.793          34.000    25247288.047   103383434.947        1132.948          39.000  
C16  36733493.500   191280905.515           4.179          48.000    36733477.342   147910490.040           3.274          48.000  
C19  23669111.170   123251277.976       -2008.266          47.000                                                                  
C27  23671193.812   123262182.912        1272.723          46.000                                                                  
C06  36291188.714   188977725.592           1.989          47.000    36291168.316   146129502.176           1.404          49.000  
C09  37380168.905   194648328.729         110.155          45.000    37380151.926   150514382.421          85.393          49.000  
C22  24675537.244   128492024.285         823.231          41.000                                                                  
G26  20740754.548   108993409.958       -1848.651          48.000    20740745.469    84929885.426       -1440.771          46.000  
G27  22091136.573   116089711.455        3095.319          43.000    22091128.358    90459486.785        2412.074          42.000  
G09  24060854.957   126440639.410        2859.930          36.000    24060847.286    98525152.292        2228.882          38.000  
C28  24689288.205   128563609.416        -881.688          44.000                                                                  
C07  38089456.727   198341791.136         822.776          41.000    38089437.675   153370385.428         636.242          45.000  
C20  25354303.662   132026509.120       -3600.047          45.000                                                                  
C36  23943724.061   124681253.254        1441.888          43.000                                                                  
C37  24877069.093   129541432.157       -2375.243          42.000                                                                  
C10  39215069.286   204203150.303         754.867          38.000    39215055.535   157902838.024         583.645          44.000  
G08  24392314.020   128182473.918        3624.254          35.000    24392317.563    99882482.639        2823.782          39.000  
G29  25100269.894   131902856.336       -3498.896          32.000    25100266.865   102781401.692       -2726.919          36.000  
C30  25305642.337   131773148.453        2768.479          42.000                                                                  
C13                                                                  40614840.855   163539092.950       -1891.875          37.000  
C08                                                                  41534542.736   167242388.816       -1850.032          40.000  
> 2025 11 03 07 37 48.5600000  0 26                     
G04  21470284.944   112827116.033        1309.318          44.000    21470273.604    87917180.232        1020.337          45.000  
G16  20205399.403   106180096.822         341.615          46.000                                                                  
G28  22909852.775   120392080.988       -2613.246          42.000    22909842.010    93811965.167       -2036.208          43.000  
G31  20994824.280   110328551.634       -1579.502          47.000    20994810.802    85970241.795       -1230.751          44.000  
G03  24385194.901   128145123.489       -2876.121          36.000    24385190.229    99853275.325       -2241.445          37.000  
G18  25247285.778   132675374.523        1454.429          34.000    25247276.982   103383389.621        1133.031          39.000  
C16  36733493.455   191280905.338           4.302          48.000    36733477.316   147910489.909           3.269          48.000  
C19  23669126.591   123251358.303       -2008.234          47.000                                                                  
C27  23671184.043   123262131.999        1272.803          46.000                                                                  
C06  36291188.713   188977725.510           2.037          47.000    36291168.315   146129502.112           1.501          49.000  
C09  37380168.050   194648324.308         110.367          45.000    37380151.091   150514379.003          85.428          49.000  
C22  24675530.928   128491991.348         823.386          41.000                                                                  
G26  20740768.618   108993483.907       -1848.682          48.000    20740759.548    84929943.048       -1440.686          46.000  
G27  22091113.010   116089587.638        3095.407          43.000    22091104.785    90459390.320        2411.735          42.000  
G09  24060833.169   126440524.973        2860.555          36.000    24060825.515    98525063.119        2229.210          38.000  
C28  24689294.984   128563644.678        -881.589          44.000                                                                  
C07  38089450.401   198341758.230         822.677          41.000    38089431.343   153370359.977         636.248          45.000  
C20  25354331.309   132026653.118       -3599.958          45.000                                                                  
C36  23943713.014   124681195.573        1441.968          43.000                                                                  
C37  24877087.324   129541527.148       -2374.971          42.000                                                                  
C10  39215063.487   204203120.114         754.740          38.000    39215049.735   157902814.675         583.678          44.000  
G08  24392286.425   128182328.946        3624.139          35.000    24392289.995    99882369.673        2823.979          39.000  
G29  25100296.506   131902996.307       -3499.094          32.000    25100293.508   102781510.773       -2727.065          36.000  
C30  25305621.086   131773037.708        2768.619          42.000                                                                  
C13                                                                  40614859.654   163539168.626       -1891.833          37.000  
C08                                                                  41534561.115   167242462.827       -1850.077          40.000  
> 2025 11 03 07 37 48.6000000  0 26                     
G04  21470274.958   112827063.663        1309.257          44.000    21470263.655    87917139.422        1020.293          45.000  
G16  20205396.780   106180083.157         341.594          46.000                                                                  
G28  22909872.679   120392185.524       -2613.391          42.000    22909861.904    93812046.613       -2036.141          43.000  
G31  20994836.328   110328614.819       -1579.577          47.000    20994822.814    85970291.019       -1230.626          44.000  
G03  24385216.784   128145238.529       -2876.046          36.000    24385212.132    99853364.966       -2241.219          37.000  
G18  25247274.702   132675316.345        1454.372          34.000    25247265.905   103383344.269        1133.551          39.000  
C16  36733493.416   191280905.167           4.290          48.000    36733477.312   147910489.771           3.386          48.000  
C19  23669142.007   123251438.633       -2008.271          47.000                                                                  
C27  23671174.273   123262081.089        1272.766          46.000                                                                  
C06  36291188.734   188977725.430           2.028          47.000    36291168.328   146129502.049           1.538          49.000  
C09  37380167.220   194648319.884         110.517          45.000    37380150.235   150514375.590          85.361          49.000  
C22  24675524.604   128491958.442         822.906          41.000                                                                  
G26  20740782.718   108993557.853       -1848.645          48.000    20740773.611    84930000.664       -1440.497          46.000  
G27  22091089.435   116089463.820        3095.443          43.000    22091081.212    90459293.833        2411.926          42.000  
G09  24060811.379   126440410.546        2860.754          36.000    24060803.757    98524973.977        2228.812          38.000  
C28  24689301.748   128563679.940        -881.560          44.000                                                                  
C07  38089444.076   198341725.329         822.535          41.000    38089425.045   153370334.530         636.180          45.000  
C20  25354358.960   132026797.112       -3599.840          45.000                                                                  
C36  23943701.934   124681137.892        1442.010          43.000                                                                  
C37  24877105.559   129541622.156       -2375.131          42.000                                                                  
C10  39215057.691   204203089.909         754.852          38.000    39215043.910   157902791.320         583.801          44.000  
G08  24392258.862   128182183.990        3623.834          35.000    24392262.408    99882256.708        2824.013          39.000  
G29  25100323.140   131903136.346       -3500.477          32.000    25100320.134   102781619.845       -2726.968          36.000  
C30  25305599.822   131772926.982        2768.333          42.000                                                                  
C13                                                                  40614878.458   163539244.323       -1892.216          37.000  
C08                                                                  41534579.485   167242536.851       -1850.411          40.000  
> 2025 11 03 07 37 48.6400000  0 26                     
G04  21470265.013   112827011.294        1309.177          44.000    21470253.697    87917098.619        1020.134          45.000  
G16  20205394.187   106180069.502         341.420          46.000                                                                  
G28  22909892.582   120392290.067       -2613.558          42.000    22909881.808    93812128.061       -2036.175          43.000  
G31  20994848.356   110328678.001       -1579.580          47.000    20994834.841    85970340.258       -1230.831          44.000  
G03  24385238.679   128145353.577       -2876.104          36.000    24385234.019    99853454.579       -2240.637          37.000  
G18  25247263.623   132675258.157        1454.513          34.000    25247254.815   103383298.935        1133.471          39.000  
C16  36733493.360   191280904.999           4.211          48.000    36733477.295   147910489.641           3.312          48.000  
C19  23669157.447   123251518.963       -2008.290          47.000                                                                  
C27  23671164.472   123262030.186        1272.605          46.000                                                                  
C06  36291188.710   188977725.361           1.823          47.000    36291168.305   146129501.985           1.562          49.000  
C09  37380166.380   194648315.472         110.411          45.000    37380149.379   150514372.177          85.336          49.000  
C22  24675518.269   128491925.527         822.806          41.000                                                                  
G26  20740796.816   108993631.808       -1848.822          48.000    20740787.694    84930058.291       -1440.594          46.000  
G27  22091065.858   116089340.007        3095.350          43.000    22091057.677    90459197.357        2411.882          42.000  
G09  24060789.608   126440296.156        2860.111          36.000    24060781.994    98524884.843        2228.429          38.000  
C28  24689308.535   128563715.206        -881.641          44.000                                                                  
C07  38089437.724   198341692.403         822.954          41.000    38089418.750   153370309.081         636.179          45.000  
C20  25354386.580   132026941.112       -3599.960          45.000                                                                  
C36  23943690.858   124681080.213        1441.992          43.000                                                                  
C37  24877123.810   129541717.161       -2375.142          42.000                                                                  
C10  39215051.883   204203059.718         754.718          38.000    39215038.121   157902767.969         583.796          44.000  
G08  24392231.261   128182039.018        3623.990          35.000    24392234.829    99882143.749        2823.950          39.000  
G29  25100349.742   131903276.282       -3499.283          32.000    25100346.777   102781728.903       -2726.637          36.000  
C30  25305578.571   131772816.257        2768.124          42.000                                                                  
C13                                                                  40614897.254   163539320.006       -1892.142          37.000  
C08                                                                  41534597.868   167242610.883       -1850.762          40.000  
> 2025 11 03 07 37 48.6800000  0 26                     
G04  21470255.047   112826958.920        1309.260          44.000    21470243.743    87917057.810        1020.131          46.000  
G16  20205391.575   106180055.838         341.508          46.000                                                                  
G28  22909912.464   120392394.591       -2613.253          42.000    22909901.686    93812209.520       -2036.409          43.000  
G31  20994860.392   110328741.184       -1579.619          47.000    20994846.857    85970389.488       -1230.846          44.000  
G03  24385260.556   128145468.623       -2876.125          36.000    24385255.912    99853544.239       -2241.133          37.000  
G18  25247252.557   132675200.027        1453.540          34.000    25247243.743   103383253.588        1133.614          39.000  
C16  36733493.371   191280904.827           4.252          48.000    36733477.303   147910489.512           3.225          48.000  
C19  23669172.876   123251599.294       -2008.290          47.000                                                                  
C27  23671154.704   123261979.275        1272.686          46.000                                                                  
C06  36291188.735   188977725.279           1.940          47.000    36291168.290   146129501.920           1.615          49.000  
C09  37380165.560   194648311.051         110.481          45.000    37380148.511   150514368.761          85.355          49.000  
C22  24675511.911   128491892.594         823.091          41.000                                                                  
G26  20740810.899   108993705.766       -1848.956          48.000    20740801.750    84930115.917       -1440.674          46.000  
G27  22091042.282   116089216.190        3095.376          43.000    22091034.108    90459100.877        2411.943          42.000  
G09  24060767.832   126440181.738        2860.218          36.000    24060760.213    98524795.679        2228.843          38.000  
C28  24689315.297   128563750.478        -881.798          44.000                                                                  
C07  38089431.395   198341659.474         823.207          41.000    38089412.448   153370283.629         636.236          45.000  
C20  25354414.215   132027085.127       -3600.301          45.000                                                                  
C36  23943679.772   124681022.534        1441.986          43.000                                                                  
C37  24877142.067   129541812.155       -2374.963          42.000                                                                  
C10  39215046.117   204203029.511         754.920          38.000    39215032.319   157902744.609         583.910          44.000  
G08  24392203.665   128181894.044        3624.181          35.000    24392207.232    99882030.776        2824.191          39.000  
G29  25100376.358   131903416.282       -3499.840          32.000    25100373.413   102781837.939       -2725.938          36.000  
C30  25305557.303   131772705.498        2768.659          42.000                                                                  
C13                                                                  40614916.058   163539395.677       -1891.887          37.000  
C08                                                                  41534616.270   167242684.912       -1850.796          40.000  
> 2025 11 03 07 37 48.7200000  0 26                     
G04  21470245.073   112826906.557        1309.130          44.000    21470233.776    87917017.000        1020.172          46.000  
G16  20205388.979   106180042.182         341.371          46.000                                                                  
G28  22909932.352   120392499.110       -2613.016          42.000    22909921.583    93812290.978       -2036.507          43.000  
G31  20994872.419   110328804.363       -1579.572          47.000    20994858.887    85970438.722       -1230.892          44.000  
G03  24385282.444   128145583.666       -2876.122          36.000    24385277.812    99853633.902       -2241.464          37.000  
G18  25247241.478   132675141.852        1453.903          34.000    25247232.673   103383208.265        1133.203          39.000  
C16  36733493.322   191280904.658           4.219          48.000    36733477.262   147910489.379           3.259          48.000  
C19  23669188.311   123251679.623       -2008.277          47.000                                                                  
C27  23671144.913   123261928.371        1272.587          46.000                                                                  
C06  36291188.725   188977725.196           2.037          47.000    36291168.254   146129501.862           1.527          49.000  
C09  37380164.679   194648306.650         110.174          45.000    37380147.659   150514365.346          85.354          49.000  
C22  24675505.604   128491859.666         823.139          42.000                                                                  
G26  20740824.977   108993779.715       -1848.840          48.000    20740815.818    84930173.542       -1440.698          46.000  
G27  22091018.725   116089092.382        3095.241          43.000    22091010.551    90459004.404        2411.866          42.000  
G09  24060746.056   126440067.333        2860.096          36.000    24060738.438    98524706.516        2229.066          38.000  
C28  24689322.070   128563785.751        -881.863          44.000                                                                  
C07  38089425.071   198341626.573         822.723          41.000    38089406.125   153370258.172         636.392          45.000  
C20  25354441.863   132027229.138       -3600.330          45.000                                                                  
C36  23943668.692   124680964.855        1441.949          43.000                                                                  
C37  24877160.285   129541907.154       -2374.996          42.000                                                                  
C10  39215040.306   204202999.333         754.560          38.000    39215026.488   157902721.272         583.546          44.000  
G08  24392176.058   128181749.043        3624.858          35.000    24392179.635    99881917.809        2824.170          39.000  
G29  25100402.989   131903556.227       -3499.183          32.000    25100400.050   102781947.013       -2726.412          36.000  
C30  25305536.011   131772594.770        2768.338          42.000                                                                  
C13                                                                  40614934.859   163539471.365       -1892.107          37.000  
C08                                                                  41534634.660   167242758.929       -1850.605          40.000  
> 2025 11 03 07 37 48.7600000  0 26                     
G04  21470235.116   112826854.194        1308.999          44.000    21470223.823    87916976.200        1020.034          46.000  
G16  20205386.406   106180028.532         341.261          46.000                                                                  
G28  22909952.254   120392603.641       -2613.166          42.000    22909941.481    93812372.437       -2036.529          43.000  
G31  20994884.454   110328867.550       -1579.650          47.000    20994870.908    85970487.963       -1231.055          44.000  
G03  24385304.348   128145698.727       -2876.460          36.000    24385299.701    99853723.536       -2241.129          37.000  
G18  25247230.432   132675083.659        1454.423          34.000    25247221.588   103383162.945        1132.987          39.000  
C16  36733493.287   191280904.489           4.199          48.000    36733477.223   147910489.248           3.226          48.000  
C19  23669203.705   123251759.960       -2008.400          47.000                                                                  
C27  23671135.112   123261877.475        1272.409          46.000                                                                  
C06  36291188.697   188977725.124           1.877          47.000    36291168.239   146129501.803           1.476          49.000  
C09  37380163.845   194648302.236         110.236          45.000    37380146.826   150514361.942          85.129          49.000  
C22  24675499.268   128491826.744         823.107          42.000                                                                  
G26  20740839.049   108993853.674       -1848.956          48.000    20740829.900    84930231.174       -1440.802          46.000  
G27  22090995.158   116088968.577        3095.109          43.000    22090986.985    90458907.931        2411.830          42.000  
G09  24060724.294   126439952.933        2859.935          36.000    24060716.675    98524617.382        2228.665          38.000  
C28  24689328.839   128563821.029        -881.991          44.000                                                                  
C07  38089418.770   198341593.679         822.365          41.000    38089399.794   153370232.728         636.198          45.000  
C20  25354469.532   132027373.147       -3600.300          45.000                                                                  
C36  23943657.602   124680907.182        1441.858          43.000                                                                  
C37  24877178.515   129542002.160       -2375.156          42.000                                                                  
C10  39215034.513   204202969.138         754.687          38.000    39215020.688   157902697.933         583.423          44.000  
G08  24392148.465   128181604.061        3624.830          35.000    24392152.075    99881804.870        2823.683          39.000  
G29  25100429.648   131903696.214       -3499.596          32.000    25100426.677   102782056.108       -2727.045          36.000  
C30  25305514.732   131772484.036        2768.282          42.000                                                                  
C13                                                                  40614953.644   163539547.058       -1892.322          37.000  
C08                                                                  41534653.029   167242832.935       -1850.266          40.000  
> 2025 11 03 07 37 48.8000000  0 26                     
G04  21470225.159   112826801.830        1309.026          44.000    21470213.866    87916935.400        1019.933          46.000  
G16  20205383.817   106180014.873         341.406          46.000                                                                  
G28  22909972.152   120392708.180       -2613.443          42.000    22909961.375    93812453.884       -2036.302          43.000  
G31  20994896.460   110328930.735       -1579.689          47.000    20994882.953    85970537.205       -1231.098          44.000  
G03  24385326.233   128145813.776       -2876.346          35.000    24385321.582    99853813.201       -2241.523          37.000  
G18  25247219.392   132675025.499        1454.115          34.000    25247210.516   103383117.627        1132.914          39.000  
C16  36733493.266   191280904.320           4.208          48.000    36733477.182   147910489.113           3.294          48.000  
C19  23669219.114   123251840.297       -2008.462          47.000                                                                  
C27  23671125.351   123261826.561        1272.663          46.000                                                                  
C06  36291188.676   188977725.049           1.846          47.000    36291168.222   146129501.755           1.261          49.000  
C09  37380163.015   194648297.822         110.309          45.000    37380145.987   150514358.532          85.139          49.000  
C22  24675492.950   128491793.836         822.841          42.000                                                                  
G26  20740853.092   108993927.625       -1848.865          48.000    20740843.962    84930288.799       -1440.692          46.000  
G27  22090971.609   116088844.768        3095.146          43.000    22090963.432    90458811.453        2411.896          42.000  
G09  24060702.524   126439838.522        2860.027          36.000    24060694.908    98524528.225        2228.802          38.000  
C28  24689335.612   128563856.295        -881.835          44.000                                                                  
C07  38089412.453   198341560.778         822.388          41.000    38089393.474   153370207.282         636.117          45.000  
C20  25354497.195   132027517.142       -3600.023          45.000                                                                  
C36  23943646.534   124680849.508        1441.809          43.000                                                                  
C37  24877196.778   129542097.153       -2374.989          42.000                                                                  
C10  39215028.697   204202938.930         754.985          38.000    39215014.907   157902674.587         583.522          44.000  
G08  24392120.918   128181459.107        3624.194          35.000    24392124.488    99881691.905        2823.901          39.000  
G29  25100456.280   131903836.185       -3499.485          32.000    25100453.301   102782165.187       -2727.213          36.000  
C30  25305493.450   131772373.302        2768.299          42.000                                                                  
C13                                                                  40614972.444   163539622.736       -1892.161          37.000  
C08                                                                  41534671.397   167242906.953       -1850.310          40.000  
