     3.04           OBSERVATION DATA    M: Mixed            RINEX VERSION / TYPE
RTKCONV 2.4.3 b34                       20251103 075606 UTC PGM / RUN BY / DATE 
format: u-blox UBX                                          COMMENT             
log: D:\GPdata\11_3\fingure_330_11_33_1.ubx                 COMMENT             
                                                            MARKER NAME         
                                                            MARKER NUMBER       
                                                            MARKER TYPE         
                                                            OBSERVER / AGENCY   
                                                            REC # / TYPE / VERS 
                                                            ANT # / TYPE        
        0.0000        0.0000        0.0000                  APPROX POSITION XYZ 
        0.0000        0.0000        0.0000                  ANTENNA: DELTA H/E/N
G    8 C1C L1C D1C S1C C2L L2L D2L S2L                      SYS / # / OBS TYPES 
C    8 C2I L2I D2I S2I C7I L7I D7I S7I                      SYS / # / OBS TYPES 
  2025    11    03    07    35   09.8000000     GPS         TIME OF FIRST OBS   
  2025    11    03    07    35   35.4400000     GPS         TIME OF LAST OBS    
G L1C                                                       SYS / PHASE SHIFT   
G L2L  0.00000                                              SYS / PHASE SHIFT   
C L2I                                                       SYS / PHASE SHIFT   
C L7I                                                       SYS / PHASE SHIFT   
  0                                                         GLONASS SLOT / FRQ #
 C1C    0.000 C1P    0.000 C2C    0.000 C2P    0.000        GLONASS COD/PHS/BIS 
                                                            END OF HEADER       
> 2025 11 03 07 35 09.8000000  0 27                     
G04  21511250.709   113042388.9011       1403.857          44.000    21511239.339    88084925.0891       1093.694          45.000  
G16  20216900.447   106240531.1411        421.486          46.000                                                                  
G28  22831538.860   119980542.8731      -2570.614          39.000    22831526.894    93491280.1821      -2003.105          42.000  
G31  20947919.959   110082061.5801      -1524.597          47.000    20947906.213    85778163.5841      -1187.939          44.000  
G03  24298801.965   127691063.2631      -2841.290          35.000    24298797.081    99499513.4141      -2214.271          36.000  
C16  36733578.109   191281363.4041          2.711          48.000    36733565.965   147910843.9421          2.129          48.000  
C19  23609050.981   122938506.8991      -1930.793          46.000                                                                  
C27  23711005.863   123469416.5871       1340.448          45.000                                                                  
C06  36291209.016   188977838.8581          0.510          47.000    36291189.921   146129589.5541          0.449          49.000  
C09  37383419.258   194665258.0151        104.339          45.000    37383402.955   150527473.1351         80.823          48.000  
C22  24701924.428   128629391.7271        909.741          43.000                                                                  
G26  20685648.259   108703818.0981      -1798.751          48.000    20685637.941    84704229.3331      -1401.940          45.000  
G27  22185466.435   116585417.9061       3151.717          42.000    22185457.387    90845742.9091       2455.968          43.000  
G09  24147962.550   126898417.5891       2909.021          34.000    24147958.019    98881806.2241       2265.978          33.000  
C28  24663711.770   128430423.1671       -795.305          43.000                                                                  
C07  38114746.857   198473473.7181        837.895          42.000    38114728.613   153472222.8871        648.461          45.000  
C20  25244753.365   131456048.3741      -3586.177          39.000                                                                  
C36  23987927.142   124911413.3591       1459.923          44.000                                                                  
C37  24804833.632   129165275.9871      -2363.609          44.000                                                                  
C10  39238238.838   204323788.5871        767.498          39.000    39238226.580   157996076.7671        592.999          44.000  
G32  25562088.044   134329676.4711      -4163.181          33.000    25562106.255                1      -3242.865          30.000  
G08  24501901.997   128758342.1961       3633.442          34.000    24501901.721   100331194.1661       2831.147          36.000  
G29  24995298.855                3      -3448.707          36.000    24995289.801                1      -2688.177          34.000  
C30  25390047.503   132212628.5771       2770.377          43.000                                                                  
G18                                                                  25291899.859                        1171.189          28.000  
C13                                                                  40540157.163   163238394.6691      -1895.583          40.000  
C08                                                                  41461387.016   166947811.8181      -1860.505          40.000  
> 2025 11 03 07 35 09.8400000  0 27                     
G04  21511240.038   113042332.774        1403.310          44.000    21511228.651    88084881.338        1093.687          45.000  
G16  20216897.256   106240514.291         421.354          46.000                                                                  
G28  22831558.429   119980645.666       -2570.201          41.000    22831546.456    93491360.294       -2003.059          42.000  
G31  20947931.558   110082122.554       -1524.493          47.000    20947917.829    85778211.103       -1188.055          44.000  
G03  24298823.586   127691176.911       -2841.277          36.000    24298818.713    99499601.972       -2214.192          36.000  
C16  36733578.087   191281363.298           2.605          48.000    36733565.953   147910843.853           2.160          48.000  
C19  23609065.791   122938584.142       -1931.034          46.000                                                                  
C27  23710995.568   123469362.961        1340.576          45.000                                                                  
C06  36291209.008   188977838.833           0.460          47.000    36291189.915   146129589.532           0.436          49.000  
C09  37383418.441   194665253.841         104.311          45.000    37383402.174   150527469.913          80.639          48.000  
C22  24701917.448   128629355.358         909.327          43.000                                                                  
G26  20685661.957   108703890.055       -1798.954          48.000    20685651.620    84704285.400       -1401.858          45.000  
G27  22185442.442   116585291.846        3151.496          42.000    22185433.412    90845644.676        2455.819          43.000  
G09  24147940.439   126898301.260        2908.302          34.000    24147935.874    98881715.546        2266.518          33.000  
C28  24663717.867   128430454.984        -795.549          44.000                                                                  
C07  38114740.428   198473440.192         838.045          42.000    38114722.196   153472196.977         648.013          45.000  
C20  25244780.908   131456191.842       -3586.627          39.000                                                                  
C36  23987915.927   124911354.975        1459.625          44.000                                                                  
C37  24804851.554   129165370.547       -2364.031          44.000                                                                  
C10  39238232.939   204323757.918         767.073          39.000    39238220.676   157996053.056         592.781          45.000  
G32  25562119.739   134329842.976       -4162.939          32.000    25562137.970                       -3242.953          30.000  
G08  24501874.348   128758196.856        3633.579          34.000    24501873.980   100331080.955        2830.547          36.000  
G29  24995324.798                2      -3450.417          36.000    24995316.547                       -2689.016          34.000  
C30  25390026.254   132212517.754        2770.307          43.000                                                                  
G18                                                                  25291888.361                        1169.772          29.000  
C13                                                                  40540175.996   163238470.517       -1896.034          40.000  
C08                                                                  41461405.606   166947886.223       -1860.398          40.000  
> 2025 11 03 07 35 09.8800000  0 27                     
G04  21511229.354   113042276.630        1403.365          44.000    21511217.962    88084837.608        1093.314          45.000  
G16  20216894.066   106240497.454         421.012          46.000                                                                  
G28  22831577.972   119980748.449       -2569.780          41.000    22831566.028    93491440.396       -2002.790          42.000  
G31  20947943.146   110082183.532       -1524.499          47.000    20947929.427    85778258.618       -1188.013          45.000  
G03  24298845.228   127691290.565       -2841.377          36.000    24298840.331    99499690.532       -2214.064          36.000  
C16  36733578.087   191281363.196           2.495          48.000    36733565.941   147910843.778           1.953          48.000  
C19  23609080.626   122938661.390       -1931.217          46.000                                                                  
C27  23710985.253   123469309.338        1340.601          45.000                                                                  
C06  36291209.018   188977838.809           0.464          47.000    36291189.915   146129589.522           0.262          49.000  
C09  37383417.625   194665249.683         104.024          45.000    37383401.361   150527466.695          80.454          48.000  
C22  24701910.472   128629318.989         909.149          43.000                                                                  
G26  20685675.651   108703962.016       -1799.076          48.000    20685665.302    84704341.471       -1401.857          45.000  
G27  22185418.445   116585165.789        3151.388          42.000    22185409.409    90845546.458        2455.482          43.000  
G09  24147918.313   126898184.929        2907.961          34.000    24147913.705    98881624.892        2266.375          33.000  
C28  24663723.953   128430486.812        -795.774          44.000                                                                  
C07  38114734.010   198473406.685         837.776          42.000    38114715.773   153472171.067         647.765          45.000  
C20  25244808.457   131456335.303       -3586.679          39.000                                                                  
C36  23987904.708   124911296.594        1459.438          44.000                                                                  
C37  24804869.884   129165465.100       -2364.061          44.000                                                                  
C10  39238227.049   204323727.263         766.608          39.000    39238214.807   157996029.354         592.552          45.000  
G32  25562151.392   134330009.475       -4162.813          32.000    25562169.644                       -3243.390          30.000  
G08  24501846.667   128758051.537        3633.135          33.000    24501846.197   100330967.758        2829.945          36.000  
G29  24995350.811                2      -3451.777          36.000    24995342.517                       -2690.065          34.000  
C30  25390004.988   132212406.927        2770.421          43.000                                                                  
G18                                                                  25291876.801                        1169.185          28.000  
C13                                                                  40540194.842   163238546.377       -1896.415          40.000  
C08                                                                  41461423.806   166947960.609       -1859.910          40.000  
> 2025 11 03 07 35 09.9200000  0 27                     
G04  21511218.691   113042220.490        1403.382          44.000    21511207.272    88084793.863        1093.364          45.000  
G16  20216890.882   106240480.619         420.791          46.000                                                                  
G28  22831597.526   119980851.235       -2569.613          41.000    22831585.566    93491520.485       -2002.402          42.000  
G31  20947954.762   110082244.511       -1524.536          47.000    20947941.009    85778306.133       -1187.970          45.000  
G03  24298866.868   127691404.232       -2841.572          36.000    24298861.952    99499779.096       -2214.049          36.000  
C16  36733578.068   191281363.085           2.623          49.000    36733565.909   147910843.697           1.926          48.000  
C19  23609095.448   122938738.634       -1931.260          46.000                                                                  
C27  23710974.984   123469255.718        1340.515          45.000                                                                  
C06  36291209.047   188977838.777           0.647          47.000    36291189.910   146129589.497           0.435          49.000  
C09  37383416.799   194665245.515         104.055          45.000    37383400.550   150527463.479          80.324          48.000  
C22  24701903.494   128629282.622         909.036          43.000                                                                  
G26  20685689.348   108704033.976       -1799.130          48.000    20685678.981    84704397.535       -1401.740          45.000  
G27  22185394.452   116585039.724        3151.437          42.000    22185385.414    90845448.221        2455.702          43.000  
G09  24147896.191   126898068.601        2907.897          34.000    24147891.571    98881534.217        2266.567          33.000  
C28  24663730.185   128430518.633        -795.734          44.000                                                                  
C07  38114727.580   198473373.183         837.541          42.000    38114709.327   153472145.165         647.512          45.000  
C20  25244836.007   131456478.772       -3586.887          39.000                                                                  
C36  23987893.462   124911238.211        1459.377          44.000                                                                  
C37  24804888.143   129165559.644       -2363.839          44.000                                                                  
C10  39238221.163   204323696.619         766.149          39.000    39238208.908   157996005.639         592.673          45.000  
G32  25562183.110   134330175.993       -4163.056          32.000    25562201.329                       -3244.499          30.000  
G08  24501819.022   128757906.266        3631.940          33.000    24501818.557   100330854.506        2830.690          36.000  
G29  24995377.370                2      -3450.885          36.000    24995368.876                       -2689.163          34.000  
C30  25389983.716   132212296.103        2770.476          43.000                                                                  
G18                                                                  25291865.647                        1168.890          28.000  
C13                                                                  40540213.669   163238622.230       -1896.528          40.000  
C08                                                                  41461442.389   166948035.014       -1859.984          40.000  
> 2025 11 03 07 35 09.9600000  0 27                     
G04  21511208.010   113042164.366        1403.132          44.000    21511196.582    88084750.128        1093.323          45.000  
G16  20216887.687   106240463.789         420.633          46.000                                                                  
G28  22831617.099   119980954.065       -2570.359          41.000    22831605.110    93491600.601       -2002.695          42.000  
G31  20947966.386   110082305.502       -1524.738          47.000    20947952.610    85778353.657       -1188.110          45.000  
G03  24298888.507   127691517.908       -2841.912          36.000    24298883.587    99499867.684       -2214.462          36.000  
C16  36733578.030   191281362.994           2.344          49.000    36733565.904   147910843.626           1.740          48.000  
C19  23609110.286   122938815.897       -1931.591          46.000                                                                  
C27  23710964.705   123469202.116        1340.149          45.000                                                                  
C06  36291209.039   188977838.761           0.453          47.000    36291189.912   146129589.474           0.500          49.000  
C09  37383416.006   194665241.357         103.943          45.000    37383399.749   150527460.260          80.349          48.000  
C22  24701896.517   128629246.263         908.874          43.000                                                                  
G26  20685703.037   108704105.940       -1799.160          48.000    20685692.673    84704453.613       -1401.931          45.000  
G27  22185370.470   116584913.669        3151.357          42.000    22185361.406    90845349.997        2455.613          43.000  
G09  24147874.037   126897952.282        2907.707          34.000    24147869.451    98881443.560        2266.425          33.000  
C28  24663736.357   128430550.464        -795.862          44.000                                                                  
C07  38114721.135   198473339.696         837.157          42.000    38114702.889   153472119.266         647.379          45.000  
C20  25244863.560   131456622.234       -3586.775          39.000                                                                  
C36  23987882.266   124911179.833        1459.334          44.000                                                                  
C37  24804906.316   129165654.195       -2363.844          44.000                                                                  
C10  39238215.252   204323665.978         765.909          39.000    39238203.011   157995981.942         592.479          45.000  
G32  25562214.794   134330342.559       -4163.975          32.000    25562233.017                       -3244.693          30.000  
G08  24501791.393   128757760.990        3631.565          34.000    24501790.811   100330741.265        2830.969          36.000  
G29  24995403.213                2      -3450.501          36.000    24995395.288                       -2688.550          34.000  
C30  25389962.443   132212185.282        2770.464          43.000                                                                  
G18                                                                  25291854.269                        1168.349          28.000  
C13                                                                  40540232.490   163238698.077       -1896.350          40.000  
C08                                                                  41461460.843   166948109.427       -1860.269          40.000  
> 2025 11 03 07 35 10.0000000  0 27                     
G04  21511197.333   113042108.225        1403.335          44.000    21511185.889    88084706.382        1093.521          45.000  
G16  20216884.481   106240446.948         420.817          46.000                                                                  
G28  22831636.677   119981056.881       -2570.497          41.000    22831624.666    93491680.705       -2002.663          42.000  
G31  20947977.977   110082366.487       -1524.701          47.000    20947964.204    85778401.177       -1188.074          45.000  
G03  24298910.140   127691631.569       -2841.784          36.000    24298905.196    99499956.246       -2214.313          36.000  
C16  36733578.030   191281362.889           2.478          49.000    36733565.882   147910843.550           1.774          48.000  
C19  23609125.119   122938893.143       -1931.361          46.000                                                                  
C27  23710954.398   123469148.501        1340.228          45.000                                                                  
C06  36291209.038   188977838.740           0.438          47.000    36291189.899   146129589.452           0.540          49.000  
C09  37383415.254   194665237.189         104.063          45.000    37383398.937   150527457.043          80.358          48.000  
C22  24701889.533   128629209.885         909.143          43.000                                                                  
G26  20685716.722   108704177.897       -1799.017          48.000    20685706.364    84704509.682       -1401.826          45.000  
G27  22185346.479   116584787.613        3151.348          43.000    22185337.432    90845251.768        2455.682          43.000  
G09  24147851.894   126897835.916        2908.612          34.000    24147847.314    98881352.899        2266.342          33.000  
C28  24663742.574   128430582.289        -795.782          44.000                                                                  
C07  38114714.690   198473306.183         837.504          42.000    38114696.450   153472093.350         647.656          45.000  
C20  25244891.124   131456765.688       -3586.540          39.000                                                                  
C36  23987871.064   124911121.444        1459.552          44.000                                                                  
C37  24804924.533   129165748.733       -2363.582          44.000                                                                  
C10  39238209.376   204323635.318         766.221          39.000    39238197.117   157995958.243         592.416          45.000  
G32  25562246.506   134330509.112       -4164.227          32.000    25562264.474                       -3243.855          30.000  
G08  24501763.772   128757615.659        3632.644          33.000    24501763.100   100330628.043        2830.768          36.000  
G29  24995428.922                2      -3449.691          36.000    24995421.546                       -2688.478          34.000  
C30  25389941.185   132212074.451        2770.664          43.000                                                                  
G18                                                                  25291842.918                        1168.244          29.000  
C13                                                                  40540251.330   163238773.914       -1896.108          40.000  
C08                                                                  41461479.468   166948183.830       -1860.169          40.000  
> 2025 11 03 07 35 10.0400000  0 27                     
G04  21511186.653   113042052.094        1403.288          44.000    21511175.206    88084662.628        1093.768          45.000  
G16  20216881.255   106240430.108         420.904          46.000                                                                  
G28  22831656.251   119981159.683       -2570.350          41.000    22831644.227    93491760.810       -2002.677          42.000  
G31  20947989.567   110082427.470       -1524.652          47.000    20947975.809    85778448.695       -1188.031          45.000  
G03  24298931.768   127691745.212       -2841.332          36.000    24298926.829    99500044.827       -2214.563          36.000  
C16  36733578.002   191281362.775           2.700          49.000    36733565.839   147910843.464           1.986          48.000  
C19  23609139.929   122938970.388       -1931.244          46.000                                                                  
C27  23710944.128   123469094.885        1340.320          45.000                                                                  
C06  36291209.038   188977838.702           0.756          47.000    36291189.872   146129589.433           0.490          49.000  
C09  37383414.462   194665233.024         104.080          45.000    37383398.136   150527453.821          80.482          48.000  
C22  24701882.542   128629173.520         909.091          43.000                                                                  
G26  20685730.417   108704249.850       -1798.888          48.000    20685720.048    84704565.748       -1401.697          45.000  
G27  22185322.497   116584661.550        3151.458          42.000    22185313.439    90845153.528        2455.925          43.000  
G09  24147829.808   126897719.560        2908.783          34.000    24147825.168    98881262.235        2266.406          34.000  
C28  24663748.653   128430614.107        -795.596          44.000                                                                  
C07  38114708.250   198473272.665         837.797          42.000    38114690.005   153472067.429         647.948          45.000  
C20  25244918.683   131456909.118       -3585.959          39.000                                                                  
C36  23987859.845   124911063.057        1459.629          44.000                                                                  
C37  24804942.677   129165843.271       -2363.471          44.000                                                                  
C10  39238203.461   204323604.637         766.744          39.000    39238191.243   157995934.519         592.820          45.000  
G32  25562278.203   134330675.620       -4163.453          32.000    25562296.286                       -3244.459          30.000  
G08  24501736.105   128757470.345        3632.730          33.000    24501735.234   100330514.814        2830.710          36.000  
G29  24995455.324                2      -3450.139          36.000    24995447.924                       -2688.724          34.000  
C30  25389919.915   132211963.624        2770.694          43.000                                                                  
G18                                                                  25291831.399                        1168.488          29.000  
C13                                                                  40540270.182   163238849.761       -1896.116          40.000  
C08                                                                  41461497.946   166948258.232       -1860.083          40.000  
> 2025 11 03 07 35 10.0800000  0 27                     
G04  21511175.975   113041995.959        1403.331          44.000    21511164.505    88084618.887        1093.656          45.000  
G16  20216878.059   106240413.269         420.947          46.000                                                                  
G28  22831675.800   119981262.476       -2570.027          41.000    22831663.780    93491840.922       -2002.808          42.000  
G31  20948001.168   110082488.452       -1524.573          47.000    20947987.420    85778496.208       -1187.891          45.000  
G03  24298953.390   127691858.868       -2841.343          36.000    24298948.462    99500133.397       -2214.406          36.000  
C16  36733577.958   191281362.669           2.680          49.000    36733565.783   147910843.373           2.186          48.000  
C19  23609154.758   122939047.635       -1931.183          46.000                                                                  
C27  23710933.822   123469041.267        1340.417          45.000                                                                  
C06  36291209.064   188977838.675           0.709          47.000    36291189.858   146129589.420           0.331          49.000  
C09  37383413.685   194665228.849         104.293          45.000    37383397.328   150527450.600          80.540          48.000  
C22  24701875.569   128629137.144         909.316          43.000                                                                  
G26  20685744.101   108704321.803       -1798.840          48.000    20685733.750    84704621.821       -1401.765          45.000  
G27  22185298.499   116584535.484        3151.559          43.000    22185289.420    90845055.298        2455.835          43.000  
G09  24147807.692   126897603.217        2908.677          33.000    24147803.020    98881171.607        2265.956          34.000  
C28  24663754.787   128430645.928        -795.556          44.000                                                                  
C07  38114701.841   198473239.147         837.957          42.000    38114683.559   153472041.506         648.121          45.000  
C20  25244946.211   131457052.576       -3586.223          39.000                                                                  
C36  23987848.629   124911004.676        1459.551          44.000                                                                  
C37  24804960.560   129165937.815       -2363.530          44.000                                                                  
C10  39238197.600   204323573.954         767.024          39.000    39238185.343   157995910.805         592.865          45.000  
G32  25562309.868   134330842.102       -4162.513          32.000    25562328.051                       -3244.132          30.000  
G08  24501708.442   128757325.045        3632.515          33.000    24501707.527   100330401.591        2830.681          36.000  
G29  24995481.081                2      -3450.630          36.000    24995474.176                       -2688.528          34.000  
C30  25389898.619   132211852.803        2770.576          43.000                                                                  
G18                                                                  25291819.940                        1168.584          29.000  
C13                                                                  40540289.004   163238925.606       -1896.072          40.000  
C08                                                                  41461516.677   166948332.635       -1860.065          40.000  
> 2025 11 03 07 35 10.1200000  0 27                     
G04  21511165.284   113041939.823        1403.376          44.000    21511153.844    88084575.144        1093.616          45.000  
G16  20216874.835   106240396.422         421.115          46.000                                                                  
G28  22831695.346   119981365.286       -2570.143          41.000    22831683.332    93491921.036       -2002.875          42.000  
G31  20948012.752   110082549.425       -1524.365          47.000    20947999.030    85778543.730       -1187.976          45.000  
G03  24298975.002   127691972.523       -2841.412          36.000    24298970.073    99500221.980       -2214.526          36.000  
C16  36733577.936   191281362.552           2.847          49.000    36733565.748   147910843.285           2.246          48.000  
C19  23609169.579   122939124.876       -1931.072          46.000                                                                  
C27  23710923.540   123468987.650        1340.436          45.000                                                                  
C06  36291209.057   188977838.648           0.693          47.000    36291189.843   146129589.397           0.448          49.000  
C09  37383412.905   194665224.674         104.412          45.000    37383396.487   150527447.369          80.717          48.000  
C22  24701868.585   128629100.769         909.362          43.000                                                                  
G26  20685757.803   108704393.759       -1798.852          48.000    20685747.420    84704677.884       -1401.623          45.000  
G27  22185274.512   116584409.426        3151.472          43.000    22185265.417    90844957.063        2455.853          43.000  
G09  24147785.555   126897486.862        2908.862          33.000    24147780.883    98881080.961        2266.087          34.000  
C28  24663760.921   128430677.741        -795.403          44.000                                                                  
C07  38114695.405   198473205.627         838.029          42.000    38114677.131   153472015.592         648.005          45.000  
C20  25244973.764   131457196.017       -3586.098          39.000                                                                  
C36  23987837.414   124910946.284        1459.683          44.000                                                                  
C37  24804978.855   129166032.346       -2363.363          44.000                                                                  
C10  39238191.711   204323543.285         766.893          39.000    39238179.457   157995887.080         593.077          45.000  
G32  25562341.552   134331008.617       -4162.635          32.000    25562359.735                       -3243.980          30.000  
G08  24501680.802   128757179.723        3632.828          33.000    24501679.814   100330288.337        2831.154          36.000  
G29  24995506.707                2      -3450.755          36.000    24995500.168   102352394.1311      -2688.667          34.000  
C30  25389877.304   132211741.970        2770.758          43.000                                                                  
G18                                                                  25291808.503                        1168.801          29.000  
C13                                                                  40540307.821   163239001.433       -1895.757          40.000  
C08                                                                  41461535.040   166948407.035       -1860.053          40.000  
> 2025 11 03 07 35 10.1600000  0 27                     
G04  21511154.582   113041883.677        1403.564          44.000    21511143.178    88084531.395        1093.707          45.000  
G16  20216871.626   106240379.573         421.225          46.000                                                                  
G28  22831714.926   119981468.082       -2569.928          41.000    22831702.912    93492001.133       -2002.661          42.000  
G31  20948024.344   110082610.397       -1524.286          47.000    20948010.642    85778591.246       -1187.933          45.000  
G03  24298996.614   127692086.200       -2841.793          36.000    24298991.682    99500310.509       -2213.693          36.000  
C16  36733577.925   191281362.438           2.881          49.000    36733565.709   147910843.199           2.234          48.000  
C19  23609184.445   122939202.120       -1931.091          46.000                                                                  
C27  23710913.243   123468934.032        1340.473          45.000                                                                  
C06  36291209.049   188977838.618           0.703          47.000    36291189.813   146129589.365           0.677          49.000  
C09  37383412.116   194665220.495         104.490          45.000    37383395.675   150527444.142          80.736          48.000  
C22  24701861.581   128629064.395         909.385          43.000                                                                  
G26  20685771.502   108704465.710       -1798.810          48.000    20685761.118    84704733.949       -1401.605          45.000  
G27  22185250.532   116584283.359        3151.574          43.000    22185241.427    90844858.841        2455.615          43.000  
G09  24147763.411   126897370.504        2909.069          33.000    24147758.735    98880990.292        2266.542          34.000  
C28  24663766.985   128430709.552        -795.303          44.000                                                                  
C07  38114688.964   198473172.107         838.013          42.000    38114670.698   153471989.676         647.904          45.000  
C20  25245001.306   131457339.463       -3586.134          39.000                                                                  
C36  23987826.214   124910887.886        1459.878          44.000                                                                  
C37  24804997.058   129166126.879       -2363.317          44.000                                                                  
C10  39238185.832   204323512.625         766.554          39.000    39238173.566   157995863.365         593.007          45.000  
G32  25562373.239   134331175.145       -4163.082          32.000    25562391.416                       -3243.942          30.000  
G08  24501653.136   128757034.372        3633.412          33.000    24501652.128   100330175.085        2831.364          36.000  
G29  24995532.552                2      -3450.663          36.000    24995526.585                       -2688.633          34.000  
C30  25389856.000   132211631.143        2770.743          43.000                                                                  
G18                                                                  25291797.209                        1169.004          29.000  
C13                                                                  40540326.645   163239077.282       -1896.049          40.000  
C08                                                                  41461553.609   166948481.434       -1860.010          40.000  
> 2025 11 03 07 35 10.2000000  0 27                     
G04  21511143.899   113041827.538        1403.502          44.000    21511132.516    88084487.655        1093.585          45.000  
G16  20216868.443   106240362.739         421.006          46.000                                                                  
G28  22831734.486   119981570.891       -2570.081          41.000    22831722.475    93492081.235       -2002.561          42.000  
G31  20948035.956   110082671.379       -1524.414          47.000    20948022.267    85778638.765       -1187.976          45.000  
G03  24299018.224   127692199.841       -2841.361          36.000    24299013.307    99500399.068       -2213.694          36.000  
C16  36733577.847   191281362.332           2.712          49.000    36733565.700   147910843.124           1.968          48.000  
C19  23609199.270   122939279.369       -1931.184          46.000                                                                  
C27  23710902.962   123468880.416        1340.417          45.000                                                                  
C06  36291209.033   188977838.591           0.643          47.000    36291189.784   146129589.348           0.518          49.000  
C09  37383411.316   194665216.336         104.151          45.000    37383394.879   150527440.923          80.587          48.000  
C22  24701854.580   128629028.040         908.994          43.000                                                                  
G26  20685785.212   108704537.661       -1798.785          48.000    20685774.815    84704790.023       -1401.771          45.000  
G27  22185226.550   116584157.299        3151.490          43.000    22185217.447    90844760.618        2455.503          43.000  
G09  24147741.274   126897254.130        2909.298          33.000    24147736.599    98880899.612        2266.975          34.000  
C28  24663773.135   128430741.378        -795.511          44.000                                                                  
C07  38114682.533   198473138.600         837.776          42.000    38114664.277   153471963.765         647.768          45.000  
C20  25245028.852   131457482.931       -3586.550          39.000                                                                  
C36  23987814.972   124910829.504        1459.685          44.000                                                                  
C37  24805015.197   129166221.419       -2363.433          45.000                                                                  
C10  39238179.951   204323481.973         766.299          39.000    39238167.663   157995839.666         592.636          45.000  
G32  25562404.932   134331341.698       -4163.757          32.000    25562423.017                       -3243.607          30.000  
G08  24501625.490   128756889.075        3632.853          33.000    24501624.450   100330061.893        2830.356          36.000  
G29  24995558.386                2      -3450.397          36.000    24995552.765   102352609.226       -2688.721          34.000  
C30  25389834.712   132211520.324        2770.589          43.000                                                                  
G18                                                                  25291785.740                        1169.199          29.000  
C13                                                                  40540345.486   163239153.142       -1896.443          40.000  
C08                                                                  41461572.067   166948555.843       -1860.201          40.000  
> 2025 11 03 07 35 10.2400000  0 27                     
G04  21511133.224   113041771.412        1403.245          44.000    21511121.852    88084443.935        1093.137          45.000  
G16  20216865.236   106240345.916         420.684          46.000                                                                  
G28  22831754.057   119981673.714       -2570.485          41.000    22831742.060    93492161.363       -2003.034          42.000  
G31  20948047.549   110082732.384       -1524.969          47.000    20948033.879    85778686.293       -1188.165          45.000  
G03  24299039.852   127692313.496       -2841.361          36.000    24299034.959    99500487.646       -2214.135          36.000  
C16  36733577.815   191281362.242           2.337          49.000    36733565.662   147910843.052           1.810          48.000  
C19  23609214.084   122939356.643       -1931.720          46.000                                                                  
C27  23710892.630   123468826.820        1340.027          46.000                                                                  
C06  36291209.013   188977838.581           0.322          47.000    36291189.776   146129589.339           0.261          49.000  
C09  37383410.509   194665212.190         103.699          45.000    37383394.063   150527437.712          80.332          48.000  
C22  24701847.613   128628991.677         908.945          43.000                                                                  
G26  20685798.898   108704609.634       -1799.186          48.000    20685788.508    84704846.104       -1401.999          45.000  
G27  22185202.568   116584031.257        3151.085          43.000    22185193.449    90844662.406        2455.265          43.000  
G09  24147719.151   126897137.813        2908.356          33.000    24147714.439    98880808.971        2266.453          34.000  
C28  24663779.202   128430773.214        -795.835          44.000                                                                  
C07  38114676.098   198473105.113         837.280          42.000    38114657.861   153471937.868         647.439          45.000  
C20  25245056.403   131457626.398       -3586.748          39.000                                                                  
C36  23987803.725   124910771.135        1459.321          44.000                                                                  
C37  24805033.231   129166315.983       -2363.962          45.000                                                                  
C10  39238174.072   204323451.329         766.107          39.000    39238161.765   157995815.967         592.410          45.000  
G32  25562436.625   134331508.221       -4163.589          32.000    25562454.750                       -3243.212          30.000  
G08  24501597.843   128756743.768        3632.665          33.000    24501596.920   100329948.684        2830.106          36.000  
G29  24995584.926                2      -3450.751          36.000    24995579.086   102352716.749       -2688.267          34.000  
C30  25389813.440   132211409.513        2770.319          43.000                                                                  
G18                                                                  25291774.288                        1169.611          29.000  
C13                                                                  40540364.301   163239229.010       -1896.785          40.000  
C08                                                                  41461590.463   166948630.254       -1860.343          40.000  
> 2025 11 03 07 35 10.2800000  0 27                     
G04  21511122.568   113041715.310        1402.693          44.000    21511111.165    88084400.213        1092.961          45.000  
G16  20216862.030   106240329.103         420.332          46.000                                                                  
G28  22831773.622   119981776.546       -2570.890          41.000    22831761.641    93492241.485       -2003.143          42.000  
G31  20948059.174   110082793.398       -1525.378          47.000    20948045.497    85778733.828       -1188.422          45.000  
G03  24299061.453   127692427.184       -2841.941          36.000    24299056.610    99500576.262       -2215.087          36.000  
C16  36733577.787   191281362.162           1.990          49.000    36733565.642   147910842.992           1.476          48.000  
C19  23609228.930   122939433.917       -1931.971          46.000                                                                  
C27  23710882.340   123468773.228        1339.746          46.000                                                                  
C06  36291209.008   188977838.575           0.088          47.000    36291189.788   146129589.336           0.040          49.000  
C09  37383409.700   194665208.048         103.455          45.000    37383393.264   150527434.504          80.177          48.000  
C22  24701840.620   128628955.346         908.385          43.000                                                                  
G26  20685812.598   108704681.615       -1799.542          48.000    20685802.211    84704902.184       -1402.091          46.000  
G27  22185178.581   116583905.228        3150.698          43.000    22185169.458    90844564.196        2455.184          43.000  
G09  24147697.060   126897021.513        2907.621          33.000    24147692.322    98880718.348        2265.804          34.000  
C28  24663785.266   128430805.060        -796.158          45.000                                                                  
C07  38114669.645   198473071.615         837.253          41.000    38114651.414   153471911.971         647.293          45.000  
C20  25245083.952   131457769.888       -3587.213          39.000                                                                  
C36  23987792.521   124910712.770        1459.081          44.000                                                                  
C37  24805051.369   129166410.548       -2364.227          45.000                                                                  
C10  39238168.185   204323420.681         766.088          39.000    39238155.874   157995792.275         592.269          45.000  
G32  25562468.330   134331674.759       -4163.600          32.000    25562486.541                       -3244.512          30.000  
G08  24501570.202   128756598.498        3631.808          33.000    24501569.289   100329835.481        2829.915          36.000  
G29  24995611.664                2      -3451.007          36.000    24995604.921   102352824.316       -2688.900          34.000  
C30  25389792.165   132211298.706        2770.134          43.000                                                                  
G18                                                                  25291763.012                        1169.748          29.000  
C13                                                                  40540383.139   163239304.854       -1896.407          40.000  
C08                                                                  41461608.878   166948704.665       -1860.354          40.000  
> 2025 11 03 07 35 10.3200000  0 27                     
G04  21511111.904   113041659.194        1402.681          44.000    21511100.493    88084356.492        1092.882          45.000  
G16  20216858.833   106240312.287         420.242          46.000                                                                  
G28  22831793.189   119981879.371       -2570.863          41.000    22831781.208    93492321.603       -2003.062          42.000  
G31  20948070.795   110082854.397       -1525.238          47.000    20948057.072    85778781.361       -1188.458          45.000  
G03  24299083.070   127692540.895       -2842.633          36.000    24299078.248    99500664.834       -2214.781          36.000  
C16  36733577.793   191281362.075           1.995          49.000    36733565.642   147910842.915           1.673          48.000  
C19  23609243.787   122939511.183       -1931.863          46.000                                                                  
C27  23710872.052   123468719.636        1339.673          46.000                                                                  
C06  36291209.014   188977838.562           0.129          47.000    36291189.794   146129589.332          -0.028          49.000  
C09  37383408.889   194665203.889         103.696          45.000    37383392.476   150527431.285          80.312          48.000  
C22  24701833.647   128628919.004         908.333          43.000                                                                  
G26  20685826.283   108704753.593       -1799.609          48.000    20685815.906    84704958.270       -1402.173          46.000  
G27  22185154.593   116583779.180        3150.936          43.000    22185145.470    90844465.971        2455.440          43.000  
G09  24147674.922   126896905.199        2907.544          33.000    24147670.177    98880627.684        2266.174          34.000  
C28  24663791.372   128430836.901        -796.195          45.000                                                                  
C07  38114663.203   198473038.126         837.132          42.000    38114644.977   153471886.069         647.396          45.000  
C20  25245111.506   131457913.363       -3587.067          39.000                                                                  
C36  23987781.299   124910654.394        1459.226          44.000                                                                  
C37  24805069.497   129166505.108       -2364.162          45.000                                                                  
C10  39238162.293   204323390.042         765.983          39.000    39238149.966   157995768.568         592.461          45.000  
G32  25562500.026   134331841.290       -4163.443          32.000    25562518.178                       -3244.703          30.000  
G08  24501542.570   128756453.206        3631.987          33.000    24501541.585   100329722.270        2830.009          36.000  
G29  24995638.126                2      -3450.726          37.000    24995631.375   102352931.886       -2689.292          34.000  
C30  25389770.894   132211187.898        2770.077          43.000                                                                  
G18                                                                  25291751.410                        1169.815          29.000  
C13                                                                  40540401.992   163239380.707       -1896.356          40.000  
C08                                                                  41461627.289   166948779.082       -1860.396          40.000  
> 2025 11 03 07 35 10.3600000  0 27                     
G04  21511101.230   113041603.070        1402.894          44.000    21511089.803    88084312.746        1093.314          45.000  
G16  20216855.628   106240295.462         420.433          46.000                                                                  
G28  22831812.739   119981982.162       -2570.200          41.000    22831800.764    93492401.709       -2002.784          42.000  
G31  20948082.395   110082915.382       -1524.854          47.000    20948068.690    85778828.885       -1188.226          45.000  
G03  24299104.723   127692654.576       -2842.357          36.000    24299099.855    99500753.396       -2214.438          36.000  
C16  36733577.749   191281361.964           2.439          49.000    36733565.594   147910842.827           2.008          48.000  
C19  23609258.600   122939588.434       -1931.474          46.000                                                                  
C27  23710861.799   123468666.022        1340.131          46.000                                                                  
C06  36291209.014   188977838.534           0.487          47.000    36291189.795   146129589.316           0.208          49.000  
C09  37383408.082   194665199.716         104.128          45.000    37383391.683   150527428.063          80.465          48.000  
C22  24701826.664   128628882.630         908.951          43.000                                                                  
G26  20685839.974   108704825.555       -1799.304          48.000    20685829.576    84705014.352       -1402.155          46.000  
G27  22185130.601   116583653.133        3151.075          43.000    22185121.498    90844367.753        2455.417          43.000  
G09  24147652.815   126896788.850        2908.083          33.000    24147648.044    98880537.045        2266.064          34.000  
C28  24663797.509   128430868.730        -795.957          45.000                                                                  
C07  38114656.783   198473004.608         837.658          42.000    38114638.558   153471860.156         647.671          45.000  
C20  25245139.069   131458056.810       -3586.461          39.000                                                                  
C36  23987770.079   124910596.010        1459.428          44.000                                                                  
C37  24805087.601   129166599.657       -2363.949          45.000                                                                  
C10  39238156.427   204323359.360         766.664          39.000    39238144.080   157995744.860         592.622          45.000  
G32  25562531.701   134332007.792       -4162.849          32.000    25562549.807                       -3244.534          30.000  
G08  24501514.923   128756307.864        3633.110          33.000    24501513.915   100329609.004        2831.183          36.000  
G29  24995664.951                2      -3450.468          38.000    24995657.579   102353039.445       -2689.156          34.000  
C30  25389749.625   132211077.071        2770.426          43.000                                                                  
G18                                                                  25291739.849                        1169.025          29.000  
C13                                                                  40540420.832   163239456.546       -1896.118          40.000  
C08                                                                  41461645.729   166948853.487       -1860.217          40.000  
> 2025 11 03 07 35 10.4000000  0 27                     
G04  21511090.560   113041546.933        1403.256          44.000    21511079.126    88084268.995        1093.650          45.000  
G16  20216852.423   106240278.620         420.856          46.000                                                                  
G28  22831832.295   119982084.959       -2569.889          41.000    22831820.329    93492481.818       -2002.680          42.000  
G31  20948093.977   110082976.361       -1524.530          47.000    20948080.269    85778876.400       -1187.952          45.000  
G03  24299126.339   127692768.221       -2841.531          35.000    24299121.494    99500841.967       -2214.410          36.000  
C16  36733577.713   191281361.845           2.870          49.000    36733565.555   147910842.738           2.218          48.000  
C19  23609273.429   122939665.682       -1931.223          46.000                                                                  
C27  23710851.497   123468612.406        1340.387          46.000                                                                  
C06  36291209.009   188977838.500           0.771          47.000    36291189.778   146129589.288           0.546          49.000  
C09  37383407.278   194665195.543         104.353          45.000    37383390.901   150527424.833          80.675          48.000  
C22  24701819.672   128628846.254         909.322          43.000                                                                  
G26  20685853.658   108704897.511       -1799.005          48.000    20685843.272    84705070.421       -1401.855          46.000  
G27  22185106.613   116583527.072        3151.405          43.000    22185097.500    90844269.526        2455.595          43.000  
G09  24147630.695   126896672.486        2908.718          33.000    24147625.913    98880446.408        2265.944          34.000  
C28  24663803.688   128430900.542        -795.494          45.000                                                                  
C07  38114650.362   198472971.095         837.810          42.000    38114632.117   153471834.240         647.850          45.000  
C20  25245166.611   131458200.264       -3586.277          39.000                                                                  
C36  23987758.868   124910537.604        1459.955          44.000                                                                  
C37  24805105.765   129166694.182       -2363.369          45.000                                                                  
C10  39238150.515   204323328.686         766.915          39.000    39238138.208   157995721.144         592.816          45.000  
G32  25562563.362   134332174.297       -4162.585          32.000    25562581.538                       -3243.508          30.000  
G08  24501487.278   128756162.519        3633.660          33.000    24501486.367   100329495.781        2831.003          36.000  
G29  24995691.258                2      -3450.712          38.000    24995683.941   102353146.980       -2688.774          34.000  
C30  25389728.335   132210966.241        2770.673          43.000                                                                  
G18                                                                  25291728.052                        1169.001          29.000  
C13                                                                  40540439.653   163239532.389       -1896.046          40.000  
C08                                                                  41461664.243   166948927.888       -1860.063          40.000  
> 2025 11 03 07 35 10.4400000  0 27                     
G04  21511079.877   113041490.794        1403.462          44.000    21511068.435    88084225.256        1093.610          45.000  
G16  20216849.201   106240261.778         421.039          46.000                                                                  
G28  22831851.856   119982187.767       -2569.995          41.000    22831839.895    93492561.919       -2002.519          42.000  
G31  20948105.586   110083037.342       -1524.463          47.000    20948091.871    85778923.915       -1187.848          45.000  
G03  24299147.962   127692881.859       -2840.958          35.000    24299143.135    99500930.511       -2213.857          36.000  
C16  36733577.716   191281361.730           2.958          49.000    36733565.508   147910842.649           2.285          48.000  
C19  23609288.261   122939742.927       -1931.088          46.000                                                                  
C27  23710841.220   123468558.787        1340.479          46.000                                                                  
C06  36291208.996   188977838.470           0.831          47.000    36291189.763   146129589.259           0.740          49.000  
C09  37383406.500   194665191.366         104.484          45.000    37383390.100   150527421.608          80.662          48.000  
C22  24701812.698   128628809.892         909.208          43.000                                                                  
G26  20685867.342   108704969.469       -1798.907          48.000    20685856.948    84705126.493       -1401.764          46.000  
G27  22185082.637   116583401.003        3151.694          43.000    22185073.514    90844171.299        2455.663          43.000  
G09  24147608.586   126896556.154        2908.535          33.000    24147603.766    98880355.711        2266.871          34.000  
C28  24663809.848   128430932.351        -795.219          45.000                                                                  
C07  38114643.922   198472937.578         837.900          42.000    38114625.672   153471808.327         647.885          45.000  
C20  25245194.173   131458343.714       -3586.151          39.000                                                                  
C36  23987747.672   124910479.211        1459.990          44.000                                                                  
C37  24805123.922   129166788.718       -2363.294          44.000                                                                  
C10  39238144.630   204323298.023         766.823          39.000    39238132.316   157995697.428         592.888          45.000  
G32  25562595.043   134332340.826       -4163.021          32.000    25562613.209                       -3242.915          30.000  
G08  24501459.602   128756017.230        3632.864          33.000    24501458.725   100329382.544        2831.033          36.000  
G29  24995717.962   131353392.7623      -3450.307          38.000    24995710.366   102353254.497       -2688.231          34.000  
C30  25389707.062   132210855.417        2770.693          43.000                                                                  
G18                                                                  25291716.722                        1168.845          29.000  
C13                                                                  40540458.491   163239608.238       -1896.183          40.000  
C08                                                                  41461682.694   166949002.284       -1859.910          40.000  
> 2025 11 03 07 35 10.4800000  0 27                     
G04  21511069.197   113041434.675        1403.173          44.000    21511057.757    88084181.531        1093.287          45.000  
G16  20216845.990   106240244.947         420.886          46.000                                                                  
G28  22831871.413   119982290.577       -2570.208          41.000    22831859.467    93492642.020       -2002.486          42.000  
G31  20948117.202   110083098.329       -1524.554          47.000    20948103.476    85778971.434       -1187.872          45.000  
G03  24299169.572   127692995.520       -2841.231          35.000    24299164.770    99501019.087       -2214.169          36.000  
C16  36733577.680   191281361.624           2.789          49.000    36733565.469   147910842.568           2.148          48.000  
C19  23609303.084   122939820.185       -1931.299          46.000                                                                  
C27  23710830.908   123468505.178        1340.344          46.000                                                                  
C06  36291208.991   188977838.448           0.703          47.000    36291189.768   146129589.236           0.701          49.000  
C09  37383405.692   194665187.200         104.317          45.000    37383389.304   150527418.389          80.571          48.000  
C22  24701805.692   128628773.533         909.064          43.000                                                                  
G26  20685881.062   108705041.432       -1798.999          48.000    20685870.661    84705182.566       -1401.776          46.000  
G27  22185058.660   116583274.953        3151.473          43.000    22185049.510    90844073.075        2455.635          43.000  
G09  24147586.439   126896439.825        2908.433          33.000    24147581.625    98880265.081        2266.243          34.000  
C28  24663815.973   128430964.178        -795.444          45.000                                                                  
C07  38114637.479   198472904.073         837.698          42.000    38114619.239   153471782.411         647.902          45.000  
C20  25245221.722   131458487.196       -3586.763          39.000                                                                  
C36  23987736.435   124910420.844        1459.471          44.000                                                                  
C37  24805142.042   129166883.272       -2363.618          44.000                                                                  
C10  39238138.730   204323267.354         766.785          39.000    39238126.409   157995673.713         592.887          45.000  
G32  25562626.738   134332507.359       -4163.396          32.000    25562644.890                       -3242.750          30.000  
G08  24501431.955   128755871.989        3631.384          33.000    24501431.065   100329269.324        2830.714          36.000  
G29  24995743.714   131353530.7642      -3450.049          38.000    24995736.686   102353362.067       -2688.958          34.000  
C30  25389685.782   132210744.597        2770.586          43.000                                                                  
G18                                                                  25291705.142                        1169.090          29.000  
C13                                                                  40540477.333   163239684.084       -1896.141          40.000  
C08                                                                  41461701.118   166949076.677       -1859.800          40.000  
> 2025 11 03 07 35 10.5200000  0 27                     
G04  21511058.530   113041378.549        1403.105          44.000    21511047.093    88084137.802        1093.179          45.000  
G16  20216842.805   106240228.118         420.742          46.000                                                                  
G28  22831890.987   119982393.397       -2570.451          41.000    22831879.052    93492722.133       -2002.720          42.000  
G31  20948128.826   110083159.321       -1524.725          47.000    20948115.092    85779018.962       -1188.092          45.000  
G03  24299191.220   127693109.189       -2841.664          35.000    24299186.386    99501107.651       -2214.109          36.000  
C16  36733577.661   191281361.534           2.388          49.000    36733565.434   147910842.490           2.003          48.000  
C19  23609317.912   122939897.448       -1931.540          46.000                                                                  
C27  23710820.571   123468451.572        1340.192          46.000                                                                  
C06  36291208.967   188977838.428           0.536          47.000    36291189.750   146129589.219           0.503          49.000  
C09  37383404.907   194665183.033         104.239          45.000    37383388.520   150527415.170          80.501          48.000  
C22  24701798.704   128628737.187         908.725          43.000                                                                  
G26  20685894.772   108705113.403       -1799.207          48.000    20685884.356    84705238.644       -1401.904          46.000  
G27  22185034.688   116583148.902        3151.323          43.000    22185025.541    90843974.858        2455.459          43.000  
G09  24147564.319   126896323.481        2908.584          33.000    24147559.484    98880174.427        2266.239          33.000  
C28  24663822.084   128430996.012        -795.740          45.000                                                                  
C07  38114631.028   198472870.565         837.649          42.000    38114612.799   153471756.500         647.820          45.000  
C20  25245249.279   131458630.656       -3586.612          39.000                                                                  
C36  23987725.219   124910362.474        1459.255          44.000                                                                  
C37  24805160.187   129166977.822       -2363.783          44.000                                                                  
C10  39238132.832   204323236.713         766.270          39.000    39238120.542   157995650.003         592.797          45.000  
G32  25562658.424   134332673.898       -4163.571          32.000    25562676.555                       -3244.678          30.000  
G08  24501404.294   128755726.647        3632.490          33.000    24501403.450   100329156.129        2830.150          36.000  
G29  24995769.773   131353668.8012      -3450.609          38.000    24995762.643   102353469.597       -2688.525          35.000  
C30  25389664.522   132210633.778        2770.502          43.000                                                                  
G18                                                                  25291693.827                        1168.933          28.000  
C13                                                                  40540496.191   163239759.944       -1896.411          40.000  
C08                                                                  41461719.540   166949151.084       -1860.091          40.000  
> 2025 11 03 07 35 10.5600000  0 27                     
G04  21511047.846   113041322.430        1402.971          44.000    21511036.430    88084094.077        1093.038          45.000  
G16  20216839.610   106240211.298         420.526          46.000                                                                  
G28  22831910.557   119982496.217       -2570.618          41.000    22831898.612    93492802.255       -2003.041          42.000  
G31  20948140.440   110083220.316       -1524.884          47.000    20948126.699    85779066.498       -1188.373          45.000  
G03  24299212.827   127693222.871       -2842.020          35.000    24299208.003    99501196.224       -2214.307          36.000  
C16  36733577.656   191281361.432           2.406          49.000    36733565.411   147910842.419           1.790          48.000  
C19  23609332.722   122939974.714       -1931.706          46.000                                                                  
C27  23710810.283   123468397.972        1339.996          46.000                                                                  
C06  36291208.976   188977838.410           0.435          47.000    36291189.771   146129589.209           0.288          49.000  
C09  37383404.100   194665178.873         104.053          45.000    37383387.769   150527411.958          80.323          48.000  
C22  24701791.748   128628700.827         908.784          43.000                                                                  
G26  20685908.463   108705185.374       -1799.323          48.000    20685898.044    84705294.732       -1402.130          46.000  
G27  22185010.706   116583022.863        3151.017          43.000    22185001.547    90843876.639        2455.389          43.000  
G09  24147542.197   126896207.132        2908.708          33.000    24147537.358    98880083.795        2265.794          33.000  
C28  24663828.171   128431027.853        -796.001          45.000                                                                  
C07  38114624.604   198472837.063         837.500          42.000    38114606.366   153471730.595         647.677          45.000  
C20  25245276.843   131458774.115       -3586.549          39.000                                                                  
C36  23987714.001   124910304.093        1459.324          44.000                                                                  
C37  24805178.302   129167072.378       -2363.938          44.000                                                                  
C10  39238126.931   204323206.041         766.506          39.000    39238114.660   157995626.300         592.589          45.000  
G32  25562690.119   134332840.402       -4162.888          32.000    25562708.232                       -3243.916          30.000  
G08  24501376.644   128755581.371        3631.965          33.000    24501375.836   100329042.906        2830.238          36.000  
G29  24995796.846   131353806.8482      -3451.073          38.000    24995788.704   102353577.163       -2689.052          35.000  
C30  25389643.229   132210522.961        2770.380          43.000                                                                  
G18                                                                  25291682.177                        1168.968          28.000  
C13                                                                  40540515.036   163239835.785       -1896.237          40.000  
C08                                                                  41461738.100   166949225.498       -1860.350          40.000  
> 2025 11 03 07 35 10.6000000  0 27                     
G04  21511037.167   113041266.319        1402.751          44.000    21511025.747    88084050.354        1092.970          45.000  
G16  20216836.426   106240194.480         420.404          46.000                                                                  
G28  22831930.115   119982599.037       -2570.658          41.000    22831918.209    93492882.381       -2003.211          42.000  
G31  20948152.032   110083281.319       -1525.079          47.000    20948138.299    85779114.027       -1188.330          45.000  
G03  24299234.458   127693336.542       -2842.031          35.000    24299229.661    99501284.814       -2214.667          36.000  
C16  36733577.659   191281361.328           2.477          49.000    36733565.369   147910842.343           1.784          48.000  
C19  23609347.548   122940051.984       -1931.821          46.000                                                                  
C27  23710799.954   123468344.376        1339.862          46.000                                                                  
C06  36291208.975   188977838.390           0.421          47.000    36291189.771   146129589.202           0.144          49.000  
C09  37383403.293   194665174.723         103.769          45.000    37383386.956   150527408.741          80.326          48.000  
C22  24701784.759   128628664.483         908.595          43.000                                                                  
G26  20685922.166   108705257.345       -1799.359          48.000    20685911.729    84705350.817       -1402.191          46.000  
G27  22184986.713   116582896.810        3151.106          43.000    22184977.562    90843778.421        2455.361          43.000  
G09  24147520.036   126896090.835        2907.953          33.000    24147515.234    98879993.150        2265.927          33.000  
C28  24663834.264   128431059.702        -796.228          45.000                                                                  
C07  38114618.155   198472803.567         837.346          42.000    38114599.919   153471704.691         647.598          45.000  
C20  25245304.390   131458917.574       -3586.479          39.000                                                                  
C36  23987702.789   124910245.705        1459.508          44.000                                                                  
C37  24805196.577   129167166.929       -2363.884          44.000                                                                  
C10  39238121.036   204323175.382         766.500          39.000    39238108.762   157995602.601         592.474          45.000  
G32  25562721.810   134333006.972       -4163.874          32.000    25562739.973                       -3243.993          30.000  
G08  24501349.002   128755436.064        3632.440          33.000    24501348.242   100328929.667        2830.720          36.000  
G29  24995823.316   131353944.8952      -3451.237          38.000    24995815.334   102353684.708       -2688.880          35.000  
C30  25389621.971   132210412.139        2770.435          43.000                                                                  
G18                                                                  25291670.599                        1168.940          28.000  
C13                                                                  40540533.878   163239911.620       -1895.963          40.000  
C08                                                                  41461756.676   166949299.908       -1860.286          40.000  
> 2025 11 03 07 35 10.6400000  0 27                     
G04  21511026.494   113041210.205        1402.738          44.000    21511015.059    88084006.616        1093.228          45.000  
G16  20216833.179   106240177.657         420.443          46.000                                                                  
G28  22831949.673   119982701.845       -2570.398          41.000    22831937.781    93492962.507       -2003.250          42.000  
G31  20948163.618   110083342.323       -1525.183          47.000    20948149.908    85779161.561       -1188.385          45.000  
G03  24299256.095   127693450.228       -2842.231          35.000    24299251.292    99501373.384       -2214.419          36.000  
C16  36733577.670   191281361.224           2.551          49.000    36733565.348   147910842.266           1.843          48.000  
C19  23609362.396   122940129.247       -1931.715          46.000                                                                  
C27  23710789.685   123468290.779        1339.838          46.000                                                                  
C06  36291208.969   188977838.369           0.435          47.000    36291189.751   146129589.188           0.190          49.000  
C09  37383402.490   194665170.562         103.886          45.000    37383386.191   150527405.523          80.379          48.000  
C22  24701777.754   128628628.141         908.464          43.000                                                                  
G26  20685935.861   108705329.316       -1799.353          48.000    20685925.430    84705406.898       -1402.148          46.000  
G27  22184962.733   116582770.763        3151.124          43.000    22184953.579    90843680.210        2455.236          43.000  
G09  24147497.891   126895974.490        2908.328          33.000    24147493.089    98879902.499        2266.077          33.000  
C28  24663840.383   128431091.538        -796.108          45.000                                                                  
C07  38114611.711   198472770.060         837.510          42.000    38114593.491   153471678.781         647.655          45.000  
C20  25245331.944   131459061.031       -3586.489          39.000                                                                  
C36  23987691.591   124910187.333        1459.334          44.000                                                                  
C37  24805214.747   129167261.498       -2364.147          44.000                                                                  
C10  39238115.160   204323144.727         766.343          39.000    39238102.860   157995578.886         592.652          45.000  
G32  25562753.490   134333173.480       -4163.242          32.000    25562771.727                       -3244.141          30.000  
G08  24501321.314   128755290.718        3633.342          33.000    24501320.566   100328816.427        2831.030          36.000  
G29  24995849.588   131354082.9242      -3450.941          38.000    24995841.579   102353792.286       -2689.305          35.000  
C30  25389600.686   132210301.324        2770.366          43.000                                                                  
G18                                                                  25291659.025                        1168.957          28.000  
C13                                                                  40540552.705   163239987.477       -1896.292          40.000  
C08                                                                  41461775.134   166949374.305       -1860.008          40.000  
> 2025 11 03 07 35 10.6800000  0 27                     
G04  21511015.777   113041154.085        1402.807          44.000    21511004.403    88083962.901        1092.968          45.000  
G16  20216829.959   106240160.833         420.506          46.000                                                                  
G28  22831969.239   119982804.657       -2570.291          41.000    22831957.356    93493042.618       -2002.977          42.000  
G31  20948175.246   110083403.319       -1525.067          47.000    20948161.506    85779209.089       -1188.300          45.000  
G03  24299277.708   127693563.882       -2841.696          35.000    24299272.925    99501461.951       -2214.283          36.000  
C16  36733577.662   191281361.120           2.566          49.000    36733565.323   147910842.183           1.987          48.000  
C19  23609377.239   122940206.519       -1931.801          46.000                                                                  
C27  23710779.375   123468237.184        1339.777          46.000                                                                  
C06  36291208.984   188977838.345           0.502          47.000    36291189.743   146129589.173           0.239          49.000  
C09  37383401.699   194665166.397         104.017          45.000    37383385.392   150527402.302          80.457          48.000  
C22  24701770.803   128628591.789         908.576          43.000                                                                  
G26  20685949.573   108705401.287       -1799.341          48.000    20685939.127    84705462.979       -1402.094          46.000  
G27  22184938.746   116582644.718        3151.093          43.000    22184929.585    90843581.992        2455.343          43.000  
G09  24147475.764   126895858.124        2908.938          33.000    24147470.925    98879811.810        2266.810          33.000  
C28  24663846.519   128431123.374        -796.027          45.000                                                                  
C07  38114605.289   198472736.545         837.760          42.000    38114587.052   153471652.878         647.580          45.000  
C20  25245359.499   131459204.495       -3586.572          39.000                                                                  
C36  23987680.371   124910128.955        1459.365          44.000                                                                  
C37  24805232.875   129167356.037       -2363.796          44.000                                                                  
C10  39238109.253   204323114.070         766.342          39.000    39238096.972   157995555.177         592.700          45.000  
G32  25562785.183   134333340.016       -4163.392          32.000    25562803.438                       -3244.241          30.000  
G08  24501293.673   128755145.412        3633.039          33.000    24501292.908   100328703.223        2830.496          36.000  
G29  24995876.396   131354220.9282      -3450.355          38.000    24995867.939   102353899.860       -2689.456          35.000  
C30  25389579.385   132210190.498        2770.548          43.000                                                                  
G18                                                                  25291647.459                        1169.164          28.000  
C13                                                                  40540571.538   163240063.337       -1896.525          40.000  
C08                                                                  41461793.461   166949448.715       -1860.126          40.000  
> 2025 11 03 07 35 10.7200000  0 27                     
G04  21511005.080   113041097.966        1402.895          44.000    21510993.691    88083919.170        1093.110          45.000  
G16  20216826.731   106240144.004         420.675          46.000                                                                  
G28  22831988.806   119982907.466       -2570.217          41.000    22831976.915    93493122.729       -2002.841          42.000  
G31  20948186.843   110083464.309       -1524.854          47.000    20948173.098    85779256.612       -1188.135          45.000  
G03  24299299.324   127693677.546       -2841.507          35.000    24299294.543    99501550.519       -2214.222          36.000  
C16  36733577.626   191281361.017           2.559          49.000    36733565.313   147910842.105           1.972          48.000  
C19  23609392.066   122940283.778       -1931.591          46.000                                                                  
C27  23710769.111   123468183.573        1340.100          46.000                                                                  
C06  36291208.961   188977838.324           0.475          47.000    36291189.754   146129589.149           0.452          49.000  
C09  37383400.914   194665162.225         104.220          45.000    37383384.594   150527399.073          80.635          48.000  
C22  24701763.820   128628555.436         908.681          43.000                                                                  
G26  20685963.260   108705473.251       -1799.182          48.000    20685952.805    84705519.049       -1401.837          46.000  
G27  22184914.760   116582518.673        3151.067          43.000    22184905.593    90843483.765        2455.534          43.000  
G09  24147453.634   126895741.831        2907.956          33.000    24147448.770    98879721.162        2266.370          33.000  
C28  24663852.626   128431155.203        -795.829          45.000                                                                  
C07  38114598.866   198472703.046         837.596          42.000    38114580.606   153471626.967         647.680          45.000  
C20  25245387.026   131459347.975       -3586.936          39.000                                                                  
C36  23987669.152   124910070.581        1459.342          44.000                                                                  
C37  24805251.109   129167450.584       -2363.682          44.000                                                                  
C10  39238103.363   204323083.413         766.346          39.000    39238091.071   157995531.468         592.735          45.000  
G32  25562816.895   134333506.533       -4163.099          32.000    25562835.154                       -3244.314          30.000  
G08  24501266.020   128755000.096        3633.075          33.000    24501265.218   100328589.999        2830.562          36.000  
G29  24995902.506   131354358.9462      -3450.317          38.000    24995894.454   102354007.414       -2689.111          35.000  
C30  25389558.096   132210079.680        2770.521          43.000                                                                  
G18                                                                  25291635.961                        1169.299          28.000  
C13                                                                  40540590.389   163240139.181       -1896.310          39.000  
C08                                                                  41461811.858   166949523.113       -1859.978          40.000  
> 2025 11 03 07 35 10.7600000  0 27                     
G04  21510994.389   113041041.842        1403.048          44.000    21510983.007    88083875.436        1093.262          45.000  
G16  20216823.510   106240127.183         420.586          46.000                                                                  
G28  22832008.362   119983010.261       -2569.969          41.000    22831996.485    93493202.847       -2002.926          42.000  
G31  20948198.438   110083525.298       -1524.744          47.000    20948184.699    85779304.138       -1188.159          45.000  
G03  24299320.938   127693791.205       -2841.415          35.000    24299316.179    99501639.117       -2214.690          36.000  
C16  36733577.614   191281360.916           2.514          49.000    36733565.249   147910842.023           2.036          48.000  
C19  23609406.925   122940361.039       -1931.499          46.000                                                                  
C27  23710758.816   123468129.970        1340.094          46.000                                                                  
C06  36291208.965   188977838.294           0.634          47.000    36291189.765   146129589.129           0.485          49.000  
C09  37383400.144   194665158.051         104.343          45.000    37383383.791   150527395.845          80.707          48.000  
C22  24701756.841   128628519.082         908.785          43.000                                                                  
G26  20685976.950   108705545.216       -1799.133          48.000    20685966.502    84705575.131       -1401.959          46.000  
G27  22184890.761   116582392.626        3151.121          43.000    22184881.583    90843385.543        2455.537          43.000  
G09  24147431.457   126895625.493        2908.199          33.000    24147426.630    98879630.502        2266.380          33.000  
C28  24663858.766   128431187.039        -795.854          45.000                                                                  
C07  38114592.428   198472669.535         837.696          42.000    38114574.180   153471601.058         647.718          45.000  
C20  25245414.591   131459491.430       -3586.648          39.000                                                                  
C36  23987657.954   124910012.199        1459.469          44.000                                                                  
C37  24805269.167   129167545.133       -2363.692          44.000                                                                  
C10  39238097.480   204323052.738         766.680          39.000    39238085.177   157995507.764         592.644          45.000  
G32  25562848.590   134333673.052       -4162.994          32.000    25562866.852                       -3243.939          30.000  
G08  24501238.382   128754854.789        3632.784          33.000    24501237.585   100328476.765        2830.754          36.000  
G29  24995928.530   131354496.9812      -3450.676          38.000    24995920.442   102354114.976       -2689.095          35.000  
C30  25389536.838   132209968.854        2770.615          43.000                                                                  
G18                                                                  25291624.453                        1169.627          28.000  
C13                                                                  40540609.257   163240215.021       -1896.074          39.000  
C08                                                                  41461830.356   166949597.509       -1859.955          40.000  
> 2025 11 03 07 35 10.8000000  0 27                     
G04  21510983.701   113040985.724        1402.982          44.000    21510972.345    88083831.705        1093.292          45.000  
G16  20216820.321   106240110.361         420.549          46.000                                                                  
G28  22832027.934   119983113.068       -2570.080          41.000    22832016.049    93493282.953       -2002.751          42.000  
G31  20948210.038   110083586.290       -1524.750          47.000    20948196.317    85779351.665       -1188.147          45.000  
G03  24299342.578   127693904.880       -2841.646          35.000    24299337.806    99501727.678       -2214.325          36.000  
C16  36733577.611   191281360.817           2.463          49.000    36733565.221   147910841.941           2.073          48.000  
C19  23609421.761   122940438.305       -1931.567          46.000                                                                  
C27  23710748.499   123468076.369        1340.039          46.000                                                                  
C06  36291208.935   188977838.276           0.518          47.000    36291189.765   146129589.107           0.533          49.000  
C09  37383399.310   194665153.890         104.172          45.000    37383383.003   150527392.629          80.531          48.000  
C22  24701749.847   128628482.731         908.761          43.000                                                                  
G26  20685990.679   108705617.183       -1799.182          48.000    20685980.180    84705631.203       -1401.837          46.000  
G27  22184866.766   116582266.581        3151.121          43.000    22184857.604    90843287.330        2455.368          43.000  
G09  24147409.317   126895509.150        2908.441          33.000    24147404.519    98879539.866        2265.963          33.000  
C28  24663864.872   128431218.878        -795.942          45.000                                                                  
C07  38114585.996   198472636.027         837.695          42.000    38114567.759   153471575.147         647.760          45.000  
C20  25245442.130   131459634.899       -3586.711          39.000                                                                  
C36  23987646.747   124909953.808        1459.671          44.000                                                                  
C37  24805287.314   129167639.686       -2363.774          44.000                                                                  
C10  39238091.587   204323022.078         766.604          39.000    39238079.307   157995484.056         592.673          45.000  
G32  25562880.273   134333839.553       -4162.578          32.000    25562898.580                       -3244.255          30.000  
G08  24501210.754   128754709.480        3632.800          33.000    24501209.974   100328363.550        2830.591          36.000  
G29  24995954.843   131354635.0472      -3451.456          38.000    24995946.806   102354222.504       -2688.441          35.000  
C30  25389515.559   132209858.033        2770.521          43.000                                                                  
G18                                                                  25291612.994                        1169.218          29.000  
C13                                                                  40540628.099   163240290.850       -1895.760          39.000  
C08                                                                  41461848.838   166949671.929       -1860.381          40.000  
> 2025 11 03 07 35 10.8400000  0 27                     
G04  21510973.025   113040929.614        1402.826          44.000    21510961.673    88083787.981        1093.162          45.000  
G16  20216817.128   106240093.537         420.574          46.000                                                                  
G28  22832047.529   119983215.899       -2570.590          41.000    22832035.611    93493363.064       -2002.745          42.000  
G31  20948221.635   110083647.283       -1524.823          47.000    20948207.928    85779399.192       -1188.135          45.000  
G03  24299364.221   127694018.537       -2841.488          35.000    24299359.435    99501816.239       -2214.092          36.000  
C16  36733577.594   191281360.707           2.641          49.000    36733565.210   147910841.862           2.017          48.000  
C19  23609436.634   122940515.564       -1931.500          46.000                                                                  
C27  23710738.233   123468022.765        1340.082          46.000                                                                  
C06  36291208.934   188977838.238           0.796          47.000    36291189.774   146129589.088           0.505          49.000  
C09  37383398.499   194665149.726         104.135          45.000    37383382.207   150527389.410          80.456          48.000  
C22  24701742.878   128628446.378         908.786          43.000                                                                  
G26  20686004.388   108705689.151       -1799.219          48.000    20685993.876    84705687.286       -1402.008          45.000  
G27  22184842.773   116582140.530        3151.209          43.000    22184833.615    90843189.116        2455.314          43.000  
G09  24147387.224   126895392.797        2908.660          33.000    24147382.375    98879449.250        2265.399          33.000  
C28  24663870.949   128431250.720        -796.037          45.000                                                                  
C07  38114579.550   198472602.519         837.714          42.000    38114561.318   153471549.241         647.692          45.000  
C20  25245469.694   131459778.356       -3586.499          39.000                                                                  
C36  23987635.526   124909895.434        1459.456          44.000                                                                  
C37  24805305.468   129167734.240       -2363.866          44.000                                                                  
C10  39238085.711   204322991.424         766.495          39.000    39238073.409   157995460.345         592.725          45.000  
G32  25562911.966   134334006.090       -4163.068          32.000    25562930.402                       -3244.108          30.000  
G08  24501183.109   128754564.215        3631.808          33.000    24501182.381   100328250.326        2830.515          36.000  
G29  24995981.242   131354773.0702      -3450.995          38.000    24995973.037   102354330.050       -2688.389          35.000  
C30  25389494.273   132209747.209        2770.580          43.000                                                                  
G18                                                                  25291601.500                        1169.431          29.000  
C13                                                                  40540646.943   163240366.688       -1895.766          39.000  
C08                                                                  41461867.327   166949746.320       -1860.021          40.000  
> 2025 11 03 07 35 10.8800000  0 27                     
G04  21510962.346   113040873.495        1402.897          44.000    21510950.965    88083744.249        1093.223          45.000  
G16  20216813.906   106240076.717         420.531          46.000                                                                  
G28  22832067.099   119983318.716       -2570.597          41.000    22832055.193    93493443.174       -2002.773          42.000  
G31  20948233.237   110083708.278       -1524.872          47.000    20948219.540    85779446.729       -1188.330          45.000  
G03  24299385.841   127694132.210       -2841.710          35.000    24299381.076    99501904.801       -2213.953          36.000  
C16  36733577.573   191281360.594           2.774          49.000    36733565.200   147910841.771           2.194          48.000  
C19  23609451.463   122940592.828       -1931.562          46.000                                                                  
C27  23710727.944   123467969.170        1339.905          46.000                                                                  
C06  36291208.932   188977838.216           0.706          47.000    36291189.769   146129589.065           0.530          49.000  
C09  37383397.717   194665145.554         104.237          45.000    37383381.410   150527386.192          80.452          48.000  
C22  24701735.912   128628410.027         908.753          43.000                                                                  
G26  20686018.056   108705761.119       -1799.243          48.000    20686007.562    84705743.368       -1402.094          45.000  
G27  22184818.801   116582014.479        3151.259          43.000    22184809.613    90843090.887        2455.579          43.000  
G09  24147365.083   126895276.463        2908.492          33.000    24147360.248    98879358.603        2265.668          33.000  
C28  24663877.075   128431282.558        -796.023          45.000                                                                  
C07  38114573.100   198472569.017         837.576          42.000    38114554.884   153471523.325         647.816          45.000  
C20  25245497.266   131459921.806       -3586.324          39.000                                                                  
C36  23987624.325   124909837.050        1459.544          44.000                                                                  
C37  24805323.593   129167828.792       -2363.870          44.000                                                                  
C10  39238079.833   204322960.770         766.286          39.000    39238067.521   157995436.637         592.688          45.000  
G32  25562943.635   134334172.597       -4162.792          32.000    25562962.109                       -3244.137          30.000  
G08  24501155.481   128754418.903        3632.339          33.000    24501154.761   100328137.090        2830.686          36.000  
G29  24996007.459   131354911.0892      -3450.680          38.000    24995999.323   102354437.602       -2688.588          35.000  
C30  25389472.983   132209636.388        2770.535          43.000                                                                  
G18                                                                  25291590.026                        1169.424          29.000  
C13                                                                  40540665.764   163240442.523       -1895.764          39.000  
C08                                                                  41461885.795   166949820.726       -1860.146          40.000  
> 2025 11 03 07 35 10.9200000  0 27                     
G04  21510951.644   113040817.379        1402.891          44.000    21510940.292    88083700.526        1093.104          45.000  
G16  20216810.679   106240059.889         420.612          46.000                                                                  
G28  22832086.661   119983421.527       -2570.424          41.000    22832074.779    93493523.297       -2003.043          42.000  
G31  20948244.833   110083769.272       -1524.914          47.000    20948231.151    85779494.253       -1188.226          45.000  
G03  24299407.478   127694245.875       -2841.666          35.000    24299402.710    99501993.365       -2214.004          36.000  
C16  36733577.574   191281360.481           2.842          49.000    36733565.159   147910841.688           2.116          48.000  
C19  23609466.253   122940670.093       -1931.617          46.000                                                                  
C27  23710717.647   123467915.567        1339.996          46.000                                                                  
C06  36291208.916   188977838.193           0.616          47.000    36291189.764   146129589.043           0.529          49.000  
C09  37383396.925   194665141.387         104.165          45.000    37383380.611   150527382.970          80.497          48.000  
C22  24701728.936   128628373.676         908.760          43.000                                                                  
G26  20686031.757   108705833.090       -1799.316          48.000    20686021.232    84705799.441       -1401.953          45.000  
G27  22184794.796   116581888.435        3151.142          43.000    22184785.626    90842992.666        2455.595          43.000  
G09  24147342.970   126895160.153        2908.006          33.000    24147338.107    98879267.926        2266.253          33.000  
C28  24663883.196   128431314.391        -795.943          45.000                                                                  
C07  38114566.661   198472535.503         837.790          42.000    38114548.456   153471497.416         647.778          45.000  
C20  25245524.784   131460065.268       -3586.418          39.000                                                                  
C36  23987613.086   124909778.664        1459.608          44.000                                                                  
C37  24805341.766   129167923.331       -2363.614          44.000                                                                  
C10  39238073.941   204322930.106         766.428          39.000    39238061.656   157995412.920         592.849          45.000  
G32  25562975.332   134334339.122       -4163.077          32.000    25562993.741                       -3243.572          30.000  
G08  24501127.817   128754273.524        3633.728          33.000    24501127.110   100328023.850        2830.895          36.000  
G29  24996033.860   131355049.1122      -3450.596          38.000    24996025.846   102354545.159       -2688.858          35.000  
C30  25389451.715   132209525.562        2770.573          43.000                                                                  
G18                                                                  25291578.614                        1169.579          29.000  
C13                                                                  40540684.601   163240518.387       -1896.324          39.000  
C08                                                                  41461904.352   166949895.127       -1860.108          40.000  
> 2025 11 03 07 35 10.9600000  0 27                     
G04  21510940.970   113040761.263        1402.882          44.000    21510929.622    88083656.801        1093.087          45.000  
G16  20216807.459   106240043.062         420.661          46.000                                                                  
G28  22832106.217   119983524.338       -2570.323          41.000    22832094.344    93493603.401       -2002.775          42.000  
G31  20948256.434   110083830.271       -1525.024          47.000    20948242.741    85779541.781       -1188.239          45.000  
G03  24299429.132   127694359.541       -2841.683          35.000    24299424.340    99502081.949       -2214.376          36.000  
C16  36733577.553   191281360.372           2.812          49.000    36733565.114   147910841.608           2.010          48.000  
C19  23609481.075   122940747.362       -1931.728          46.000                                                                  
C27  23710707.360   123467861.968        1339.966          46.000                                                                  
C06  36291208.919   188977838.169           0.592          47.000    36291189.761   146129589.025           0.476          49.000  
C09  37383396.119   194665137.219         104.145          45.000    37383379.817   150527379.740          80.663          48.000  
C22  24701721.989   128628337.313         908.969          43.000                                                                  
G26  20686045.428   108705905.058       -1799.274          48.000    20686034.951    84705855.520       -1401.984          46.000  
G27  22184770.816   116581762.387        3151.176          43.000    22184761.638    90842894.447        2455.508          43.000  
G09  24147320.876   126895043.838        2907.910          33.000    24147315.977    98879177.316        2265.688          33.000  
C28  24663889.303   128431346.230        -795.962          45.000                                                                  
C07  38114560.226   198472502.000         837.663          42.000    38114542.008   153471471.507         647.734          45.000  
C20  25245552.338   131460208.717       -3586.279          39.000                                                                  
C36  23987601.884   124909720.274        1459.698          44.000                                                                  
C37  24805359.922   129168017.888       -2363.828          44.000                                                                  
C10  39238068.042   204322899.448         766.395          39.000    39238055.751   157995389.205         592.890          45.000  
G32  25563007.040   134334505.645       -4163.091          32.000    25563025.462                       -3243.653          30.000  
G08  24501100.128                        3632.548          33.000    24501099.487   100327910.625        2830.731          36.000  
G29  24996060.389   131355187.1312      -3450.533          38.000    24996052.267   102354652.742       -2689.337          35.000  
C30  25389430.441   132209414.740        2770.546          43.000                                                                  
G18                                                                  25291566.884                        1169.228          29.000  
C13                                                                  40540703.441   163240594.258       -1896.755          39.000  
C08                                                                  41461922.855   166949969.520       -1859.905          40.000  
> 2025 11 03 07 35 11.0000000  0 27                     
G04  21510930.301   113040705.144        1402.922          44.000    21510918.951    88083613.073        1093.129          45.000  
G16  20216804.263   106240026.250         420.418          46.000                                                                  
G28  22832125.782   119983627.138       -2570.105          41.000    22832113.888    93493683.505       -2002.639          42.000  
G31  20948268.042   110083891.267       -1524.988          47.000    20948254.337    85779589.305       -1188.165          45.000  
G03  24299450.764   127694473.207       -2841.765          35.000    24299445.963    99502170.546       -2214.857          36.000  
C16  36733577.516   191281360.267           2.685          49.000    36733565.093   147910841.525           2.047          48.000  
C19  23609495.912   122940824.628       -1931.709          46.000                                                                  
C27  23710697.053   123467808.367        1339.978          46.000                                                                  
C06  36291208.897   188977838.146           0.574          47.000    36291189.755   146129589.007           0.432          49.000  
C09  37383395.320   194665133.050         104.185          45.000    37383379.034   150527376.513          80.666          48.000  
C22  24701715.000   128628300.964         908.842          43.000                                                                  
G26  20686059.115   108705977.027       -1799.249          48.000    20686048.655    84705911.602       -1402.075          46.000  
G27  22184746.844   116581636.337        3151.207          43.000    22184737.640    90842796.227        2455.489          43.000  
G09  24147298.744   126894927.491        2908.558          33.000    24147293.822    98879086.628        2266.692          33.000  
C28  24663895.409   128431378.072        -796.047          45.000                                                                  
C07  38114553.799   198472468.487         837.757          42.000    38114535.566   153471445.593         647.803          45.000  
C20  25245579.864   131460352.185       -3586.546          39.000                                                                  
C36  23987590.638   124909661.891        1459.642          44.000                                                                  
C37  24805378.067   129168112.435       -2363.782          44.000                                                                  
C10  39238062.166   204322868.777         766.646          39.000    39238049.846   157995365.501         592.700          44.000  
G32  25563038.758   134334672.172       -4163.020          32.000    25563057.221                       -3244.392          30.000  
G08  24501072.461                        3632.782          33.000    24501071.855   100327797.396        2830.778          36.000  
G29  24996086.405   131355325.1542      -3450.542          38.000    24996078.438   102354760.304       -2689.303          35.000  
C30  25389409.183   132209303.912        2770.630          43.000                                                                  
G18                                                                  25291555.444                        1169.180          29.000  
C13                                                                  40540722.243   163240670.098       -1896.385          39.000  
C08                                                                  41461941.338   166950043.924       -1859.973          40.000  
> 2025 11 03 07 35 11.0400000  0 27                     
G04  21510919.633   113040649.028        1402.893          44.000    21510908.261    88083569.347        1093.121          45.000  
G16  20216801.050   106240009.426         420.513          46.000                                                                  
G28  22832145.353   119983729.951       -2570.208          41.000    22832133.464    93493763.617       -2002.716          42.000  
G31  20948279.628   110083952.260       -1524.933          47.000    20948265.942    85779636.830       -1188.129          45.000  
G03  24299472.399   127694586.879       -2841.832          35.000    24299467.592    99502259.115       -2214.613          36.000  
C16  36733577.499   191281360.160           2.647          49.000    36733565.065   147910841.446           2.003          48.000  
C19  23609510.729   122940901.893       -1931.678          46.000                                                                  
C27  23710686.760   123467754.760        1340.118          46.000                                                                  
C06  36291208.886   188977838.121           0.616          47.000    36291189.752   146129588.986           0.459          49.000  
C09  37383394.532   194665128.874         104.332          45.000    37383378.220   150527373.286          80.683          48.000  
C22  24701708.016   128628264.615         908.750          43.000                                                                  
G26  20686072.792   108706048.984       -1799.023          48.000    20686062.345    84705967.677       -1401.947          46.000  
G27  22184722.858   116581510.286        3151.271          43.000    22184713.672    90842698.016        2455.288          43.000  
G09  24147276.580   126894811.124        2909.104          33.000    24147271.681    98878995.979        2266.469          33.000  
C28  24663901.510   128431409.907        -795.940          45.000                                                                  
C07  38114547.363   198472434.961         838.055          42.000    38114529.133   153471419.671         647.995          45.000  
C20  25245607.415   131460495.631       -3586.244          39.000                                                                  
C36  23987579.427   124909603.507        1459.622          44.000                                                                  
C37  24805396.216   129168206.977       -2363.630          44.000                                                                  
C10  39238056.269   204322838.099         766.905          39.000    39238043.968   157995341.781         592.874          44.000  
G32  25563070.440   134334838.699       -4163.112          32.000    25563088.964                       -3244.061          30.000  
G08  24501044.794                        3632.850          33.000    24501044.219   100327684.164        2830.844          36.000  
G29  24996113.037   131355463.1872      -3450.681          38.000    24996104.622   102354867.864       -2689.188          35.000  
C30  25389387.904   132209193.076        2770.760          43.000                                                                  
G18                                                                  25291544.023                        1169.236          29.000  
C13                                                                  40540741.108   163240745.937       -1896.151          39.000  
C08                                                                  41461959.848   166950118.324       -1859.948          40.000  
> 2025 11 03 07 35 11.0800000  0 27                     
G04  21510908.952   113040592.909        1402.891          44.000    21510897.555    88083525.619        1093.156          45.000  
G16  20216797.853   106239992.598         420.618          46.000                                                                  
G28  22832164.901   119983832.755       -2570.128          41.000    22832153.010    93493843.734       -2002.867          42.000  
G31  20948291.232   110084013.245       -1524.774          47.000    20948277.566    85779684.356       -1188.135          45.000  
G03  24299494.016   127694700.572       -2842.198          35.000    24299489.218    99502347.675       -2214.231          36.000  
C16  36733577.477   191281360.037           2.915          49.000    36733565.030   147910841.353           2.198          48.000  
C19  23609525.580   122940979.151       -1931.518          46.000                                                                  
C27  23710676.490   123467701.154        1340.149          46.000                                                                  
C06  36291208.884   188977838.073           1.008          47.000    36291189.723   146129588.954           0.675          49.000  
C09  37383393.722   194665124.696         104.444          45.000    37383377.389   150527370.058          80.695          48.000  
C22  24701701.046   128628228.259         908.817          43.000                                                                  
G26  20686086.501   108706120.947       -1799.005          48.000    20686076.036    84706023.756       -1401.965          46.000  
G27  22184698.859   116581384.231        3151.320          43.000    22184689.680    90842599.795        2455.383          43.000  
G09  24147254.456   126894694.795        2908.609          33.000    24147249.541    98878905.320        2266.458          33.000  
C28  24663907.639   128431441.745        -795.964          45.000                                                                  
C07  38114540.928   198472401.448         837.953          42.000    38114522.670   153471393.758         647.893          45.000  
C20  25245634.963   131460639.071       -3585.946          39.000                                                                  
C36  23987568.192   124909545.131        1459.479          44.000                                                                  
C37  24805414.358   129168301.516       -2363.525          44.000                                                                  
C10  39238050.367   204322807.440         766.651          39.000    39238038.074   157995318.071         592.798          44.000  
G32  25563102.120   134335005.181       -4162.286          32.000    25563120.666                       -3244.385          30.000  
G08  24501017.147   128753692.297        3632.638          33.000    24501016.570   100327570.945        2830.612          36.000  
G29  24996139.375   131355601.2242      -3450.895          38.000    24996130.740   102354975.400       -2688.683          35.000  
C30  25389366.649   132209082.243        2770.781          43.000                                                                  
G18                                                                  25291532.436                        1169.295          29.000  
C13                                                                  40540759.951   163240821.775       -1895.989          39.000  
C08                                                                  41461978.338   166950192.709       -1859.684          40.000  
> 2025 11 03 07 35 11.1200000  0 27                     
G04  21510898.258   113040536.798        1402.759          44.000    21510886.873    88083481.893        1093.142          45.000  
G16  20216794.672   106239975.772         420.649          46.000                                                                  
G28  22832184.483   119983935.568       -2570.261          41.000    22832172.581    93493923.845       -2002.848          42.000  
G31  20948302.822   110084074.234       -1524.725          47.000    20948289.179    85779731.894       -1188.354          45.000  
G03  24299515.639   127694814.238       -2841.922          35.000    24299510.843    99502436.245       -2214.199          36.000  
C16  36733577.478   191281359.923           2.896          49.000    36733565.009   147910841.261           2.298          48.000  
C19  23609540.390   122941056.418       -1931.648          46.000                                                                  
C27  23710666.200   123467647.550        1340.125          46.000                                                                  
C06  36291208.859   188977838.046           0.852          47.000    36291189.720   146129588.931           0.636          49.000  
C09  37383392.908   194665120.525         104.358          45.000    37383376.581   150527366.828          80.698          48.000  
C22  24701694.066   128628191.917         908.614          43.000                                                                  
G26  20686100.215   108706192.919       -1799.213          48.000    20686089.738    84706079.835       -1401.984          46.000  
G27  22184674.872   116581258.187        3151.142          43.000    22184665.688    90842501.580        2455.317          43.000  
G09  24147232.328   126894578.467        2908.304          33.000    24147227.396    98878814.705        2265.678          33.000  
C28  24663913.737   128431473.585        -796.058          45.000                                                                  
C07  38114534.497   198472367.946         837.672          42.000    38114516.220   153471367.848         647.762          45.000  
C20  25245662.496   131460782.545       -3586.466          39.000                                                                  
C36  23987556.962   124909486.754        1459.407          44.000                                                                  
C37  24805432.519   129168396.065       -2363.682          44.000                                                                  
C10  39238044.482   204322776.773         766.666          39.000    39238032.196   157995294.372         592.574          44.000  
G32  25563133.827   134335171.714       -4162.889          32.000    25563152.344                       -3243.335          30.000  
G08  24500989.510   128753546.999        3632.336          33.000    24500988.936   100327457.697        2831.023          36.000  
G29  24996165.776   131355739.2582      -3450.976          38.000    24996157.230   102355082.944       -2688.591          35.000  
C30  25389345.379   132208971.419        2770.653          43.000                                                                  
G18                                                                  25291520.936                        1168.961          29.000  
C13                                                                  40540778.781   163240897.614       -1895.949          39.000  
C08                                                                  41461996.826   166950267.111       -1859.888          40.000  
> 2025 11 03 07 35 11.1600000  0 27                     
G04  21510887.597   113040480.704        1402.410          44.000    21510876.191    88083438.171        1093.048          45.000  
G16  20216791.485   106239958.950         420.548          46.000                                                                  
G28  22832204.029   119984038.382       -2570.374          41.000    22832192.149    93494003.952       -2002.746          42.000  
G31  20948314.429   110084135.230       -1524.847          47.000    20948300.780    85779779.422       -1188.257          45.000  
G03  24299537.274   127694927.886       -2841.438          35.000    24299532.468    99502524.793       -2213.761          36.000  
C16  36733577.461   191281359.823           2.620          49.000    36733564.976   147910841.180           2.124          48.000  
C19  23609555.235   122941133.687       -1931.734          46.000                                                                  
C27  23710655.920   123467593.952        1339.972          46.000                                                                  
C06  36291208.849   188977838.022           0.670          47.000    36291189.703   146129588.913           0.516          49.000  
C09  37383392.097   194665116.360         104.184          45.000    37383375.799   150527363.610          80.513          48.000  
C22  24701687.090   128628155.576         908.489          43.000                                                                  
G26  20686113.920   108706264.888       -1799.267          48.000    20686103.434    84706135.910       -1401.910          46.000  
G27  22184650.870   116581132.142        3151.115          43.000    22184641.718    90842403.350        2455.565          43.000  
G09  24147210.164   126894462.160        2907.826          33.000    24147205.273    98878724.067        2265.739          33.000  
C28  24663919.847   128431505.425        -796.046          45.000                                                                  
C07  38114528.074   198472334.436         837.693          42.000    38114509.775   153471341.947         647.527          45.000  
C20  25245690.054   131460926.009       -3586.591          39.000                                                                  
C36  23987545.723   124909428.367        1459.546          44.000                                                                  
C37  24805450.660   129168490.615       -2363.750          44.000                                                                  
C10  39238038.573   204322746.123         766.360          39.000    39238026.310   157995270.667         592.569          44.000  
G32  25563165.527   134335338.244       -4163.232          32.000    25563184.077                       -3244.279          30.000  
G08  24500961.854   128753401.695        3632.441          33.000    24500961.288   100327344.460        2830.975          36.000  
G29  24996191.903   131355877.2532      -3450.233          38.000    24996183.715   102355190.504       -2688.871          35.000  
C30  25389324.082   132208860.594        2770.564          43.000                                                                  
G18                                                                  25291509.559                        1168.990          29.000  
C13                                                                  40540797.610   163240973.451       -1895.986          39.000  
C08                                                                  41462015.315   166950341.512       -1860.005          40.000  
> 2025 11 03 07 35 11.2000000  0 27                     
G04  21510876.902   113040424.583        1402.733          44.000    21510865.526    88083394.450        1092.985          45.000  
G16  20216788.287   106239942.138         420.318          46.000                                                                  
G28  22832223.594   119984141.187       -2570.260          41.000    22832211.717    93494084.067       -2002.848          42.000  
G31  20948326.060   110084196.228       -1524.951          47.000    20948312.387    85779826.956       -1188.336          45.000  
G03  24299558.884   127695041.541       -2841.400          35.000    24299554.091    99502613.388       -2214.464          36.000  
C16  36733577.447   191281359.711           2.683          49.000    36733564.950   147910841.095           2.139          48.000  
C19  23609570.060   122941210.953       -1931.721          46.000                                                                  
C27  23710645.624   123467540.356        1339.838          46.000                                                                  
C06  36291208.851   188977837.997           0.593          47.000    36291189.721   146129588.894           0.453          49.000  
C09  37383391.320   194665112.180         104.352          45.000    37383375.022   150527360.389          80.452          48.000  
C22  24701680.110   128628119.220         908.751          43.000                                                                  
G26  20686127.609   108706336.860       -1799.323          48.000    20686117.129    84706191.983       -1401.868          46.000  
G27  22184626.878   116581006.099        3151.053          43.000    22184617.737    90842305.132        2455.497          43.000  
G09  24147188.060   126894345.815        2908.286          34.000    24147183.122    98878633.366        2266.869          33.000  
C28  24663925.954   128431537.272        -796.147          45.000                                                                  
C07  38114521.634   198472300.929         837.625          42.000    38114503.321   153471316.034         647.667          45.000  
C20  25245717.590   131461069.459       -3586.429          39.000                                                                  
C36  23987534.518   124909369.968        1459.833          44.000                                                                  
C37  24805468.821   129168585.166       -2363.785          44.000                                                                  
C10  39238032.674   204322715.449         766.616          39.000    39238020.405   157995246.954         592.705          44.000  
G32  25563197.240   134335504.749       -4162.889          32.000    25563215.735                       -3243.599          30.000  
G08  24500934.182   128753256.359        3633.008          33.000    24500933.643   100327231.240        2830.698          36.000  
G29  24996218.262   131356015.2912      -3450.647          38.000    24996209.404   102355298.067       -2689.041          35.000  
C30  25389302.807   132208749.768        2770.580          43.000                                                                  
G18                                                                  25291498.015                        1169.180          29.000  
C13                                                                  40540816.437   163241049.299       -1896.191          39.000  
C08                                                                  41462033.797   166950415.913       -1860.060          40.000  
> 2025 11 03 07 35 11.2400000  0 27                     
G04  21510866.249   113040368.470        1402.799          44.000    21510854.839    88083350.727        1093.009          45.000  
G16  20216785.107   106239925.320         420.345          46.000                                                                  
G28  22832243.156   119984243.994       -2570.215          41.000    22832231.291    93494164.178       -2002.815          42.000  
G31  20948337.678   110084257.232       -1525.122          47.000    20948323.997    85779874.487       -1188.318          45.000  
G03  24299580.526   127695155.222       -2841.865          35.000    24299575.711    99502701.960       -2214.478          36.000  
C16  36733577.438   191281359.602           2.672          49.000    36733564.922   147910841.015           2.022          48.000  
C19  23609584.903   122941288.220       -1931.709          46.000                                                                  
C27  23710635.339   123467486.770        1339.636          46.000                                                                  
C06  36291208.841   188977837.974           0.511          47.000    36291189.686   146129588.876           0.416          49.000  
C09  37383390.542   194665108.008         104.333          45.000    37383374.238   150527357.157          80.640          48.000  
C22  24701673.117   128628082.871         908.748          43.000                                                                  
G26  20686141.322   108706408.837       -1799.451          48.000    20686130.814    84706248.075       -1402.191          46.000  
G27  22184602.899   116580880.051        3151.148          43.000    22184593.749    90842206.915        2455.427          43.000  
G09  24147165.908   126894229.482        2908.344          34.000    24147160.967    98878542.696        2266.974          33.000  
C28  24663932.064   128431569.119        -796.218          45.000                                                                  
C07  38114515.201   198472267.419         837.663          42.000    38114496.873   153471290.119         647.816          45.000  
C20  25245745.109   131461212.925       -3586.608          39.000                                                                  
C36  23987523.302   124909311.600        1459.417          44.000                                                                  
C37  24805486.953   129168679.718       -2363.821          44.000                                                                  
C10  39238026.790   204322684.772         766.832          39.000    39238014.474   157995223.233         592.902          44.000  
G32  25563228.936   134335671.284       -4163.207          32.000    25563247.454   104677232.1631      -3243.987          30.000  
G08  24500906.543   128753111.092        3632.033          33.000    24500905.990   100327118.011        2830.699          36.000  
G29  24996244.118   131356153.3222      -3450.769          38.000    24996235.613   102355405.640       -2689.205          35.000  
C30  25389281.533   132208638.940        2770.599          43.000                                                                  
G18                                                                  25291486.616                        1169.182          29.000  
C13                                                                  40540835.263   163241125.139       -1896.124          39.000  
C08                                                                  41462052.259   166950490.316       -1860.165          40.000  
> 2025 11 03 07 35 11.2800000  0 27                     
G04  21510855.583   113040312.368        1402.604          44.000    21510844.154    88083307.013        1092.874          45.000  
G16  20216781.924   106239908.512         420.166          46.000                                                                  
G28  22832262.722   119984346.816       -2570.435          41.000    22832250.855    93494244.296       -2002.974          42.000  
G31  20948349.296   110084318.234       -1525.146          47.000    20948335.569    85779922.012       -1188.177          45.000  
G03  24299602.130   127695268.879       -2841.692          35.000    24299597.354    99502790.569       -2215.052          36.000  
C16  36733577.436   191281359.497           2.615          49.000    36733564.904   147910840.932           2.025          48.000  
C19  23609599.731   122941365.495       -1931.913          46.000                                                                  
C27  23710625.062   123467433.176        1339.697          46.000                                                                  
C06  36291208.825   188977837.949           0.531          47.000    36291189.668   146129588.851           0.510          49.000  
C09  37383389.749   194665103.842         104.178          45.000    37383373.453   150527353.932          80.619          48.000  
C22  24701666.121   128628046.539         908.413          43.000                                                                  
G26  20686154.986   108706480.810       -1799.420          48.000    20686144.519    84706304.168       -1402.368          46.000  
G27  22184578.916   116580753.998        3151.227          43.000    22184569.767    90842108.704        2455.286          43.000  
G09  24147143.779   126894113.150        2908.305          34.000    24147138.845    98878452.046        2266.625          33.000  
C28  24663938.201   128431600.966        -796.234          45.000                                                                  
C07  38114508.770   198472233.916         837.570          42.000    38114490.412   153471264.208         647.778          45.000  
C20  25245772.660   131461356.374       -3586.367          39.000                                                                  
C36  23987512.069   124909253.224        1459.282          44.000                                                                  
C37  24805505.113   129168774.267       -2363.792          44.000                                                                  
C10  39238020.890   204322654.125         766.411          39.000    39238008.589   157995199.517         592.942          44.000  
G32  25563260.613   134335837.799       -4163.039          32.000    25563279.135   104677361.954       -3244.641          30.000  
G08  24500878.892   128752965.756        3632.756          33.000    24500878.367   100327004.796        2830.493          36.000  
G29  24996269.895   131356291.3662      -3451.118          38.000    24996261.805   102355513.191       -2688.935          35.000  
C30  25389260.234   132208528.124        2770.402          43.000                                                                  
G18                                                                  25291475.288                        1169.366          29.000  
C13                                                                  40540854.104   163241200.987       -1896.198          39.000  
C08                                                                  41462070.759   166950564.716       -1860.090          40.000  
> 2025 11 03 07 35 11.3200000  0 27                     
G04  21510844.912   113040256.281        1402.246          44.000    21510833.460    88083263.295        1092.850          45.000  
G16  20216778.714   106239891.697         420.230          46.000                                                                  
G28  22832282.294   119984449.654       -2570.885          41.000    22832270.409    93494324.416       -2003.047          42.000  
G31  20948360.911   110084379.243       -1525.275          47.000    20948347.168    85779969.550       -1188.367          45.000  
G03  24299623.759   127695382.577       -2842.296          35.000    24299618.972    99502879.133       -2214.546          36.000  
C16  36733577.397   191281359.402           2.388          49.000    36733564.876   147910840.861           1.832          48.000  
C19  23609614.597   122941442.781       -1932.177          46.000                                                                  
C27  23710614.763   123467379.586        1339.685          46.000                                                                  
C06  36291208.818   188977837.932           0.409          47.000    36291189.670   146129588.833           0.449          49.000  
C09  37383388.954   194665099.682         103.975          45.000    37383372.651   150527350.711          80.548          48.000  
C22  24701659.151   128628010.212         908.201          43.000                                                                  
G26  20686168.713   108706552.794       -1799.609          48.000    20686158.214    84706360.258       -1402.405          46.000  
G27  22184554.922   116580627.968        3150.884          43.000    22184545.773    90842010.498        2455.142          43.000  
G09  24147121.689   126893996.854        2907.594          34.000    24147116.709    98878361.446        2265.495          34.000  
C28  24663944.305   128431632.825        -796.438          45.000                                                                  
C07  38114502.334   198472200.420         837.421          42.000    38114483.965   153471238.308         647.547          45.000  
C20  25245800.188   131461499.840       -3586.589          39.000                                                                  
C36  23987500.863   124909194.860        1459.068          44.000                                                                  
C37  24805523.270   129168868.826       -2363.922          44.000                                                                  
C10  39238014.998   204322623.484         766.047          39.000    39238002.737   157995175.821         592.584          44.000  
G32  25563292.304   134336004.345       -4163.535          32.000    25563310.845   104677491.702       -3244.201          31.000  
G08  24500851.254   128752820.482        3632.151          33.000    24500850.717   100326891.586        2830.392          36.000  
G29  24996296.445   131356429.4192      -3451.472          38.000    24996288.427   102355620.754       -2689.009          35.000  
C30  25389238.967   132208417.299        2770.476          43.000                                                                  
G18                                                                  25291463.738                        1169.114          29.000  
C13                                                                  40540872.899   163241276.836       -1896.239          39.000  
C08                                                                  41462089.230   166950639.122       -1860.152          40.000  
> 2025 11 03 07 35 11.3600000  0 27                     
G04  21510834.228   113040200.178        1402.343          44.000    21510822.773    88083219.582        1092.797          45.000  
G16  20216775.546   106239874.899         419.995          46.000                                                                  
G28  22832301.851   119984552.469       -2570.686          41.000    22832289.992    93494404.552       -2003.352          42.000  
G31  20948372.499   110084440.249       -1525.238          47.000    20948358.794    85780017.091       -1188.519          45.000  
G03  24299645.387   127695496.274       -2842.566          36.000    24299640.595    99502967.724       -2214.651          36.000  
C16  36733577.413   191281359.304           2.350          49.000    36733564.845   147910840.786           1.806          48.000  
C19  23609629.436   122941520.062       -1932.175          46.000                                                                  
C27  23710604.483   123467325.993        1339.789          46.000                                                                  
C06  36291208.831   188977837.914           0.369          47.000    36291189.686   146129588.823           0.294          49.000  
C09  37383388.164   194665095.519         103.980          45.000    37383371.816   150527347.493          80.441          48.000  
C22  24701652.173   128627973.876         908.270          43.000                                                                  
G26  20686182.406   108706624.774       -1799.597          48.000    20686171.908    84706416.340       -1402.197          46.000  
G27  22184530.944   116580501.934        3150.801          43.000    22184521.797    90841912.297        2455.005          43.000  
G09  24147099.578   126893880.559        2907.188          34.000    24147094.586    98878270.846        2264.962          34.000  
C28  24663950.420   128431664.676        -796.377          44.000                                                                  
C07  38114495.892   198472166.928         837.249          42.000    38114477.546   153471212.408         647.449          45.000  
C20  25245827.734   131461643.320       -3586.950          39.000                                                                  
C36  23987489.689   124909136.491        1459.089          44.000                                                                  
C37  24805541.429   129168963.389       -2364.109          44.000                                                                  
C10  39238009.112   204322592.826         766.262          39.000    39237996.836   157995152.126         592.395          44.000  
G32  25563324.003   134336170.861       -4163.204          32.000    25563342.530   104677621.444       -3243.875          31.000  
G08  24500823.581   128752675.176        3632.469          33.000    24500823.051   100326778.350        2830.765          36.000  
G29  24996322.306   131356567.4782      -3451.650          38.000    24996315.000   102355728.309       -2688.807          35.000  
C30  25389217.683   132208306.488        2770.306          43.000                                                                  
G18                                                                  25291452.202                        1169.395          29.000  
C13                                                                  40540891.720   163241352.684       -1896.231          39.000  
C08                                                                  41462107.707   166950713.531       -1860.231          40.000  
> 2025 11 03 07 35 11.4000000  0 27                     
G04  21510823.534   113040144.077        1402.400          44.000    21510812.114    88083175.874        1092.682          45.000  
G16  20216772.320   106239858.090         420.096          46.000                                                                  
G28  22832321.425   119984655.301       -2570.848          41.000    22832309.573    93494484.682       -2003.340          42.000  
G31  20948384.085   110084501.250       -1525.116          47.000    20948370.402    85780064.627       -1188.513          45.000  
G03  24299667.036   127695609.942       -2842.069          36.000    24299662.223    99503056.304       -2214.553          36.000  
C16  36733577.395   191281359.202           2.435          49.000    36733564.799   147910840.700           1.990          48.000  
C19  23609644.297   122941597.341       -1932.069          46.000                                                                  
C27  23710594.192   123467272.406        1339.679          46.000                                                                  
C06  36291208.865   188977837.889           0.513          47.000    36291189.674   146129588.809           0.272          49.000  
C09  37383387.375   194665091.360         103.920          45.000    37383371.001   150527344.272          80.463          48.000  
C22  24701645.173   128627937.537         908.379          43.000                                                                  
G26  20686196.076   108706696.753       -1799.554          48.000    20686185.618    84706472.428       -1402.185          46.000  
G27  22184506.950   116580375.920        3150.379          43.000    22184497.802    90841814.081        2455.191          43.000  
G09  24147077.446   126893764.230        2907.725          34.000    24147072.430    98878180.153        2266.306          34.000  
C28  24663956.535   128431696.527        -796.344          44.000                                                                  
C07  38114489.428   198472133.418         837.525          42.000    38114471.126   153471186.497         647.613          45.000  
C20  25245855.278   131461786.784       -3586.875          39.000                                                                  
C36  23987478.467   124909078.113        1459.240          44.000                                                                  
C37  24805559.573   129169057.944       -2363.997          44.000                                                                  
C10  39238003.232   204322562.164         766.409          39.000    39237990.940   157995128.422         592.467          44.000  
G32  25563355.700   134336337.421       -4163.740          32.000    25563374.215   104677751.182       -3243.527          31.000  
G08  24500795.923   128752529.816        3633.492          33.000    24500795.398   100326665.125        2830.743          36.000  
G29  24996348.602   131356705.5102      -3451.293          38.000    24996341.196   102355835.869       -2688.913          35.000  
C30  25389196.419   132208195.667        2770.387          43.000                                                                  
G18                                                                  25291440.807                        1169.284          29.000  
C13                                                                  40540910.573   163241428.537       -1896.332          39.000  
C08                                                                  41462126.206   166950787.940       -1860.311          40.000  
> 2025 11 03 07 35 11.4400000  0 27                     
G04  21510812.861   113040087.979        1402.410          44.000    21510801.442    88083132.157        1092.800          45.000  
G16  20216769.086   106239841.285         420.078          46.000                                                                  
G28  22832341.003   119984758.116       -2570.541          41.000    22832329.151    93494564.800       -2003.098          42.000  
G31  20948395.710   110084562.264       -1525.287          47.000    20948382.019    85780112.168       -1188.586          45.000  
G03  24299688.660   127695723.612       -2841.805          36.000    24299683.847    99503144.875       -2214.368          36.000  
C16  36733577.395   191281359.099           2.515          49.000    36733564.765   147910840.615           2.066          48.000  
C19  23609659.161   122941674.623       -1932.088          46.000                                                                  
C27  23710583.908   123467218.827        1339.508          46.000                                                                  
C06  36291208.837   188977837.880           0.294          47.000    36291189.681   146129588.797           0.243          49.000  
C09  37383386.573   194665087.195         103.999          45.000    37383370.208   150527341.056          80.415          48.000  
C22  24701638.207   128627901.209         908.199          43.000                                                                  
G26  20686209.783   108706768.735       -1799.554          48.000    20686199.323    84706528.518       -1402.246          46.000  
G27  22184482.954   116580249.877        3150.713          43.000    22184473.824    90841715.867        2455.330          43.000  
G09  24147055.320   126893647.894        2908.140          34.000    24147050.259    98878089.491        2266.557          34.000  
C28  24663962.651   128431728.380        -796.335          44.000                                                                  
C07  38114482.981   198472099.914         837.587          42.000    38114464.734   153471160.596         647.531          45.000  
C20  25245882.827   131461930.254       -3586.850          39.000                                                                  
C36  23987467.270   124909019.733        1459.394          44.000                                                                  
C37  24805577.708   129169152.506       -2364.060          44.000                                                                  
C10  39237997.339   204322531.511         766.367          39.000    39237985.051   157995104.719         592.497          44.000  
G32  25563387.379   134336503.947       -4163.548          32.000    25563405.921   104677880.947       -3243.804          31.000  
G08  24500768.303   128752384.563        3632.081          33.000    24500767.761   100326551.920        2830.286          36.000  
G29  24996373.874   131356843.5352      -3450.906          38.000    24996367.369   102355943.460       -2689.556          35.000  
C30  25389175.148   132208084.845        2770.436          43.000                                                                  
G18                                                                  25291429.273                        1169.069          29.000  
C13                                                                  40540929.418   163241504.384       -1896.294          39.000  
C08                                                                  41462144.670   166950862.337       -1860.095          40.000  
> 2025 11 03 07 35 11.4800000  0 27                     
G04  21510802.188   113040031.886        1402.305          44.000    21510790.771    88083088.454        1092.609          45.000  
G16  20216765.883   106239824.486         419.973          46.000                                                                  
G28  22832360.582   119984860.942       -2570.645          41.000    22832348.712    93494644.916       -2002.937          42.000  
G31  20948407.326   110084623.272       -1525.281          47.000    20948393.629    85780159.714       -1188.709          45.000  
G03  24299710.283   127695837.269       -2841.467          36.000    24299705.472    99503233.445       -2214.298          36.000  
C16  36733577.370   191281358.999           2.480          49.000    36733564.714   147910840.542           1.872          48.000  
C19  23609674.017   122941751.906       -1932.112          46.000                                                                  
C27  23710573.629   123467165.244        1339.484          46.000                                                                  
C06  36291208.857   188977837.859           0.433          47.000    36291189.667   146129588.782           0.259          49.000  
C09  37383385.763   194665083.038         103.916          45.000    37383369.423   150527337.848          80.231          48.000  
C22  24701631.240   128627864.881         908.118          43.000                                                                  
G26  20686223.490   108706840.723       -1799.676          48.000    20686212.989    84706584.611       -1402.325          46.000  
G27  22184458.953   116580123.846        3150.707          43.000    22184449.824    90841617.663        2455.203          43.000  
G09  24147033.187   126893531.551        2908.420          34.000    24147028.132    98877998.897        2265.560          34.000  
C28  24663968.765   128431760.233        -796.342          44.000                                                                  
C07  38114476.553   198472066.420         837.437          42.000    38114458.261   153471134.694         647.508          45.000  
C20  25245910.404   131462073.718       -3586.747          39.000                                                                  
C36  23987456.074   124908961.354        1459.427          44.000                                                                  
C37  24805595.865   129169247.066       -2364.077          44.000                                                                  
C10  39237991.479   204322500.862         766.253          39.000    39237979.150   157995081.019         592.456          44.000  
G32  25563419.083   134336670.478       -4163.471          32.000    25563437.610   104678010.708       -3244.016          31.000  
G08  24500740.656   128752239.260        3632.208          33.000    24500740.111   100326438.683        2830.602          36.000  
G29  24996400.029   131356981.5422      -3450.377          37.000    24996393.783   102356051.030       -2689.520          35.000  
C30  25389153.875   132207974.023        2770.474          43.000                                                                  
G18                                                                  25291417.863                        1168.740          29.000  
C13                                                                  40540948.256   163241580.240       -1896.407          39.000  
C08                                                                  41462163.158   166950936.749       -1860.256          40.000  
> 2025 11 03 07 35 11.5200000  0 27                     
G04  21510791.537   113039975.802        1402.104          44.000    21510780.082    88083044.749        1092.562          45.000  
G16  20216762.680   106239807.690         419.874          46.000                                                                  
G28  22832380.158   119984963.777       -2570.794          41.000    22832368.271    93494725.038       -2002.977          42.000  
G31  20948418.961   110084684.291       -1525.482          47.000    20948405.253    85780207.263       -1188.806          45.000  
G03  24299731.920   127695950.983       -2842.331          36.000    24299727.110    99503322.035       -2214.579          37.000  
C16  36733577.350   191281358.904           2.388          49.000    36733564.696   147910840.473           1.733          48.000  
C19  23609688.841   122941829.201       -1932.383          46.000                                                                  
C27  23710563.348   123467111.660        1339.545          46.000                                                                  
C06  36291208.856   188977837.846           0.316          47.000    36291189.651   146129588.779           0.096          49.000  
C09  37383384.963   194665078.885         103.836          45.000    37383368.630   150527334.633          80.279          48.000  
C22  24701624.256   128627828.562         907.941          43.000                                                                  
G26  20686237.211   108706912.713       -1799.762          48.000    20686226.707    84706640.712       -1402.478          46.000  
G27  22184434.969   116579997.815        3150.708          43.000    22184425.837    90841519.464        2455.036          43.000  
G09  24147011.074   126893415.271        2907.485          34.000    24147006.018    98877908.310        2264.886          34.000  
C28  24663974.878   128431792.106        -796.721          44.000                                                                  
C07  38114470.127   198472032.932         837.226          42.000    38114451.831   153471108.798         647.396          45.000  
C20  25245937.961   131462217.189       -3586.758          39.000                                                                  
C36  23987444.860   124908902.995        1459.111          44.000                                                                  
C37  24805614.037   129169341.627       -2364.062          44.000                                                                  
C10  39237985.604   204322470.206         766.317          39.000    39237973.250   157995057.317         592.484          44.000  
G32  25563450.764   134336837.041       -4164.049          32.000    25563469.315   104678140.496       -3244.451          31.000  
G08  24500712.982   128752093.955        3632.506          33.000    24500712.479   100326325.477        2830.315          36.000  
G29  24996426.280   131357119.6232      -3451.390          37.000    24996419.907   102356158.605       -2689.381          35.000  
C30  25389132.602   132207863.220        2770.187          43.000                                                                  
G18                                                                  25291406.557                        1168.371          29.000  
C13                                                                  40540967.121   163241656.087       -1896.290          39.000  
C08                                                                  41462181.651   166951011.170       -1860.508          40.000  
> 2025 11 03 07 35 11.5600000  0 27                     
G04  21510780.864   113039919.714        1402.059          44.000    21510769.384    88083001.041        1092.627          45.000  
G16  20216759.495   106239790.894         419.851          46.000                                                                  
G28  22832399.727   119985066.605       -2570.800          41.000    22832387.837    93494805.178       -2003.342          42.000  
G31  20948430.545   110084745.304       -1525.433          47.000    20948416.879    85780254.805       -1188.666          45.000  
G03  24299753.548   127696064.688       -2842.657          36.000    24299748.751    99503410.645       -2215.056          37.000  
C16  36733577.357   191281358.804           2.402          49.000    36733564.630   147910840.400           1.727          48.000  
C19  23609703.715   122941906.490       -1932.364          46.000                                                                  
C27  23710553.075   123467058.081        1339.502          46.000                                                                  
C06  36291208.864   188977837.829           0.332          47.000    36291189.650   146129588.767           0.188          49.000  
C09  37383384.137   194665074.733         103.742          45.000    37383367.830   150527331.414          80.376          48.000  
C22  24701617.280   128627792.234         908.047          43.000                                                                  
G26  20686250.907   108706984.703       -1799.805          48.000    20686240.400    84706696.810       -1402.509          45.000  
G27  22184410.982   116579871.794        3150.500          43.000    22184401.874    90841421.262        2455.036          43.000  
G09  24146988.961   126893298.958        2907.494          34.000    24146983.876    98877817.642        2265.792          34.000  
C28  24663980.977   128431823.970        -796.752          44.000                                                                  
C07  38114463.719   198471999.435         837.283          42.000    38114445.398   153471082.889         647.603          45.000  
C20  25245965.510   131462360.676       -3587.111          39.000                                                                  
C36  23987433.639   124908844.631        1459.004          44.000                                                                  
C37  24805632.191   129169436.186       -2364.051          44.000                                                                  
C10  39237979.706   204322439.559         766.188          39.000    39237967.390   157995033.622         592.366          44.000  
G32  25563482.429   134337003.569       -4163.607          32.000    25563501.006   104678270.263       -3244.257          31.000  
G08  24500685.311   128751948.640        3632.950          33.000    24500684.833   100326212.267        2830.172          36.000  
G29  24996452.177   131357257.6722      -3451.464          37.000    24996446.403   102356266.165       -2689.090          35.000  
C30  25389111.353   132207752.407        2770.212          43.000                                                                  
G18                                                                  25291395.212                        1168.129          29.000  
C13                                                                  40540985.968   163241731.948       -1896.495          39.000  
C08                                                                  41462200.117   166951085.576       -1860.353          40.000  
> 2025 11 03 07 35 11.6000000  0 27                     
G04  21510770.193   113039863.615        1402.303          44.000    21510758.694    88082957.328        1092.739          45.000  
G16  20216756.296   106239774.091         419.938          46.000                                                                  
G28  22832419.278   119985169.421       -2570.535          41.000    22832407.374    93494885.300       -2003.246          42.000  
G31  20948442.133   110084806.318       -1525.403          47.000    20948428.486    85780302.348       -1188.617          45.000  
G03  24299775.184   127696178.339       -2841.812          36.000    24299770.388    99503499.219       -2214.673          37.000  
C16  36733577.359   191281358.706           2.404          49.000    36733564.613   147910840.324           1.801          48.000  
C19  23609718.568   122941983.770       -1932.203          46.000                                                                  
C27  23710542.789   123467004.499        1339.520          46.000                                                                  
C06  36291208.878   188977837.808           0.431          47.000    36291189.639   146129588.751           0.299          49.000  
C09  37383383.336   194665070.562         104.051          45.000    37383367.063   150527328.196          80.408          48.000  
C22  24701610.310   128627755.901         908.199          43.000                                                                  
G26  20686264.607   108707056.686       -1799.682          48.000    20686254.089    84706752.908       -1402.509          45.000  
G27  22184387.021   116579745.767        3150.544          43.000    22184377.872    90841323.056        2455.074          43.000  
G09  24146966.857   126893182.624        2908.018          34.000    24146961.724    98877726.960        2266.623          34.000  
C28  24663987.091   128431855.834        -796.731          44.000                                                                  
C07  38114457.296   198471965.937         837.397          42.000    38114438.948   153471056.985         647.614          45.000  
C20  25245993.055   131462504.152       -3587.032          39.000                                                                  
C36  23987422.441   124908786.261        1459.085          44.000                                                                  
C37  24805650.344   129169530.747       -2364.049          44.000                                                                  
C10  39237973.792   204322408.919         766.021          39.000    39237961.506   157995009.915         592.552          44.000  
G32  25563514.103   134337170.066       -4162.738          32.000    25563532.695   104678400.039       -3244.313          31.000  
G08  24500657.666   128751803.325        3632.986          33.000    24500657.188   100326099.042        2830.412          36.000  
G29  24996478.085   131357395.7292      -3451.564          37.000    24996473.047   102356373.723       -2688.916          35.000  
C30  25389090.074   132207641.588        2770.356          43.000                                                                  
G18                                                                  25291383.736                        1168.324          29.000  
C13                                                                  40541004.809   163241807.795       -1896.354          39.000  
C08                                                                  41462218.561   166951159.972       -1859.976          40.000  
> 2025 11 03 07 35 11.6400000  0 27                     
G04  21510759.492   113039807.522        1402.322          44.000    21510748.027    88082913.616        1092.788          45.000  
G16  20216753.103   106239757.292         419.926          46.000                                                                  
G28  22832438.825   119985272.254       -2570.731          41.000    22832426.927    93494965.415       -2002.987          42.000  
G31  20948453.752   110084867.327       -1525.305          47.000    20948440.095    85780349.882       -1188.416          45.000  
G03  24299796.794   127696292.007       -2841.689          36.000    24299792.032    99503587.802       -2214.630          36.000  
C16  36733577.373   191281358.605           2.485          49.000    36733564.556   147910840.248           1.854          48.000  
C19  23609733.401   122942061.055       -1932.147          46.000                                                                  
C27  23710532.535   123466950.913        1339.630          46.000                                                                  
C06  36291208.888   188977837.788           0.476          47.000    36291189.638   146129588.732           0.415          49.000  
C09  37383382.536   194665066.394         104.176          45.000    37383366.248   150527324.974          80.509          48.000  
C22  24701603.341   128627719.569         908.266          43.000                                                                  
G26  20686278.305   108707128.671       -1799.658          48.000    20686267.775    84706808.993       -1402.252          45.000  
G27  22184363.027   116579619.733        3150.703          43.000    22184353.882    90841224.860        2454.925          43.000  
G09  24146944.735   126893066.300        2908.120          34.000    24146939.583    98877636.346        2265.912          34.000  
C28  24663993.209   128431887.696        -796.627          44.000                                                                  
C07  38114450.846   198471932.443         837.346          42.000    38114432.490   153471031.085         647.520          45.000  
C20  25246020.597   131462647.611       -3586.680          39.000                                                                  
C36  23987411.222   124908727.883        1459.295          44.000                                                                  
C37  24805668.486   129169625.313       -2364.146          44.000                                                                  
C10  39237967.901   204322378.277         765.984          39.000    39237955.612   157994986.211         592.594          44.000  
G32  25563545.800   134337336.616       -4163.303          31.000    25563564.389   104678529.824       -3244.541          31.000  
G08  24500630.010   128751658.042        3632.465          33.000    24500629.535   100325985.819        2830.559          36.000  
G29  24996505.271   131357533.7642      -3451.146          37.000    24996499.150   102356481.279       -2688.876          35.000  
C30  25389068.794   132207530.775        2770.343          43.000                                                                  
G18                                                                  25291372.245                        1169.206          29.000  
C13                                                                  40541023.645   163241883.642       -1896.285          39.000  
C08                                                                  41462237.047   166951234.382       -1860.070          40.000  
> 2025 11 03 07 35 11.6800000  0 27                     
G04  21510748.787   113039751.427        1402.366          44.000    21510737.359    88082869.916        1092.610          45.000  
G16  20216749.891   106239740.495         419.927          46.000                                                                  
G28  22832458.405   119985375.093       -2570.951          41.000    22832446.505    93495045.543       -2003.134          42.000  
G31  20948465.363   110084928.340       -1525.342          47.000    20948451.708    85780397.420       -1188.409          45.000  
G03  24299818.433   127696405.713       -2842.268          36.000    24299813.649    99503676.376       -2214.384          37.000  
C16  36733577.320   191281358.506           2.484          49.000    36733564.529   147910840.172           1.873          48.000  
C19  23609748.242   122942138.344       -1932.209          46.000                                                                  
C27  23710522.234   123466897.338        1339.465          46.000                                                                  
C06  36291208.905   188977837.775           0.364          47.000    36291189.621   146129588.723           0.278          49.000  
C09  37383381.723   194665062.241         103.949          45.000    37383365.435   150527321.755          80.514          48.000  
C22  24701596.358   128627683.238         908.299          43.000                                                                  
G26  20686291.998   108707200.654       -1799.597          48.000    20686281.480    84706865.087       -1402.307          45.000  
G27  22184339.030   116579493.692        3150.919          43.000    22184329.895    90841126.652        2455.078          43.000  
G09  24146922.593   126892949.972        2908.236          34.000    24146917.452    98877545.708        2265.833          34.000  
C28  24663999.307   128431919.559        -796.615          44.000                                                                  
C07  38114444.422   198471898.940         837.495          42.000    38114426.057   153471005.184         647.482          45.000  
C20  25246048.152   131462791.081       -3586.765          39.000                                                                  
C36  23987400.039   124908669.499        1459.524          44.000                                                                  
C37  24805686.647   129169719.861       -2363.863          44.000                                                                  
C10  39237962.006   204322347.611         766.381          39.000    39237949.743   157994962.516         592.438          44.000  
G32  25563577.457   134337503.159       -4163.564          31.000    25563596.057   104678659.545       -3243.512          31.000  
G08  24500602.373   128751512.784        3631.681          33.000    24500601.885   100325872.591        2830.684          36.000  
G29  24996531.570   131357671.7942      -3450.814          37.000    24996525.690   102356588.848       -2689.122          35.000  
C30  25389047.500   132207419.951        2770.521          43.000                                                                  
G18                                                                  25291360.793                        1168.933          29.000  
C13                                                                  40541042.479   163241959.485       -1896.099          39.000  
C08                                                                  41462255.538   166951308.787       -1860.120          40.000  
> 2025 11 03 07 35 11.7200000  0 27                     
G04  21510738.116   113039695.333        1402.369          44.000    21510726.689    88082826.210        1092.587          45.000  
G16  20216746.721   106239723.705         419.783          46.000                                                                  
G28  22832477.988   119985477.930       -2571.042          41.000    22832466.094    93495125.678       -2003.334          42.000  
G31  20948476.994   110084989.358       -1525.433          47.000    20948463.329    85780444.972       -1188.702          45.000  
G03  24299840.070   127696519.406       -2842.318          36.000    24299835.263    99503764.975       -2214.728          37.000  
C16  36733577.310   191281358.412           2.399          49.000    36733564.530   147910840.095           1.918          48.000  
C19  23609763.065   122942215.641       -1932.394          46.000                                                                  
C27  23710511.956   123466843.765        1339.349          46.000                                                                  
C06  36291208.909   188977837.759           0.344          47.000    36291189.609   146129588.709           0.273          49.000  
C09  37383380.941   194665058.080         103.995          45.000    37383364.627   150527318.541          80.396          48.000  
C22  24701589.397   128627646.920         908.075          43.000                                                                  
G26  20686305.704   108707272.640       -1799.646          48.000    20686295.182    84706921.176       -1402.252          45.000  
G27  22184315.054   116579367.671        3150.688          43.000    22184305.903    90841028.457        2454.949          43.000  
G09  24146900.481   126892833.661        2907.928          34.000    24146895.323    98877455.098        2265.370          34.000  
C28  24664005.417   128431951.425        -796.647          44.000                                                                  
C07  38114437.981   198471865.444         837.419          42.000    38114419.618   153470979.275         647.614          45.000  
C20  25246075.720   131462934.556       -3586.834          39.000                                                                  
C36  23987388.825   124908611.133        1459.307          44.000                                                                  
C37  24805704.769   129169814.417       -2363.839          44.000                                                                  
C10  39237956.105   204322316.959         766.387          39.000    39237943.851   157994938.819         592.389          44.000  
G32  25563609.178   134337669.686       -4163.349          31.000    25563627.736   104678789.286       -3243.413          31.000  
G08  24500574.718   128751367.477        3632.059          33.000    24500574.257   100325759.366        2830.684          36.000  
G29  24996558.424   131357809.8562      -3451.277          37.000    24996551.966   102356696.431       -2689.451          35.000  
C30  25389026.203   132207309.137        2770.427          43.000                                                                  
G18                                                                  25291349.234                        1169.136          29.000  
C13                                                                  40541061.329   163242035.351       -1896.470          39.000  
C08                                                                  41462274.012   166951383.207       -1860.459          40.000  
> 2025 11 03 07 35 11.7600000  0 27                     
G04  21510727.467   113039639.249        1402.184          44.000    21510716.014    88082782.501        1092.682          45.000  
G16  20216743.538   106239706.906         419.865          46.000                                                                  
G28  22832497.553   119985580.757       -2570.851          41.000    22832485.670    93495205.804       -2003.237          42.000  
G31  20948488.590   110085050.370       -1525.372          47.000    20948474.946    85780492.523       -1188.806          45.000  
G03  24299861.686   127696633.094       -2842.267          36.000    24299856.888    99503853.568       -2214.858          37.000  
C16  36733577.320   191281358.318           2.348          49.000    36733564.494   147910840.016           1.948          48.000  
C19  23609777.926   122942292.930       -1932.338          46.000                                                                  
C27  23710501.694   123466790.188        1339.362          46.000                                                                  
C06  36291208.910   188977837.742           0.372          47.000    36291189.600   146129588.700           0.222          49.000  
C09  37383380.123   194665053.916         104.059          45.000    37383363.828   150527315.326          80.345          48.000  
C22  24701582.431   128627610.596         908.045          43.000                                                                  
G26  20686319.421   108707344.630       -1799.738          48.000    20686308.885    84706977.269       -1402.307          45.000  
G27  22184291.041   116579241.643        3150.645          43.000    22184281.922    90840930.244        2455.210          43.000  
G09  24146878.397   126892717.362        2907.534          34.000    24146873.208    98877364.461        2265.563          34.000  
C28  24664011.539   128431983.281        -796.492          44.000                                                                  
C07  38114431.558   198471831.943         837.514          42.000    38114413.180   153470953.374         647.532          45.000  
C20  25246103.277   131463078.018       -3586.680          39.000                                                                  
C36  23987377.598   124908552.772        1459.053          44.000                                                                  
C37  24805722.908   129169908.977       -2363.897          44.000                                                                  
C10  39237950.227   204322286.305         766.423          39.000    39237937.978   157994915.116         592.476          44.000  
G32  25563640.864   134337836.216       -4163.207          31.000    25563659.423   104678919.055       -3243.805          31.000  
G08  24500547.084   128751222.185        3632.169          33.000    24500546.618   100325646.147        2830.525          36.000  
G29  24996584.530   131357947.8942      -3451.093          37.000    24996577.840   102356803.980       -2689.024          35.000  
C30  25389004.915   132207198.315        2770.517          43.000                                                                  
G18                                                                  25291337.670                        1168.981          29.000  
C13                                                                  40541080.185   163242111.204       -1896.390          39.000  
C08                                                                  41462292.494   166951457.607       -1860.224          40.000  
> 2025 11 03 07 35 11.8000000  0 27                     
G04  21510716.819   113039583.177        1401.865          44.000    21510705.351    88082738.801        1092.549          45.000  
G16  20216740.334   106239690.113         419.822          46.000                                                                  
G28  22832517.104   119985683.575       -2570.530          41.000    22832505.235    93495285.930       -2003.193          42.000  
G31  20948500.209   110085111.389       -1525.464          47.000    20948486.570    85780540.064       -1188.666          45.000  
G03  24299883.320   127696746.798       -2842.500          36.000    24299878.520    99503942.151       -2214.727          37.000  
C16  36733577.306   191281358.222           2.357          49.000    36733564.464   147910839.943           1.868          48.000  
C19  23609792.791   122942370.223       -1932.350          46.000                                                                  
C27  23710491.436   123466736.617        1339.246          46.000                                                                  
C06  36291208.905   188977837.722           0.453          47.000    36291189.617   146129588.686           0.277          49.000  
C09  37383379.354   194665049.757         103.980          45.000    37383363.034   150527312.112          80.314          48.000  
C22  24701575.435   128627574.287         907.767          43.000                                                                  
G26  20686333.128   108707416.624       -1799.866          48.000    20686322.591    84707033.365       -1402.405          45.000  
G27  22184267.044   116579115.622        3150.491          43.000    22184257.936    90840832.038        2455.151          43.000  
G09  24146856.287   126892601.046        2907.729          34.000    24146851.093    98877273.838        2265.369          34.000  
C28  24664017.647   128432015.151        -796.684          44.000                                                                  
C07  38114425.114   198471798.457         837.283          42.000    38114406.755   153470927.484         647.283          45.000  
C20  25246130.808   131463221.494       -3586.856          39.000                                                                  
C36  23987366.386   124908494.401        1459.101          44.000                                                                  
C37  24805741.055   129170003.536       -2363.964          44.000                                                                  
C10  39237944.326   204322255.666         766.138          39.000    39237932.105   157994891.417         592.442          44.000  
G32  25563672.560   134338002.757       -4163.401          31.000    25563691.131   104679048.825       -3244.043          32.000  
G08  24500519.447   128751076.833        3633.395          33.000    24500518.989   100325532.951        2830.078          36.000  
G29  24996611.453   131358085.9582      -3451.441          37.000    24996604.189   102356911.553       -2689.195          35.000  
C30  25388983.627   132207087.517        2770.085          43.000                                                                  
G18                                                                  25291326.269                        1169.416          29.000  
C13                                                                  40541099.006   163242187.049       -1896.166          39.000  
C08                                                                  41462310.995   166951531.999       -1859.860          40.000  
> 2025 11 03 07 35 11.8400000  0 27                     
G04  21510706.128   113039527.100        1401.812          44.000    21510694.683    88082695.101        1092.466          45.000  
G16  20216737.135   106239673.320         419.784          46.000                                                                  
G28  22832536.687   119985786.407       -2570.639          41.000    22832524.826    93495366.065       -2003.318          42.000  
G31  20948511.797   110085172.414       -1525.586          47.000    20948498.193    85780587.609       -1188.660          45.000  
G03  24299904.947   127696860.478       -2842.181          36.000    24299900.160    99504030.725       -2214.457          37.000  
C16  36733577.324   191281358.128           2.318          49.000    36733564.445   147910839.874           1.752          48.000  
C19  23609807.636   122942447.517       -1932.349          46.000                                                                  
C27  23710481.145   123466683.041        1339.276          46.000                                                                  
C06  36291208.894   188977837.706           0.446          47.000    36291189.629   146129588.679           0.193          49.000  
C09  37383378.545   194665045.600         103.931          45.000    37383362.263   150527308.898          80.298          48.000  
C22  24701568.467   128627537.972         907.771          43.000                                                                  
G26  20686346.835   108707488.620       -1799.945          48.000    20686336.314    84707089.471       -1402.631          45.000  
G27  22184243.055   116578989.601        3150.450          43.000    22184233.964    90840733.850        2454.820          43.000  
G09  24146834.189   126892484.750        2907.502          34.000    24146828.977    98877183.194        2265.775          34.000  
C28  24664023.791   128432047.033        -796.996          44.000                                                                  
C07  38114418.706   198471764.956         837.440          42.000    38114400.311   153470901.588         647.260          45.000  
C20  25246158.349   131463364.975       -3587.074          39.000                                                                  
C36  23987355.181   124908436.033        1459.096          44.000                                                                  
C37  24805759.209   129170098.101       -2364.085          44.000                                                                  
C10  39237938.472   204322225.031         765.905          39.000    39237926.224   157994867.721         592.383          44.000  
G32  25563704.235   134338169.291       -4163.341          31.000    25563722.824   104679178.611       -3244.491          32.000  
G08  24500491.791   128750931.514        3633.269          33.000    24500491.334   100325419.760        2829.678          36.000  
G29  24996638.616   131358224.0172      -3451.545          37.000    24996630.659   102357019.130       -2689.389          35.000  
C30  25388962.363   132206976.711        2770.035          43.000                                                                  
G18                                                                  25291314.850                        1169.060          29.000  
C13                                                                  40541117.845   163242262.905       -1896.323          39.000  
C08                                                                  41462329.471   166951606.398       -1859.886          40.000  
> 2025 11 03 07 35 11.8800000  0 27                     
G04  21510695.456   113039471.020        1401.888          44.000    21510684.024    88082651.405        1092.406          45.000  
G16  20216733.923   106239656.523         419.848          46.000                                                                  
G28  22832556.254   119985889.256       -2571.050          41.000    22832544.402    93495446.204       -2003.462          42.000  
G31  20948523.403   110085233.436       -1525.604          47.000    20948509.799    85780635.156       -1188.696          45.000  
G03  24299926.582   127696974.163       -2842.074          36.000    24299921.789    99504119.313       -2214.611          37.000  
C16  36733577.293   191281358.037           2.266          49.000    36733564.407   147910839.798           1.835          48.000  
C19  23609822.501   122942524.816       -1932.460          46.000                                                                  
C27  23710470.876   123466629.469        1339.270          46.000                                                                  
C06  36291208.903   188977837.704           0.176          47.000    36291189.594   146129588.668           0.227          49.000  
C09  37383377.769   194665041.440         103.944          45.000    37383361.460   150527305.683          80.351          48.000  
C22  24701561.475   128627501.646         907.985          43.000                                                                  
G26  20686360.543   108707560.615       -1799.957          48.000    20686350.012    84707145.567       -1402.533          45.000  
G27  22184219.072   116578863.584        3150.392          43.000    22184210.000    90840635.659        2454.746          43.000  
G09  24146812.051   126892368.464        2907.155          34.000    24146806.851    98877092.578        2265.586          34.000  
C28  24664029.915   128432078.916        -797.155          44.000                                                                  
C07  38114412.282   198471731.467         837.328          42.000    38114393.889   153470875.686         647.417          45.000  
C20  25246185.894   131463508.455       -3587.192          39.000                                                                  
C36  23987343.980   124908377.675        1458.947          44.000                                                                  
C37  24805777.350   129170192.660       -2364.022          44.000                                                                  
C10  39237932.591   204322194.388         765.937          39.000    39237920.338   157994844.027         592.283          44.000  
G32  25563735.905   134338335.831       -4163.397          31.000    25563754.515   104679308.380       -3244.419          32.000  
G08  24500464.138   128750786.243        3632.371          33.000    24500463.704   100325306.546        2829.904          36.000  
G29  24996664.539   131358362.0762      -3451.521          37.000    24996657.058   102357126.707       -2689.507          35.000  
C30  25388941.082   132206865.901        2770.117          43.000                                                                  
G18                                                                  25291303.481                        1168.502          29.000  
C13                                                                  40541136.672   163242338.749       -1896.164          39.000  
C08                                                                  41462347.964   166951680.817       -1860.275          40.000  
> 2025 11 03 07 35 11.9200000  0 27                     
G04  21510684.786   113039414.936        1402.030          44.000    21510673.347    88082607.716        1092.219          45.000  
G16  20216730.716   106239639.737         419.692          46.000                                                                  
G28  22832575.836   119985992.106       -2571.310          41.000    22832563.990    93495526.344       -2003.528          42.000  
G31  20948535.002   110085294.450       -1525.439          47.000    20948521.403    85780682.704       -1188.727          45.000  
G03  24299948.194   127697087.823       -2841.565          36.000    24299943.420    99504207.896       -2214.603          37.000  
C16  36733577.276   191281357.936           2.426          49.000    36733564.366   147910839.724           1.828          48.000  
C19  23609837.364   122942602.104       -1932.300          46.000                                                                  
C27  23710460.563   123466575.901        1339.178          46.000                                                                  
C06  36291208.897   188977837.683           0.367          47.000    36291189.598   146129588.658           0.240          49.000  
C09  37383376.976   194665037.282         103.919          45.000    37383360.655   150527302.463          80.434          48.000  
C22  24701554.491   128627465.324         908.029          43.000                                                                  
G26  20686374.219   108707632.610       -1799.927          48.000    20686363.705    84707201.666       -1402.515          45.000  
G27  22184195.077   116578737.554        3150.615          43.000    22184186.012    90840537.457        2454.919          43.000  
G09  24146789.962   126892252.156        2907.267          34.000    24146784.721    98877001.939        2265.812          34.000  
C28  24664036.016   128432110.776        -796.786          44.000                                                                  
C07  38114405.851   198471697.980         837.229          42.000    38114387.452   153470849.781         647.573          45.000  
C20  25246213.421   131463651.937       -3587.231          39.000                                                                  
C36  23987332.774   124908319.310        1459.017          44.000                                                                  
C37  24805795.492   129170287.218       -2363.977          44.000                                                                  
C10  39237926.705   204322163.730         766.233          39.000    39237914.437   157994820.334         592.262          44.000  
G32  25563767.607   134338502.354       -4163.149          31.000    25563786.185   104679438.125       -3243.790          32.000  
G08  24500436.505   128750640.968        3631.864          33.000    24500436.062   100325193.313        2830.487          36.000  
G29  24996690.771   131358500.1242      -3451.292          37.000    24996683.160   102357234.290       -2689.562          35.000  
C30  25388919.795   132206755.078        2770.426          43.000                                                                  
G18                                                                  25291292.001                        1168.413          29.000  
C13                                                                  40541155.492   163242414.605       -1896.338          39.000  
C08                                                                  41462366.451   166951755.237       -1860.558          40.000  
> 2025 11 03 07 35 11.9600000  0 27                     
G04  21510674.115   113039358.861        1401.907          44.000    21510662.656    88082564.008        1092.496          45.000  
G16  20216727.540   106239622.950         419.618          46.000                                                                  
G28  22832595.394   119986094.959       -2571.410          41.000    22832583.556    93495606.483       -2003.584          42.000  
G31  20948546.624   110085355.472       -1525.519          47.000    20948533.031    85780730.249       -1188.629          45.000  
G03  24299969.824   127697201.519       -2842.028          36.000    24299965.044    99504296.517       -2215.269          37.000  
C16  36733577.246   191281357.845           2.326          49.000    36733564.341   147910839.643           1.959          48.000  
C19  23609852.203   122942679.399       -1932.343          46.000                                                                  
C27  23710450.261   123466522.338        1339.063          46.000                                                                  
C06  36291208.894   188977837.669           0.374          47.000    36291189.581   146129588.651           0.195          49.000  
C09  37383376.175   194665033.131         103.813          45.000    37383359.839   150527299.244          80.463          48.000  
C22  24701547.522   128627429.013         907.851          43.000                                                                  
G26  20686387.894   108707704.598       -1799.774          48.000    20686377.413    84707257.775       -1402.704          45.000  
G27  22184171.110   116578611.529        3150.624          43.000    22184162.025    90840439.260        2454.946          43.000  
G09  24146767.798   126892135.819        2908.017          34.000    24146762.579    98876911.295        2266.061          34.000  
C28  24664042.134   128432142.642        -796.693          44.000                                                                  
C07  38114399.439   198471664.486         837.285          42.000    38114381.001   153470823.879         647.559          45.000  
C20  25246240.967   131463795.399       -3586.822          39.000                                                                  
C36  23987321.576   124908260.950        1459.000          44.000                                                                  
C37  24805813.656   129170381.775       -2363.940          44.000                                                                  
C10  39237920.816   204322133.077         766.312          39.000    39237908.540   157994796.634         592.387          45.000  
G32  25563799.286   134338668.883       -4163.155          31.000    25563817.881   104679567.894       -3244.016          32.000  
G08  24500408.878   128750495.636        3632.926          33.000    24500408.410   100325080.081        2830.729          36.000  
G29  24996717.012   131358638.1722      -3451.158          37.000    24996709.170   102357341.830       -2688.814          35.000  
C30  25388898.516   132206644.258        2770.503          43.000                                                                  
G18                                                                  25291280.560                        1168.537          29.000  
C13                                                                  40541174.320   163242490.472       -1896.635          39.000  
C08                                                                  41462384.952   166951829.657       -1860.599          40.000  
> 2025 11 03 07 35 12.0000000  0 27                     
G04  21510663.448   113039302.778        1402.008          44.000    21510651.995    88082520.315        1092.368          45.000  
G16  20216724.353   106239606.160         419.657          46.000                                                                  
G28  22832614.962   119986197.779       -2570.777          41.000    22832603.124    93495686.609       -2003.330          42.000  
G31  20948558.234   110085416.492       -1525.519          47.000    20948544.663    85780777.797       -1188.696          45.000  
G03  24299991.455   127697315.224       -2842.533          36.000    24299986.671    99504385.101       -2214.965          37.000  
C16  36733577.261   191281357.743           2.484          49.000    36733564.320   147910839.561           2.046          48.000  
C19  23609867.036   122942756.705       -1932.558          46.000                                                                  
C27  23710439.993   123466468.766        1339.154          46.000                                                                  
C06  36291208.924   188977837.652           0.413          47.000    36291189.589   146129588.632           0.359          49.000  
C09  37383375.389   194665028.968         103.962          45.000    37383359.048   150527296.031          80.360          48.000  
C22  24701540.568   128627392.702         907.791          43.000                                                                  
G26  20686401.593   108707776.592       -1799.817          48.000    20686391.119    84707313.869       -1402.490          45.000  
G27  22184147.121   116578485.512        3150.473          43.000    22184138.047    90840341.056        2455.067          43.000  
G09  24146745.636   126892019.508        2907.952          34.000    24146740.441    98876820.678        2265.698          34.000  
C28  24664048.259   128432174.516        -796.788          44.000                                                                  
C07  38114393.007   198471630.988         837.385          42.000    38114374.575   153470797.983         647.447          45.000  
C20  25246268.517   131463938.882       -3586.946          39.000                                                                  
C36  23987310.378   124908202.575        1459.248          44.000                                                                  
C37  24805831.791   129170476.332       -2363.944          44.000                                                                  
C10  39237914.937   204322102.429         766.239          39.000    39237902.670   157994772.934         592.453          45.000  
G32  25563830.955   134338835.415       -4163.254          31.000    25563849.587   104679697.640       -3243.712          32.000  
G08  24500381.242   128750350.404        3631.525          33.000    24500380.775   100324966.871        2830.423          36.000  
G29  24996742.693   131358776.2292      -3451.295          37.000    24996735.553   102357449.402       -2689.070          34.000  
C30  25388877.227   132206533.462        2770.136          43.000                                                                  
G18                                                                  25291269.124                        1168.324          29.000  
C13                                                                  40541193.174   163242566.337       -1896.725          39.000  
C08                                                                  41462403.430   166951904.065       -1860.370          40.000  
> 2025 11 03 07 35 12.0400000  0 27                     
G04  21510652.757   113039246.689        1402.173          44.000    21510641.314    88082476.617        1092.368          45.000  
G16  20216721.165   106239589.379         419.527          46.000                                                                  
G28  22832634.550   119986300.622       -2570.933          41.000    22832622.685    93495766.739       -2003.263          42.000  
G31  20948569.826   110085477.517       -1525.598          47.000    20948556.277    85780825.345       -1188.721          45.000  
G03  24300013.095   127697428.952       -2843.054          36.000    24300008.286    99504473.663       -2214.324          37.000  
C16  36733577.234   191281357.645           2.461          49.000    36733564.270   147910839.484           1.976          48.000  
C19  23609881.881   122942834.009       -1932.625          46.000                                                                  
C27  23710429.700   123466415.194        1339.252          46.000                                                                  
C06  36291208.913   188977837.639           0.363          47.000    36291189.610   146129588.616           0.396          49.000  
C09  37383374.576   194665024.816         103.866          45.000    37383358.223   150527292.823          80.213          48.000  
C22  24701533.615   128627356.393         907.729          43.000                                                                  
G26  20686415.308   108707848.588       -1799.902          48.000    20686404.796    84707369.967       -1402.435          45.000  
G27  22184123.158   116578359.499        3150.279          43.000    22184114.072    90840242.866        2454.869          43.000  
G09  24146723.521   126891903.203        2907.888          34.000    24146718.327    98876730.046        2265.866          34.000  
C28  24664054.382   128432206.384        -796.756          44.000                                                                  
C07  38114386.589   198471597.504         837.198          42.000    38114368.153   153470772.089         647.310          45.000  
C20  25246296.090   131464082.387       -3587.419          39.000                                                                  
C36  23987299.162   124908144.210        1459.180          44.000                                                                  
C37  24805849.931   129170570.895       -2364.048          44.000                                                                  
C10  39237909.051   204322071.776         766.314          39.000    39237896.784   157994749.228         592.589          45.000  
G32  25563862.636   134339001.955       -4163.450          31.000    25563881.259   104679827.402       -3243.844          32.000  
G08  24500353.579   128750205.081        3632.357          33.000    24500353.140   100324853.670        2830.087          36.000  
G29  24996768.992   131358914.2782      -3451.203          37.000    24996761.473   102357556.997       -2689.628          34.000  
C30  25388855.956   132206422.646        2770.295          43.000                                                                  
G18                                                                  25291257.697                        1168.153          29.000  
C13                                                                  40541212.000   163242642.196       -1896.618          39.000  
C08                                                                  41462421.919   166951978.463       -1860.056          40.000  
> 2025 11 03 07 35 12.0800000  0 27                     
G04  21510642.096   113039190.614        1402.009          44.000    21510630.619    88082432.923        1092.330          45.000  
G16  20216717.988   106239572.595         419.522          46.000                                                                  
G28  22832654.121   119986403.450       -2570.772          41.000    22832642.260    93495846.877       -2003.371          42.000  
G31  20948581.405   110085538.530       -1525.427          47.000    20948567.897    85780872.893       -1188.727          45.000  
G03  24300034.729   127697542.619       -2842.262          36.000    24300029.927    99504562.258       -2214.609          37.000  
C16  36733577.224   191281357.551           2.388          49.000    36733564.239   147910839.412           1.853          48.000  
C19  23609896.746   122942911.309       -1932.575          46.000                                                                  
C27  23710419.374   123466361.631        1339.117          46.000                                                                  
C06  36291208.931   188977837.619           0.454          47.000    36291189.621   146129588.603           0.387          49.000  
C09  37383373.805   194665020.662         103.875          45.000    37383357.424   150527289.612          80.184          48.000  
C22  24701526.635   128627320.084         907.714          43.000                                                                  
G26  20686428.988   108707920.583       -1799.915          48.000    20686418.499    84707426.062       -1402.374          45.000  
G27  22184099.182   116578233.482        3150.264          43.000    22184090.088    90840144.670        2454.838          43.000  
G09  24146701.381   126891786.903        2907.553          34.000    24146696.192    98876639.439        2265.354          34.000  
C28  24664060.493   128432238.249        -796.685          44.000                                                                  
C07  38114380.152   198471564.018         837.130          42.000    38114361.733   153470746.190         647.354          45.000  
C20  25246323.660   131464225.850       -3586.906          39.000                                                                  
C36  23987287.949   124908085.849        1459.093          44.000                                                                  
C37  24805868.095   129170665.452       -2364.049          44.000                                                                  
C10  39237903.154   204322041.129         766.282          39.000    39237890.930   157994725.521         592.632          45.000  
G32  25563894.328   134339168.464       -4162.997          31.000    25563912.945   104679957.178       -3244.134          32.000  
G08  24500325.934   128750059.737        3633.152          33.000    24500325.485   100324740.435        2830.518          36.000  
G29  24996794.370   131359052.3302      -3451.258          37.000    24996787.800   102357664.584       -2689.752          34.000  
C30  25388834.670   132206311.827        2770.408          43.000                                                                  
G18                                                                  25291246.358                        1168.269          29.000  
C13                                                                  40541230.816   163242718.037       -1896.224          39.000  
C08                                                                  41462440.407   166952052.869       -1860.070          40.000  
> 2025 11 03 07 35 12.1200000  0 27                     
G04  21510631.420   113039134.541        1401.873          44.000    21510619.933    88082389.221        1092.472          45.000  
G16  20216714.770   106239555.801         419.735          46.000                                                                  
G28  22832673.703   119986506.291       -2570.957          41.000    22832661.821    93495927.005       -2003.271          42.000  
G31  20948593.035   110085599.555       -1525.562          47.000    20948579.504    85780920.445       -1188.812          45.000  
G03  24300056.322   127697656.274       -2841.567          36.000    24300051.562    99504650.844       -2214.604          37.000  
C16  36733577.219   191281357.459           2.295          49.000    36733564.166   147910839.347           1.659          48.000  
C19  23609911.617   122942988.610       -1932.551          46.000                                                                  
C27  23710409.095   123466308.065        1339.093          46.000                                                                  
C06  36291208.903   188977837.612           0.234          47.000    36291189.618   146129588.598           0.186          49.000  
C09  37383373.031   194665016.507         103.867          45.000    37383356.647   150527286.404          80.141          48.000  
C22  24701519.672   128627283.770         907.759          43.000                                                                  
G26  20686442.678   108707992.578       -1799.921          48.000    20686432.211    84707482.167       -1402.557          45.000  
G27  22184075.187   116578107.463        3150.325          43.000    22184066.136    90840046.476        2454.821          43.000  
G09  24146679.291   126891670.612        2907.262          34.000    24146674.065    98876548.793        2265.726          34.000  
C28  24664066.602   128432270.126        -796.878          44.000                                                                  
C07  38114373.724   198471530.523         837.281          42.000    38114355.306   153470720.294         647.349          45.000  
C20  25246351.217   131464369.319       -3586.724          39.000                                                                  
C36  23987276.724   124908027.495        1458.880          44.000                                                                  
C37  24805886.227   129170760.014       -2364.113          44.000                                                                  
C10  39237897.294   204322010.487         766.104          39.000    39237885.008   157994701.839         592.244          45.000  
G32  25563925.992   134339334.985       -4162.891          31.000    25563944.626   104680086.962       -3244.526          32.000  
G08  24500298.272   128749914.446        3632.682          33.000    24500297.835   100324627.209        2830.690          36.000  
G29  24996820.565   131359190.3682      -3451.019          37.000    24996814.175   102357772.150       -2689.374          35.000  
C30  25388813.388   132206201.012        2770.366          43.000                                                                  
G18                                                                  25291234.874                        1168.121          29.000  
C13                                                                  40541249.626   163242793.878       -1896.046          39.000  
C08                                                                  41462458.892   166952127.271       -1860.039          40.000  
> 2025 11 03 07 35 12.1600000  0 27                     
G04  21510620.757   113039078.469        1401.805          44.000    21510609.253    88082345.526        1092.410          45.000  
G16  20216711.563   106239539.018         419.666          46.000                                                                  
G28  22832693.272   119986609.130       -2570.968          41.000    22832681.406    93496007.145       -2003.442          42.000  
G31  20948604.651   110085660.577       -1525.549          47.000    20948591.119    85780967.998       -1188.904          45.000  
G03  24300077.969   127697769.969       -2841.960          36.000    24300073.217    99504739.439       -2214.785          37.000  
C16  36733577.210   191281357.367           2.262          49.000    36733564.158   147910839.279           1.634          48.000  
C19  23609926.478   122943065.913       -1932.557          46.000                                                                  
C27  23710398.835   123466254.493        1339.203          46.000                                                                  
C06  36291208.926   188977837.601           0.212          47.000    36291189.589   146129588.589           0.164          49.000  
C09  37383372.222   194665012.340         104.065          45.000    37383355.869   150527283.179          80.424          48.000  
C22  24701512.709   128627247.451         907.945          43.000                                                                  
G26  20686456.385   108708064.573       -1799.921          48.000    20686445.917    84707538.272       -1402.655          45.000  
G27  22184051.212   116577981.448        3150.302          43.000    22184042.145    90839948.272        2454.971          43.000  
G09  24146657.192   126891554.296        2907.618          34.000    24146651.937    98876458.176        2265.526          34.000  
C28  24664072.704   128432301.995        -796.827          44.000                                                                  
C07  38114367.313   198471497.031         837.292          42.000    38114348.888   153470694.390         647.511          45.000  
C20  25246378.789   131464512.795       -3586.794          39.000                                                                  
C36  23987265.541   124907969.120        1459.159          44.000                                                                  
C37  24805904.382   129170854.579       -2364.166          43.000                                                                  
C10  39237891.398   204321979.841         766.078          39.000    39237879.101   157994678.133         592.476          45.000  
G32  25563957.704   134339501.535       -4163.513          31.000    25563976.334   104680216.764       -3245.000          32.000  
G08  24500270.629   128749769.157        3632.389          33.000    24500270.191   100324513.992        2830.526          36.000  
G29  24996846.960   131359328.4212      -3451.220          37.000    24996840.646   102357879.719       -2689.234          35.000  
C30  25388792.096   132206090.197        2770.399          43.000                                                                  
G18                                                                  25291223.384                        1168.128          29.000  
C13                                                                  40541268.460   163242869.719       -1895.989          39.000  
C08                                                                  41462477.382   166952201.668       -1859.929          40.000  
> 2025 11 03 07 35 12.2000000  0 27                     
G04  21510610.089   113039022.394        1401.788          44.000    21510598.575    88082301.831        1092.349          45.000  
G16  20216708.362   106239522.235         419.597          46.000                                                                  
G28  22832712.849   119986711.973       -2571.016          41.000    22832700.971    93496087.284       -2003.516          42.000  
G31  20948616.272   110085721.603       -1525.604          47.000    20948602.732    85781015.550       -1188.885          45.000  
G03  24300099.596   127697883.686       -2842.665          35.000    24300094.845    99504828.033       -2214.836          37.000  
C16  36733577.225   191281357.275           2.271          49.000    36733564.128   147910839.209           1.678          48.000  
C19  23609941.358   122943143.209       -1932.446          46.000                                                                  
C27  23710388.544   123466200.925        1339.191          46.000                                                                  
C06  36291208.919   188977837.595           0.096          47.000    36291189.569   146129588.576           0.226          49.000  
C09  37383371.431   194665008.182         104.018          45.000    37383355.043   150527279.960          80.479          48.000  
C22  24701505.727   128627211.148         907.725          43.000                                                                  
G26  20686470.065   108708136.568       -1799.908          48.000    20686459.611    84707594.379       -1402.728          45.000  
G27  22184027.216   116577855.432        3150.315          43.000    22184018.168    90839850.076        2454.916          43.000  
G09  24146635.087   126891437.986        2907.730          34.000    24146629.800    98876367.538        2265.691          34.000  
C28  24664078.837   128432333.872        -796.930          44.000                                                                  
C07  38114360.873   198471463.544         837.173          42.000    38114342.467   153470668.496         647.430          45.000  
C20  25246406.353   131464656.251       -3586.578          39.000                                                                  
C36  23987254.326   124907910.741        1459.381          44.000                                                                  
C37  24805922.527   129170949.135       -2364.048          43.000                                                                  
C10  39237885.533   204321949.185         766.249          39.000    39237873.217   157994654.438         592.414          45.000  
G32  25563989.393   134339668.048       -4163.147          31.000    25564008.023   104680346.503       -3244.143          32.000  
G08  24500242.966   128749623.875        3632.123          33.000    24500242.545   100324400.780        2830.363          36.000  
G29  24996872.938   131359466.4992      -3451.753          37.000    24996867.027   102357987.314       -2689.655          35.000  
C30  25388770.797   132205979.393        2770.193          43.000                                                                  
G18                                                                  25291212.037                        1168.100          29.000  
C13                                                                  40541287.318   163242945.586       -1896.495          39.000  
C08                                                                  41462495.830   166952276.074       -1860.097          40.000  
> 2025 11 03 07 35 12.2400000  0 27                     
G04  21510599.417   113038966.333        1401.562          44.000    21510587.901    88082258.139        1092.271          45.000  
G16  20216705.172   106239505.443         419.709          46.000                                                                  
G28  22832732.418   119986814.829       -2571.234          41.000    22832720.554    93496167.418       -2003.439          42.000  
G31  20948627.869   110085782.627       -1525.623          47.000    20948614.346    85781063.103       -1188.892          45.000  
G03  24300121.202   127697997.379       -2842.600          35.000    24300116.486    99504916.637       -2215.035          37.000  
C16  36733577.205   191281357.179           2.344          49.000    36733564.077   147910839.135           1.771          48.000  
C19  23609956.189   122943220.528       -1932.828          46.000                                                                  
C27  23710378.261   123466147.354        1339.227          46.000                                                                  
C06  36291208.925   188977837.579           0.240          47.000    36291189.560   146129588.569           0.173          49.000  
C09  37383370.635   194665004.029         103.915          45.000    37383354.274   150527276.749          80.363          48.000  
C22  24701498.765   128627174.848         907.523          43.000                                                                  
G26  20686483.765   108708208.568       -1799.994          48.000    20686473.325    84707650.485       -1402.698          45.000  
G27  22184003.219   116577729.412        3150.407          43.000    22183994.186    90839751.889        2454.723          43.000  
G09  24146612.935   126891321.675        2907.835          34.000    24146607.683    98876276.932        2265.273          34.000  
C28  24664084.966   128432365.749        -796.971          44.000                                                                  
C07  38114354.430   198471430.052         837.167          42.000    38114336.032   153470642.602         647.380          45.000  
C20  25246433.882   131464799.742       -3587.069          38.000                                                                  
C36  23987243.105   124907852.386        1459.052          44.000                                                                  
C37  24805940.669   129171043.712       -2364.364          42.000                                                                  
C10  39237879.659   204321918.557         765.883          39.000    39237867.327   157994630.746         592.329          45.000  
G32  25564021.081   134339834.617       -4164.040          31.000    25564039.732   104680476.283       -3244.475          32.000  
G08  24500215.320   128749478.607        3631.868          33.000    24500214.926   100324287.580        2830.172          36.000  
G29  24996899.158   131359604.5732      -3451.962          37.000    24996893.321   102358094.902       -2689.800          35.000  
C30  25388749.534   132205868.596        2769.926          43.000                                                                  
G18                                                                  25291200.545                        1168.524          29.000  
C13                                                                  40541306.142   163243021.441       -1896.548          39.000  
C08                                                                  41462514.331   166952350.482       -1860.282          40.000  
> 2025 11 03 07 35 12.2800000  0 27                     
G04  21510588.751   113038910.270        1401.499          44.000    21510577.242    88082214.454        1092.104          45.000  
G16  20216701.984   106239488.668         419.459          46.000                                                                  
G28  22832751.969   119986917.651       -2570.812          41.000    22832740.133    93496247.548       -2003.365          42.000  
G31  20948639.485   110085843.654       -1525.690          47.000    20948625.960    85781110.657       -1188.910          45.000  
G03  24300142.813   127698111.070       -2842.467          35.000    24300138.094    99505005.223       -2214.818          37.000  
C16  36733577.206   191281357.080           2.433          48.000    36733564.033   147910839.063           1.787          48.000  
C19  23609971.042   122943297.833       -1932.784          46.000                                                                  
C27  23710367.991   123466093.782        1339.276          46.000                                                                  
C06  36291208.945   188977837.567           0.275          46.000    36291189.549   146129588.553           0.280          49.000  
C09  37383369.854   194664999.874         103.870          45.000    37383353.488   150527273.532          80.394          49.000  
C22  24701491.802   128627138.536         907.640          43.000                                                                  
G26  20686497.467   108708280.572       -1800.091          48.000    20686487.044    84707706.596       -1402.802          45.000  
G27  22183979.226   116577603.392        3150.437          43.000    22183970.180    90839653.695        2454.759          43.000  
G09  24146590.787   126891205.361        2907.944          34.000    24146585.549    98876186.309        2265.308          34.000  
C28  24664091.083   128432397.623        -796.944          44.000                                                                  
C07  38114348.011   198471396.563         837.187          41.000    38114329.600   153470616.709         647.299          45.000  
C20  25246461.425   131464943.231       -3587.313          38.000                                                                  
C36  23987231.895   124907794.028        1458.881          44.000                                                                  
C37  24805958.815   129171138.281       -2364.292          41.000                                                                  
C10  39237873.773   204321887.934         765.625          39.000    39237861.441   157994607.049         592.350          45.000  
G32  25564052.775   134340001.127       -4163.275          31.000    25564071.427   104680606.012       -3243.577          32.000  
G08  24500187.645   128749333.311        3632.133          33.000    24500187.279   100324174.347        2830.579          36.000  
G29  24996925.665   131359742.6222      -3451.535          37.000    24996919.761   102358202.480       -2689.602          35.000  
C30  25388728.226   132205757.780        2770.130          43.000                                                                  
G18                                                                  25291189.099                        1169.011          29.000  
C13                                                                  40541324.964   163243097.285       -1896.275          39.000  
C08                                                                  41462532.837   166952424.898       -1860.472          40.000  
> 2025 11 03 07 35 12.3200000  0 27                     
G04  21510578.101   113038854.208        1401.451          44.000    21510566.550    88082170.771        1092.012          45.000  
G16  20216698.799   106239471.893         419.362          46.000                                                                  
G28  22832771.542   119987020.520       -2571.496          41.000    22832759.709    93496327.689       -2003.509          42.000  
G31  20948651.070   110085904.682       -1525.720          47.000    20948637.577    85781158.206       -1188.806          45.000  
G03  24300164.446   127698224.767       -2842.500          35.000    24300159.723    99505093.807       -2214.677          37.000  
C16  36733577.180   191281356.989           2.333          48.000    36733564.023   147910838.991           1.772          48.000  
C19  23609985.870   122943375.141       -1932.803          45.000                                                                  
C27  23710357.693   123466040.218        1339.130          45.000                                                                  
C06  36291208.948   188977837.549           0.399          46.000    36291189.547   146129588.546           0.186          49.000  
C09  37383369.045   194664995.716         103.898          45.000    37383352.675   150527270.318          80.315          49.000  
C22  24701484.840   128627102.226         907.716          43.000                                                                  
G26  20686511.150   108708352.579       -1800.177          48.000    20686500.748    84707762.703       -1402.795          45.000  
G27  22183955.247   116577477.384        3150.255          43.000    22183946.202    90839555.510        2454.625          43.000  
G09  24146568.670   126891089.074        2907.500          34.000    24146563.414    98876095.692        2265.182          34.000  
C28  24664097.171   128432429.500        -796.949          43.000                                                                  
C07  38114341.596   198471363.074         837.205          41.000    38114323.201   153470590.816         647.319          45.000  
C20  25246488.986   131465086.718       -3587.328          38.000                                                                  
C36  23987220.670   124907735.682        1458.611          44.000                                                                  
C37  24805976.967   129171232.855       -2364.352          41.000                                                                  
C10  39237867.898   204321857.287         765.879          39.000    39237855.556   157994583.364         592.173          45.000  
G32  25564084.451   134340167.630       -4162.826          31.000    25564103.123   104680735.766       -3243.533          32.000  
G08  24500160.017   128749188.032        3632.023          33.000    24500159.638   100324061.134        2830.509          36.000  
G29  24996951.935   131359880.7012      -3451.942          37.000    24996945.769   102358310.063       -2689.609          35.000  
C30  25388706.951   132205646.964        2770.250          43.000                                                                  
G18                                                                  25291177.736                        1169.065          30.000  
C13                                                                  40541343.810   163243173.150       -1896.491          39.000  
C08                                                                  41462551.332   166952499.323       -1860.698          40.000  
> 2025 11 03 07 35 12.3600000  0 27                     
G04  21510567.442   113038798.148        1401.416          44.000    21510555.867    88082127.086        1091.992          44.000  
G16  20216695.635   106239455.126         419.151          46.000                                                                  
G28  22832791.083   119987123.364       -2571.377          41.000    22832779.292    93496407.841       -2003.803          42.000  
G31  20948662.712   110085965.719       -1525.958          47.000    20948649.220    85781205.777       -1189.185          45.000  
G03  24300186.071   127698338.464       -2842.504          35.000    24300181.350    99505182.393       -2214.613          37.000  
C16  36733577.158   191281356.904           2.151          48.000    36733564.005   147910838.929           1.582          48.000  
C19  23610000.729   122943452.458       -1932.944          45.000                                                                  
C27  23710347.383   123465986.670        1338.776          45.000                                                                  
C06  36291208.944   188977837.549           0.150          46.000    36291189.554   146129588.545           0.044          49.000  
C09  37383368.262   194664991.563         103.819          45.000    37383351.883   150527267.106          80.245          49.000  
C22  24701477.874   128627065.917         907.735          43.000                                                                  
G26  20686524.846   108708424.587       -1800.232          48.000    20686514.422    84707818.803       -1402.582          45.000  
G27  22183931.266   116577351.380        3150.023          43.000    22183922.217    90839457.320        2454.649          43.000  
G09  24146546.534   126890972.773        2907.498          34.000    24146541.290    98876005.064        2265.426          34.000  
C28  24664103.282   128432461.399        -797.359          43.000                                                                  
C07  38114335.159   198471329.596         836.975          41.000    38114316.760   153470564.923         647.269          45.000  
C20  25246516.557   131465230.208       -3587.354          38.000                                                                  
C36  23987209.472   124907677.325        1458.706          44.000                                                                  
C37  24805995.127   129171327.432       -2364.437          41.000                                                                  
C10  39237862.028   204321826.646         765.939          38.000    39237849.675   157994559.671         592.225          45.000  
G32  25564116.150   134340334.183       -4163.395          31.000    25564134.793   104680865.538       -3243.928          32.000  
G08  24500132.344   128749042.732        3632.355          33.000    24500131.985   100323947.921        2830.426          36.000  
G29  24996978.544   131360018.7472      -3451.475          37.000    24996972.017   102358417.665       -2689.915          35.000  
C30  25388685.670   132205536.164        2770.018          43.000                                                                  
G18                                                                  25291166.338                        1168.488          30.000  
C13                                                                  40541362.629   163243249.013       -1896.583          39.000  
C08                                                                  41462569.826   166952573.755       -1860.894          40.000  
> 2025 11 03 07 35 12.4000000  0 27                     
G04  21510556.777   113038742.086        1401.456          44.000    21510545.178    88082083.406        1091.946          44.000  
G16  20216692.436   106239438.370         418.880          46.000                                                                  
G28  22832810.656   119987226.208       -2571.256          41.000    22832798.852    93496487.985       -2003.768          42.000  
G31  20948674.352   110086026.760       -1526.123          47.000    20948660.839    85781253.340       -1189.197          45.000  
G03  24300207.719   127698452.182       -2842.870          35.000    24300202.985    99505271.014       -2215.216          37.000  
C16  36733577.149   191281356.830           1.881          48.000    36733564.014   147910838.861           1.593          48.000  
C19  23610015.610   122943529.774       -1932.980          45.000                                                                  
C27  23710337.092   123465933.115        1338.727          45.000                                                                  
C06  36291208.937   188977837.550          -0.037          46.000    36291189.552   146129588.547          -0.090          49.000  
C09  37383367.456   194664987.417         103.635          45.000    37383351.106   150527263.899          80.138          49.000  
C22  24701470.903   128627029.627         907.360          43.000                                                                  
G26  20686538.538   108708496.599       -1800.336          48.000    20686528.140    84707874.917       -1402.753          45.000  
G27  22183907.299   116577225.383        3149.825          43.000    22183898.243    90839359.148        2454.346          43.000  
G09  24146524.395   126890856.469        2907.568          34.000    24146519.166    98875914.426        2265.819          34.000  
C28  24664109.374   128432493.316        -797.890          43.000                                                                  
C07  38114328.732   198471296.122         836.796          41.000    38114310.341   153470539.042         647.045          45.000  
C20  25246544.106   131465373.704       -3587.466          38.000                                                                  
C36  23987198.301   124907618.973        1458.713          44.000                                                                  
C37  24806013.291   129171422.022       -2364.740          41.000                                                                  
C10  39237856.143   204321796.014         765.781          38.000    39237843.768   157994535.982         592.165          45.000  
G32  25564147.828   134340500.739       -4163.784          32.000    25564166.506   104680995.322       -3244.601          32.000  
G08  24500104.685   128748897.434        3632.448          33.000    24500104.342   100323834.729        2830.034          36.000  
G29  24997004.548   131360156.8092      -3451.499          37.000    24996998.201   102358525.228       -2689.477          35.000  
C30  25388664.381   132205425.364        2769.886          43.000                                                                  
G18                                                                  25291154.973                        1167.833          30.000  
C13                                                                  40541381.472   163243324.883       -1896.719          39.000  
C08                                                                  41462588.302   166952648.170       -1860.608          40.000  
> 2025 11 03 07 35 12.4400000  0 27                     
G04  21510546.085   113038686.029        1401.427          44.000    21510534.492    88082039.730        1091.858          45.000  
G16  20216689.257   106239421.598         419.083          46.000                                                                  
G28  22832830.210   119987329.063       -2571.393          41.000    22832818.447    93496568.125       -2003.621          42.000  
G31  20948685.980   110086087.805       -1526.221          47.000    20948672.459    85781300.902       -1189.124          45.000  
G03  24300229.364   127698565.900       -2843.026          35.000    24300224.616    99505359.646       -2215.735          37.000  
C16  36733577.149   191281356.744           1.965          49.000    36733563.963   147910838.798           1.531          48.000  
C19  23610030.490   122943607.085       -1932.887          45.000                                                                  
C27  23710326.820   123465879.557        1338.849          45.000                                                                  
C06  36291208.947   188977837.554          -0.154          46.000    36291189.545   146129588.551          -0.176          49.000  
C09  37383366.638   194664983.273         103.532          45.000    37383350.297   150527260.694          80.060          49.000  
C22  24701463.928   128626993.335         907.205          43.000                                                                  
G26  20686552.248   108708568.614       -1800.415          48.000    20686541.865    84707931.034       -1402.936          45.000  
G27  22183883.333   116577099.388        3149.724          43.000    22183874.280    90839260.961        2454.471          43.000  
G09  24146502.297   126890740.156        2907.651          34.000    24146497.024    98875823.789        2265.994          34.000  
C28  24664115.491   128432525.214        -797.783          43.000                                                                  
C07  38114322.291   198471262.634         836.998          41.000    38114303.918   153470513.161         646.967          45.000  
C20  25246571.644   131465517.197       -3587.449          38.000                                                                  
C36  23987187.118   124907560.620        1458.767          44.000                                                                  
C37  24806031.450   129171516.607       -2364.770          41.000                                                                  
C10  39237850.260   204321765.372         765.936          38.000    39237837.910   157994512.300         592.016          45.000  
G32  25564179.539   134340667.312       -4164.269          32.000    25564198.215   104681125.086       -3244.522          32.000  
G08  24500077.026   128748752.114        3632.823          33.000    24500076.699   100323721.530        2829.948          36.000  
G29  24997031.382   131360294.8982      -3452.017          37.000    24997023.994   102358632.806       -2689.403          35.000  
C30  25388643.105   132205314.556        2770.100          42.000                                                                  
G18                                                                  25291143.533                        1167.313          33.000  
C13                                                                  40541400.318   163243400.733       -1896.392          40.000  
C08                                                                  41462606.777   166952722.582       -1860.430          40.000  
> 2025 11 03 07 35 12.4800000  0 27                     
G04  21510535.413   113038629.966        1401.537          44.000    21510523.842    88081996.052        1091.879          45.000  
G16  20216686.067   106239404.822         419.270          46.000                                                                  
G28  22832849.761   119987431.907       -2571.235          41.000    22832838.016    93496648.266       -2003.558          42.000  
G31  20948697.597   110086148.838       -1526.001          47.000    20948684.073    85781348.465       -1189.093          45.000  
G03  24300250.972   127698679.597       -2842.593          35.000    24300246.243    99505448.247       -2215.381          37.000  
C16  36733577.146   191281356.653           2.137          49.000    36733563.954   147910838.736           1.502          48.000  
C19  23610045.323   122943684.393       -1932.769          45.000                                                                  
C27  23710316.531   123465825.993        1338.989          45.000                                                                  
C06  36291208.955   188977837.540           0.118          46.000    36291189.535   146129588.546          -0.023          49.000  
C09  37383365.827   194664979.120         103.670          45.000    37383349.491   150527257.482          80.179          49.000  
C22  24701456.967   128626957.044         907.155          43.000                                                                  
G26  20686565.933   108708640.623       -1800.299          48.000    20686555.584    84707987.150       -1402.979          45.000  
G27  22183859.334   116576973.375        3150.009          43.000    22183850.285    90839162.774        2454.597          43.000  
G09  24146480.161   126890623.836        2907.999          34.000    24146474.894    98875733.159        2265.934          34.000  
C28  24664121.620   128432557.103        -797.459          43.000                                                                  
C07  38114315.843   198471229.161         836.862          41.000    38114297.487   153470487.269         647.118          45.000  
C20  25246599.196   131465660.692       -3587.419          38.000                                                                  
C36  23987175.904   124907502.266        1458.812          44.000                                                                  
C37  24806049.596   129171611.191       -2364.694          41.000                                                                  
C10  39237844.369   204321734.737         765.831          38.000    39237832.016   157994488.601         592.256          45.000  
G32  25564211.214   134340833.860       -4164.063          32.000    25564229.906   104681254.859       -3244.455          32.000  
G08  24500049.363   128748606.852        3632.092          33.000    24500049.069   100323608.317        2830.151          36.000  
G29  24997057.837   131360432.9842      -3452.221          37.000    24997050.031   102358740.392       -2689.563          35.000  
C30  25388621.826   132205203.760        2769.957          43.000                                                                  
G18                                                                  25291132.147                        1168.340          33.000  
C13                                                                  40541419.174   163243476.587       -1896.340          40.000  
C08                                                                  41462625.243   166952796.974       -1859.963          40.000  
> 2025 11 03 07 35 12.5200000  0 27                     
G04  21510524.738   113038573.907        1401.487          44.000    21510513.171    88081952.368        1092.006          45.000  
G16  20216682.869   106239388.041         419.487          46.000                                                                  
G28  22832869.353   119987534.762       -2571.316          41.000    22832857.576    93496728.401       -2003.453          42.000  
G31  20948709.187   110086209.871       -1525.897          47.000    20948695.680    85781396.018       -1188.892          45.000  
G03  24300272.599   127698793.299       -2842.451          35.000    24300267.868    99505536.815       -2214.568          37.000  
C16  36733577.164   191281356.556           2.343          49.000    36733563.947   147910838.660           1.746          48.000  
C19  23610060.173   122943761.714       -1932.936          45.000                                                                  
C27  23710306.255   123465772.431        1339.026          45.000                                                                  
C06  36291208.978   188977837.529           0.206          46.000    36291189.504   146129588.533           0.187          49.000  
C09  37383365.044   194664974.967         103.747          45.000    37383348.709   150527254.269          80.276          48.000  
C22  24701450.015   128626920.754         907.129          43.000                                                                  
G26  20686579.637   108708712.624       -1800.116          48.000    20686569.267    84708043.262       -1402.893          45.000  
G27  22183835.386   116576847.366        3150.137          43.000    22183826.290    90839064.579        2454.774          43.000  
G09  24146458.026   126890507.569        2907.148          34.000    24146452.776    98875642.578        2265.052          34.000  
C28  24664127.740   128432588.995        -797.371          43.000                                                                  
C07  38114309.412   198471195.680         836.962          41.000    38114291.054   153470461.373         647.323          45.000  
C20  25246626.736   131465804.153       -3586.778          38.000                                                                  
C36  23987164.707   124907443.906        1458.944          44.000                                                                  
C37  24806067.752   129171705.769       -2364.556          41.000                                                                  
C10  39237838.472   204321704.109         765.656          38.000    39237826.116   157994464.911         592.238          45.000  
G32  25564242.885   134341000.397       -4163.679          32.000    25564261.593   104681384.624       -3244.322          32.000  
G08  24500021.716   128748461.551        3632.385          33.000    24500021.437   100323495.097        2830.336          36.000  
G29  24997083.713   131360571.0632      -3452.227          37.000    24997076.116   102358847.970       -2689.434          35.000  
C30  25388600.566   132205092.951        2770.100          43.000                                                                  
G18                                                                  25291120.740   103562981.711        1168.742          33.000  
C13                                                                  40541438.013   163243552.439       -1896.292          39.000  
C08                                                                  41462643.728   166952871.392       -1860.267          40.000  
> 2025 11 03 07 35 12.5600000  0 27                     
G04  21510514.087   113038517.847        1401.486          44.000    21510502.514    88081908.688        1092.010          45.000  
G16  20216679.682   106239371.280         419.186          46.000                                                                  
G28  22832888.895   119987637.620       -2571.467          41.000    22832877.135    93496808.544       -2003.535          42.000  
G31  20948720.807   110086270.914       -1526.031          47.000    20948707.292    85781443.583       -1189.026          45.000  
G03  24300294.229   127698906.971       -2841.987          35.000    24300289.472    99505625.395       -2214.337          37.000  
C16  36733577.117   191281356.478           2.090          49.000    36733563.891   147910838.595           1.647          48.000  
C19  23610075.000   122943839.041       -1933.158          45.000                                                                  
C27  23710295.953   123465718.878        1338.861          45.000                                                                  
C06  36291208.993   188977837.524           0.168          46.000    36291189.532   146129588.532           0.110          49.000  
C09  37383364.237   194664970.820         103.695          45.000    37383347.920   150527251.065          80.146          48.000  
C22  24701443.033   128626884.467         907.109          43.000                                                                  
G26  20686593.349   108708784.637       -1800.232          48.000    20686582.965    84708099.372       -1402.826          45.000  
G27  22183811.426   116576721.356        3150.203          43.000    22183802.310    90838966.386        2454.806          43.000  
G09  24146435.912   126890391.314        2906.491          34.000    24146430.651    98875551.980        2264.797          34.000  
C28  24664133.849   128432620.892        -797.422          42.000                                                                  
C07  38114302.970   198471162.201         836.994          41.000    38114284.631   153470435.484         647.272          45.000  
C20  25246654.279   131465947.653       -3587.274          38.000                                                                  
C36  23987153.495   124907385.563        1458.705          44.000                                                                  
C37  24806085.902   129171800.338       -2364.364          41.000                                                                  
C10  39237832.575   204321673.466         765.874          38.000    39237820.227   157994441.219         592.273          45.000  
G32  25564274.572   134341166.940       -4163.568          32.000    25564293.300   104681514.380       -3243.950          32.000  
G08  24499994.097   128748316.262        3632.383          33.000    24499993.813   100323381.901        2830.054          36.000  
G29  24997110.233   131360709.1392      -3452.103          37.000    24997102.361   102358955.559       -2689.653          35.000  
C30  25388579.284   132204982.162        2769.850          43.000                                                                  
G18                                                                  25291109.341   103562934.970        1168.687          33.000  
C13                                                                  40541456.858   163243628.317       -1896.783          39.000  
C08                                                                  41462662.215   166952945.806       -1860.328          40.000  
> 2025 11 03 07 35 12.6000000  0 27                     
G04  21510503.429   113038461.801        1401.229          44.000    21510491.847    88081865.001        1092.128          45.000  
G16  20216676.493   106239354.525         418.901          46.000                                                                  
G28  22832908.457   119987740.472       -2571.402          41.000    22832896.704    93496888.688       -2003.592          42.000  
G31  20948732.432   110086331.960       -1526.153          47.000    20948718.916    85781491.156       -1189.264          45.000  
G03  24300315.891   127699020.711       -2842.889          35.000    24300311.117    99505714.003       -2214.856          37.000  
C16  36733577.100   191281356.400           1.928          49.000    36733563.856   147910838.533           1.565          48.000  
C19  23610089.819   122943916.370       -1933.292          45.000                                                                  
C27  23710285.671   123465665.329        1338.690          45.000                                                                  
C06  36291208.975   188977837.534          -0.156          46.000    36291189.525   146129588.532           0.035          49.000  
C09  37383363.465   194664966.676         103.599          45.000    37383347.125   150527247.860          80.128          48.000  
C22  24701436.071   128626848.174         907.233          43.000                                                                  
G26  20686607.058   108708856.659       -1800.525          48.000    20686596.687    84708155.486       -1402.844          45.000  
G27  22183787.457   116576595.361        3149.907          43.000    22183778.333    90838868.208        2454.499          43.000  
G09  24146413.766   126890275.029        2906.790          34.000    24146408.517    98875461.391        2264.563          34.000  
C28  24664139.961   128432652.799        -797.646          42.000                                                                  
C07  38114296.580   198471128.720         837.031          41.000    38114278.197   153470409.606         647.029          45.000  
C20  25246681.859   131466091.124       -3587.004          38.000                                                                  
C36  23987142.267   124907327.206        1458.767          44.000                                                                  
C37  24806104.090   129171894.916       -2364.445          41.000                                                                  
C10  39237826.686   204321642.845         765.635          38.000    39237814.319   157994417.541         592.058          45.000  
G32  25564306.270   134341333.480       -4163.502          32.000    25564325.022   104681644.213       -3245.303          32.000  
G08  24499966.437   128748170.977        3632.269          33.000    24499966.173   100323268.706        2829.855          36.000  
G29  24997136.459   131360847.2062      -3451.926          37.000    24997128.684   102359063.151       -2689.888          35.000  
C30  25388557.996   132204871.375        2769.647          43.000                                                                  
G18                                                                  25291097.952   103562888.238        1168.580          33.000  
C13                                                                  40541475.703   163243704.179       -1896.726          39.000  
C08                                                                  41462680.688   166953020.219       -1860.328          40.000  
> 2025 11 03 07 35 12.6400000  0 27                     
G04  21510492.788   113038405.762        1400.958          44.000    21510481.204    88081821.326        1091.958          45.000  
G16  20216673.293   106239337.766         418.822          46.000                                                                  
G28  22832928.034   119987843.324       -2571.364          41.000    22832916.299    93496968.842       -2003.798          42.000  
G31  20948744.068   110086393.011       -1526.269          47.000    20948730.528    85781538.725       -1189.276          45.000  
G03  24300337.542   127699134.414       -2842.727          35.000    24300332.767    99505802.617       -2215.269          37.000  
C16  36733577.103   191281356.321           1.880          49.000    36733563.836   147910838.466           1.579          48.000  
C19  23610104.704   122943993.702       -1933.396          45.000                                                                  
C27  23710275.377   123465611.782        1338.611          46.000                                                                  
C06  36291209.010   188977837.538          -0.178          47.000    36291189.516   146129588.535          -0.089          49.000  
C09  37383362.671   194664962.537         103.480          45.000    37383346.346   150527244.658          80.033          48.000  
C22  24701429.111   128626811.897         906.967          43.000                                                                  
G26  20686620.766   108708928.683       -1800.671          48.000    20686610.373    84708211.597       -1402.832          45.000  
G27  22183763.483   116576469.368        3149.724          43.000    22183754.350    90838770.035        2454.303          43.000  
G09  24146391.630   126890158.752        2906.764          34.000    24146386.391    98875370.781        2264.843          34.000  
C28  24664146.094   128432684.718        -797.904          42.000                                                                  
C07  38114290.153   198471095.246         836.874          41.000    38114271.778   153470383.725         646.987          45.000  
C20  25246709.414   131466234.622       -3587.339          38.000                                                                  
C36  23987131.038   124907268.858        1458.660          44.000                                                                  
C37  24806122.236   129171989.504       -2364.620          41.000                                                                  
C10  39237820.827   204321612.209         765.718          38.000    39237808.419   157994393.865         591.872          45.000  
G32  25564337.979   134341500.029       -4163.618          32.000    25564356.740   104681773.984       -3244.770          32.000  
G08  24499938.784   128748025.649        3632.904          33.000    24499938.547   100323155.512        2829.823          36.000  
G29  24997162.320   131360985.2782      -3451.972          37.000    24997154.768   102359170.738       -2689.763          35.000  
C30  25388536.697   132204760.576        2769.788          43.000                                                                  
G18                                                                  25291086.565   103562841.525        1168.091          33.000  
C13                                                                  40541494.551   163243780.041       -1896.706          39.000  
C08                                                                  41462699.142   166953094.637       -1860.408          40.000  
> 2025 11 03 07 35 12.6800000  0 27                     
G04  21510482.117   113038349.704        1401.166          44.000    21510470.538    88081777.651        1091.897          45.000  
G16  20216670.086   106239321.004         418.880          46.000                                                                  
G28  22832947.596   119987946.156       -2570.949          40.000    22832935.872    93497048.979       -2003.543          42.000  
G31  20948755.651   110086454.056       -1526.233          47.000    20948742.141    85781586.302       -1189.429          45.000  
G03  24300359.170   127699248.136       -2842.973          35.000    24300354.385    99505891.230       -2215.426          37.000  
C16  36733577.119   191281356.243           1.901          49.000    36733563.804   147910838.407           1.491          48.000  
C19  23610119.563   122944071.020       -1933.136          45.000                                                                  
C27  23710265.107   123465558.231        1338.660          46.000                                                                  
C06  36291209.030   188977837.542          -0.190          47.000    36291189.508   146129588.538          -0.129          49.000  
C09  37383361.892   194664958.382         103.720          45.000    37383345.525   150527241.456          80.003          48.000  
C22  24701422.120   128626775.609         907.024          43.000                                                                  
G26  20686634.465   108709000.696       -1800.470          48.000    20686624.104    84708267.724       -1403.101          45.000  
G27  22183739.507   116576343.369        3149.805          43.000    22183730.394    90838671.863        2454.181          43.000  
G09  24146369.504   126890042.472        2906.827          34.000    24146364.235    98875280.143        2265.499          34.000  
C28  24664152.211   128432716.626        -797.834          42.000                                                                  
C07  38114283.696   198471061.768         836.912          41.000    38114265.354   153470357.844         646.976          45.000  
C20  25246736.973   131466378.122       -3587.531          38.000                                                                  
C36  23987119.820   124907210.511        1458.626          44.000                                                                  
C37  24806140.407   129172084.094       -2364.765          41.000                                                                  
C10  39237814.949   204321581.575         765.853          38.000    39237802.535   157994370.173         592.072          45.000  
G32  25564369.643   134341666.551       -4163.172          32.000    25564388.432   104681903.769       -3244.666          32.000  
G08  24499911.138   128747880.412        3631.725          33.000    24499910.904   100323042.299        2830.189          36.000  
G29  24997188.124   131361123.3342      -3451.641          37.000    24997180.907   102359278.316       -2689.544          35.000  
C30  25388515.411   132204649.782        2769.795          43.000                                                                  
G18                                                                  25291075.171   103562794.786        1168.310          33.000  
C13                                                                  40541513.399   163243855.903       -1896.680          39.000  
C08                                                                  41462717.650   166953169.057       -1860.494          40.000  
> 2025 11 03 07 35 12.7200000  0 27                     
G04  21510471.446   113038293.650        1401.256          44.000    21510459.871    88081733.979        1091.809          46.000  
G16  20216666.904   106239304.243         418.937          46.000                                                                  
G28  22832967.148   119988048.992       -2570.809          40.000    22832955.430    93497129.114       -2003.401          42.000  
G31  20948767.252   110086515.090       -1526.019          47.000    20948753.757    85781633.863       -1189.227          45.000  
G03  24300380.836   127699361.845       -2842.859          35.000    24300376.012    99505979.843       -2215.535          37.000  
C16  36733577.109   191281356.144           2.263          49.000    36733563.784   147910838.335           1.696          48.000  
C19  23610134.427   122944148.331       -1932.877          45.000                                                                  
C27  23710254.809   123465504.682        1338.678          46.000                                                                  
C06  36291209.030   188977837.523           0.234          47.000    36291189.541   146129588.534                          49.000  
C09  37383361.097   194664954.224         103.904          45.000    37383344.721   150527238.241          80.215          48.000  
C22  24701415.173   128626739.316         907.204          43.000                                                                  
G26  20686648.154   108709072.698       -1800.171          48.000    20686637.786    84708323.842       -1403.046          45.000  
G27  22183715.546   116576217.373        3149.814          43.000    22183706.416    90838573.690        2454.191          43.000  
G09  24146347.351   126889926.180        2907.154          34.000    24146342.101    98875189.489        2266.171          34.000  
C28  24664158.351   128432748.519        -797.504          42.000                                                                  
C07  38114277.271   198471028.296         836.807          41.000    38114258.940   153470331.955         647.145          45.000  
C20  25246764.536   131466521.616       -3587.532          38.000                                                                  
C36  23987108.595   124907152.145        1458.969          44.000                                                                  
C37  24806158.548   129172178.664       -2364.488          41.000                                                                  
C10  39237809.066   204321550.928         766.071          38.000    39237796.681   157994346.496         591.939          45.000  
G32  25564401.344   134341833.105       -4163.521          32.000    25564420.107   104682033.526       -3244.141          32.000  
G08  24499883.507   128747735.159        3631.261          33.000    24499883.270   100322929.075        2830.520          36.000  
G29  24997214.930   131361261.406       -3451.660          37.000    24997206.894   102359385.900       -2689.553          35.000  
C30  25388494.127   132204538.973        2770.105          43.000                                                                  
G18                                                                  25291063.802   103562748.057        1168.299          34.000  
C13                                                                  40541532.249   163243931.771       -1896.742          39.000  
C08                                                                  41462736.147   166953243.464       -1860.246          40.000  
> 2025 11 03 07 35 12.7600000  0 27                     
G04  21510460.767   113038237.594        1401.367          44.000    21510449.202    88081690.300        1091.884          46.000  
G16  20216663.703   106239287.476         419.080          46.000                                                                  
G28  22832986.722   119988151.840       -2571.008          40.000    22832975.006    93497209.251       -2003.372          42.000  
G31  20948778.866   110086576.126       -1525.928          47.000    20948765.372    85781681.431       -1189.221          45.000  
G03  24300402.462   127699475.542       -2842.562          35.000    24300397.656    99506068.450       -2215.397          37.000  
C16  36733577.102   191281356.055           2.307          49.000    36733563.737   147910838.263           1.783          48.000  
C19  23610149.280   122944225.650       -1932.885          45.000                                                                  
C27  23710244.518   123465451.132        1338.702          46.000                                                                  
C06  36291209.022   188977837.513           0.322          47.000    36291189.528   146129588.532           0.017          49.000  
C09  37383360.311   194664950.078         103.758          45.000    37383343.886   150527235.025          80.373          48.000  
C22  24701408.229   128626703.013         907.484          43.000                                                                  
G26  20686661.868   108709144.706       -1800.122          48.000    20686651.482    84708379.952       -1402.875          45.000  
G27  22183691.560   116576091.370        3149.944          43.000    22183682.427    90838475.500        2454.532          43.000  
G09  24146325.233   126889809.879        2907.376          34.000    24146319.956    98875098.845        2266.381          34.000  
C28  24664164.501   128432780.412        -797.341          42.000                                                                  
C07  38114270.870   198470994.815         836.945          41.000    38114252.530   153470306.060         647.318          45.000  
C20  25246792.072   131466665.092       -3587.145          38.000                                                                  
C36  23987097.423   124907093.789        1458.955          44.000                                                                  
C37  24806176.704   129172273.227       -2364.198          41.000                                                                  
C10  39237803.178   204321520.298         765.886          38.000    39237790.796   157994322.815         591.972          45.000  
G32  25564433.047   134341999.682       -4164.305          32.000    25564451.788   104682163.302       -3244.271          32.000  
G08  24499855.877   128747589.890        3631.237          33.000    24499855.635   100322815.865        2830.485          36.000  
G29  24997240.774   131361399.476       -3451.710          37.000    24997233.203   102359493.485       -2689.517          35.000  
C30  25388472.828   132204428.169        2770.157          42.000                                                                  
G18                                                                  25291052.379   103562701.301        1168.698          34.000  
C13                                                                  40541551.089   163244007.628       -1896.556          39.000  
C08                                                                  41462754.608   166953317.868       -1860.130          40.000  
> 2025 11 03 07 35 12.8000000  0 27                     
G04  21510450.106   113038181.542        1401.345          44.000    21510438.542    88081646.621        1091.938          46.000  
G16  20216660.489   106239270.707         419.198          46.000                                                                  
G28  22833006.317   119988254.689       -2571.172          40.000    22832994.575    93497289.385       -2003.291          42.000  
G31  20948790.476   110086637.160       -1525.860          47.000    20948776.963    85781728.989       -1189.032          45.000  
G03  24300424.088   127699589.221       -2842.170          35.000    24300419.300    99506157.062       -2215.409          37.000  
C16  36733577.065   191281355.963           2.353          49.000    36733563.688   147910838.195           1.748          48.000  
C19  23610164.126   122944302.969       -1932.928          45.000                                                                  
C27  23710234.215   123465397.587        1338.629          46.000                                                                  
C06  36291209.008   188977837.502           0.313          47.000    36291189.537   146129588.521           0.179          49.000  
C09  37383359.521   194664945.931         103.694          45.000    37383343.073   150527231.808          80.453          48.000  
C22  24701401.243   128626666.714         907.519          43.000                                                                  
G26  20686675.567   108709216.714       -1800.134          48.000    20686665.159    84708436.057       -1402.667          45.000  
G27  22183667.572   116575965.373        3149.917          43.000    22183658.421    90838377.306        2454.805          43.000  
G09  24146303.113   126889693.576        2907.447          34.000    24146297.832    98875008.238        2265.734          34.000  
C28  24664170.630   128432812.301        -797.226          42.000                                                                  
C07  38114264.427   198470961.329         837.088          41.000    38114246.098   153470280.164         647.403          45.000  
C20  25246819.647   131466808.577       -3587.124          38.000                                                                  
C36  23987086.210   124907035.442        1458.727          44.000                                                                  
C37  24806194.877   129172367.784       -2363.923          41.000                                                                  
C10  39237797.335   204321489.662         765.889          38.000    39237784.910   157994299.112         592.387          45.000  
G32  25564464.745   134342166.224       -4164.002          32.000    25564483.462   104682293.060       -3243.954          32.000  
G08  24499828.226   128747444.611        3631.656          33.000    24499827.999   100322702.640        2830.730          36.000  
G29  24997266.958   131361537.531       -3451.457          37.000    24997259.436   102359601.078       -2689.684          35.000  
C30  25388451.577   132204317.358        2770.280          42.000                                                                  
G18                                                                  25291040.957   103562654.534        1169.208          34.000  
C13                                                                  40541569.926   163244083.482       -1896.393          39.000  
C08                                                                  41462773.086   166953392.291       -1860.483          40.000  
> 2025 11 03 07 35 12.8400000  0 27                     
G04  21510439.442   113038125.491        1401.332          44.000    21510427.870    88081602.953        1091.763          46.000  
G16  20216657.269   106239253.934         419.308          46.000                                                                  
G28  22833025.878   119988357.561       -2571.686          40.000    22833014.139    93497369.511       -2003.162          42.000  
G31  20948802.081   110086698.202       -1526.007          47.000    20948788.584    85781776.553       -1189.069          45.000  
G03  24300445.723   127699702.943       -2842.738          35.000    24300440.958    99506245.674       -2215.364          37.000  
C16  36733577.021   191281355.873           2.289          49.000    36733563.648   147910838.118           1.883          48.000  
C19  23610178.963   122944380.298       -1933.132          45.000                                                                  
C27  23710223.941   123465344.035        1338.709          46.000                                                                  
C06  36291209.026   188977837.490           0.349          47.000    36291189.505   146129588.510           0.259          49.000  
C09  37383358.719   194664941.780         103.706          45.000    37383342.296   150527228.595          80.417          48.000  
C22  24701394.255   128626630.424         907.341          43.000                                                                  
G26  20686689.278   108709288.722       -1800.165          48.000    20686678.864    84708492.158       -1402.509          45.000  
G27  22183643.594   116575839.365        3150.077          43.000    22183634.456    90838279.115        2454.861          43.000  
G09  24146280.971   126889577.262        2907.726          34.000    24146275.709    98874917.653        2264.938          34.000  
C28  24664176.742   128432844.203        -797.395          42.000                                                                  
C07  38114257.981   198470927.839         837.222          41.000    38114239.674   153470254.267         647.438          45.000  
C20  25246847.223   131466952.046       -3586.786          38.000                                                                  
C36  23987074.991   124906977.099        1458.560          44.000                                                                  
C37  24806213.042   129172462.363       -2364.203          41.000                                                                  
C10  39237791.444   204321459.037         765.750          38.000    39237779.030   157994275.419         592.420          45.000  
G32  25564496.424   134342332.758       -4163.513          32.000    25564515.149   104682422.813       -3243.765          32.000  
G08  24499800.564   128747299.296        3632.546          33.000    24499800.355   100322589.438        2830.366          36.000  
G29  24997293.299   131361675.625       -3452.059          37.000    24997285.896   102359708.656       -2689.574          35.000  
C30  25388430.309   132204206.540        2770.441          42.000                                                                  
G18                                                                  25291029.573   103562607.801        1168.757          34.000  
C13                                                                  40541588.745   163244159.330       -1896.206          39.000  
C08                                                                  41462791.545   166953466.697       -1860.347          40.000  
> 2025 11 03 07 35 12.8800000  0 27                     
G04  21510428.794   113038069.438        1401.359          44.000    21510417.199    88081559.273        1091.851          46.000  
G16  20216654.091   106239237.174         419.108          46.000                                                                  
G28  22833045.427   119988460.398       -2571.264          41.000    22833033.714    93497449.669       -2003.698          42.000  
G31  20948813.723   110086759.244       -1526.093          47.000    20948800.204    85781824.121       -1189.185          45.000  
G03  24300467.350   127699816.663       -2842.991          35.000    24300462.591    99506334.257       -2214.822          37.000  
C16  36733576.996   191281355.786           2.230          49.000    36733563.655   147910838.057           1.670          48.000  
C19  23610193.837   122944457.618       -1933.063          45.000                                                                  
C27  23710213.669   123465290.492        1338.593          47.000                                                                  
C06  36291209.027   188977837.487           0.179          47.000    36291189.505   146129588.502           0.233          49.000  
C09  37383357.913   194664937.621         103.867          45.000    37383341.503   150527225.389          80.229          48.000  
C22  24701387.244   128626594.137         907.165          43.000                                                                  
G26  20686702.999   108709360.738       -1800.348          48.000    20686692.588    84708548.271       -1402.716          45.000  
G27  22183619.600   116575713.344        3150.437          43.000    22183610.482    90838180.931        2454.719          43.000  
G09  24146258.887   126889460.982        2907.299          34.000    24146253.593    98874827.067        2264.423          34.000  
C28  24664182.867   128432876.103        -797.453          42.000                                                                  
C07  38114251.571   198470894.359         837.090          41.000    38114233.245   153470228.373         647.387          45.000  
C20  25246874.765   131467095.535       -3586.979          38.000                                                                  
C36  23987063.791   124906918.742        1458.757          44.000                                                                  
C37  24806231.193   129172556.929       -2364.170          41.000                                                                  
C10  39237785.570   204321428.410         765.672          38.000    39237773.142   157994251.727         592.385          45.000  
G32  25564528.118   134342499.293       -4163.321          32.000    25564546.842   104682552.615       -3244.626          32.000  
G08  24499772.902   128747153.990        3632.794          33.000    24499772.731   100322476.229        2830.214          36.000  
G29  24997319.416   131361813.702       -3452.082          37.000    24997311.797   102359816.263       -2689.968          35.000  
C30  25388409.000   132204095.730        2770.372          42.000                                                                  
G18                                                                  25291018.189   103562561.097        1167.803          34.000  
C13                                                                  40541607.599   163244235.182       -1896.257          39.000  
C08                                                                  41462810.041   166953541.098       -1860.125          40.000  
> 2025 11 03 07 35 12.9200000  0 27                     
G04  21510418.125   113038013.398        1401.153          44.000    21510406.528    88081515.602        1091.753          46.000  
G16  20216650.910   106239220.402         419.188          46.000                                                                  
G28  22833064.998   119988563.248       -2571.298          41.000    22833053.294    93497529.818       -2003.833          42.000  
G31  20948825.343   110086820.293       -1526.257          47.000    20948811.815    85781871.683       -1189.124          45.000  
G03  24300488.976   127699930.362       -2842.715          35.000    24300484.225    99506422.836       -2214.519          37.000  
C16  36733576.967   191281355.699           2.172          49.000    36733563.624   147910837.993           1.579          48.000  
C19  23610208.685   122944534.942       -1933.125          45.000                                                                  
C27  23710203.363   123465236.956        1338.416          47.000                                                                  
C06  36291209.025   188977837.485           0.050          47.000    36291189.498   146129588.497           0.145          49.000  
C09  37383357.135   194664933.463         103.921          45.000    37383340.697   150527222.187          80.038          48.000  
C22  24701380.277   128626557.856         907.002          42.000                                                                  
G26  20686716.704   108709432.759       -1800.549          48.000    20686706.292    84708604.394       -1403.003          46.000  
G27  22183595.634   116575587.345        3150.186          43.000    22183586.529    90838082.747        2454.606          43.000  
G09  24146236.788   126889344.707        2906.889          34.000    24146231.462    98874736.446        2264.879          34.000  
C28  24664188.989   128432907.996        -797.367          42.000                                                                  
C07  38114245.132   198470860.887         836.854          41.000    38114226.818   153470202.490         647.156          45.000  
C20  25246902.320   131467239.028       -3587.169          38.000                                                                  
C36  23987052.610   124906860.376        1459.022          44.000                                                                  
C37  24806249.333   129172651.494       -2364.177          41.000                                                                  
C10  39237779.682   204321397.762         766.001          38.000    39237767.264   157994228.031         592.375          45.000  
G32  25564559.823   134342665.841       -4163.506          32.000    25564578.553   104682682.388       -3244.457          32.000  
G08  24499745.240   128747008.704        3632.450          33.000    24499745.099   100322363.027        2830.020          36.000  
G29  24997345.730   131361951.774       -3451.967          37.000    24997338.013   102359923.854       -2689.976          35.000  
C30  25388387.721   132203984.934        2770.002          42.000                                                                  
G18                                                                  25291006.784   103562514.348        1168.210          34.000  
C13                                                                  40541626.456   163244311.045       -1896.500          39.000  
C08                                                                  41462828.519   166953615.519       -1860.403          40.000  
> 2025 11 03 07 35 12.9600000  0 27                     
G04  21510407.467   113037957.349        1401.128          44.000    21510395.871    88081471.932        1091.689          46.000  
G16  20216647.750   106239203.651         418.865          46.000                                                                  
G28  22833084.578   119988666.119       -2571.700          42.000    22833072.874    93497609.980       -2004.092          42.000  
G31  20948836.937   110086881.334       -1526.172          47.000    20948823.437    85781919.248       -1189.099          45.000  
G03  24300510.614   127700044.080       -2842.971          35.000    24300505.852    99506511.470       -2215.424          37.000  
C16  36733576.938   191281355.620           2.005          49.000    36733563.590   147910837.927           1.570          48.000  
C19  23610223.546   122944612.270       -1933.218          45.000                                                                  
C27  23710193.089   123465183.429        1338.159          47.000                                                                  
C06  36291209.023   188977837.489          -0.137          47.000    36291189.517   146129588.499          -0.017          49.000  
C09  37383356.334   194664929.317         103.728          45.000    37383339.893   150527218.987          79.914          48.000  
C22  24701373.316   128626521.578         906.878          42.000                                                                  
G26  20686730.416   108709504.790       -1800.812          48.000    20686720.007    84708660.518       -1403.180          46.000  
G27  22183571.631   116575461.357        3149.798          43.000    22183562.557    90837984.577        2454.278          43.000  
G09  24146214.689   126889228.429        2906.844          34.000    24146209.322    98874645.828        2265.236          34.000  
C28  24664195.111   128432939.896        -797.496          42.000                                                                  
C07  38114238.703   198470827.413         836.749          41.000    38114220.382   153470176.606         647.046          45.000  
C20  25246929.863   131467382.527       -3587.398          38.000                                                                  
C36  23987041.374   124906802.024        1458.918          44.000                                                                  
C37  24806267.470   129172746.061       -2364.189          41.000                                                                  
C10  39237773.792   204321367.119         766.048          38.000    39237761.398   157994204.357         591.988          45.000  
G32  25564591.504   134342832.356       -4162.978          32.000    25564610.239   104682812.169       -3244.492          32.000  
G08  24499717.600   128746863.412        3632.140          33.000    24499717.467   100322249.815        2830.077          36.000  
G29  24997371.855   131362089.850       -3451.939          38.000    24997364.401   102360031.475       -2690.421          35.000  
C30  25388366.454   132203874.156        2769.521          42.000                                                                  
G18                                                                  25290995.392   103562467.611        1168.272          34.000  
C13                                                                  40541645.289   163244386.920       -1896.859          39.000  
C08                                                                  41462846.989   166953689.924       -1860.248          40.000  
> 2025 11 03 07 35 13.0000000  0 27                     
G04  21510396.804   113037901.304        1401.084          44.000    21510385.210    88081428.257        1091.772          46.000  
G16  20216644.563   106239186.907         418.600          46.000                                                                  
G28  22833104.153   119988768.991       -2571.916          42.000    22833092.454    93497690.128       -2003.905          42.000  
G31  20948848.547   110086942.374       -1526.056          47.000    20948835.079    85781966.816       -1189.172          45.000  
G03  24300532.247   127700157.771       -2842.455          35.000    24300527.491    99506600.085       -2215.602          37.000  
C16  36733576.907   191281355.534           2.054          49.000    36733563.578   147910837.865           1.500          48.000  
C19  23610238.375   122944689.597       -1933.223          45.000                                                                  
C27  23710182.793   123465129.888        1338.336          47.000                                                                  
C06  36291209.031   188977837.484          -0.050          47.000    36291189.524   146129588.501          -0.076          49.000  
C09  37383355.541   194664925.176         103.538          45.000    37383339.096   150527215.782          79.990          48.000  
C22  24701366.360   128626485.295         906.921          42.000                                                                  
G26  20686744.120   108709576.808       -1800.659          48.000    20686733.698    84708716.628       -1402.954          46.000  
G27  22183547.644   116575335.366        3149.678          43.000    22183538.582    90837886.404        2454.195          43.000  
G09  24146192.565   126889112.154        2906.806          34.000    24146187.183    98874555.201        2265.511          34.000  
C28  24664201.242   128432971.790        -797.441          42.000                                                                  
C07  38114232.297   198470793.939         836.751          41.000    38114213.963   153470150.723         646.999          45.000  
C20  25246957.425   131467526.013       -3587.278          38.000                                                                  
C36  23987030.165   124906743.682        1458.665          44.000                                                                  
C37  24806285.631   129172840.627       -2364.209          41.000                                                                  
C10  39237767.912   204321336.463         766.330          38.000    39237755.505   157994180.661         592.188          45.000  
G32  25564623.218   134342998.894       -4163.223          32.000    25564641.906   104682941.940       -3244.418          32.000  
G08  24499689.952   128746718.110        3632.245          33.000    24499689.825   100322136.605        2830.129          36.000  
G29  24997397.981   131362227.918       -3451.776          38.000    24997390.602   102360139.060       -2689.981          35.000  
C30  25388345.171   132203763.358        2769.668          42.000                                                                  
G18                                                                  25290983.956   103562420.854        1168.723          34.000  
C13                                                                  40541664.099   163244462.781       -1896.685          39.000  
C08                                                                  41462865.484   166953764.349       -1860.525          40.000  
> 2025 11 03 07 35 13.0400000  0 27                     
G04  21510386.131   113037845.255        1401.113          44.000    21510374.529    88081384.582        1091.834          46.000  
G16  20216641.382   106239170.148         418.747          46.000                                                                  
G28  22833123.716   119988871.860       -2571.884          42.000    22833112.035    93497770.284       -2003.955          43.000  
G31  20948860.154   110087003.412       -1525.970          47.000    20948846.711    85782014.377       -1189.093          45.000  
G03  24300553.893   127700271.462       -2842.228          35.000    24300549.126    99506688.666       -2215.062          37.000  
C16  36733576.907   191281355.447           2.108          49.000    36733563.521   147910837.790           1.713          48.000  
C19  23610253.211   122944766.927       -1933.266          45.000                                                                  
C27  23710172.521   123465076.340        1338.587          47.000                                                                  
C06  36291209.044   188977837.471           0.186          47.000    36291189.515   146129588.486           0.184          49.000  
C09  37383354.745   194664921.031         103.549          45.000    37383338.274   150527212.566          80.242          48.000  
C22  24701359.382   128626449.002         907.164          42.000                                                                  
G26  20686757.828   108709648.819       -1800.403          48.000    20686747.396    84708772.742       -1402.893          46.000  
G27  22183523.646   116575209.364        3149.868          43.000    22183514.599    90837788.220        2454.389          43.000  
G09  24146170.428   126888995.863        2907.073          34.000    24146165.025    98874464.526        2266.449          34.000  
C28  24664207.365   128433003.690        -797.486          42.000                                                                  
C07  38114225.874   198470760.446         837.126          41.000    38114207.523   153470124.826         647.280          45.000  
C20  25246984.969   131467669.506       -3587.315          38.000                                                                  
C36  23987018.944   124906685.331        1458.670          44.000                                                                  
C37  24806303.788   129172935.207       -2364.423          41.000                                                                  
C10  39237762.053   204321305.836         765.947          38.000    39237749.610   157994156.973         592.173          45.000  
G32  25564654.907   134343165.422       -4163.188          32.000    25564673.633   104683071.723       -3244.684          32.000  
G08  24499662.307   128746572.861        3631.353          33.000    24499662.178   100322023.402        2830.123          36.000  
G29  24997424.483   131362365.983       -3451.664          38.000    24997417.139   102360246.638       -2689.557          35.000  
C30  25388323.900   132203652.548        2770.020          42.000                                                                  
G18                                                                  25290972.546   103562374.109        1168.681          34.000  
C13                                                                  40541682.921   163244538.637       -1896.486          39.000  
C08                                                                  41462883.967   166953838.765       -1860.462          40.000  
