     3.04           OBSERVATION DATA    M: Mixed            RINEX VERSION / TYPE
RTKCONV 2.4.3 b34                       20251103 075619 UTC PGM / RUN BY / DATE 
format: u-blox UBX                                          COMMENT             
log: D:\GPdata\11_3\fingure_330_11_33_2.ubx                 COMMENT             
                                                            MARKER NAME         
                                                            MARKER NUMBER       
                                                            MARKER TYPE         
                                                            OBSERVER / AGENCY   
                                                            REC # / TYPE / VERS 
                                                            ANT # / TYPE        
        0.0000        0.0000        0.0000                  APPROX POSITION XYZ 
        0.0000        0.0000        0.0000                  ANTENNA: DELTA H/E/N
G    8 C1C L1C D1C S1C C2L L2L D2L S2L                      SYS / # / OBS TYPES 
C    8 C2I L2I D2I S2I C7I L7I D7I S7I                      SYS / # / OBS TYPES 
  2025    11    03    07    35   53.0400000     GPS         TIME OF FIRST OBS   
  2025    11    03    07    36   18.7200000     GPS         TIME OF LAST OBS    
G L1C                                                       SYS / PHASE SHIFT   
G L2L  0.00000                                              SYS / PHASE SHIFT   
C L2I                                                       SYS / PHASE SHIFT   
C L7I                                                       SYS / PHASE SHIFT   
  0                                                         GLONASS SLOT / FRQ #
 C1C    0.000 C1P    0.000 C2C    0.000 C2P    0.000        GLONASS COD/PHS/BIS 
                                                            END OF HEADER       
> 2025 11 03 07 35 53.0400000  0 27                     
G04  21499813.814   112982291.0891       1376.945          45.000    21499802.922    88038095.6741       1072.875          46.000  
G16  20213532.255   106222833.2321        397.934          46.000                                                                  
G28  22852741.642   120091965.9281      -2583.472          40.000    22852730.509    93578103.2631      -2012.938          41.000  
G31  20960532.713   110148344.4251      -1540.704          46.000    20960519.587    85829812.5691      -1200.598          44.000  
G03  24322230.258   127814180.1621      -2852.871          38.000    24322224.596    99595448.4611      -2222.439          36.000  
C16  36733562.823   191281278.6461          1.741          48.000    36733549.633   147910778.4481          1.278          47.000  
C19  23625181.988   123022506.1271      -1953.627          47.000                                                                  
C27  23699958.596   123411889.0201       1320.740          44.000                                                                  
C06  36291210.161   188977843.5641         -0.502          46.000    36291190.680   146129593.2301         -0.234          48.000  
C09  37382555.521   194660757.6801        104.665          45.000    37382538.881   150523993.2031         80.710          48.000  
C22  24694478.379   128590617.4221        884.685          43.000                                                                  
G26  20700513.930   108781939.1191      -1813.898          46.000    20700504.010    84765102.8861      -1413.416          44.000  
G27  22159603.164   116449509.2101       3135.183          42.000    22159594.796    90739840.2601       2443.184          43.000  
G09  24124092.767   126772966.6941       2894.595          34.000    24124084.436    98784052.5571       2254.802          35.000  
C28  24670420.758   128465363.2561       -820.189          38.000                                                                  
C07  38107815.525   198437375.4761        832.404          41.000    38107796.274   153444309.5891        643.744          45.000  
C20  25274558.249   131611250.4351      -3591.605          39.000                                                                  
C36  23975834.056   124848442.0201       1453.516          44.000                                                                  
C37  24824480.164   129267586.6271      -2367.968          38.000                                                                  
C10  39231894.459   204290748.6531        762.302          40.000    39231881.264   157970528.3601        589.383          45.000  
G32  25596352.129   134509731.1481      -4164.065          30.000    25596371.072                1      -3245.192          28.000  
G08  24472024.289   128601361.5311       3629.315          34.000    24472026.920   100208860.3571       2828.007          38.000  
G29  25023754.490   131500720.0571      -3465.250          36.000    25023746.572                1      -2700.713          31.000  
C30  25367049.778   132092875.2191       2769.063          41.000                                                                  
G18                                                                  25279621.466                1       1159.244          32.000  
C13                                                                  40560521.514   163320392.1421      -1895.825          40.000  
C08                                                                  41481357.796   167028218.0481      -1858.318          40.000  
> 2025 11 03 07 35 53.0800000  0 27                     
G04  21499803.343   112982236.024        1376.720          45.000    21499792.435    88038052.754        1072.976          46.000  
G16  20213529.228   106222817.301         398.146          46.000                                                                  
G28  22852761.298   120092069.231       -2582.883          40.000    22852750.183    93578183.773       -2012.843          41.000  
G31  20960544.479   110148406.061       -1540.894          46.000    20960531.324    85829860.591       -1200.604          44.000  
G03  24322251.966   127814294.253       -2852.582          38.000    24322246.308    99595537.370       -2222.499          36.000  
C16  36733562.802   191281278.574           1.759          48.000    36733549.638   147910778.387           1.421          47.000  
C19  23625197.027   123022584.268       -1953.558          47.000                                                                  
C27  23699948.449   123411836.184        1320.819          44.000                                                                  
C06  36291210.178   188977843.568          -0.261          46.000    36291190.667   146129593.243          -0.338          48.000  
C09  37382554.715   194660753.495         104.660          45.000    37382538.032   150523989.968          80.806          48.000  
C22  24694471.578   128590582.041         884.533          43.000                                                                  
G26  20700527.731   108782011.678       -1814.001          46.000    20700517.798    84765159.425       -1413.440          44.000  
G27  22159579.321   116449383.804        3135.144          42.000    22159570.917    90739742.536        2443.091          43.000  
G09  24124070.734   126772850.925        2894.380          34.000    24124062.392    98783962.305        2255.710          35.000  
C28  24670427.068   128465396.062        -820.253          38.000                                                                  
C07  38107809.156   198437342.174         832.528          41.000    38107789.884   153444283.837         643.743          45.000  
C20  25274585.860   131611394.096       -3591.559          39.000                                                                  
C36  23975822.898   124848383.875        1453.601          44.000                                                                  
C37  24824498.335   129267681.348       -2368.012          38.000                                                                  
C10  39231888.591   204290718.179         761.992          40.000    39231875.428   157970504.773         589.599          45.000  
G32  25596383.840   134509897.708       -4163.844          30.000    25596402.767                       -3245.564          28.000  
G08  24471996.657   128601216.363        3629.182          34.000    24471999.279   100208747.204        2828.556          38.000  
G29  25023780.893   131500858.687       -3465.647          37.000    25023772.937                       -2700.047          31.000  
C30  25367028.517   132092764.458        2769.077          41.000                                                                  
G18                                                                  25279610.160                        1158.223          32.000  
C13                                                                  40560540.344   163320468.000       -1896.244          40.000  
C08                                                                  41481376.253   167028292.398       -1858.602          40.000  
> 2025 11 03 07 35 53.1200000  0 27                     
G04  21499792.862   112982180.955        1376.671          45.000    21499781.958    88038009.844        1072.839          46.000  
G16  20213526.198   106222801.385         397.958          46.000                                                                  
G28  22852780.949   120092172.553       -2582.989          40.000    22852769.838    93578264.288       -2012.862          41.000  
G31  20960556.197   110148467.692       -1540.894          46.000    20960543.047    85829908.610       -1200.513          44.000  
G03  24322273.702   127814408.364       -2852.681          38.000    24322268.019    99595626.278       -2222.603          36.000  
C16  36733562.784   191281278.506           1.693          48.000    36733549.636   147910778.331           1.414          47.000  
C19  23625212.029   123022662.412       -1953.602          47.000                                                                  
C27  23699938.332   123411783.347        1320.862          44.000                                                                  
C06  36291210.167   188977843.570          -0.110          46.000    36291190.660   146129593.254          -0.342          48.000  
C09  37382553.914   194660749.320         104.459          45.000    37382537.247   150523986.726          80.990          48.000  
C22  24694464.775   128590546.659         884.511          43.000                                                                  
G26  20700541.539   108782084.231       -1813.922          46.000    20700531.627    84765215.953       -1413.275          44.000  
G27  22159555.469   116449258.392        3135.243          42.000    22159547.078    90739644.827        2442.761          43.000  
G09  24124048.713   126772735.162        2894.065          34.000    24124040.341    98783872.100        2255.487          35.000  
C28  24670433.369   128465428.861        -820.160          38.000                                                                  
C07  38107802.760   198437308.872         832.545          41.000    38107783.511   153444258.096         643.556          45.000  
C20  25274613.447   131611537.771       -3591.845          39.000                                                                  
C36  23975811.704   124848325.740        1453.424          44.000                                                                  
C37  24824516.540   129267776.077       -2368.276          38.000                                                                  
C10  39231882.731   204290687.701         761.865          40.000    39231869.570   157970481.201         589.402          45.000  
G32  25596415.535   134510064.316       -4164.498          30.000    25596434.449                       -3245.712          28.000  
G08  24471969.029   128601071.169        3629.579          34.000    24471971.640   100208634.085        2828.195          38.000  
G29  25023807.268   131500997.288       -3465.288          37.000    25023799.307                       -2700.453          31.000  
C30  25367007.215   132092653.707        2768.810          41.000                                                                  
G18                                                                  25279598.695                        1158.998          32.000  
C13                                                                  40560559.191   163320543.853       -1896.440          40.000  
C08                                                                  41481394.722   167028366.737       -1858.496          40.000  
> 2025 11 03 07 35 53.1600000  0 27                     
G04  21499782.398   112982125.904        1376.375          45.000    21499771.485    88037966.943        1072.561          46.000  
G16  20213523.175   106222785.465         397.934          46.000                                                                  
G28  22852800.617   120092275.888       -2583.286          40.000    22852789.497    93578344.799       -2012.857          41.000  
G31  20960567.937   110148529.330       -1540.991          46.000    20960554.770    85829956.645       -1200.781          44.000  
G03  24322295.403   127814522.460       -2852.486          38.000    24322289.751    99595715.200       -2222.904          36.000  
C16  36733562.780   191281278.435           1.714          48.000    36733549.627   147910778.278           1.329          47.000  
C19  23625227.008   123022740.564       -1953.775          47.000                                                                  
C27  23699928.170   123411730.518        1320.740          44.000                                                                  
C06  36291210.161   188977843.585          -0.282          46.000    36291190.663   146129593.257          -0.194          48.000  
C09  37382553.088   194660745.138         104.468          45.000    37382536.446   150523983.491          80.940          48.000  
C22  24694458.001   128590511.272         884.551          43.000                                                                  
G26  20700555.337   108782156.791       -1814.014          46.000    20700545.455    84765272.505       -1413.666          45.000  
G27  22159531.621   116449133.000        3134.904          42.000    22159523.240    90739547.111        2442.750          43.000  
G09  24124026.700   126772619.373        2894.444          34.000    24124018.317    98783781.903        2255.237          35.000  
C28  24670439.667   128465461.684        -820.461          38.000                                                                  
C07  38107796.343   198437275.580         832.357          41.000    38107777.109   153444232.355         643.445          45.000  
C20  25274641.054   131611681.445       -3591.976          39.000                                                                  
C36  23975800.534   124848267.601        1453.418          44.000                                                                  
C37  24824534.736   129267870.795       -2368.166          38.000                                                                  
C10  39231876.891   204290657.216         761.920          38.000    39231863.712   157970457.642         589.042          44.000  
G32  25596447.213   134510230.939       -4165.375          30.000    25596466.149                       -3245.611          28.000  
G08  24471941.407   128600925.999        3629.402          34.000    24471944.023   100208520.989        2827.535          38.000  
G29  25023833.658   131501135.920       -3465.630          37.000    25023825.691                       -2700.082          31.000  
C30  25366985.953   132092542.960        2768.641          40.000                                                                  
G18                                                                  25279587.337                        1158.698          32.000  
C13                                                                  40560578.024   163320619.699       -1896.281          40.000  
C08                                                                  41481413.172   167028441.085       -1858.650          40.000  
> 2025 11 03 07 35 53.2000000  0 27                     
G04  21499771.924   112982070.848        1376.293          45.000    21499761.026    88037924.049        1072.328          46.000  
G16  20213520.189   106222769.561         397.630          46.000                                                                  
G28  22852820.277   120092379.226       -2583.510          40.000    22852809.168    93578425.327       -2013.114          41.000  
G31  20960579.670   110148590.969       -1541.022          46.000    20960566.506    85830004.683       -1200.989          44.000  
G03  24322317.112   127814636.570       -2852.637          38.000    24322311.460    99595804.108       -2222.773          36.000  
C16  36733562.748   191281278.372           1.564          47.000    36733549.599   147910778.229           1.212          47.000  
C19  23625242.005   123022818.722       -1953.946          47.000                                                                  
C27  23699918.023   123411677.698        1320.538          44.000                                                                  
C06  36291210.169   188977843.619          -0.707          46.000    36291190.690   146129593.272          -0.341          48.000  
C09  37382552.284   194660740.969         104.252          45.000    37382535.635   150523980.264          80.746          48.000  
C22  24694451.221   128590475.894         884.455          43.000                                                                  
G26  20700569.158   108782229.363       -1814.264          46.000    20700559.276    84765329.055       -1413.837          45.000  
G27  22159507.779   116449007.609        3134.676          42.000    22159499.385    90739449.410        2442.522          43.000  
G09  24124004.664   126772503.614        2894.135          34.000    24123996.285    98783691.690        2255.286          35.000  
C28  24670445.954   128465494.517        -820.781          38.000                                                                  
C07  38107789.929   198437242.289         832.246          41.000    38107770.706   153444206.628         643.173          45.000  
C20  25274668.660   131611825.129       -3592.180          39.000                                                                  
C36  23975789.361   124848209.478        1453.131          44.000                                                                  
C37  24824552.949   129267965.527       -2368.276          38.000                                                                  
C10  39231871.042   204290626.741         761.751          38.000    39231857.855   157970434.073         589.062          44.000  
G32  25596478.941   134510397.550       -4165.540          30.000    25596497.873                       -3245.688          28.000  
G08  24471913.746   128600780.815        3629.592          34.000    24471916.404   100208407.890        2827.263          38.000  
G29  25023860.047   131501274.535       -3465.534          37.000    25023852.078                       -2700.542          31.000  
C30  25366964.698   132092432.217        2768.526          40.000                                                                  
G18                                                                  25279575.915                        1158.544          32.000  
C13                                                                  40560596.871   163320695.555       -1896.401          40.000  
C08                                                                  41481431.618   167028515.442       -1858.816          40.000  
> 2025 11 03 07 35 53.2400000  0 27                     
G04  21499761.451   112982015.793        1376.289          45.000    21499750.563    88037881.153        1072.268          46.000  
G16  20213517.180   106222753.657         397.496          47.000                                                                  
G28  22852839.928   120092482.578       -2583.851          40.000    22852828.823    93578505.851       -2013.205          41.000  
G31  20960591.415   110148652.623       -1541.333          46.000    20960578.215    85830052.718       -1201.007          44.000  
G03  24322338.842   127814750.694       -2852.998          38.000    24322333.177    99595893.038       -2223.064          36.000  
C16  36733562.738   191281278.311           1.437          47.000    36733549.610   147910778.188           1.027          47.000  
C19  23625257.035   123022896.879       -1954.013          47.000                                                                  
C27  23699907.880   123411624.884        1320.306          44.000                                                                  
C06  36291210.159   188977843.650          -0.859          46.000    36291190.716   146129593.306          -0.740          48.000  
C09  37382551.494   194660736.799         104.185          45.000    37382534.838   150523977.041          80.557          48.000  
C22  24694444.446   128590440.527         884.230          43.000                                                                  
G26  20700582.971   108782301.941       -1814.520          46.000    20700573.076    84765385.608       -1413.928          45.000  
G27  22159483.911   116448882.215        3134.638          42.000    22159475.524    90739351.700        2442.549          43.000  
G09  24123982.608   126772387.862        2893.824          34.000    24123974.256    98783601.501        2254.943          35.000  
C28  24670452.272   128465527.351        -820.957          38.000                                                                  
C07  38107783.540   198437209.019         831.774          41.000    38107764.307   153444180.889         643.276          45.000  
C20  25274696.268   131611968.801       -3592.073          38.000                                                                  
C36  23975778.200   124848151.354        1453.033          44.000                                                                  
C37  24824571.152   129268060.279       -2368.617          38.000                                                                  
C10  39231865.198   204290596.262         761.817          38.000    39231852.008   157970410.516         588.877          44.000  
G32  25596510.632   134510564.119       -4164.702          30.000    25596529.561                       -3245.078          27.000  
G08  24471886.097   128600635.670        3628.990          34.000    24471888.779   100208294.752        2827.867          38.000  
G29  25023886.428   131501413.165       -3465.754          37.000    25023878.442                       -2699.694          31.000  
C30  25366943.417   132092321.485        2768.296          40.000                                                                  
G18                                                                  25279564.753                        1158.050          32.000  
C13                                                                  40560615.713   163320771.394       -1896.125          40.000  
C08                                                                  41481450.112   167028589.802       -1859.031          40.000  
> 2025 11 03 07 35 53.2800000  0 27                     
G04  21499750.977   112981960.746        1376.150          45.000    21499740.058    88037838.258        1072.271          46.000  
G16  20213514.132   106222737.752         397.498          47.000                                                                  
G28  22852859.609   120092585.938       -2584.127          40.000    22852848.488    93578586.372       -2013.140          41.000  
G31  20960603.128   110148714.271       -1541.339          46.000    20960589.948    85830100.755       -1201.007          44.000  
G03  24322360.576   127814864.820       -2853.268          38.000    24322354.882    99595981.982       -2223.421          36.000  
C16  36733562.733   191281278.253           1.366          47.000    36733549.597   147910778.144           0.990          47.000  
C19  23625272.054   123022975.044       -1954.154          47.000                                                                  
C27  23699897.741   123411572.067        1320.331          44.000                                                                  
C06  36291210.169   188977843.674          -0.803          46.000    36291190.738   146129593.323          -0.619          48.000  
C09  37382550.687   194660732.625         104.188          45.000    37382534.051   150523973.818          80.518          48.000  
C22  24694437.631   128590405.162         884.075          43.000                                                                  
G26  20700596.772   108782374.517       -1814.532          46.000    20700586.889    84765442.159       -1413.922          45.000  
G27  22159460.044   116448756.825        3134.614          42.000    22159451.637    90739253.986        2442.703          43.000  
G09  24123960.551   126772272.099        2893.902          34.000    24123952.245    98783511.279        2255.350          35.000  
C28  24670458.578   128465560.164        -820.605          38.000                                                                  
C07  38107777.155   198437175.758         831.455          41.000    38107757.904   153444155.146         643.489          45.000  
C20  25274723.855   131612112.489       -3592.209          38.000                                                                  
C36  23975767.041   124848093.222        1453.168          44.000                                                                  
C37  24824589.347   129268155.010       -2368.472          38.000                                                                  
C10  39231859.317   204290565.786         761.779          38.000    39231846.165   157970386.955         588.859          44.000  
G32  25596542.310                       -4163.736          30.000    25596561.260                       -3245.456          27.000  
G08  24471858.474   128600490.508        3628.900          34.000    24471861.144   100208181.643        2827.754          38.000  
G29  25023912.800   131501551.795       -3465.805          37.000    25023904.839                       -2700.667          31.000  
C30  25366922.141   132092210.722        2768.757          40.000                                                                  
G18                                                                  25279553.364                        1158.246          32.000  
C13                                                                  40560634.555   163320847.251       -1896.324          40.000  
C08                                                                  41481468.607   167028664.133       -1858.543          40.000  
> 2025 11 03 07 35 53.3200000  0 27                     
G04  21499740.490   112981905.697        1376.116          45.000    21499729.546    88037795.358        1072.356          46.000  
G16  20213511.082   106222721.849         397.507          47.000                                                                  
G28  22852879.276   120092689.275       -2583.813          40.000    22852868.152    93578666.913       -2013.490          41.000  
G31  20960614.843   110148775.917       -1541.266          46.000    20960601.665    85830148.790       -1200.958          44.000  
G03  24322382.292   127814978.927       -2852.974          38.000    24322376.600    99596070.889       -2223.066          36.000  
C16  36733562.738   191281278.201           1.256          47.000    36733549.591   147910778.101           0.969          47.000  
C19  23625287.086   123023053.207       -1954.183          47.000                                                                  
C27  23699887.597   123411519.251        1320.300          44.000                                                                  
C06  36291210.177   188977843.691          -0.612          46.000    36291190.757   146129593.343          -0.596          48.000  
C09  37382549.882   194660728.458         104.114          45.000    37382533.240   150523970.602          80.335          48.000  
C22  24694430.833   128590369.796         884.038          43.000                                                                  
G26  20700610.571   108782447.090       -1814.471          46.000    20700600.690    84765498.707       -1413.825          45.000  
G27  22159436.178   116448631.431        3134.695          42.000    22159427.777    90739156.272        2442.801          43.000  
G09  24123938.514   126772156.347        2893.724          34.000    24123930.225    98783421.077        2255.229          35.000  
C28  24670464.883   128465592.986        -820.560          38.000                                                                  
C07  38107770.768   198437142.457         832.070          41.000    38107751.533   153444129.405         643.538          45.000  
C20  25274751.456   131612256.158       -3591.976          38.000                                                                  
C36  23975755.868   124848035.094        1453.156          44.000                                                                  
C37  24824607.544   129268249.751       -2368.506          38.000                                                                  
C10  39231853.457   204290535.331         761.454          38.000    39231840.325   157970363.389         588.978          44.000  
G32  25596574.042                       -4165.382          29.000    25596592.989                       -3245.459          27.000  
G08  24471830.845   128600345.344        3628.944          34.000    24471833.547   100208068.520        2827.961          38.000  
G29  25023939.166   131501690.411       -3465.573          37.000    25023931.246                       -2701.715          31.000  
C30  25366900.852   132092099.969        2768.864          40.000                                                                  
G18                                                                  25279542.091   103515505.9641       1158.495          33.000  
C13                                                                  40560653.398   163320923.107       -1896.412          40.000  
C08                                                                  41481487.071   167028738.477       -1858.594          40.000  
> 2025 11 03 07 35 53.3600000  0 27                     
G04  21499730.005   112981850.642        1376.240          45.000    21499719.082    88037752.458        1072.407          46.000  
G16  20213508.032   106222705.938         397.675          47.000                                                                  
G28  22852898.931   120092792.602       -2583.371          40.000    22852887.812    93578747.438       -2013.335          41.000  
G31  20960626.552   110148837.563       -1541.217          46.000    20960613.390    85830196.828       -1200.952          44.000  
G03  24322404.018   127815093.049       -2853.024          38.000    24322398.310    99596159.805       -2222.955          36.000  
C16  36733562.734   191281278.134           1.499          47.000    36733549.567   147910778.051           1.122          47.000  
C19  23625302.113   123023131.366       -1954.084          47.000                                                                  
C27  23699877.480   123411466.425        1320.526          44.000                                                                  
C06  36291210.190   188977843.712          -0.547          46.000    36291190.735   146129593.355          -0.396          48.000  
C09  37382549.089   194660724.286         104.201          45.000    37382532.442   150523967.378          80.443          48.000  
C22  24694424.060   128590334.427         884.132          43.000                                                                  
G26  20700624.378   108782519.664       -1814.380          46.000    20700614.496    84765555.254       -1413.739          45.000  
G27  22159412.305   116448506.030        3134.919          42.000    22159403.929    90739058.563        2442.768          43.000  
G09  24123916.498   126772040.581        2893.971          34.000    24123908.175    98783330.847        2255.609          35.000  
C28  24670471.193   128465625.802        -820.447          38.000                                                                  
C07  38107764.409   198437109.158         832.405          41.000    38107745.146   153444103.659         643.649          45.000  
C20  25274779.053   131612399.833       -3591.918          38.000                                                                  
C36  23975744.709   124847976.955        1453.388          44.000                                                                  
C37  24824625.744   129268344.492       -2368.544          38.000                                                                  
C10  39231847.594   204290504.851         761.748          38.000    39231834.439   157970339.817         589.159          44.000  
G32  25596605.747                       -4164.982          29.000    25596624.681                       -3245.146          27.000  
G08  24471803.187   128600200.204        3628.668          34.000    24471805.923   100207955.408        2827.899          38.000  
G29  25023965.547   131501829.022       -3465.385          37.000    25023957.628                       -2700.528          31.000  
C30  25366879.590   132091989.223        2768.777          40.000                                                                  
G18                                                                  25279530.652   103515459.623        1158.496          33.000  
C13                                                                  40560672.209   163320998.950       -1896.174          40.000  
C08                                                                  41481505.539   167028812.819       -1858.594          40.000  
> 2025 11 03 07 35 53.4000000  0 27                     
G04  21499719.547   112981795.594        1376.166          45.000    21499708.626    88037709.564        1072.348          46.000  
G16  20213505.023   106222690.039         397.519          47.000                                                                  
G28  22852918.613   120092895.940       -2583.415          40.000    22852907.470    93578827.961       -2013.157          41.000  
G31  20960638.277   110148899.215       -1541.272          46.000    20960625.116    85830244.870       -1201.050          44.000  
G03  24322425.739   127815207.163       -2852.958          38.000    24322420.037    99596248.717       -2222.805          36.000  
C16  36733562.718   191281278.071           1.561          47.000    36733549.570   147910778.003           1.158          47.000  
C19  23625317.132   123023209.527       -1954.084          47.000                                                                  
C27  23699867.331   123411413.612        1320.404          44.000                                                                  
C06  36291210.178   188977843.744          -0.741          46.000    36291190.729   146129593.370          -0.375          48.000  
C09  37382548.273   194660720.117         104.149          45.000    37382531.649   150523964.153          80.541          48.000  
C22  24694417.291   128590299.066         884.042          43.000                                                                  
G26  20700638.180   108782592.232       -1814.276          46.000    20700628.305    84765611.802       -1413.739          45.000  
G27  22159388.473   116448380.650        3134.637          42.000    22159380.075    90738960.853        2442.774          43.000  
G09  24123894.468   126771924.836        2893.648          34.000    24123886.164    98783240.657        2255.100          35.000  
C28  24670477.483   128465658.651        -821.034          38.000                                                                  
C07  38107758.007   198437075.872         832.283          41.000    38107738.763   153444077.927         643.424          45.000  
C20  25274806.644   131612543.519       -3592.120          38.000                                                                  
C36  23975733.521   124847918.830        1453.217          44.000                                                                  
C37  24824643.943   129268439.224       -2368.442          38.000                                                                  
C10  39231841.740   204290474.375         761.831          38.000    39231828.561   157970316.250         589.174          44.000  
G32  25596637.434                       -4165.275          29.000    25596656.385                       -3245.039          27.000  
G08  24471775.546   128600055.043        3628.728          34.000    24471778.295   100207842.316        2827.492          38.000  
G29  25023991.971   131501967.645       -3465.486          37.000    25023983.999                       -2700.381          32.000  
C30  25366858.339   132091878.489        2768.514          40.000                                                                  
G18                                                                  25279519.326   103515413.283        1158.429          33.000  
C13                                                                  40560691.038   163321074.812       -1896.405          40.000  
C08                                                                  41481523.995   167028887.185       -1858.957          40.000  
> 2025 11 03 07 35 53.4400000  0 27                     
G04  21499709.072   112981740.549        1376.068          45.000    21499698.163    88037666.676        1072.183          46.000  
G16  20213502.015   106222674.141         397.427          47.000                                                                  
G28  22852938.298   120092999.295       -2583.762          40.000    22852927.127    93578908.495       -2013.303          41.000  
G31  20960650.025   110148960.872       -1541.437          46.000    20960636.854    85830292.908       -1201.019          44.000  
G03  24322447.439   127815321.276       -2852.880          38.000    24322441.763    99596337.647       -2223.113          36.000  
C16  36733562.697   191281278.012           1.532          47.000    36733549.583   147910777.963           1.020          47.000  
C19  23625332.131   123023287.696       -1954.220          47.000                                                                  
C27  23699857.191   123411360.800        1320.300          44.000                                                                  
C06  36291210.178   188977843.777          -0.863          46.000    36291190.751   146129593.399          -0.642          48.000  
C09  37382547.482   194660715.950         104.132          45.000    37382530.842   150523960.929          80.552          48.000  
C22  24694410.511   128590263.707         883.966          43.000                                                                  
G26  20700652.000   108782664.815       -1814.490          46.000    20700642.109    84765668.362       -1413.977          45.000  
G27  22159364.614   116448255.255        3134.736          41.000    22159356.204    90738863.158        2442.496          43.000  
G09  24123872.469   126771809.060        2894.013          34.000    24123864.160    98783150.473        2254.660          35.000  
C28  24670483.804   128465691.479        -820.915          38.000                                                                  
C07  38107751.609   198437042.603         831.871          41.000    38107732.382   153444052.206         643.107          45.000  
C20  25274834.221   131612687.207       -3592.278          38.000                                                                  
C36  23975722.324   124847860.719        1452.832          44.000                                                                  
C37  24824662.145   129268533.955       -2368.394          38.000                                                                  
C10  39231835.887   204290443.904         761.729          38.000    39231822.758   157970292.692         588.991          44.000  
G32  25596669.131                       -4164.797          29.000    25596688.096                       -3245.338          27.000  
G08  24471747.917   128599909.898        3628.439          34.000    24471750.662   100207729.215        2827.389          38.000  
G29  25024018.346   131502106.287       -3465.935          37.000    25024010.378                       -2700.312          32.000  
C30  25366837.053   132091767.763        2768.184          40.000                                                                  
G18                                                                  25279507.990   103515366.967        1157.968          33.000  
C13                                                                  40560709.876   163321150.681       -1896.748          40.000  
C08                                                                  41481542.440   167028961.543       -1859.030          40.000  
> 2025 11 03 07 35 53.4800000  0 27                     
G04  21499698.614   112981685.517        1375.824          45.000    21499687.709    88037623.790        1072.091          46.000  
G16  20213499.009   106222658.256         397.173          47.000                                                                  
G28  22852957.978   120093102.645       -2583.828          40.000    22852946.810    93578989.025       -2013.290          41.000  
G31  20960661.765   110149022.534       -1541.583          46.000    20960648.584    85830340.956       -1201.196          44.000  
G03  24322469.150   127815435.408       -2853.228          38.000    24322463.480    99596426.582       -2223.414          36.000  
C16  36733562.683   191281277.968           1.211          47.000    36733549.568   147910777.930           0.820          47.000  
C19  23625347.132   123023365.874       -1954.435          47.000                                                                  
C27  23699847.046   123411307.997        1320.093          44.000                                                                  
C06  36291210.152   188977843.807          -0.878          46.000    36291190.790   146129593.430          -0.809          48.000  
C09  37382546.685   194660711.793         103.967          45.000    37382530.056   150523957.714          80.417          48.000  
C22  24694403.719   128590228.362         883.642          43.000                                                                  
G26  20700665.840   108782737.404       -1814.728          46.000    20700655.931    84765724.927       -1414.136          45.000  
G27  22159340.755   116448129.889        3134.292          41.000    22159332.362    90738765.468        2442.242          43.000  
G09  24123850.434   126771693.317        2893.690          34.000    24123842.138    98783060.304        2254.171          35.000  
C28  24670490.117   128465724.331        -821.298          38.000                                                                  
C07  38107745.217   198437009.338         831.569          41.000    38107725.984   153444026.479         643.054          45.000  
C20  25274861.806   131612830.904       -3592.491          38.000                                                                  
C36  23975711.163   124847802.605        1452.740          44.000                                                                  
C37  24824680.351   129268628.705       -2368.661          38.000                                                                  
C10  39231830.041   204290413.434         761.748          38.000    39231816.926   157970269.146         588.691          44.000  
G32  25596700.838                       -4166.232          29.000    25596719.810                       -3245.400          28.000  
G08  24471720.308   128599764.724        3628.928          34.000    24471723.032   100207616.114        2827.391          38.000  
G29  25024044.732   131502244.940       -3466.338          37.000    25024036.758                       -2700.922          32.000  
C30  25366815.788   132091657.030        2768.179          40.000                                                                  
G18                                                                  25279496.681   103515320.641        1157.918          33.000  
C13                                                                  40560728.711   163321226.543       -1896.742          40.000  
C08                                                                  41481560.936   167029035.906       -1859.090          40.000  
> 2025 11 03 07 35 53.5200000  0 27                     
G04  21499688.159   112981630.492        1375.605          45.000    21499677.235    88037580.912        1071.900          46.000  
G16  20213495.977   106222642.369         397.082          47.000                                                                  
G28  22852977.620   120093206.000       -2583.951          40.000    22852966.466    93579069.560       -2013.416          41.000  
G31  20960673.497   110149084.198       -1541.675          46.000    20960660.294    85830389.012       -1201.416          44.000  
G03  24322490.889   127815549.537       -2853.331          38.000    24322485.194    99596515.545       -2224.100          36.000  
C16  36733562.677   191281277.927           0.982          47.000    36733549.562   147910777.896           0.756          47.000  
C19  23625362.144   123023444.057       -1954.643          47.000                                                                  
C27  23699836.900   123411255.195        1319.989          44.000                                                                  
C06  36291210.154   188977843.848          -1.064          46.000    36291190.797   146129593.463          -0.918          48.000  
C09  37382545.861   194660707.642         103.760          45.000    37382529.265   150523954.505          80.234          48.000  
C22  24694396.925   128590193.017         883.530          43.000                                                                  
G26  20700679.682   108782809.999       -1814.923          46.000    20700669.741    84765781.494       -1414.258          45.000  
G27  22159316.918   116448004.516        3134.191          41.000    22159308.504    90738667.782        2442.055          43.000  
G09  24123828.355   126771577.569        2893.620          35.000    24123820.109    98782970.100        2254.624          35.000  
C28  24670496.421   128465757.176        -821.351          38.000                                                                  
C07  38107738.811   198436976.071         831.523          41.000    38107719.599   153444000.748         643.188          45.000  
C20  25274889.391   131612974.604       -3592.590          38.000                                                                  
C36  23975699.991   124847744.506        1452.441          44.000                                                                  
C37  24824698.561   129268723.455       -2368.769          38.000                                                                  
C10  39231824.160   204290382.976         761.539          38.000    39231811.047   157970245.597         588.631          44.000  
G32  25596732.547                       -4165.823          29.000    25596751.577                       -3245.959          28.000  
G08  24471692.657   128599619.549        3629.218          34.000    24471695.413   100207503.007        2827.543          38.000  
G29  25024071.095   131502383.580       -3466.222          37.000    25024063.135                       -2700.653          32.000  
C30  25366794.536   132091546.301        2768.092          40.000                                                                  
G18                                                                  25279485.292   103515274.333        1157.677          33.000  
C13                                                                  40560747.531   163321302.412       -1896.774          40.000  
C08                                                                  41481579.398   167029110.258       -1858.855          40.000  
> 2025 11 03 07 35 53.5600000  0 27                     
G04  21499677.706   112981575.465        1375.540          45.000    21499666.777    88037538.035        1071.804          46.000  
G16  20213492.950   106222626.490         396.929          47.000                                                                  
G28  22852997.282   120093309.354       -2583.948          40.000    22852986.144    93579150.101       -2013.552          41.000  
G31  20960685.218   110149145.855       -1541.565          46.000    20960672.020    85830437.065       -1201.434          44.000  
G03  24322512.619   127815663.687       -2853.722          38.000    24322506.918    99596604.457       -2223.380          36.000  
C16  36733562.679   191281277.889           0.849          47.000    36733549.545   147910777.863           0.721          47.000  
C19  23625377.190   123023522.235       -1954.605          47.000                                                                  
C27  23699826.760   123411202.396        1319.904          44.000                                                                  
C06  36291210.164   188977843.891          -1.161          46.000    36291190.769   146129593.491          -0.851          48.000  
C09  37382545.072   194660703.487         103.760          45.000    37382528.472   150523951.293          80.207          48.000  
C22  24694390.171   128590157.668         883.551          43.000                                                                  
G26  20700693.488   108782882.588       -1814.880          46.000    20700683.553    84765838.060       -1414.240          45.000  
G27  22159293.068   116447879.146        3134.151          41.000    22159284.662    90738570.091        2442.092          43.000  
G09  24123806.349   126771461.846        2893.152          35.000    24123798.074    98782879.909        2254.680          35.000  
C28  24670502.752   128465790.013        -821.207          38.000                                                                  
C07  38107732.418   198436942.810         831.388          41.000    38107713.196   153443975.021         643.144          45.000  
C20  25274916.989   131613118.288       -3592.328          38.000                                                                  
C36  23975688.820   124847686.388        1452.704          44.000                                                                  
C37  24824716.756   129268818.197       -2368.644          38.000                                                                  
C10  39231818.307   204290352.528         761.232          38.000    39231805.207   157970222.064         588.336          44.000  
G32  25596764.279                       -4163.669          29.000    25596783.256                       -3245.625          28.000  
G08  24471665.023   128599474.436        3628.360          35.000    24471667.776   100207389.921        2827.203          38.000  
G29  25024097.526   131502522.230       -3466.319          37.000    25024089.487                       -2700.436          32.000  
C30  25366773.270   132091435.562        2768.263          40.000                                                                  
G18                                                                  25279474.003   103515227.997        1158.043          33.000  
C13                                                                  40560766.372   163321378.263       -1896.480          40.000  
C08                                                                  41481597.849   167029184.626       -1859.028          40.000  
> 2025 11 03 07 35 53.6000000  0 27                     
G04  21499667.230   112981520.431        1375.688          45.000    21499656.307    88037495.151        1071.938          46.000  
G16  20213489.889   106222610.604         396.993          47.000                                                                  
G28  22853016.935   120093412.711       -2583.971          40.000    22853005.805    93579230.647       -2013.727          41.000  
G31  20960696.972   110149207.523       -1541.675          46.000    20960683.759    85830485.110       -1201.264          44.000  
G03  24322534.336   127815777.829       -2853.795          38.000    24322528.637    99596693.386       -2223.223          36.000  
C16  36733562.675   191281277.841           0.976          47.000    36733549.536   147910777.817           0.948          47.000  
C19  23625392.237   123023600.412       -1954.518          47.000                                                                  
C27  23699816.601   123411149.598        1319.861          44.000                                                                  
C06  36291210.159   188977843.926          -1.034          46.000    36291190.787   146129593.524          -0.872          48.000  
C09  37382544.286   194660699.325         103.938          45.000    37382527.648   150523948.077          80.294          49.000  
C22  24694383.391   128590122.314         883.687          43.000                                                                  
G26  20700707.298   108782955.170       -1814.673          46.000    20700697.346    84765894.612       -1413.947          45.000  
G27  22159269.183   116447753.758        3134.507          41.000    22159260.809    90738472.385        2442.453          43.000  
G09  24123784.333   126771346.098        2893.345          35.000    24123776.054    98782789.707        2254.886          35.000  
C28  24670509.062   128465822.864        -821.321          38.000                                                                  
C07  38107726.015   198436909.543         831.515          41.000    38107706.785   153443949.299         643.051          45.000  
C20  25274944.594   131613261.992       -3592.526          38.000                                                                  
C36  23975677.644   124847628.272        1452.802          44.000                                                                  
C37  24824734.966   129268912.935       -2368.492          38.000                                                                  
C10  39231812.462   204290322.088         760.919          38.000    39231799.346   157970198.507         588.616          44.000  
G32  25596796.024                       -4164.903          29.000    25596814.934                       -3245.788          28.000  
G08  24471637.450   128599329.307        3628.164          35.000    24471640.127   100207276.803        2827.627          38.000  
G29  25024123.892   131502660.865       -3466.035          37.000    25024115.843                       -2701.087          32.000  
C30  25366752.005   132091324.841        2768.052          40.000                                                                  
G18                                                                  25279462.739   103515181.648        1158.535          33.000  
C13                                                                  40560785.230   163321454.127       -1896.506          40.000  
C08                                                                  41481616.317   167029258.986       -1859.065          40.000  
> 2025 11 03 07 35 53.6400000  0 27                     
G04  21499656.736   112981465.391        1375.887          45.000    21499645.816    88037452.265        1072.067          46.000  
G16  20213486.865   106222594.713         397.137          47.000                                                                  
G28  22853036.609   120093516.066       -2583.957          40.000    22853025.456    93579311.181       -2013.547          41.000  
G31  20960708.702   110149269.190       -1541.718          46.000    20960695.478    85830533.152       -1201.099          44.000  
G03  24322556.065   127815891.943       -2853.268          38.000    24322550.341    99596782.320       -2223.268          36.000  
C16  36733562.661   191281277.792           1.117          47.000    36733549.535   147910777.778           0.971          47.000  
C19  23625407.279   123023678.594       -1954.567          47.000                                                                  
C27  23699806.503   123411096.793        1320.007          44.000                                                                  
C06  36291210.191   188977843.970          -1.117          46.000    36291190.775   146129593.545          -0.693          48.000  
C09  37382543.475   194660695.166         103.982          45.000    37382526.850   150523944.862          80.327          49.000  
C22  24694376.606   128590086.961         883.793          43.000                                                                  
G26  20700721.086   108783027.752       -1814.581          46.000    20700711.155    84765951.170       -1413.934          45.000  
G27  22159245.332   116447628.386        3134.419          41.000    22159236.940    90738374.690        2442.394          43.000  
G09  24123762.331   126771230.351        2893.472          35.000    24123754.017    98782699.502        2255.088          35.000  
C28  24670515.371   128465855.696        -821.014          38.000                                                                  
C07  38107719.644   198436876.269         831.696          41.000    38107700.386   153443923.573         643.102          45.000  
C20  25274972.195   131613405.672       -3592.198          38.000                                                                  
C36  23975666.490   124847570.145        1453.064          44.000                                                                  
C37  24824753.142   129269007.693       -2368.802          38.000                                                                  
C10  39231806.603   204290291.628         761.164          38.000    39231793.490   157970174.950         588.808          44.000  
G32  25596827.758                       -4165.400          29.000    25596846.649                       -3245.789          28.000  
G08  24471609.859   128599184.174        3628.153          35.000    24471612.507   100207163.707        2827.483          38.000  
G29  25024150.274   131502799.504       -3466.049          37.000    25024142.246                       -2700.980          32.000  
C30  25366730.745   132091214.111        2768.134          40.000                                                                  
G18                                                                  25279451.537   103515135.318        1158.417          33.000  
C13                                                                  40560804.079   163321529.989       -1896.534          40.000  
C08                                                                  41481634.776   167029333.345       -1859.028          40.000  
> 2025 11 03 07 35 53.6800000  0 27                     
G04  21499646.276   112981410.361        1375.811          45.000    21499635.348    88037409.383        1072.058          46.000  
G16  20213483.846   106222578.828         397.131          47.000                                                                  
G28  22853056.288   120093619.430       -2584.062          40.000    22853045.126    93579391.723       -2013.558          41.000  
G31  20960720.433   110149330.854       -1541.663          46.000    20960707.214    85830581.206       -1201.300          44.000  
G03  24322577.774   127816006.060       -2853.054          38.000    24322572.086    99596871.263       -2223.463          36.000  
C16  36733562.660   191281277.745           1.162          47.000    36733549.536   147910777.744           0.878          47.000  
C19  23625422.303   123023756.778       -1954.634          47.000                                                                  
C27  23699796.388   123411043.986        1320.105          44.000                                                                  
C06  36291210.189   188977844.004          -0.985          46.000    36291190.797   146129593.577          -0.748          48.000  
C09  37382542.667   194660691.006         103.999          45.000    37382526.087   150523941.637          80.531          49.000  
C22  24694369.833   128590051.616         883.708          43.000                                                                  
G26  20700734.916   108783100.346       -1814.777          46.000    20700724.970    84766007.746       -1414.301          45.000  
G27  22159221.483   116447503.016        3134.287          41.000    22159213.089    90738276.992        2442.439          43.000  
G09  24123740.317   126771114.612        2893.461          35.000    24123731.985    98782609.327        2254.689          35.000  
C28  24670521.694   128465888.543        -821.068          38.000                                                                  
C07  38107713.284   198436842.992         831.857          41.000    38107694.011   153443897.847         643.127          45.000  
C20  25274999.810   131613549.378       -3592.510          38.000                                                                  
C36  23975655.329   124847512.030        1452.942          44.000                                                                  
C37  24824771.344   129269102.445       -2368.799          38.000                                                                  
C10  39231800.754   204290261.163         761.456          38.000    39231787.638   157970151.390         588.947          44.000  
G32  25596859.456                       -4164.908          29.000    25596878.357                       -3245.803          28.000  
G08  24471582.226   128599038.989        3629.200          35.000    24471584.880   100207050.604        2827.452          38.000  
G29  25024176.671   131502938.157       -3466.261          37.000    25024168.619                       -2700.675          32.000  
C30  25366709.480   132091103.373        2768.360          40.000                                                                  
G18                                                                  25279440.206   103515088.986        1158.410          33.000  
C13                                                                  40560822.960   163321605.859       -1896.700          40.000  
C08                                                                  41481653.265   167029407.709       -1859.133          40.000  
> 2025 11 03 07 35 53.7200000  0 27                     
G04  21499635.812   112981355.340        1375.599          45.000    21499624.872    88037366.514        1071.842          46.000  
G16  20213480.826   106222562.947         397.037          47.000                                                                  
G28  22853075.946   120093722.787       -2583.947          40.000    22853064.779    93579472.252       -2013.357          41.000  
G31  20960732.162   110149392.520       -1541.663          46.000    20960718.958    85830629.260       -1201.416          44.000  
G03  24322599.516   127816120.206       -2853.417          38.000    24322593.817    99596960.222       -2223.866          36.000  
C16  36733562.662   191281277.694           1.215          47.000    36733549.506   147910777.706           0.891          47.000  
C19  23625437.343   123023834.960       -1954.609          47.000                                                                  
C27  23699786.261   123410991.190        1319.940          44.000                                                                  
C06  36291210.204   188977844.037          -0.880          46.000    36291190.797   146129593.602          -0.662          48.000  
C09  37382541.864   194660686.840         104.120          45.000    37382525.309   150523938.420          80.476          49.000  
C22  24694363.030   128590016.283         883.427          43.000                                                                  
G26  20700748.728   108783172.944       -1814.960          46.000    20700738.764    84766064.309       -1414.246          45.000  
G27  22159197.626   116447377.643        3134.310          41.000    22159189.225    90738179.303        2442.254          43.000  
G09  24123718.287   126770998.876        2893.368          35.000    24123709.965    98782519.171        2254.048          35.000  
C28  24670527.990   128465921.381        -821.020          38.000                                                                  
C07  38107706.878   198436809.731         831.574          41.000    38107687.594   153443872.123         643.102          45.000  
C20  25275027.413   131613693.084       -3592.626          38.000                                                                  
C36  23975644.151   124847453.928        1452.606          44.000                                                                  
C37  24824789.546   129269197.190       -2368.624          38.000                                                                  
C10  39231794.910   204290230.696         761.676          38.000    39231781.799   157970127.841         588.792          44.000  
G32  25596891.227                       -4165.649          29.000    25596910.057                       -3245.726          28.000  
G08  24471554.622   128598893.844        3628.992          35.000    24471557.259   100206937.503        2827.471          38.000  
G29  25024203.057   131503076.811       -3466.374          37.000    25024195.023                       -2700.747          32.000  
C30  25366688.200   132090992.640        2768.336          40.000                                                                  
G18                                                                  25279428.877   103515042.689        1157.722          33.000  
C13                                                                  40560841.797   163321681.731       -1896.864          40.000  
C08                                                                  41481671.719   167029482.070       -1859.126          40.000  
> 2025 11 03 07 35 53.7600000  0 27                     
G04  21499625.347   112981300.319        1375.493          45.000    21499614.390    88037323.637        1071.874          46.000  
G16  20213477.809   106222547.072         396.895          47.000                                                                  
G28  22853095.610   120093826.141       -2583.866          40.000    22853084.434    93579552.782       -2013.208          41.000  
G31  20960743.900   110149454.190       -1541.742          46.000    20960730.688    85830677.320       -1201.532          44.000  
G03  24322621.248   127816234.350       -2853.630          38.000    24322615.534    99597049.153       -2223.578          36.000  
C16  36733562.640   191281277.651           1.115          47.000    36733549.500   147910777.677           0.742          47.000  
C19  23625452.354   123023913.146       -1954.640          47.000                                                                  
C27  23699776.135   123410938.399        1319.745          44.000                                                                  
C06  36291210.244   188977844.077          -0.950          46.000    36291190.794   146129593.639          -0.828          48.000  
C09  37382541.070   194660682.688         103.885          45.000    37382524.492   150523935.210          80.314          49.000  
C22  24694356.218   128589980.942         883.394          43.000                                                                  
G26  20700762.550   108783245.543       -1815.045          46.000    20700752.581    84766120.889       -1414.478          45.000  
G27  22159173.774   116447252.258        3134.510          41.000    22159165.379    90738081.617        2442.102          43.000  
G09  24123696.262   126770883.123        2893.607          35.000    24123687.959    98782429.007        2253.936          35.000  
C28  24670534.293   128465954.247        -821.415          38.000                                                                  
C07  38107700.479   198436776.463         831.582          41.000    38107681.192   153443846.393         643.176          45.000  
C20  25275054.983   131613836.764       -3592.233          38.000                                                                  
C36  23975632.993   124847395.829        1452.429          44.000                                                                  
C37  24824807.720   129269291.953       -2368.943          38.000                                                                  
C10  39231789.076   204290200.262         761.146          38.000    39231775.960   157970104.297         588.635          44.000  
G32  25596922.950                       -4165.658          29.000    25596941.739                       -3245.745          28.000  
G08  24471527.020   128598748.695        3628.998          35.000    24471529.661   100206824.407        2827.372          38.000  
G29  25024229.454   131503215.463       -3466.421          37.000    25024221.417                       -2700.890          32.000  
C30  25366666.931   132090881.916        2768.147          40.000                                                                  
G18                                                                  25279417.574   103514996.364        1157.900          33.000  
C13                                                                  40560860.637   163321757.578       -1896.461          40.000  
C08                                                                  41481690.179   167029556.429       -1859.015          40.000  
> 2025 11 03 07 35 53.8000000  0 27                     
G04  21499614.866   112981245.290        1375.599          45.000    21499603.933    88037280.763        1071.815          46.000  
G16  20213474.775   106222531.190         396.958          47.000                                                                  
G28  22853115.279   120093929.520       -2584.295          40.000    22853104.117    93579633.324       -2013.411          41.000  
G31  20960755.643   110149515.853       -1541.632          46.000    20960742.410    85830725.371       -1201.385          44.000  
G03  24322642.968   127816348.473       -2853.345          38.000    24322637.257    99597138.051       -2222.766          36.000  
C16  36733562.634   191281277.602           1.155          47.000    36733549.507   147910777.643           0.773          47.000  
C19  23625467.385   123023991.326       -1954.559          47.000                                                                  
C27  23699766.006   123410885.603        1319.788          44.000                                                                  
C06  36291210.242   188977844.117          -0.990          46.000    36291190.807   146129593.667          -0.759          48.000  
C09  37382540.254   194660678.535         103.784          45.000    37382523.698   150523931.999          80.240          49.000  
C22  24694349.466   128589945.597         883.531          43.000                                                                  
G26  20700776.357   108783318.131       -1814.844          46.000    20700766.376    84766177.446       -1414.136          45.000  
G27  22159149.911   116447126.890        3134.292          41.000    22159141.527    90737983.928        2442.143          43.000  
G09  24123674.240   126770767.364        2893.928          35.000    24123665.931    98782338.785        2254.870          35.000  
C28  24670540.582   128465987.109        -821.597          38.000                                                                  
C07  38107694.085   198436743.190         831.733          41.000    38107674.818   153443820.668         643.138          45.000  
C20  25275082.580   131613980.456       -3592.251          38.000                                                                  
C36  23975621.813   124847337.714        1452.637          44.000                                                                  
C37  24824825.921   129269386.708       -2368.979          38.000                                                                  
C10  39231783.235   204290169.813         761.139          38.000    39231770.081   157970080.745         588.714          44.000  
G32  25596954.633                       -4165.433          29.000    25596973.429                       -3245.583          28.000  
G08  24471499.388   128598603.505        3629.669          35.000    24471502.053   100206711.296        2827.627          38.000  
G29  25024255.838   131503354.102       -3466.171          37.000    25024247.807                       -2701.337          32.000  
C30  25366645.666   132090771.191        2768.054          40.000                                                                  
G18                                                                  25279406.204   103514950.031        1158.173          33.000  
C13                                                                  40560879.471   163321833.438       -1896.470          40.000  
C08                                                                  41481708.636   167029630.799       -1859.194          40.000  
> 2025 11 03 07 35 53.8400000  0 27                     
G04  21499604.385   112981190.256        1375.757          45.000    21499593.469    88037237.883        1071.903          46.000  
G16  20213471.738   106222515.303         397.102          47.000                                                                  
G28  22853134.967   120094032.877       -2584.141          40.000    22853123.793    93579713.871       -2013.612          41.000  
G31  20960767.374   110149577.515       -1541.565          46.000    20960754.144    85830773.420       -1201.264          44.000  
G03  24322664.703   127816462.615       -2853.470          38.000    24322658.984    99597226.999       -2223.247          36.000  
C16  36733562.635   191281277.550           1.260          47.000    36733549.491   147910777.603           0.913          47.000  
C19  23625482.379   123024069.509       -1954.566          47.000                                                                  
C27  23699755.861   123410832.805        1319.849          44.000                                                                  
C06  36291210.246   188977844.151          -0.938          46.000    36291190.804   146129593.693          -0.709          48.000  
C09  37382539.459   194660674.373         103.930          45.000    37382522.917   150523928.784          80.287          49.000  
C22  24694342.667   128589910.243         883.772          43.000                                                                  
G26  20700790.179   108783390.722       -1814.801          46.000    20700780.188    84766234.008       -1414.032          45.000  
G27  22159126.054   116447001.521        3134.224          41.000    22159117.684    90737886.236        2442.229          43.000  
G09  24123652.215   126770651.625        2893.673          35.000    24123643.890    98782248.550        2255.708          35.000  
C28  24670546.897   128466019.944        -821.185          38.000                                                                  
C07  38107687.682   198436709.919         831.801          41.000    38107668.449   153443794.942         643.126          45.000  
C20  25275110.171   131614124.150       -3592.317          38.000                                                                  
C36  23975610.673   124847279.595        1452.863          44.000                                                                  
C37  24824844.102   129269481.452       -2368.682          38.000                                                                  
C10  39231777.391   204290139.329         761.812          38.000    39231764.241   157970057.186         588.874          44.000  
G32  25596986.351                       -4164.892          29.000    25597005.130                       -3245.583          28.000  
G08  24471471.776   128598458.393        3628.545          35.000    24471474.427   100206598.190        2827.695          38.000  
G29  25024282.220   131503492.732       -3465.858          37.000    25024274.186                       -2701.275          32.000  
C30  25366624.418   132090660.459        2768.147          40.000                                                                  
G18                                                                  25279394.894   103514903.716        1158.072          33.000  
C13                                                                  40560898.310   163321909.301       -1896.569          40.000  
C08                                                                  41481727.088   167029705.146       -1858.879          40.000  
> 2025 11 03 07 35 53.8800000  0 27                     
G04  21499593.927   112981135.223        1375.804          45.000    21499582.968    88037194.994        1072.098          46.000  
G16  20213468.721   106222499.418         397.120          47.000                                                                  
G28  22853154.618   120094136.219       -2583.719          40.000    22853143.447    93579794.412       -2013.578          41.000  
G31  20960779.115   110149639.182       -1541.632          46.000    20960765.882    85830821.462       -1201.099          44.000  
G03  24322686.427   127816576.754       -2853.486          38.000    24322680.683    99597315.919       -2223.065          36.000  
C16  36733562.632   191281277.504           1.165          47.000    36733549.497   147910777.554           1.145          47.000  
C19  23625497.383   123024147.694       -1954.615          47.000                                                                  
C27  23699745.724   123410780.008        1319.891          45.000                                                                  
C06  36291210.275   188977844.183          -0.865          46.000    36291190.796   146129593.717          -0.638          48.000  
C09  37382538.662   194660670.215         103.942          45.000    37382522.134   150523925.565          80.398          49.000  
C22  24694335.890   128589874.884         884.017          43.000                                                                  
G26  20700803.970   108783463.310       -1814.716          46.000    20700793.999    84766290.568       -1413.977          44.000  
G27  22159102.185   116446876.146        3134.300          41.000    22159093.826    90737788.539        2442.363          43.000  
G09  24123630.207   126770535.898        2893.264          35.000    24123621.865    98782158.362        2255.237          35.000  
C28  24670553.195   128466052.781        -820.960          38.000                                                                  
C07  38107681.305   198436676.641         831.924          41.000    38107662.071   153443769.217         643.107          45.000  
C20  25275137.761   131614267.826       -3592.037          38.000                                                                  
C36  23975599.497   124847221.475        1452.972          44.000                                                                  
C37  24824862.320   129269576.194       -2368.657          38.000                                                                  
C10  39231771.526   204290108.877         761.588          38.000    39231758.368   157970033.636         588.802          44.000  
G32  25597018.060                       -4164.674          29.000    25597036.814                       -3245.544          28.000  
G08  24471444.136   128598313.212        3629.087          35.000    24471446.795   100206485.079        2827.819          38.000  
G29  25024308.613   131503631.366       -3465.802          37.000    25024300.554                       -2701.115          32.000  
C30  25366603.165   132090549.720        2768.385          40.000                                                                  
G18                                                                  25279383.588   103514857.382        1158.321          33.000  
C13                                                                  40560917.166   163321985.166       -1896.657          40.000  
C08                                                                  41481745.548   167029779.495       -1858.645          40.000  
> 2025 11 03 07 35 53.9200000  0 27                     
G04  21499583.469   112981080.193        1375.739          45.000    21499572.505    88037152.115        1072.040          46.000  
G16  20213465.694   106222483.528         397.238          47.000                                                                  
G28  22853174.279   120094239.578       -2583.868          40.000    22853163.109    93579874.947       -2013.438          41.000  
G31  20960790.877   110149700.846       -1541.650          46.000    20960777.616    85830869.508       -1201.086          44.000  
G03  24322708.132   127816690.866       -2853.046          38.000    24322702.395    99597404.845       -2223.091          36.000  
C16  36733562.652   191281277.445           1.370          47.000    36733549.511   147910777.516           1.094          47.000  
C19  23625512.423   123024225.872       -1954.517          47.000                                                                  
C27  23699735.598   123410727.195        1320.209          45.000                                                                  
C06  36291210.283   188977844.208          -0.656          46.000    36291190.777   146129593.741          -0.608          48.000  
C09  37382537.859   194660666.049         104.088          45.000    37382521.342   150523922.337          80.633          49.000  
C22  24694329.100   128589839.547         883.657          43.000                                                                  
G26  20700817.784   108783535.900       -1814.722          46.000    20700807.820    84766347.131       -1414.050          45.000  
G27  22159078.315   116446750.771        3134.337          41.000    22159069.967    90737690.834        2442.573          43.000  
G09  24123608.187   126770420.165        2893.157          35.000    24123599.849    98782068.194        2254.522          35.000  
C28  24670559.493   128466085.627        -821.096          38.000                                                                  
C07  38107674.944   198436643.366         831.885          41.000    38107655.694   153443743.493         643.070          45.000  
C20  25275165.370   131614411.516       -3592.146          38.000                                                                  
C36  23975588.322   124847163.353        1453.064          44.000                                                                  
C37  24824880.511   129269670.941       -2368.667          38.000                                                                  
C10  39231765.683   204290078.415         761.581          39.000    39231752.532   157970010.080         588.846          44.000  
G32  25597049.749                       -4165.494          29.000    25597068.515                       -3245.404          28.000  
G08  24471416.527   128598168.076        3628.650          35.000    24471419.160   100206371.985        2827.492          38.000  
G29  25024334.995   131503769.997       -3465.778          37.000    25024326.923                       -2700.038          32.000  
C30  25366581.891   132090438.976        2768.552          40.000                                                                  
G18                                                                  25279372.285   103514811.048        1158.390          33.000  
C13                                                                  40560935.991   163322061.041       -1896.884          40.000  
C08                                                                  41481763.992   167029853.860       -1858.899          40.000  
> 2025 11 03 07 35 53.9600000  0 27                     
G04  21499573.003   112981025.172        1375.560          45.000    21499562.044    88037109.235        1071.978          46.000  
G16  20213462.679   106222467.645         397.136          47.000                                                                  
G28  22853193.946   120094342.915       -2583.562          40.000    22853182.775    93579955.477       -2013.289          41.000  
G31  20960802.603   110149762.509       -1541.602          46.000    20960789.365    85830917.563       -1201.318          44.000  
G03  24322729.861   127816804.988       -2853.007          38.000    24322724.105    99597493.809       -2223.691          36.000  
C16  36733562.644   191281277.396           1.284          47.000    36733549.497   147910777.476           1.029          47.000  
C19  23625527.431   123024304.053       -1954.548          47.000                                                                  
C27  23699725.438   123410674.397        1320.038          45.000                                                                  
C06  36291210.273   188977844.239          -0.688          46.000    36291190.766   146129593.767          -0.665          48.000  
C09  37382537.032   194660661.885         104.124          45.000    37382520.555   150523919.114          80.633          49.000  
C22  24694322.303   128589804.200         883.628          43.000                                                                  
G26  20700831.600   108783608.489       -1814.746          46.000    20700821.613    84766403.697       -1414.111          44.000  
G27  22159054.461   116446625.400        3134.271          41.000    22159046.119    90737593.137        2442.502          43.000  
G09  24123586.171   126770304.420        2893.455          35.000    24123577.824    98781978.041        2253.847          35.000  
C28  24670565.835   128466118.497        -821.629          38.000                                                                  
C07  38107668.528   198436610.095         831.823          41.000    38107649.295   153443717.757         643.289          45.000  
C20  25275192.963   131614555.214       -3592.357          38.000                                                                  
C36  23975577.174   124847105.238        1452.930          44.000                                                                  
C37  24824898.692   129269765.690       -2368.748          38.000                                                                  
C10  39231759.831   204290047.957         761.471          39.000    39231746.659   157969986.525         588.837          44.000  
G32  25597081.418                       -4165.087          30.000    25597100.214                       -3245.350          28.000  
G08  24471388.931   128598022.954        3628.188          35.000    24471391.537   100206258.881        2827.532          38.000  
G29  25024361.408   131503908.658       -3466.292          37.000    25024353.308                       -2700.473          32.000  
C30  25366560.611   132090328.232        2768.630          40.000                                                                  
G18                                                                  25279361.012   103514764.731        1158.138          33.000  
C13                                                                  40560954.805   163322136.881       -1896.340          40.000  
C08                                                                  41481782.455   167029928.213       -1858.844          40.000  
> 2025 11 03 07 35 54.0000000  0 27                     
G04  21499562.517   112980970.146        1375.581          45.000    21499551.555    88037066.362        1071.868          46.000  
G16  20213459.653   106222451.764         397.062          47.000                                                                  
G28  22853213.589   120094446.270       -2583.754          40.000    22853202.452    93580036.006       -2013.210          41.000  
G31  20960814.328   110149824.173       -1541.614          46.000    20960801.114    85830965.618       -1201.398          44.000  
G03  24322751.590   127816919.116       -2853.073          38.000    24322745.838    99597582.743       -2223.525          36.000  
C16  36733562.626   191281277.344           1.292          47.000    36733549.488   147910777.439           0.930          47.000  
C19  23625542.451   123024382.240       -1954.653          47.000                                                                  
C27  23699715.299   123410621.598        1319.983          45.000                                                                  
C06  36291210.243   188977844.272          -0.752          46.000    36291190.781   146129593.793          -0.699          48.000  
C09  37382536.211   194660657.716         104.210          45.000    37382519.742   150523915.896          80.533          49.000  
C22  24694315.516   128589768.858         883.538          43.000                                                                  
G26  20700845.413   108783681.077       -1814.734          46.000    20700835.406    84766460.265       -1414.209          44.000  
G27  22159030.602   116446500.021        3134.368          41.000    22159022.266    90737495.444        2442.363          43.000  
G09  24123564.109   126770188.671        2893.586          35.000    24123555.800    98781887.859        2254.188          35.000  
C28  24670572.136   128466151.337        -821.284          38.000                                                                  
C07  38107662.143   198436576.817         831.917          41.000    38107642.898   153443692.026         643.299          45.000  
C20  25275220.584   131614698.904       -3592.341          38.000                                                                  
C36  23975566.010   124847047.120        1452.917          44.000                                                                  
C37  24824916.890   129269860.434       -2368.679          38.000                                                                  
C10  39231753.970   204290017.494         761.593          39.000    39231740.808   157969962.964         588.949          44.000  
G32  25597113.152                       -4165.145          30.000    25597131.921                       -3245.017          28.000  
G08  24471361.306   128597877.795        3628.560          35.000    24471363.913   100206145.790        2827.393          38.000  
G29  25024387.811   131504047.312       -3466.471          37.000    25024379.701   102470658.2161      -2700.855          32.000  
C30  25366539.321   132090217.490        2768.601          40.000                                                                  
G18                                                                  25279349.717   103514718.418        1157.950          33.000  
C13                                                                  40560973.663   163322212.740       -1896.376          40.000  
C08                                                                  41481800.948   167030002.571       -1858.899          40.000  
> 2025 11 03 07 35 54.0400000  0 27                     
G04  21499552.045   112980915.119        1375.616          45.000    21499541.081    88037023.480        1071.930          46.000  
G16  20213456.615   106222435.878         397.125          47.000                                                                  
G28  22853233.273   120094549.636       -2584.010          40.000    22853222.112    93580116.542       -2013.300          41.000  
G31  20960826.046   110149885.833       -1541.547          46.000    20960812.869    85831013.664       -1201.233          44.000  
G03  24322773.311   127817033.241       -2853.044          38.000    24322767.548    99597671.670       -2223.257          36.000  
C16  36733562.612   191281277.285           1.395          47.000    36733549.463   147910777.392           1.056          47.000  
C19  23625557.446   123024460.412       -1954.437          47.000                                                                  
C27  23699705.159   123410568.792        1320.068          45.000                                                                  
C06  36291210.237   188977844.306          -0.833          46.000    36291190.806   146129593.814          -0.605          48.000  
C09  37382535.406   194660653.542         104.329          45.000    37382518.928   150523912.672          80.546          49.000  
C22  24694308.744   128589733.510         883.608          43.000                                                                  
G26  20700859.207   108783753.657       -1814.581          46.000    20700849.209    84766516.816       -1413.910          44.000  
G27  22159006.733   116446374.641        3134.464          41.000    22158998.416    90737397.754        2442.229          43.000  
G09  24123542.071   126770072.915        2893.762          35.000    24123533.773    98781797.652        2254.833          35.000  
C28  24670578.447   128466184.184        -821.227          38.000                                                                  
C07  38107655.764   198436543.545         831.867          41.000    38107636.506   153443666.293         643.336          45.000  
C20  25275248.144   131614842.590       -3592.204          38.000                                                                  
C36  23975554.865   124846989.000        1452.960          44.000                                                                  
C37  24824935.071   129269955.171       -2368.483          38.000                                                                  
C10  39231748.131   204289987.021         761.752          39.000    39231734.935   157969939.402         589.013          44.000  
G32  25597144.851                       -4164.868          30.000    25597163.604                       -3244.420          28.000  
G08  24471333.702   128597732.637        3628.889          35.000    24471336.286   100206032.687        2827.418          38.000  
G29  25024414.183   131504185.948       -3466.144          37.000    25024406.090   102470766.299       -2701.797          32.000  
C30  25366518.045   132090106.756        2768.418          40.000                                                                  
G18                                                                  25279338.392   103514672.075        1158.295          33.000  
C13                                                                  40560992.524   163322288.599       -1896.350          40.000  
C08                                                                  41481819.409   167030076.923       -1858.869          40.000  
> 2025 11 03 07 35 54.0800000  0 27                     
G04  21499541.569   112980860.075        1375.911          45.000    21499530.614    88036980.596        1072.037          46.000  
G16  20213453.572   106222419.990         397.187          47.000                                                                  
G28  22853252.928   120094652.978       -2583.706          40.000    22853241.778    93580197.071       -2013.250          41.000  
G31  20960837.753   110149947.486       -1541.364          46.000    20960824.594    85831061.698       -1200.934          44.000  
G03  24322795.034   127817147.364       -2853.008          38.000    24322789.238    99597760.578       -2222.820          36.000  
C16  36733562.611   191281277.220           1.574          47.000    36733549.462   147910777.346           1.119          47.000  
C19  23625572.470   123024538.580       -1954.234          47.000                                                                  
C27  23699694.998   123410515.984        1320.190          45.000                                                                  
C06  36291210.282   188977844.323          -0.574          46.000    36291190.812   146129593.827          -0.415          48.000  
C09  37382534.596   194660649.367         104.422          45.000    37382518.130   150523909.441          80.706          49.000  
C22  24694301.964   128589698.157         883.751          43.000                                                                  
G26  20700873.024   108783826.237       -1814.496          46.000    20700863.007    84766573.369       -1413.861          44.000  
G27  22158982.869   116446249.257        3134.558          41.000    22158974.555    90737300.055        2442.343          43.000  
G09  24123520.045   126769957.150        2894.097          35.000    24123511.752    98781707.437        2255.387          35.000  
C28  24670584.748   128466217.006        -820.767          38.000                                                                  
C07  38107649.386   198436510.259         832.078          41.000    38107630.115   153443640.554         643.447          45.000  
C20  25275275.764   131614986.256       -3591.736          38.000                                                                  
C36  23975543.711   124846930.872        1453.125          44.000                                                                  
C37  24824953.284   129270049.900       -2368.287          38.000                                                                  
C10  39231742.253   204289956.541         761.954          39.000    39231729.109   157969915.843         589.003          44.000  
G32  25597176.519                       -4164.636          30.000    25597195.273                       -3244.965          28.000  
G08  24471306.089   128597587.437        3629.858          35.000    24471308.673   100205919.574        2827.656          38.000  
G29  25024440.559   131504324.571       -3465.772          37.000    25024432.480   102470874.297       -2700.644          32.000  
C30  25366496.781   132089996.022        2768.325          40.000                                                                  
G18                                                                  25279327.080   103514625.740        1158.367          33.000  
C13                                                                  40561011.364   163322364.439       -1896.094          40.000  
C08                                                                  41481837.876   167030151.265       -1858.635          40.000  
> 2025 11 03 07 35 54.1200000  0 27                     
G04  21499531.083   112980805.039        1375.928          45.000    21499520.145    88036937.702        1072.307          46.000  
G16  20213450.542   106222404.091         397.385          47.000                                                                  
G28  22853272.606   120094756.337       -2583.884          40.000    22853261.447    93580277.595       -2013.125          41.000  
G31  20960849.482   110150009.139       -1541.315          46.000    20960836.338    85831109.737       -1200.885          44.000  
G03  24322816.753   127817261.488       -2853.102          38.000    24322810.947    99597849.506       -2222.933          36.000  
C16  36733562.602   191281277.149           1.729          47.000    36733549.459   147910777.290           1.311          47.000  
C19  23625587.465   123024616.751       -1954.229          47.000                                                                  
C27  23699684.847   123410463.177        1320.215          45.000                                                                  
C06  36291210.285   188977844.347          -0.562          46.000    36291190.798   146129593.843          -0.363          48.000  
C09  37382533.777   194660645.194         104.372          45.000    37382517.335   150523906.208          80.823          49.000  
C22  24694295.209   128589662.795         883.976          43.000                                                                  
G26  20700886.830   108783898.816       -1814.447          46.000    20700876.818    84766629.920       -1413.776          44.000  
G27  22158959.012   116446123.862        3134.820          41.000    22158950.689    90737202.348        2442.582          43.000  
G09  24123498.012   126769841.387        2894.152          35.000    24123489.716    98781617.217        2255.685          35.000  
C28  24670591.042   128466249.851        -820.922          38.000                                                                  
C07  38107642.983   198436476.975         832.113          41.000    38107623.736   153443614.807         643.613          45.000  
C20  25275303.348   131615129.942       -3591.871          38.000                                                                  
C36  23975532.557   124846872.737        1453.333          44.000                                                                  
C37  24824971.475   129270144.630       -2368.233          38.000                                                                  
C10  39231736.413   204289926.054         762.126          39.000    39231723.245   157969892.281         589.029          44.000  
G32  25597208.216                       -4164.655          30.000    25597226.989                       -3245.193          28.000  
G08  24471278.450   128597442.284        3629.365          35.000    24471281.048   100205806.436        2828.267          38.000  
G29  25024466.943   131504463.196       -3465.655          37.000    25024458.832   102470982.276       -2699.647          32.000  
C30  25366475.537   132089885.262        2768.756          40.000                                                                  
G18                                                                  25279315.737   103514579.414        1158.176          34.000  
C13                                                                  40561030.224   163322440.301       -1896.400          40.000  
C08                                                                  41481856.328   167030225.605       -1858.481          40.000  
> 2025 11 03 07 35 54.1600000  0 27                     
G04  21499520.596   112980749.992        1376.107          45.000    21499509.677    88036894.812        1072.314          46.000  
G16  20213447.510   106222388.182         397.644          47.000                                                                  
G28  22853292.248   120094859.669       -2583.481          40.000    22853281.107    93580358.114       -2012.930          41.000  
G31  20960861.206   110150070.782       -1541.107          46.000    20960848.079    85831157.774       -1200.873          44.000  
G03  24322838.455   127817375.594       -2852.747          38.000    24322832.669    99597938.414       -2222.768          36.000  
C16  36733562.604   191281277.073           1.905          47.000    36733549.453   147910777.237           1.344          47.000  
C19  23625602.469   123024694.915       -1954.100          47.000                                                                  
C27  23699674.734   123410410.359        1320.435          45.000                                                                  
C06  36291210.298   188977844.351          -0.225          46.000    36291190.790   146129593.854          -0.304          48.000  
C09  37382532.990   194660641.014         104.479          45.000    37382516.559   150523902.975          80.839          49.000  
C22  24694288.412   128589627.430         884.118          43.000                                                                  
G26  20700900.626   108783971.388       -1814.301          46.000    20700890.631    84766686.476       -1413.843          45.000  
G27  22158935.147   116445998.474        3134.771          41.000    22158926.837    90737104.636        2442.778          43.000  
G09  24123475.980   126769725.607        2894.469          35.000    24123467.675    98781527.015        2255.320          35.000  
C28  24670597.338   128466282.689        -820.920          38.000                                                                  
C07  38107636.615   198436443.673         832.491          41.000    38107617.326   153443589.053         643.835          45.000  
C20  25275330.958   131615273.616       -3591.787          38.000                                                                  
C36  23975521.419   124846814.603        1453.418          44.000                                                                  
C37  24824989.675   129270239.360       -2368.178          38.000                                                                  
C10  39231730.573   204289895.587         761.863          39.000    39231717.387   157969868.705         589.297          44.000  
G32  25597239.972                       -4165.560          30.000    25597258.685                       -3245.547          28.000  
G08  24471250.829   128597297.085        3629.962          35.000    24471253.417   100205693.296        2828.622          38.000  
G29  25024493.364   131504601.843       -3465.992          37.000    25024485.211                       -2700.096          32.000  
C30  25366454.277   132089774.507        2768.890          40.000                                                                  
G18                                                                  25279304.411   103514533.068        1158.485          34.000  
C13                                                                  40561049.060   163322516.136       -1896.069          40.000  
C08                                                                  41481874.774   167030299.933       -1858.205          40.000  
> 2025 11 03 07 35 54.2000000  0 27                     
G04  21499510.135   112980694.946        1376.193          45.000    21499499.196    88036851.930        1072.178          46.000  
G16  20213444.502   106222372.287         397.517          47.000                                                                  
G28  22853311.927   120094962.998       -2583.254          40.000    22853300.769    93580438.643       -2013.041          41.000  
G31  20960872.912   110150132.432       -1541.144          46.000    20960859.818    85831205.813       -1200.928          44.000  
G03  24322860.173   127817489.714       -2852.885          38.000    24322854.383    99598027.353       -2223.323          36.000  
C16  36733562.614   191281276.991           2.078          47.000    36733549.439   147910777.174           1.507          47.000  
C19  23625617.461   123024773.079       -1954.039          47.000                                                                  
C27  23699664.602   123410357.535        1320.593          45.000                                                                  
C06  36291210.272   188977844.357          -0.098          46.000    36291190.800   146129593.860          -0.170          48.000  
C09  37382532.210   194660636.825         104.694          45.000    37382515.759   150523899.744          80.830          49.000  
C22  24694281.618   128589592.070         884.117          43.000                                                                  
G26  20700914.455   108784043.961       -1814.258          46.000    20700904.425    84766743.024       -1413.733          44.000  
G27  22158911.306   116445873.080        3134.879          41.000    22158902.971    90737006.929        2442.769          43.000  
G09  24123453.949   126769609.851        2894.150          35.000    24123445.647    98781436.812        2255.042          35.000  
C28  24670603.651   128466315.524        -820.883          38.000                                                                  
C07  38107630.244   198436410.375         832.581          41.000    38107610.940   153443563.314         643.621          45.000  
C20  25275358.538   131615417.279       -3591.548          38.000                                                                  
C36  23975510.255   124846756.472        1453.375          44.000                                                                  
C37  24825007.869   129270334.083       -2368.078          38.000                                                                  
C10  39231724.737   204289865.109         761.845          39.000    39231711.502   157969845.140         589.219          44.000  
G32  25597271.697   134514562.522       -4164.556          30.000    25597290.401                       -3245.552          28.000  
G08  24471223.206   128597151.907        3629.773          35.000    24471225.792   100205580.173        2828.413          38.000  
G29  25024519.754   131504740.452       -3465.587          37.000    25024511.631   102471198.319       -2700.276          32.000  
C30  25366433.017   132089663.749        2768.967          40.000                                                                  
G18                                                                  25279293.063   103514486.732        1158.482          34.000  
C13                                                                  40561067.905   163322591.981       -1896.066          40.000  
C08                                                                  41481893.226   167030374.280       -1858.472          40.000  
> 2025 11 03 07 35 54.2400000  0 27                     
G04  21499499.659   112980639.904        1376.140          45.000    21499488.718    88036809.043        1072.156          46.000  
G16  20213441.480   106222356.396         397.360          47.000                                                                  
G28  22853331.594   120095066.333       -2583.272          40.000    22853320.422    93580519.178       -2013.274          41.000  
G31  20960884.652   110150194.081       -1541.199          46.000    20960871.569    85831253.858       -1201.123          44.000  
G03  24322881.892   127817603.815       -2852.604          38.000    24322876.107    99598116.257       -2222.928          36.000  
C16  36733562.591   191281276.926           1.788          47.000    36733549.416   147910777.115           1.479          47.000  
C19  23625632.462   123024851.249       -1954.157          47.000                                                                  
C27  23699654.464   123410304.717        1320.520          45.000                                                                  
C06  36291210.259   188977844.366          -0.129          46.000    36291190.805   146129593.873          -0.243          48.000  
C09  37382531.385   194660632.641         104.701          45.000    37382514.941   150523896.512          80.796          49.000  
C22  24694274.808   128589556.718         883.881          43.000                                                                  
G26  20700928.277   108784116.534       -1814.252          46.000    20700918.247    84766799.578       -1413.837          44.000  
G27  22158887.433   116445747.692        3134.817          41.000    22158879.122    90736909.211        2442.892          43.000  
G09  24123431.928   126769494.130        2893.339          35.000    24123423.599    98781346.597        2255.214          35.000  
C28  24670609.966   128466348.357        -820.834          38.000                                                                  
C07  38107623.830   198436377.090         832.304          41.000    38107604.542   153443537.578         643.446          45.000  
C20  25275386.145   131615560.946       -3591.562          38.000                                                                  
C36  23975499.095   124846698.334        1453.436          44.000                                                                  
C37  24825026.065   129270428.802       -2367.899          38.000                                                                  
C10  39231718.890   204289834.632         761.854          39.000    39231705.640   157969821.576         589.136          44.000  
G32  25597303.393   134514729.120       -4164.890          30.000    25597322.103                       -3245.224          28.000  
G08  24471195.570   128597006.754        3629.249          35.000    24471198.162   100205467.074        2827.770          38.000  
G29  25024546.119   131504879.077       -3465.653          37.000    25024538.036   102471306.380       -2701.235          32.000  
C30  25366411.757   132089552.985        2769.096          40.000                                                                  
G18                                                                  25279281.756   103514440.399        1158.363          34.000  
C13                                                                  40561086.742   163322667.820       -1896.031          40.000  
C08                                                                  41481911.709   167030448.632       -1858.737          40.000  
> 2025 11 03 07 35 54.2800000  0 27                     
G04  21499489.196   112980584.875        1375.861          45.000    21499478.262    88036766.157        1072.103          46.000  
G16  20213438.462   106222340.505         397.261          47.000                                                                  
G28  22853351.280   120095169.678       -2583.501          40.000    22853340.098    93580599.698       -2013.090          41.000  
G31  20960896.387   110150255.730       -1541.217          46.000    20960883.318    85831301.895       -1201.025          44.000  
G03  24322903.613   127817717.944       -2853.000          38.000    24322897.833    99598205.173       -2222.889          36.000  
C16  36733562.554   191281276.866           1.568          47.000    36733549.403   147910777.065           1.313          47.000  
C19  23625647.474   123024929.418       -1954.212          47.000                                                                  
C27  23699644.322   123410251.904        1320.392          45.000                                                                  
C06  36291210.233   188977844.388          -0.385          46.000    36291190.816   146129593.880          -0.186          48.000  
C09  37382530.585   194660628.466         104.471          45.000    37382514.114   150523893.283          80.712          49.000  
C22  24694268.009   128589521.363         883.838          43.000                                                                  
G26  20700942.089   108784189.108       -1814.307          46.000    20700932.059    84766856.125       -1413.684          44.000  
G27  22158863.569   116445622.298        3134.813          41.000    22158855.269    90736811.513        2442.603          43.000  
G09  24123409.894   126769378.372        2893.519          35.000    24123401.583    98781256.434        2254.464          35.000  
C28  24670616.267   128466381.169        -820.453          38.000                                                                  
C07  38107617.433   198436343.800         832.242          41.000    38107598.155   153443511.837         643.473          45.000  
C20  25275413.740   131615704.636       -3592.049          39.000                                                                  
C36  23975487.920   124846640.205        1453.296          44.000                                                                  
C37  24825044.253   129270523.536       -2368.142          38.000                                                                  
C10  39231713.055   204289804.174         761.482          39.000    39231699.773   157969798.001         589.296          44.000  
G32  25597335.112                       -4164.810          30.000    25597353.808                       -3245.226          28.000  
G08  24471167.940   128596861.580        3629.316          35.000    24471170.540   100205353.966        2827.577          38.000  
G29  25024572.503   131505017.702       -3465.715          37.000    25024564.434   102471414.423       -2701.390          32.000  
C30  25366390.480   132089442.233        2768.911          40.000                                                                  
G18                                                                  25279270.430   103514394.055        1158.471          34.000  
C13                                                                  40561105.586   163322743.655       -1895.913          40.000  
C08                                                                  41481930.176   167030522.971       -1858.582          40.000  
> 2025 11 03 07 35 54.3200000  0 27                     
G04  21499478.738   112980529.843        1375.784          45.000    21499467.770    88036723.261        1072.296          46.000  
G16  20213435.434   106222324.604         397.412          47.000                                                                  
G28  22853370.941   120095273.011       -2583.366          40.000    22853359.747    93580680.208       -2012.770          41.000  
G31  20960908.129   110150317.375       -1541.162          46.000    20960895.048    85831349.932       -1200.952          44.000  
G03  24322925.335   127817832.049       -2852.763          38.000    24322919.561    99598294.108       -2223.193          36.000  
C16  36733562.556   191281276.791           1.737          47.000    36733549.381   147910777.016           1.213          47.000  
C19  23625662.465   123025007.591       -1954.317          47.000                                                                  
C27  23699634.179   123410199.097        1320.209          45.000                                                                  
C06  36291210.224   188977844.397          -0.322          46.000    36291190.803   146129593.889          -0.206          48.000  
C09  37382529.764   194660624.278         104.608          45.000    37382513.304   150523890.045          80.855          49.000  
C22  24694261.232   128589485.997         884.010          43.000                                                                  
G26  20700955.877   108784261.674       -1814.197          46.000    20700945.863    84766912.677       -1413.757          44.000  
G27  22158839.695   116445496.902        3134.856          41.000    22158831.422    90736713.809        2442.576          43.000  
G09  24123387.864   126769262.597        2893.927          35.000    24123379.550    98781166.225        2254.853          35.000  
C28  24670622.571   128466414.026        -821.057          38.000                                                                  
C07  38107611.059   198436310.505         832.318          41.000    38107591.775   153443486.085         643.710          45.000  
C20  25275441.330   131615848.311       -3592.043          39.000                                                                  
C36  23975476.722   124846582.070        1453.308          44.000                                                                  
C37  24825062.465   129270618.253       -2367.964          38.000                                                                  
C10  39231707.169   204289773.675         762.059          39.000    39231693.899   157969774.426         589.313          44.000  
G32  25597366.839                       -4164.209          30.000    25597385.491                       -3245.049          28.000  
G08  24471140.329   128596716.434        3628.760          35.000    24471142.906   100205240.840        2827.792          38.000  
G29  25024598.876   131505156.327       -3465.755          37.000    25024590.808   102471522.416       -2700.436          32.000  
C30  25366369.190   132089331.488        2768.694          40.000                                                                  
G18                                                                  25279259.140   103514347.727        1158.346          34.000  
C13                                                                  40561124.444   163322819.500       -1896.094          40.000  
C08                                                                  41481948.661   167030597.291       -1858.200          40.000  
> 2025 11 03 07 35 54.3600000  0 27                     
G04  21499468.244   112980474.790        1376.111          45.000    21499457.296    88036680.371        1072.273          46.000  
G16  20213432.404   106222308.707         397.431          47.000                                                                  
G28  22853390.616   120095376.353       -2583.500          40.000    22853379.407    93580760.725       -2012.826          41.000  
G31  20960919.849   110150379.020       -1541.131          46.000    20960906.774    85831397.961       -1200.800          44.000  
G03  24322947.035   127817946.162       -2852.759          38.000    24322941.290    99598383.023       -2223.110          36.000  
C16  36733562.569   191281276.714           1.868          47.000    36733549.381   147910776.956           1.367          47.000  
C19  23625677.494   123025085.756       -1954.218          47.000                                                                  
C27  23699624.049   123410146.279        1320.300          45.000                                                                  
C06  36291210.219   188977844.402          -0.198          46.000    36291190.835   146129593.892          -0.110          48.000  
C09  37382528.972   194660620.089         104.697          45.000    37382512.516   150523886.803          81.027          49.000  
C22  24694254.446   128589450.641         883.909          43.000                                                                  
G26  20700969.715   108784334.245       -1814.233          46.000    20700959.657    84766969.225       -1413.745          44.000  
G27  22158815.835   116445371.513        3134.732          41.000    22158807.534    90736616.096        2442.713          43.000  
G09  24123365.839   126769146.814        2894.325          35.000    24123357.527    98781076.000        2255.427          35.000  
C28  24670628.880   128466446.872        -821.281          38.000                                                                  
C07  38107604.648   198436277.211         832.292          41.000    38107585.353   153443460.331         643.833          45.000  
C20  25275468.933   131615991.976       -3591.794          39.000                                                                  
C36  23975465.558   124846523.930        1453.424          44.000                                                                  
C37  24825080.623   129270712.975       -2368.002          38.000                                                                  
C10  39231701.295   204289743.179         762.300          39.000    39231688.046   157969750.854         589.298          44.000  
G32  25597398.500   134515228.843       -4164.343          30.000    25597417.182                       -3244.688          28.000  
G08  24471112.684   128596571.240        3629.347          35.000    24471115.275   100205127.723        2827.799          38.000  
G29  25024625.270   131505294.958       -3465.849          37.000    25024617.178   102471630.427       -2700.240          32.000  
C30  25366347.925   132089220.729        2768.859          40.000                                                                  
G18                                                                  25279247.814   103514301.395        1158.289          34.000  
C13                                                                  40561143.284   163322895.329       -1895.878          40.000  
C08                                                                  41481967.095   167030671.630       -1858.368          40.000  
> 2025 11 03 07 35 54.4000000  0 27                     
G04  21499457.770   112980419.742        1376.210          45.000    21499446.805    88036637.478        1072.302          46.000  
G16  20213429.375   106222292.806         397.511          47.000                                                                  
G28  22853410.271   120095479.695       -2583.549          40.000    22853399.078    93580841.257       -2013.161          41.000  
G31  20960931.590   110150440.668       -1541.187          46.000    20960918.523    85831445.993       -1200.781          44.000  
G03  24322968.752   127818060.274       -2852.734          38.000    24322963.027    99598471.945       -2223.098          36.000  
C16  36733562.548   191281276.639           1.905          48.000    36733549.352   147910776.892           1.549          47.000  
C19  23625692.497   123025163.925       -1954.212          47.000                                                                  
C27  23699613.909   123410093.456        1320.471          45.000                                                                  
C06  36291210.228   188977844.410          -0.200          46.000    36291190.828   146129593.897          -0.107          48.000  
C09  37382528.185   194660615.910         104.562          45.000    37382511.673   150523883.561          81.087          49.000  
C22  24694247.649   128589415.289         883.793          43.000                                                                  
G26  20700983.520   108784406.820       -1814.325          46.000    20700973.458    84767025.776       -1413.794          44.000  
G27  22158791.982   116445246.136        3134.436          42.000    22158783.666    90736518.381        2442.827          43.000  
G09  24123343.788   126769031.052        2894.244          35.000    24123335.491    98780985.770        2255.772          35.000  
C28  24670635.197   128466479.703        -821.091          38.000                                                                  
C07  38107598.280   198436243.915         832.354          41.000    38107578.963   153443434.591         643.606          45.000  
C20  25275496.538   131616135.626       -3591.333          39.000                                                                  
C36  23975454.404   124846465.794        1453.412          44.000                                                                  
C37  24825098.814   129270807.691       -2367.921          38.000                                                                  
C10  39231695.443   204289712.696         762.193          39.000    39231682.184   157969727.282         589.290          44.000  
G32  25597430.187   134515395.406       -4164.112          30.000    25597448.870                       -3244.711          28.000  
G08  24471085.079   128596426.065        3629.402          35.000    24471087.654   100205014.594        2828.019          38.000  
G29  25024651.666   131505433.583       -3465.753          37.000    25024643.554   102471738.448       -2700.360          32.000  
C30  25366326.673   132089109.969        2768.983          40.000                                                                  
G18                                                                  25279236.471   103514255.016        1159.170          34.000  
C13                                                                  40561162.140   163322971.187       -1896.292          40.000  
C08                                                                  41481985.575   167030745.969       -1858.455          40.000  
> 2025 11 03 07 35 54.4400000  0 27                     
G04  21499447.301   112980364.711        1375.953          45.000    21499436.337    88036594.597        1072.089          46.000  
G16  20213426.364   106222276.910         397.448          47.000                                                                  
G28  22853429.933   120095583.026       -2583.410          40.000    22853418.737    93580921.772       -2013.035          41.000  
G31  20960943.298   110150502.315       -1541.187          46.000    20960930.270    85831494.032       -1200.922          44.000  
G03  24322990.476   127818174.387       -2852.777          38.000    24322984.727    99598560.832       -2222.401          36.000  
C16  36733562.539   191281276.557           2.018          48.000    36733549.319   147910776.826           1.655          47.000  
C19  23625707.510   123025242.089       -1954.119          47.000                                                                  
C27  23699603.782   123410040.641        1320.410          45.000                                                                  
C06  36291210.213   188977844.425          -0.327          46.000    36291190.837   146129593.909          -0.256          48.000  
C09  37382527.377   194660611.719         104.716          45.000    37382510.863   150523880.325          80.987          49.000  
C22  24694240.842   128589379.935         883.776          43.000                                                                  
G26  20700997.317   108784479.389       -1814.294          46.000    20700987.266    84767082.325       -1413.788          44.000  
G27  22158768.116   116445120.739        3134.717          41.000    22158759.818    90736420.677        2442.696          43.000  
G09  24123321.768   126768915.298        2893.955          35.000    24123313.473    98780895.566        2255.468          35.000  
C28  24670641.494   128466512.518        -820.637          38.000                                                                  
C07  38107591.871   198436210.615         832.454          41.000    38107572.577   153443408.860         643.302          45.000  
C20  25275524.136   131616279.289       -3591.396          39.000                                                                  
C36  23975443.287   124846407.652        1453.510          44.000                                                                  
C37  24825117.006   129270902.416       -2368.035          38.000                                                                  
C10  39231689.588   204289682.207         762.238          39.000    39231676.299   157969703.721         589.105          44.000  
G32  25597461.907   134515561.991       -4164.541          30.000    25597480.586                       -3244.634          28.000  
G08  24471057.478   128596280.893        3629.375          35.000    24471060.034   100204901.476        2827.983          38.000  
G29  25024678.036   131505572.206       -3465.629          37.000    25024669.916   102471846.472       -2700.602          32.000  
C30  25366305.392   132088999.206        2769.082          40.000                                                                  
G18                                                                  25279225.150   103514208.675        1158.939          34.000  
C13                                                                  40561181.005   163323047.036       -1896.345          40.000  
C08                                                                  41482004.063   167030820.322       -1858.744          40.000  
> 2025 11 03 07 35 54.4800000  0 27                     
G04  21499436.839   112980309.676        1375.842          45.000    21499425.868    88036551.716        1071.969          46.000  
G16  20213423.335   106222261.008         397.510          47.000                                                                  
G28  22853449.577   120095686.362       -2583.411          40.000    22853438.409    93581002.309       -2013.373          41.000  
G31  20960955.021   110150563.961       -1541.168          46.000    20960942.004    85831542.078       -1201.141          44.000  
G03  24323012.223   127818288.501       -2852.766          38.000    24323006.453    99598649.770       -2222.985          36.000  
C16  36733562.511   191281276.481           1.959          48.000    36733549.267   147910776.771           1.504          47.000  
C19  23625722.507   123025320.249       -1954.034          47.000                                                                  
C27  23699593.656   123409987.825        1320.386          45.000                                                                  
C06  36291210.200   188977844.433          -0.244          46.000    36291190.866   146129593.912          -0.176          48.000  
C09  37382526.579   194660607.532         104.714          45.000    37382510.064   150523877.094          80.806          49.000  
C22  24694234.062   128589344.577         883.822          43.000                                                                  
G26  20701011.124   108784551.961       -1814.301          46.000    20701001.085    84767138.870       -1413.702          44.000  
G27  22158744.261   116444995.335        3134.947          41.000    22158735.939    90736322.974        2442.599          43.000  
G09  24123299.736   126768799.527        2894.085          35.000    24123291.454    98780805.378        2254.915          35.000  
C28  24670647.778   128466545.351        -820.690          38.000                                                                  
C07  38107585.468   198436177.325         832.310          41.000    38107566.175   153443383.114         643.442          45.000  
C20  25275551.747   131616422.963       -3591.683          39.000                                                                  
C36  23975432.122   124846349.515        1453.473          44.000                                                                  
C37  24825135.197   129270997.145       -2368.177          38.000                                                                  
C10  39231683.718   204289651.731         762.078          39.000    39231670.452   157969680.143         589.326          44.000  
G32  25597493.636   134515728.599       -4165.093          30.000    25597512.290                       -3244.932          28.000  
G08  24471029.850   128596135.744        3628.889          35.000    24471032.417   100204788.343        2828.177          38.000  
G29  25024704.417   131505710.814       -3465.389          38.000    25024696.316   102471954.494       -2700.642          32.000  
C30  25366284.126   132088888.441        2769.216          40.000                                                                  
G18                                                                  25279213.851   103514162.329        1158.951          34.000  
C13                                                                  40561199.843   163323122.873       -1896.125          40.000  
C08                                                                  41482022.532   167030894.652       -1858.434          40.000  
> 2025 11 03 07 35 54.5200000  0 27                     
G04  21499426.347   112980254.632        1375.958          45.000    21499415.387    88036508.823        1072.175          46.000  
G16  20213420.298   106222245.110         397.460          47.000                                                                  
G28  22853469.227   120095789.690       -2583.236          40.000    22853458.072    93581082.842       -2013.418          41.000  
G31  20960966.733   110150625.605       -1541.138          46.000    20960953.749    85831590.112       -1200.995          44.000  
G03  24323033.917   127818402.597       -2852.479          38.000    24323028.162    99598738.678       -2222.739          36.000  
C16  36733562.480   191281276.404           1.924          48.000    36733549.238   147910776.712           1.458          47.000  
C19  23625737.537   123025398.417       -1954.139          47.000                                                                  
C27  23699583.515   123409935.005        1320.435          45.000                                                                  
C06  36291210.175   188977844.437          -0.126          46.000    36291190.871   146129593.916          -0.151          48.000  
C09  37382525.791   194660603.342         104.764          45.000    37382509.259   150523873.851          80.970          49.000  
C22  24694227.271   128589309.201         884.203          43.000                                                                  
G26  20701024.912   108784624.533       -1814.307          46.000    20701014.885    84767195.428       -1413.928          44.000  
G27  22158720.412   116444869.944        3134.863          42.000    22158712.070    90736225.261        2442.718          43.000  
G09  24123277.716   126768683.774        2893.938          35.000    24123269.436    98780715.184        2254.720          35.000  
C28  24670654.080   128466578.177        -820.642          38.000                                                                  
C07  38107579.050   198436144.028         832.385          41.000    38107559.787   153443357.361         643.710          45.000  
C20  25275579.339   131616566.641       -3591.884          39.000                                                                  
C36  23975420.963   124846291.373        1453.528          44.000                                                                  
C37  24825153.392   129271091.874       -2368.237          38.000                                                                  
C10  39231677.864   204289621.248         762.067          39.000    39231664.572   157969656.572         589.308          44.000  
G32  25597525.347   134515895.163       -4164.570          30.000    25597543.990                       -3244.965          28.000  
G08  24471002.197   128595990.572        3628.958          35.000    24471004.816   100204675.244        2827.648          38.000  
G29  25024730.802   131505849.455       -3465.834          38.000    25024722.684   102472062.531       -2700.854          32.000  
C30  25366262.847   132088777.681        2769.093          40.000                                                                  
G18                                                                  25279202.573   103514116.000        1158.510          34.000  
C13                                                                  40561218.661   163323198.692       -1895.644          40.000  
C08                                                                  41482040.993   167030968.983       -1858.305          40.000  
> 2025 11 03 07 35 54.5600000  0 27                     
G04  21499415.863   112980199.587        1376.057          45.000    21499404.903    88036465.930        1072.272          46.000  
G16  20213417.263   106222229.214         397.385          47.000                                                                  
G28  22853488.905   120095893.026       -2583.338          40.000    22853477.731    93581163.357       -2013.127          41.000  
G31  20960978.457   110150687.253       -1541.193          46.000    20960965.477    85831638.149       -1200.952          44.000  
G03  24323055.618   127818516.702       -2852.510          38.000    24323049.874    99598827.599       -2222.889          36.000  
C16  36733562.462   191281276.327           1.905          48.000    36733549.247   147910776.649           1.504          47.000  
C19  23625752.560   123025476.588       -1954.262          47.000                                                                  
C27  23699573.360   123409882.190        1320.398          45.000                                                                  
C06  36291210.153   188977844.438          -0.045          46.000    36291190.861   146129593.922          -0.171          48.000  
C09  37382524.962   194660599.148         104.832          45.000    37382508.447   150523870.610          80.988          49.000  
C22  24694220.506   128589273.832         884.272          43.000                                                                  
G26  20701038.721   108784697.102       -1814.282          46.000    20701028.715    84767251.973       -1413.782          44.000  
G27  22158696.582   116444744.550        3134.870          42.000    22158688.222    90736127.551        2442.724          43.000  
G09  24123255.687   126768568.010        2893.977          35.000    24123247.409    98780624.992        2254.769          35.000  
C28  24670660.396   128466611.012        -820.755          38.000                                                                  
C07  38107572.665   198436110.729         832.460          41.000    38107553.395   153443331.613         643.740          45.000  
C20  25275606.913   131616710.309       -3591.890          39.000                                                                  
C36  23975409.792   124846233.235        1453.461          44.000                                                                  
C37  24825171.578   129271186.592       -2368.098          38.000                                                                  
C10  39231672.015   204289590.769         761.931          39.000    39231658.755   157969632.993         589.404          44.000  
G32  25597557.029   134516061.772       -4165.052          30.000    25597575.650                       -3245.210          28.000  
G08  24470974.550   128595845.351        3630.022          35.000    24470977.176   100204562.106        2828.130          38.000  
G29  25024757.188   131505988.084       -3465.841          38.000    25024749.061   102472170.494       -2699.621          32.000  
C30  25366241.581   132088666.912        2769.167          40.000                                                                  
G18                                                                  25279191.237   103514069.682        1158.033          34.000  
C13                                                                  40561237.491   163323274.519       -1895.594          40.000  
C08                                                                  41482059.440   167031043.307       -1858.078          40.000  
> 2025 11 03 07 35 54.6000000  0 27                     
G04  21499405.398   112980144.551        1375.939          45.000    21499394.445    88036423.038        1072.313          46.000  
G16  20213414.249   106222213.320         397.305          47.000                                                                  
G28  22853508.573   120095996.370       -2583.521          40.000    22853497.390    93581243.861       -2012.772          41.000  
G31  20960990.181   110150748.894       -1541.064          46.000    20960977.197    85831686.182       -1200.854          44.000  
G03  24323077.331   127818630.817       -2852.781          38.000    24323071.594    99598916.521       -2222.981          36.000  
C16  36733562.422   191281276.251           1.865          48.000    36733549.232   147910776.591           1.480          47.000  
C19  23625767.578   123025554.762       -1954.366          47.000                                                                  
C27  23699563.210   123409829.377        1320.294          45.000                                                                  
C06  36291210.148   188977844.444          -0.104          46.000    36291190.858   146129593.923          -0.120          48.000  
C09  37382524.169   194660594.952         104.879          45.000    37382507.637   150523867.363          81.114          49.000  
C22  24694213.710   128589238.480         883.980          43.000                                                                  
G26  20701052.552   108784769.671       -1814.240          46.000    20701042.547    84767308.516       -1413.660          44.000  
G27  22158672.718   116444619.143        3135.074          42.000    22158664.329    90736029.840        2442.775          43.000  
G09  24123233.644   126768452.226        2894.370          35.000    24123225.365    98780534.775        2255.163          35.000  
C28  24670666.683   128466643.846        -820.832          38.000                                                                  
C07  38107566.284   198436077.428         832.527          41.000    38107547.010   153443305.869         643.625          45.000  
C20  25275634.513   131616853.969       -3591.695          39.000                                                                  
C36  23975398.640   124846175.100        1453.375          44.000                                                                  
C37  24825189.761   129271281.310       -2367.987          38.000                                                                  
C10  39231666.142   204289560.272         762.230          39.000    39231652.880   157969609.414         589.465          44.000  
G32  25597588.707   134516228.291       -4163.585          30.000    25597607.342                       -3244.833          28.000  
G08  24470946.927   128595700.153        3630.074          35.000    24470949.560   100204448.984        2828.119          38.000  
G29  25024783.569   131506126.719       -3465.975          38.000    25024775.435   102472278.524       -2700.157          32.000  
C30  25366220.288   132088556.155        2768.972          40.000                                                                  
G18                                                                  25279179.933   103514023.328        1158.484          34.000  
C13                                                                  40561256.310   163323350.363       -1895.877          40.000  
C08                                                                  41482077.898   167031117.635       -1858.092          40.000  
> 2025 11 03 07 35 54.6400000  0 27                     
G04  21499394.923   112980089.514        1375.942          45.000    21499383.983    88036380.152        1072.219          46.000  
G16  20213411.210   106222197.421         397.386          47.000                                                                  
G28  22853528.223   120096099.708       -2583.545          40.000    22853517.055    93581324.373       -2012.759          41.000  
G31  20961001.911   110150810.543       -1541.174          46.000    20960988.935    85831734.219       -1200.909          44.000  
G03  24323099.045   127818744.928       -2852.892          38.000    24323093.291    99599005.435       -2222.870          36.000  
C16  36733562.391   191281276.162           2.109          48.000    36733549.222   147910776.532           1.467          47.000  
C19  23625782.595   123025632.927       -1954.261          47.000                                                                  
C27  23699553.074   123409776.562        1320.294          45.000                                                                  
C06  36291210.138   188977844.450          -0.132          46.000    36291190.861   146129593.927          -0.134          48.000  
C09  37382523.356   194660590.766         104.723          45.000    37382506.840   150523864.124          81.028          49.000  
C22  24694206.917   128589203.133         883.749          43.000                                                                  
G26  20701066.358   108784842.235       -1814.142          46.000    20701056.349    84767365.061       -1413.617          44.000  
G27  22158648.858   116444493.752        3134.915          42.000    22158640.501    90735932.145        2442.469          43.000  
G09  24123211.605   126768336.454        2894.395          35.000    24123203.337    98780444.538        2255.724          35.000  
C28  24670672.988   128466676.696        -821.100          38.000                                                                  
C07  38107559.906   198436044.135         832.383          41.000    38107540.619   153443280.120         643.651          45.000  
C20  25275662.106   131616997.633       -3591.652          39.000                                                                  
C36  23975387.460   124846116.963        1453.357          44.000                                                                  
C37  24825207.951   129271376.015       -2367.675          38.000                                                                  
C10  39231660.280   204289529.778         762.386          39.000    39231647.019   157969585.834         589.515          44.000  
G32  25597620.393   134516394.870       -4163.958          30.000    25597639.036                       -3244.976          28.000  
G08  24470919.341   128595555.025        3628.907          35.000    24470921.943   100204335.846        2828.356          38.000  
G29  25024809.949   131506265.311       -3465.192          38.000    25024801.798   102472386.539       -2700.256          32.000  
C30  25366199.013   132088445.386        2769.131          40.000                                                                  
G18                                                                  25279168.625   103513976.986        1158.534          34.000  
C13                                                                  40561275.159   163323426.200       -1895.914          40.000  
C08                                                                  41482096.363   167031191.974       -1858.327          40.000  
> 2025 11 03 07 35 54.6800000  0 27                     
G04  21499384.436   112980034.470        1376.021          45.000    21499373.523    88036337.264        1072.221          46.000  
G16  20213408.187   106222181.523         397.399          47.000                                                                  
G28  22853547.878   120096203.030       -2583.267          40.000    22853536.723    93581404.903       -2013.062          41.000  
G31  20961013.650   110150872.191       -1541.205          46.000    20961000.666    85831782.256       -1200.934          44.000  
G03  24323120.753   127818859.042       -2852.887          38.000    24323114.985    99599094.329       -2222.473          36.000  
C16  36733562.357   191281276.078           2.123          48.000    36733549.203   147910776.469           1.519          47.000  
C19  23625797.627   123025711.092       -1954.169          47.000                                                                  
C27  23699542.930   123409723.743        1320.392          45.000                                                                  
C06  36291210.161   188977844.458          -0.212          46.000    36291190.856   146129593.928          -0.103          48.000  
C09  37382522.550   194660586.581         104.616          45.000    37382506.044   150523860.881          81.053          49.000  
C22  24694200.149   128589167.778         883.770          43.000                                                                  
G26  20701080.178   108784914.810       -1814.294          46.000    20701070.150    84767421.607       -1413.635          44.000  
G27  22158625.008   116444368.361        3134.792          42.000    22158616.623    90735834.425        2442.798          43.000  
G09  24123189.593   126768220.693        2894.188          35.000    24123181.305    98780354.341        2255.317          35.000  
C28  24670679.269   128466709.524        -820.943          38.000                                                                  
C07  38107553.509   198436010.845         832.285          41.000    38107534.204   153443254.366         643.762          45.000  
C20  25275689.692   131617141.290       -3591.500          39.000                                                                  
C36  23975376.302   124846058.820        1453.497          44.000                                                                  
C37  24825226.128   129271470.726       -2367.667          38.000                                                                  
C10  39231654.441   204289499.294         762.267          39.000    39231641.192   157969562.268         589.293          44.000  
G32  25597652.116   134516561.463       -4164.556          30.000    25597670.744                       -3245.114          28.000  
G08  24470891.709   128595409.841        3629.111          35.000    24470894.331   100204222.725        2828.142          38.000  
G29  25024836.327   131506403.934       -3465.333          38.000    25024828.195   102472494.581       -2700.853          32.000  
C30  25366177.735   132088334.641        2768.797          40.000                                                                  
G18                                                                  25279157.308   103513930.642        1158.610          34.000  
C13                                                                  40561293.990   163323502.041       -1896.041          40.000  
C08                                                                  41482114.841   167031266.308       -1858.400          40.000  
> 2025 11 03 07 35 54.7200000  0 27                     
G04  21499373.942   112979979.429        1376.040          45.000    21499363.054    88036294.381        1072.114          46.000  
G16  20213405.156   106222165.627         397.374          47.000                                                                  
G28  22853567.518   120096306.348       -2583.012          40.000    22853556.405    93581485.421       -2013.053          41.000  
G31  20961025.376   110150933.837       -1541.199          46.000    20961012.386    85831830.292       -1200.928          44.000  
G03  24323142.469   127818973.145       -2852.748          38.000    24323136.695    99599183.255       -2222.898          36.000  
C16  36733562.354   191281275.996           2.079          48.000    36733549.194   147910776.402           1.621          47.000  
C19  23625812.652   123025789.252       -1954.033          47.000                                                                  
C27  23699532.771   123409670.923        1320.484          45.000                                                                  
C06  36291210.172   188977844.456          -0.057          46.000    36291190.861   146129593.929          -0.063          48.000  
C09  37382521.747   194660582.381         104.857          45.000    37382505.264   150523857.645          80.918          49.000  
C22  24694193.373   128589132.413         883.956          43.000                                                                  
G26  20701094.009   108784987.378       -1814.258          46.000    20701083.979    84767478.157       -1413.745          44.000  
G27  22158601.151   116444242.961        3134.905          42.000    22158592.774    90735736.713        2442.827          43.000  
G09  24123167.563   126768104.957        2893.612          35.000    24123159.293    98780264.152        2254.887          35.000  
C28  24670685.559   128466742.340        -820.582          38.000                                                                  
C07  38107547.110   198435977.544         832.448          41.000    38107527.806   153443228.611         643.855          45.000  
C20  25275717.289   131617284.951       -3591.510          39.000                                                                  
C36  23975365.126   124846000.679        1453.510          44.000                                                                  
C37  24825244.312   129271565.449       -2367.945          38.000                                                                  
C10  39231648.600   204289468.811         762.174          39.000    39231635.308   157969538.697         589.230          44.000  
G32  25597683.818   134516728.063       -4165.001          30.000    25597702.447                       -3245.338          28.000  
G08  24470864.088   128595264.696        3628.669          35.000    24470866.727   100204109.604        2828.061          38.000  
G29  25024862.731   131506542.549       -3465.355          38.000    25024854.577   102472602.560       -2700.042          32.000  
C30  25366156.472   132088223.871        2769.025          40.000                                                                  
G18                                                                  25279146.012   103513884.310        1158.275          34.000  
C13                                                                  40561312.821   163323577.889       -1896.197          40.000  
C08                                                                  41482133.330   167031340.648       -1858.542          40.000  
> 2025 11 03 07 35 54.7600000  0 27                     
G04  21499363.479   112979924.392        1375.964          45.000    21499352.537    88036251.493        1072.146          46.000  
G16  20213402.139   106222149.726         397.474          47.000                                                                  
G28  22853587.176   120096409.679       -2583.129          40.000    22853576.060    93581565.942       -2013.033          41.000  
G31  20961037.088   110150995.481       -1541.125          46.000    20961024.116    85831878.320       -1200.775          44.000  
G03  24323164.170   127819087.240       -2852.494          38.000    24323158.401    99599272.170       -2222.938          36.000  
C16  36733562.327   191281275.922           1.875          48.000    36733549.161   147910776.337           1.617          47.000  
C19  23625827.647   123025867.419       -1954.114          47.000                                                                  
C27  23699522.613   123409618.101        1320.581          45.000                                                                  
C06  36291210.153   188977844.459          -0.067          46.000    36291190.868   146129593.931          -0.035          48.000  
C09  37382520.948   194660578.185         104.938          45.000    37382504.476   150523854.403          80.978          49.000  
C22  24694186.607   128589097.047         884.103          43.000                                                                  
G26  20701107.805   108785059.943       -1814.160          46.000    20701097.813    84767534.707       -1413.788          44.000  
G27  22158577.281   116444117.574        3134.729          42.000    22158568.925    90735639.005        2442.753          43.000  
G09  24123145.527   126767989.195        2893.750          35.000    24123137.271    98780173.962        2254.705          35.000  
C28  24670691.867   128466775.180        -820.776          38.000                                                                  
C07  38107540.702   198435944.238         832.665          41.000    38107521.408   153443202.868         643.636          45.000  
C20  25275744.878   131617428.618       -3591.587          39.000                                                                  
C36  23975353.979   124845942.529        1453.699          44.000                                                                  
C37  24825262.513   129271660.179       -2368.221          38.000                                                                  
C10  39231642.741   204289438.322         762.185          39.000    39231629.449   157969515.116         589.393          44.000  
G32  25597715.567   134516894.603       -4164.070          30.000    25597734.181                       -3245.364          28.000  
G08  24470836.430   128595119.464        3629.960          35.000    24470839.106   100203996.474        2828.218          38.000  
G29  25024889.116   131506681.190       -3465.855          38.000    25024880.975   102472710.577       -2700.231          32.000  
C30  25366135.214   132088113.109        2769.070          40.000                                                                  
G18                                                                  25279134.700   103513837.947        1158.843          34.000  
C13                                                                  40561331.650   163323653.714       -1895.838          40.000  
C08                                                                  41482151.779   167031414.985       -1858.553          40.000  
> 2025 11 03 07 35 54.8000000  0 27                     
G04  21499352.993   112979869.364        1375.726          45.000    21499342.071    88036208.612        1072.062          46.000  
G16  20213399.130   106222133.836         397.305          47.000                                                                  
G28  22853606.855   120096513.031       -2583.691          40.000    22853595.711    93581646.466       -2013.141          41.000  
G31  20961048.807   110151057.125       -1541.107          46.000    20961035.825    85831926.359       -1200.940          44.000  
G03  24323185.887   127819201.361       -2852.830          38.000    24323180.120    99599361.081       -2222.813          36.000  
C16  36733562.334   191281275.843           1.894          48.000    36733549.141   147910776.281           1.453          47.000  
C19  23625842.638   123025945.593       -1954.305          47.000                                                                  
C27  23699512.487   123409565.291        1320.331          45.000                                                                  
C06  36291210.121   188977844.467          -0.182          46.000    36291190.840   146129593.936          -0.117          48.000  
C09  37382520.129   194660573.995         104.832          45.000    37382503.681   150523851.162          81.011          49.000  
C22  24694179.828   128589061.705         883.719          43.000                                                                  
G26  20701121.615   108785132.516       -1814.270          46.000    20701111.643    84767591.255       -1413.745          45.000  
G27  22158553.424   116443992.191        3134.558          42.000    22158545.094    90735541.307        2442.506          43.000  
G09  24123123.490   126767873.419        2894.083          35.000    24123115.229    98780083.777        2254.538          35.000  
C28  24670698.169   128466808.024        -821.067          38.000                                                                  
C07  38107534.280   198435910.953         832.314          41.000    38107515.025   153443177.124         643.582          45.000  
C20  25275772.453   131617572.283       -3591.657          39.000                                                                  
C36  23975342.795   124845884.392        1453.522          44.000                                                                  
C37  24825280.678   129271754.914       -2368.414          38.000                                                                  
C10  39231636.904   204289407.841         762.021          39.000    39231623.586   157969491.549         589.217          44.000  
G32  25597747.269   134517061.179       -4164.078          30.000    25597765.866                       -3245.055          28.000  
G08  24470808.778   128594974.269        3629.873          35.000    24470811.463   100203883.342        2828.322          38.000  
G29  25024915.486   131506819.825       -3465.959          38.000    25024907.340   102472818.585       -2700.324          32.000  
C30  25366113.927   132088002.341        2769.150          40.000                                                                  
G18                                                                  25279123.408   103513791.622        1158.401          34.000  
C13                                                                  40561350.469   163323729.544       -1895.759          40.000  
C08                                                                  41482170.230   167031489.313       -1858.331          40.000  
> 2025 11 03 07 35 54.8400000  0 27                     
G04  21499342.517   112979814.337        1375.616          45.000    21499331.600    88036165.734        1071.931          46.000  
G16  20213396.095   106222117.946         397.219          47.000                                                                  
G28  22853626.515   120096616.382       -2583.891          40.000    22853615.397    93581726.997       -2013.316          41.000  
G31  20961060.550   110151118.778       -1541.296          46.000    20961047.577    85831974.404       -1201.172          44.000  
G03  24323207.592   127819315.480       -2852.963          38.000    24323201.831    99599450.002       -2222.902          36.000  
C16  36733562.336   191281275.769           1.811          48.000    36733549.120   147910776.219           1.469          47.000  
C19  23625857.608   123026023.774       -1954.539          47.000                                                                  
C27  23699502.337   123409512.489        1320.081          45.000                                                                  
C06  36291210.113   188977844.477          -0.244          46.000    36291190.846   146129593.945          -0.200          48.000  
C09  37382519.305   194660569.815         104.582          45.000    37382502.850   150523847.931          80.831          49.000  
C22  24694173.021   128589026.361         883.534          43.000                                                                  
G26  20701135.428   108785205.092       -1814.392          46.000    20701125.481    84767647.807       -1413.812          44.000  
G27  22158529.566   116443866.811        3134.400          42.000    22158521.234    90735443.604        2442.459          43.000  
G09  24123101.464   126767757.669        2893.884          35.000    24123093.212    98779993.558        2255.127          35.000  
C28  24670704.479   128466840.878        -821.277          38.000                                                                  
C07  38107527.895   198435877.658         832.328          41.000    38107508.635   153443151.382         643.514          45.000  
C20  25275800.037   131617715.967       -3592.067          39.000                                                                  
C36  23975331.623   124845826.260        1453.314          44.000                                                                  
C37  24825298.883   129271849.634       -2368.206          38.000                                                                  
C10  39231631.034   204289377.357         762.006          39.000    39231617.742   157969467.974         589.275          44.000  
G32  25597778.956   134517227.763       -4164.391          30.000    25597797.562                       -3244.997          28.000  
G08  24470781.167   128594829.107        3629.382          35.000    24470783.855   100203770.227        2828.066          38.000  
G29  25024941.865   131506958.452       -3465.863          38.000    25024933.724   102472926.655       -2701.425          32.000  
C30  25366092.639   132087891.583        2768.980          41.000                                                                  
G18                                                                  25279112.079   103513745.278        1158.433          34.000  
C13                                                                  40561369.311   163323805.383       -1895.928          40.000  
C08                                                                  41482188.686   167031563.652       -1858.436          40.000  
> 2025 11 03 07 35 54.8800000  0 27                     
G04  21499332.042   112979759.311        1375.559          45.000    21499321.153    88036122.856        1071.891          46.000  
G16  20213393.058   106222102.059         397.139          47.000                                                                  
G28  22853646.173   120096719.724       -2583.746          40.000    22853635.051    93581807.511       -2013.062          41.000  
G31  20961072.281   110151180.435       -1541.461          46.000    20961059.303    85832022.448       -1201.221          44.000  
G03  24323229.295   127819429.596       -2853.052          38.000    24323223.542    99599538.929       -2223.037          36.000  
C16  36733562.321   191281275.695           1.801          48.000    36733549.078   147910776.164           1.401          47.000  
C19  23625872.628   123026101.952       -1954.556          47.000                                                                  
C27  23699492.216   123409459.684        1320.007          45.000                                                                  
C06  36291210.136   188977844.485          -0.261          46.000    36291190.832   146129593.948          -0.131          48.000  
C09  37382518.504   194660565.627         104.578          45.000    37382502.039   150523844.690          80.930          49.000  
C22  24694166.242   128588991.014         883.510          43.000                                                                  
G26  20701149.250   108785277.674       -1814.569          46.000    20701139.303    84767704.358       -1413.812          45.000  
G27  22158505.698   116443741.425        3134.458          42.000    22158497.377    90735345.908        2442.347          43.000  
G09  24123079.434   126767641.933        2893.488          35.000    24123071.161    98779903.338        2255.446          35.000  
C28  24670710.783   128466873.723        -821.212          38.000                                                                  
C07  38107521.466   198435844.357         832.427          41.000    38107502.242   153443125.634         643.615          45.000  
C20  25275827.628   131617859.642       -3592.025          39.000                                                                  
C36  23975320.478   124845768.123        1453.320          44.000                                                                  
C37  24825317.084   129271944.353       -2367.958          38.000                                                                  
C10  39231625.149   204289346.872         762.066          39.000    39231611.879   157969444.404         589.250          44.000  
G32  25597810.667   134517394.350       -4164.637          30.000    25597829.262                       -3245.110          28.000  
G08  24470753.557   128594683.966        3628.673          35.000    24470756.225   100203657.103        2828.011          38.000  
G29  25024968.263   131507097.070       -3465.607          38.000    25024960.107   102473034.691       -2701.390          32.000  
C30  25366071.367   132087780.826        2768.906          41.000                                                                  
G18                                                                  25279100.784   103513698.937        1158.359          34.000  
C13                                                                  40561388.169   163323881.220       -1895.952          40.000  
C08                                                                  41482207.151   167031637.981       -1858.307          40.000  
> 2025 11 03 07 35 54.9200000  0 27                     
G04  21499321.541   112979704.276        1375.718          45.000    21499310.672    88036079.974        1071.974          46.000  
G16  20213390.038   106222086.174         397.072          47.000                                                                  
G28  22853665.838   120096823.066       -2583.651          40.000    22853654.705    93581888.042       -2013.207          41.000  
G31  20961083.989   110151242.087       -1541.425          46.000    20961071.061    85832070.488       -1201.099          44.000  
G03  24323251.018   127819543.711       -2853.013          38.000    24323245.259    99599627.840       -2222.826          36.000  
C16  36733562.293   191281275.617           1.878          48.000    36733549.042   147910776.104           1.442          48.000  
C19  23625887.622   123026180.128       -1954.500          47.000                                                                  
C27  23699482.096   123409406.875        1320.087          45.000                                                                  
C06  36291210.142   188977844.490          -0.192          46.000    36291190.845   146129593.951          -0.098          48.000  
C09  37382517.707   194660561.436         104.678          45.000    37382501.244   150523841.454          80.906          49.000  
C22  24694159.452   128588955.669         883.484          43.000                                                                  
G26  20701163.060   108785350.250       -1814.514          47.000    20701153.113    84767760.916       -1413.953          44.000  
G27  22158481.829   116443616.040        3134.473          42.000    22158473.518    90735248.201        2442.493          43.000  
G09  24123057.388   126767526.176        2893.646          35.000    24123049.141    98779813.136        2255.280          35.000  
C28  24670717.075   128466906.555        -820.949          38.000                                                                  
C07  38107515.065   198435811.064         832.365          42.000    38107495.843   153443099.894         643.528          45.000  
C20  25275855.234   131618003.294       -3591.539          39.000                                                                  
C36  23975309.327   124845709.982        1453.442          44.000                                                                  
C37  24825335.259   129272039.062       -2367.745          38.000                                                                  
C10  39231619.295   204289316.384         762.161          39.000    39231606.035   157969420.830         589.298          44.000  
G32  25597842.361   134517560.937       -4164.701          30.000    25597860.925                       -3244.741          28.000  
G08  24470725.943   128594538.780        3629.216          35.000    24470728.604   100203543.985        2827.897          38.000  
G29  25024994.639   131507235.703       -3465.766          38.000    25024986.468   102473142.690       -2700.605          32.000  
C30  25366050.093   132087670.063        2768.958          41.000                                                                  
G18                                                                  25279089.455   103513652.593        1158.318          33.000  
C13                                                                  40561407.012   163323957.073       -1896.256          40.000  
C08                                                                  41482225.603   167031712.310       -1858.233          40.000  
> 2025 11 03 07 35 54.9600000  0 27                     
G04  21499311.070   112979649.244        1375.784          45.000    21499300.212    88036037.096        1071.914          46.000  
G16  20213387.035   106222070.282         397.179          47.000                                                                  
G28  22853685.512   120096926.412       -2583.760          40.000    22853674.376    93581968.571       -2013.255          41.000  
G31  20961095.715   110151303.736       -1541.357          46.000    20961082.764    85832118.520       -1200.885          44.000  
G03  24323272.739   127819657.827       -2853.010          38.000    24323266.986    99599716.788       -2223.396          36.000  
C16  36733562.292   191281275.539           1.915          48.000    36733549.028   147910776.037           1.580          48.000  
C19  23625902.663   123026258.302       -1954.438          47.000                                                                  
C27  23699471.958   123409354.068        1320.148          45.000                                                                  
C06  36291210.144   188977844.499          -0.233          46.000    36291190.840   146129593.958          -0.138          48.000  
C09  37382516.909   194660557.244         104.756          45.000    37382500.436   150523838.210          81.007          49.000  
C22  24694152.647   128588920.318         883.605          43.000                                                                  
G26  20701176.866   108785422.824       -1814.422          47.000    20701166.917    84767817.465       -1413.825          44.000  
G27  22158457.960   116443490.649        3134.644          42.000    22158449.639    90735150.497        2442.560          43.000  
G09  24123035.326   126767410.389        2894.306          35.000    24123027.096    98779722.920        2255.433          35.000  
C28  24670723.373   128466939.401        -821.073          38.000                                                                  
C07  38107508.672   198435777.777         832.242          42.000    38107489.438   153443074.146         643.628          45.000  
C20  25275882.825   131618146.973       -3591.755          39.000                                                                  
C36  23975298.176   124845651.846        1453.381          44.000                                                                  
C37  24825353.437   129272133.776       -2367.812          38.000                                                                  
C10  39231613.455   204289285.902         762.093          39.000    39231600.196   157969397.258         589.292          44.000  
G32  25597874.055   134517727.509       -4164.595          30.000    25597892.629                       -3244.545          29.000  
G08  24470698.306   128594393.585        3629.696          35.000    24470700.971   100203430.870        2827.870          38.000  
G29  25025020.996   131507374.322       -3465.633          38.000    25025012.848   102473250.692       -2700.229          32.000  
C30  25366028.830   132087559.295        2769.140          41.000                                                                  
G18                                                                  25279078.115   103513606.276        1157.996          33.000  
C13                                                                  40561425.842   163324032.909       -1896.066          40.000  
C08                                                                  41482244.054   167031786.648       -1858.388          40.000  
> 2025 11 03 07 35 55.0000000  0 27                     
G04  21499300.583   112979594.208        1375.867          45.000    21499289.741    88035994.211        1072.042          46.000  
G16  20213384.014   106222054.389         397.297          47.000                                                                  
G28  22853705.159   120097029.731       -2583.327          40.000    22853694.024    93582049.090       -2013.111          41.000  
G31  20961107.431   110151365.384       -1541.254          46.000    20961094.481    85832166.556       -1200.854          44.000  
G03  24323294.451   127819771.933       -2852.773          38.000    24323288.674    99599805.711       -2223.338          36.000  
C16  36733562.270   191281275.458           1.973          48.000    36733549.041   147910775.977           1.557          48.000  
C19  23625917.668   123026336.471       -1954.265          47.000                                                                  
C27  23699461.819   123409301.253        1320.282          45.000                                                                  
C06  36291210.141   188977844.496          -0.043          46.000    36291190.836   146129593.966          -0.190          48.000  
C09  37382516.088   194660553.050         104.838          45.000    37382499.636   150523834.964          81.127          49.000  
C22  24694145.888   128588884.967         883.711          43.000                                                                  
G26  20701190.655   108785495.394       -1814.276          47.000    20701180.729    84767874.017       -1413.812          44.000  
G27  22158434.089   116443365.255        3134.750          42.000    22158425.781    90735052.792        2442.637          43.000  
G09  24123013.277   126767294.618        2894.404          35.000    24123005.081    98779632.750        2254.673          35.000  
C28  24670729.687   128466972.239        -821.003          38.000                                                                  
C07  38107502.279   198435744.478         832.354          42.000    38107483.053   153443048.398         643.646          45.000  
C20  25275910.404   131618290.630       -3591.526          39.000                                                                  
C36  23975287.031   124845593.704        1453.467          44.000                                                                  
C37  24825371.638   129272228.506       -2368.115          38.000                                                                  
C10  39231607.602   204289255.397         762.430          39.000    39231594.333   157969373.685         589.310          44.000  
G32  25597905.759   134517894.090       -4164.632          30.000    25597924.329                       -3245.460          29.000  
G08  24470670.657   128594248.382        3629.919          35.000    24470673.337   100203317.742        2828.050          38.000  
G29  25025047.357   131507512.936       -3465.474          38.000    25025039.222   102473358.697       -2700.154          32.000  
C30  25366007.583   132087448.532        2769.111          41.000                                                                  
G18                                                                  25279066.788   103513559.943        1158.119          33.000  
C13                                                                  40561444.656   163324108.752       -1896.124          40.000  
C08                                                                  41482262.507   167031860.974       -1858.227          40.000  
> 2025 11 03 07 35 55.0400000  0 27                     
G04  21499290.113   112979539.180        1375.734          45.000    21499279.268    88035951.329        1072.061          46.000  
G16  20213381.024   106222038.497         397.284          47.000                                                                  
G28  22853724.799   120097133.068       -2583.335          40.000    22853713.692    93582129.615       -2013.117          41.000  
G31  20961119.129   110151427.028       -1541.150          46.000    20961106.217    85832214.598       -1201.007          44.000  
G03  24323316.142   127819886.039       -2852.673          38.000    24323310.372    99599894.596       -2222.533          36.000  
C16  36733562.274   191281275.370           2.146          48.000    36733549.054   147910775.916           1.543          48.000  
C19  23625932.667   123026414.640       -1954.223          47.000                                                                  
C27  23699451.664   123409248.436        1320.392          45.000                                                                  
C06  36291210.143   188977844.491           0.098          46.000    36291190.813   146129593.965          -0.085          48.000  
C09  37382515.290   194660548.852         104.932          45.000    37382498.796   150523831.720          81.111          49.000  
C22  24694139.095   128588849.598         884.060          43.000                                                                  
G26  20701204.450   108785567.968       -1814.331          47.000    20701194.560    84767930.578       -1413.995          44.000  
G27  22158410.240   116443239.858        3134.917          42.000    22158401.908    90734955.083        2442.706          43.000  
G09  24122991.262   126767178.862        2894.108          35.000    24122983.057    98779542.529        2255.138          35.000  
C28  24670736.008   128467005.092        -821.294          38.000                                                                  
C07  38107495.877   198435711.181         832.384          42.000    38107476.609   153443022.646         643.732          45.000  
C20  25275938.000   131618434.284       -3591.331          39.000                                                                  
C36  23975275.855   124845535.563        1453.497          44.000                                                                  
C37  24825389.818   129272323.215       -2367.859          38.000                                                                  
C10  39231601.760   204289224.913         762.262          39.000    39231588.488   157969350.102         589.467          44.000  
G32  25597937.458   134518060.650       -4164.258          30.000    25597956.064                       -3245.248          29.000  
G08  24470643.070   128594103.224        3629.231          35.000    24470645.708   100203204.610        2828.309          38.000  
G29  25025073.758   131507651.578       -3465.856          38.000    25025065.603   102473466.754       -2701.183          32.000  
C30  25365986.308   132087337.777        2768.923          41.000                                                                  
G18                                                                  25279055.486   103513513.593        1158.465          33.000  
C13                                                                  40561463.456   163324184.572       -1895.711          40.000  
C08                                                                  41482280.965   167031935.303       -1858.215          40.000  
> 2025 11 03 07 35 55.0800000  0 27                     
G04  21499279.657   112979484.148        1375.736          45.000    21499268.813    88035908.448        1072.032          46.000  
G16  20213378.004   106222022.606         397.265          47.000                                                                  
G28  22853744.460   120097236.424       -2583.765          40.000    22853733.332    93582210.134       -2013.023          41.000  
G31  20961130.855   110151488.676       -1541.180          46.000    20961117.963    85832262.639       -1201.074          44.000  
G03  24323337.871   127820000.150       -2852.705          38.000    24323332.086    99599983.510       -2222.567          36.000  
C16  36733562.247   191281275.289           2.081          48.000    36733549.059   147910775.848           1.647          48.000  
C19  23625947.675   123026492.818       -1954.390          47.000                                                                  
C27  23699441.502   123409195.623        1320.337          45.000                                                                  
C06  36291210.155   188977844.503          -0.173          46.000    36291190.812   146129593.965          -0.042          48.000  
C09  37382514.466   194660544.663         104.800          45.000    37382497.973   150523828.482          80.987          49.000  
C22  24694132.293   128588814.250         883.888          43.000                                                                  
G26  20701218.265   108785640.545       -1814.416          47.000    20701208.378    84767987.128       -1413.898          44.000  
G27  22158386.379   116443114.476        3134.685          42.000    22158378.065    90734857.377        2442.683          43.000  
G09  24122969.255   126767063.100        2894.053          35.000    24122961.036    98779452.336        2254.972          34.000  
C28  24670742.316   128467037.929        -821.159          38.000                                                                  
C07  38107489.510   198435677.882         832.421          42.000    38107470.184   153442996.904         643.588          45.000  
C20  25275965.618   131618577.948       -3591.506          39.000                                                                  
C36  23975264.685   124845477.431        1453.327          44.000                                                                  
C37  24825407.999   129272417.942       -2368.034          38.000                                                                  
C10  39231595.896   204289194.453         761.700          39.000    39231582.622   157969326.523         589.509          44.000  
G32  25597969.161   134518227.226       -4164.483          30.000    25597987.754                       -3244.228          29.000  
G08  24470615.455   128593958.054        3629.136          35.000    24470618.075   100203091.483        2828.326          38.000  
G29  25025100.136   131507790.201       -3465.674          38.000    25025091.990   102473574.779       -2701.128          33.000  
C30  25365965.031   132087227.012        2769.021          41.000                                                                  
G18                                                                  25279044.187   103513467.249        1158.577          33.000  
C13                                                                  40561482.288   163324260.405       -1895.734          40.000  
C08                                                                  41482299.406   167032009.638       -1858.364          40.000  
> 2025 11 03 07 35 55.1200000  0 27                     
G04  21499269.207   112979429.136        1375.417          45.000    21499258.354    88035865.584        1071.714          46.000  
G16  20213375.013   106222006.731         396.960          47.000                                                                  
G28  22853764.148   120097339.767       -2583.762          40.000    22853753.003    93582290.669       -2013.243          41.000  
G31  20961142.585   110151550.336       -1541.437          46.000    20961129.695    85832310.686       -1201.202          44.000  
G03  24323359.599   127820114.275       -2853.020          38.000    24323353.816    99600072.431       -2222.745          36.000  
C16  36733562.232   191281275.218           1.844          48.000    36733549.039   147910775.799           1.336          48.000  
C19  23625962.666   123026571.009       -1954.729          47.000                                                                  
C27  23699431.373   123409142.817        1320.148          45.000                                                                  
C06  36291210.126   188977844.523          -0.465          46.000    36291190.819   146129593.978          -0.242          48.000  
C09  37382513.656   194660540.489         104.435          45.000    37382497.174   150523825.241          80.949          49.000  
C22  24694125.525   128588778.909         883.582          43.000                                                                  
G26  20701232.079   108785713.126       -1814.526          47.000    20701222.186    84768043.685       -1413.922          44.000  
G27  22158362.508   116442989.094        3134.572          42.000    22158354.204    90734759.682        2442.440          43.000  
G09  24122947.214   126766947.362        2893.616          35.000    24122939.023    98779362.139        2254.907          35.000  
C28  24670748.623   128467070.780        -821.323          38.000                                                                  
C07  38107483.114   198435644.587         832.377          42.000    38107463.801   153442971.165         643.490          45.000  
C20  25275993.201   131618721.629       -3591.864          39.000                                                                  
C36  23975253.502   124845419.299        1453.253          44.000                                                                  
C37  24825426.166   129272512.673       -2368.210          38.000                                                                  
C10  39231590.031   204289163.974         761.772          39.000    39231576.778   157969302.958         589.252          44.000  
G32  25598000.877   134518393.817       -4164.718          31.000    25598019.448                       -3244.687          29.000  
G08  24470587.808   128593812.865        3629.407          35.000    24470590.459   100202978.383        2827.807          38.000  
G29  25025126.516   131507928.840       -3465.914          38.000    25025118.382   102473682.812       -2701.060          32.000  
C30  25365943.769   132087116.254        2768.951          41.000                                                                  
G18                                                                  25279032.894   103513420.935        1158.079          33.000  
C13                                                                  40561501.138   163324336.249       -1895.999          40.000  
C08                                                                  41482317.860   167032083.977       -1858.474          40.000  
> 2025 11 03 07 35 55.1600000  0 27                     
G04  21499258.737   112979374.129        1375.145          45.000    21499247.891    88035822.712        1071.691          46.000  
G16  20213371.993   106221990.859         396.769          47.000                                                                  
G28  22853783.806   120097443.104       -2583.583          40.000    22853772.647    93582371.194       -2013.166          41.000  
G31  20961154.324   110151612.000       -1541.638          46.000    20961141.431    85832358.730       -1201.208          44.000  
G03  24323381.315   127820228.406       -2853.232          38.000    24323375.536    99600161.364       -2223.096          36.000  
C16  36733562.221   191281275.145           1.765          48.000    36733549.036   147910775.749           1.197          48.000  
C19  23625977.677   123026649.195       -1954.777          47.000                                                                  
C27  23699421.240   123409090.031        1319.763          45.000                                                                  
C06  36291210.120   188977844.535          -0.461          46.000    36291190.841   146129593.985          -0.258          48.000  
C09  37382512.858   194660536.305         104.448          45.000    37382496.375   150523822.007          80.836          49.000  
C22  24694118.735   128588743.583         883.181          43.000                                                                  
G26  20701245.914   108785785.713       -1814.691          47.000    20701236.007    84768100.243       -1413.959          44.000  
G27  22158338.654   116442863.718        3134.393          42.000    22158330.339    90734661.982        2442.406          43.000  
G09  24122925.198   126766831.617        2893.490          35.000    24122917.001    98779271.939        2254.946          35.000  
C28  24670754.926   128467103.643        -821.618          38.000                                                                  
C07  38107476.710   198435611.310         832.036          42.000    38107457.420   153442945.430         643.322          45.000  
C20  25276020.802   131618865.310       -3592.069          39.000                                                                  
C36  23975242.334   124845361.172        1453.113          44.000                                                                  
C37  24825444.352   129272607.408       -2368.401          39.000                                                                  
C10  39231584.177   204289133.476         762.202          39.000    39231570.904   157969279.397         589.023          44.000  
G32  25598032.570   134518560.389       -4164.642          31.000    25598051.161                       -3245.447          29.000  
G08  24470560.205   128593667.699        3629.155          35.000    24470562.817   100202865.255        2827.998          38.000  
G29  25025152.912   131508067.488       -3466.154          38.000    25025144.774   102473790.863       -2701.373          33.000  
C30  25365922.518   132087005.501        2768.758          41.000                                                                  
G18                                                                  25279021.572   103513374.604        1158.018          34.000  
C13                                                                  40561519.959   163324412.095       -1896.148          40.000  
C08                                                                  41482336.314   167032158.327       -1858.738          40.000  
> 2025 11 03 07 35 55.2000000  0 27                     
G04  21499248.262   112979319.100        1375.433          45.000    21499237.414    88035779.836        1071.782          46.000  
G16  20213368.969   106221974.978         396.884          47.000                                                                  
G28  22853803.467   120097546.453       -2583.683          40.000    22853792.312    93582451.733       -2013.431          41.000  
G31  20961166.057   110151673.662       -1541.663          46.000    20961153.153    85832406.777       -1201.239          44.000  
G03  24323403.017   127820342.515       -2853.002          38.000    24323397.254    99600250.321       -2223.748          36.000  
C16  36733562.212   191281275.072           1.758          48.000    36733549.034   147910775.687           1.381          48.000  
C19  23625992.712   123026727.381       -1954.757          47.000                                                                  
C27  23699411.127   123409037.238        1319.684          45.000                                                                  
C06  36291210.125   188977844.544          -0.370          46.000    36291190.837   146129593.999          -0.374          48.000  
C09  37382512.068   194660532.115         104.619          45.000    37382495.587   150523818.772          80.847          49.000  
C22  24694111.955   128588708.236         883.419          43.000                                                                  
G26  20701259.730   108785858.297       -1814.679          47.000    20701249.781    84768156.798       -1413.922          44.000  
G27  22158314.800   116442738.344        3134.283          42.000    22158306.482    90734564.284        2442.405          43.000  
G09  24122903.196   126766715.863        2893.682          35.000    24122894.970    98779181.755        2254.663          35.000  
C28  24670761.241   128467136.507        -821.728          38.000                                                                  
C07  38107470.348   198435578.025         832.033          42.000    38107451.044   153442919.684         643.480          45.000  
C20  25276048.395   131619008.987       -3592.034          39.000                                                                  
C36  23975231.195   124845303.035        1453.253          44.000                                                                  
C37  24825462.555   129272702.122       -2368.081          39.000                                                                  
C10  39231578.323   204289102.986         762.316          39.000    39231565.064   157969255.831         588.994          44.000  
G32  25598064.283   134518726.982       -4164.881          31.000    25598082.873                       -3246.259          29.000  
G08  24470532.590   128593522.525        3629.272          35.000    24470535.174   100202752.114        2828.389          38.000  
G29  25025179.302   131508206.118       -3465.857          38.000    25025171.151   102473898.883       -2700.977          33.000  
C30  25365901.260   132086894.745        2768.748          41.000                                                                  
G18                                                                  25279010.244   103513328.278        1158.031          34.000  
C13                                                                  40561538.781   163324487.930       -1896.010          40.000  
C08                                                                  41482354.782   167032232.660       -1858.540          40.000  
> 2025 11 03 07 35 55.2400000  0 27                     
G04  21499237.793   112979264.069        1375.659          45.000    21499226.956    88035736.960        1071.849          46.000  
G16  20213365.917   106221959.088         397.115          47.000                                                                  
G28  22853823.129   120097649.803       -2583.712          40.000    22853811.978    93582532.258       -2013.322          41.000  
G31  20961177.776   110151735.318       -1541.528          46.000    20961164.874    85832454.820       -1201.141          44.000  
G03  24323424.756   127820456.633       -2853.002          38.000    24323418.960    99600339.235       -2223.333          36.000  
C16  36733562.196   191281274.992           1.886          48.000    36733549.002   147910775.623           1.503          48.000  
C19  23626007.731   123026805.558       -1954.565          47.000                                                                  
C27  23699400.991   123408984.433        1319.934          45.000                                                                  
C06  36291210.128   188977844.541          -0.099          46.000    36291190.828   146129594.006          -0.288          48.000  
C09  37382511.279   194660527.921         104.787          45.000    37382494.757   150523815.531          80.931          49.000  
C22  24694105.178   128588672.897         883.420          43.000                                                                  
G26  20701273.525   108785930.883       -1814.709          47.000    20701263.566    84768213.354       -1413.947          44.000  
G27  22158290.938   116442612.963        3134.366          42.000    22158282.594    90734466.592        2442.271          43.000  
G09  24122881.184   126766600.099        2894.026          35.000    24122872.943    98779091.559        2254.733          34.000  
C28  24670767.529   128467169.350        -821.408          38.000                                                                  
C07  38107463.981   198435544.728         832.252          42.000    38107444.651   153442893.932         643.698          45.000  
C20  25276076.015   131619152.667       -3592.029          39.000                                                                  
C36  23975220.039   124845244.903        1453.290          44.000                                                                  
C37  24825480.733   129272796.858       -2368.286          39.000                                                                  
C10  39231572.482   204289072.502         762.189          39.000    39231559.218   157969232.267         588.986          44.000  
G32  25598095.997   134518893.530       -4164.133          31.000    25598114.584                       -3245.690          29.000  
G08  24470504.964   128593377.347        3629.422          35.000    24470507.567   100202639.001        2828.062          38.000  
G29  25025205.705   131508344.745       -3465.699          38.000    25025197.531   102474006.871       -2700.119          33.000  
C30  25365880.004   132086783.978        2768.956          41.000                                                                  
G18                                                                  25278998.929   103513281.918        1158.575          34.000  
C13                                                                  40561557.616   163324563.769       -1895.985          40.000  
C08                                                                  41482373.247   167032306.982       -1858.207          40.000  
> 2025 11 03 07 35 55.2800000  0 27                     
G04  21499227.348   112979209.050        1375.552          45.000    21499216.490    88035694.090        1071.735          46.000  
G16  20213362.867   106221943.202         397.138          47.000                                                                  
G28  22853842.784   120097753.147       -2583.590          40.000    22853831.648    93582612.787       -2013.284          41.000  
G31  20961189.475   110151796.973       -1541.412          46.000    20961176.592    85832502.863       -1201.111          44.000  
G03  24323446.493   127820570.739       -2852.800          38.000    24323440.679    99600428.142       -2222.874          36.000  
C16  36733562.200   191281274.912           1.962          48.000    36733548.999   147910775.566           1.442          48.000  
C19  23626022.773   123026883.737       -1954.504          47.000                                                                  
C27  23699390.851   123408931.625        1320.123          45.000                                                                  
C06  36291210.125   188977844.546          -0.071          46.000    36291190.822   146129594.011          -0.209          48.000  
C09  37382510.490   194660523.722         104.988          45.000    37382493.963   150523812.290          80.995          49.000  
C22  24694098.378   128588637.553         883.528          43.000                                                                  
G26  20701287.332   108786003.460       -1814.551          47.000    20701277.361    84768269.909       -1413.953          44.000  
G27  22158267.089   116442487.592        3134.271          42.000    22158258.733    90734368.897        2442.302          43.000  
G09  24122859.145   126766484.336        2894.121          35.000    24122850.907    98779001.360        2254.871          34.000  
C28  24670773.836   128467202.186        -821.092          38.000                                                                  
C07  38107457.570   198435511.435         832.282          42.000    38107438.248   153442868.195         643.503          45.000  
C20  25276103.618   131619296.336       -3591.835          39.000                                                                  
C36  23975208.863   124845186.756        1453.577          44.000                                                                  
C37  24825498.929   129272891.570       -2367.990          39.000                                                                  
C10  39231566.634   204289042.027         761.938          39.000    39231553.383   157969208.694         589.180          44.000  
G32  25598127.701   134519060.106       -4164.081          31.000    25598146.296                       -3244.974          29.000  
G08  24470477.320   128593232.158        3629.624          35.000    24470479.943   100202525.878        2828.065          38.000  
G29  25025232.088   131508483.394       -3466.063          38.000    25025223.900   102474114.907       -2700.497          33.000  
C30  25365858.741   132086673.226        2768.794          41.000                                                                  
G18                                                                  25278987.610   103513235.561        1158.916          34.000  
C13                                                                  40561576.457   163324639.612       -1896.061          40.000  
C08                                                                  41482391.683   167032381.305       -1858.098          40.000  
> 2025 11 03 07 35 55.3200000  0 27                     
G04  21499216.886   112979154.030        1375.498          45.000    21499206.024    88035651.218        1071.738          46.000  
G16  20213359.856   106221927.327         396.957          47.000                                                                  
G28  22853862.456   120097856.482       -2583.482          40.000    22853851.302    93582693.310       -2013.138          41.000  
G31  20961201.204   110151858.635       -1541.504          46.000    20961188.331    85832550.912       -1201.166          44.000  
G03  24323468.203   127820684.872       -2853.168          38.000    24323462.380    99600517.057       -2222.787          36.000  
C16  36733562.175   191281274.835           1.925          48.000    36733548.997   147910775.507           1.448          48.000  
C19  23626037.768   123026961.917       -1954.492          47.000                                                                  
C27  23699380.728   123408878.817        1320.197          45.000                                                                  
C06  36291210.096   188977844.560          -0.248          46.000    36291190.816   146129594.019          -0.204          48.000  
C09  37382509.682   194660519.529         104.944          45.000    37382493.155   150523809.051          80.980          49.000  
C22  24694091.626   128588602.209         883.570          43.000                                                                  
G26  20701301.128   108786076.040       -1814.532          47.000    20701291.189    84768326.475       -1414.130          44.000  
G27  22158243.203   116442362.202        3134.551          42.000    22158234.870    90734271.191        2442.531          43.000  
G09  24122837.128   126766368.576        2894.154          35.000    24122828.869    98778911.146        2255.200          34.000  
C28  24670780.137   128467235.035        -821.124          38.000                                                                  
C07  38107451.182   198435478.145         832.218          42.000    38107431.883   153442842.443         643.665          45.000  
C20  25276131.227   131619439.998       -3591.635          39.000                                                                  
C36  23975197.684   124845128.620        1453.467          44.000                                                                  
C37  24825517.104   129272986.284       -2367.906          39.000                                                                  
C10  39231560.795   204289011.559         761.737          39.000    39231547.515   157969185.116         589.363          44.000  
G32  25598159.419   134519226.736       -4165.284          31.000    25598177.971                       -3244.403          29.000  
G08  24470449.703   128593087.003        3629.073          35.000    24470452.327   100202412.758        2828.073          38.000  
G29  25025258.475   131508622.040       -3466.214          38.000    25025250.284   102474222.916       -2700.321          33.000  
C30  25365837.502   132086562.477        2768.696          41.000                                                                  
G18                                                                  25278976.280   103513189.214        1158.916          34.000  
C13                                                                  40561595.285   163324715.452       -1896.088          40.000  
C08                                                                  41482410.136   167032455.648       -1858.450          40.000  
> 2025 11 03 07 35 55.3600000  0 27                     
G04  21499206.414   112979099.015        1375.403          45.000    21499195.565    88035608.354        1071.609          46.000  
G16  20213356.838   106221911.460         396.677          47.000                                                                  
G28  22853882.116   120097959.831       -2583.640          40.000    22853870.945    93582773.840       -2013.222          41.000  
G31  20961212.957   110151920.299       -1541.626          46.000    20961200.087    85832598.960       -1201.227          44.000  
G03  24323489.934   127820799.000       -2853.289          38.000    24323484.096    99600605.991       -2223.098          36.000  
C16  36733562.154   191281274.756           1.924          48.000    36733548.997   147910775.449           1.416          48.000  
C19  23626052.793   123027040.101       -1954.604          47.000                                                                  
C27  23699370.552   123408826.019        1320.044          45.000                                                                  
C06  36291210.112   188977844.571          -0.305          46.000    36291190.789   146129594.024          -0.165          48.000  
C09  37382508.873   194660515.351         104.613          45.000    37382492.342   150523805.819          80.838          49.000  
C22  24694084.852   128588566.860         883.665          43.000                                                                  
G26  20701314.941   108786148.628       -1814.685          47.000    20701305.003    84768383.040       -1414.191          44.000  
G27  22158219.341   116442236.831        3134.354          42.000    22158210.995    90734173.487        2442.597          43.000  
G09  24122815.110   126766252.823        2893.920          35.000    24122806.848    98778820.952        2255.067          34.000  
C28  24670786.433   128467267.878        -821.139          38.000                                                                  
C07  38107444.790   198435444.852         832.287          42.000    38107425.490   153442816.707         643.490          45.000  
C20  25276158.789   131619583.659       -3591.538          39.000                                                                  
C36  23975186.525   124845070.494        1453.204          44.000                                                                  
C37  24825535.275   129273081.010       -2368.068          39.000                                                                  
C10  39231554.938   204288981.072         761.961          39.000    39231541.665   157969161.549         589.255          44.000  
G32  25598191.144   134519393.319       -4164.878          31.000    25598209.690                       -3246.783          29.000  
G08  24470422.074   128592941.840        3628.981          35.000    24470424.719   100202299.655        2827.715          38.000  
G29  25025284.832   131508760.668       -3465.930          38.000    25025276.661   102474330.950       -2700.736          33.000  
C30  25365816.257   132086451.724        2768.717          41.000                                                                  
G18                                                                  25278964.995   103513142.929        1157.727          34.000  
C13                                                                  40561614.131   163324791.292       -1896.080          40.000  
C08                                                                  41482428.623   167032529.982       -1858.437          40.000  
> 2025 11 03 07 35 55.4000000  0 27                     
G04  21499195.967   112979044.011        1375.150          45.000    21499185.097    88035565.483        1071.659          46.000  
G16  20213353.832   106221895.586         396.711          47.000                                                                  
G28  22853901.791   120098063.199       -2584.041          40.000    22853890.625    93582854.378       -2013.391          41.000  
G31  20961224.716   110151981.969       -1541.754          46.000    20961211.829    85832647.008       -1201.208          44.000  
G03  24323511.653   127820913.143       -2853.629          38.000    24323505.831    99600694.950       -2223.769          36.000  
C16  36733562.119   191281274.684           1.826          48.000    36733548.985   147910775.399           1.259          48.000  
C19  23626067.783   123027118.287       -1954.684          47.000                                                                  
C27  23699360.397   123408773.226        1319.861          45.000                                                                  
C06  36291210.126   188977844.580          -0.275          46.000    36291190.779   146129594.038          -0.292          48.000  
C09  37382508.066   194660511.168         104.530          45.000    37382491.547   150523802.583          80.807          49.000  
C22  24694078.051   128588531.526         883.437          43.000                                                                  
G26  20701328.751   108786221.213       -1814.685          47.000    20701318.816    84768439.600       -1414.093          44.000  
G27  22158195.490   116442111.464        3134.174          42.000    22158187.134    90734075.795        2442.420          43.000  
G09  24122793.093   126766137.079        2893.657          35.000    24122784.833    98778730.775        2254.630          34.000  
C28  24670792.734   128467300.750        -821.636          38.000                                                                  
C07  38107438.382   198435411.570         832.094          42.000    38107419.102   153442790.969         643.429          45.000  
C20  25276186.373   131619727.334       -3591.775          39.000                                                                  
C36  23975175.322   124845012.367        1453.107          44.000                                                                  
C37  24825553.443   129273175.751       -2368.403          39.000                                                                  
C10  39231549.097   204288950.596         761.913          39.000    39231535.818   157969137.988         589.066          44.000  
G32  25598222.821   134519559.864       -4163.998          30.000    25598241.403                       -3246.260          29.000  
G08  24470394.412   128592796.640        3629.601          35.000    24470397.088   100202186.531        2827.928          38.000  
G29  25025311.242   131508899.327       -3466.283          38.000    25025303.049   102474438.984       -2700.965          33.000  
C30  25365794.988   132086340.961        2768.950          41.000                                                                  
G18                                                                  25278953.686   103513096.581        1158.189          34.000  
C13                                                                  40561632.957   163324867.135       -1896.144          40.000  
C08                                                                  41482447.106   167032604.313       -1858.356          40.000  
> 2025 11 03 07 35 55.4400000  0 27                     
G04  21499185.517   112978988.996        1375.224          45.000    21499174.613    88035522.610        1071.759          46.000  
G16  20213350.823   106221879.712         396.750          47.000                                                                  
G28  22853921.461   120098166.566       -2584.269          40.000    22853910.306    93582934.917       -2013.451          41.000  
G31  20961236.477   110152043.642       -1541.882          46.000    20961223.573    85832695.060       -1201.318          44.000  
G03  24323533.345   127821027.245       -2852.980          38.000    24323527.538    99600783.847       -2222.983          36.000  
C16  36733562.077   191281274.616           1.686          48.000    36733548.982   147910775.345           1.251          48.000  
C19  23626082.799   123027196.479       -1954.819          47.000                                                                  
C27  23699350.253   123408720.430        1319.818          45.000                                                                  
C06  36291210.161   188977844.594          -0.353          46.000    36291190.767   146129594.049          -0.315          48.000  
C09  37382507.265   194660506.990         104.411          45.000    37382490.748   150523799.345          80.853          49.000  
C22  24694071.266   128588496.198         883.202          43.000                                                                  
G26  20701342.569   108786293.804       -1814.801          47.000    20701332.630    84768496.157       -1413.989          44.000  
G27  22158171.634   116441986.096        3134.129          42.000    22158163.274    90733978.117        2442.093          43.000  
G09  24122771.055   126766021.363        2892.980          35.000    24122762.797    98778640.571        2254.838          34.000  
C28  24670799.034   128467333.612        -821.737          38.000                                                                  
C07  38107431.996   198435378.287         832.027          42.000    38107412.715   153442765.232         643.387          45.000  
C20  25276213.976   131619871.026       -3592.208          39.000                                                                  
C36  23975164.148   124844954.239        1453.107          44.000                                                                  
C37  24825571.638   129273270.501       -2368.691          39.000                                                                  
C10  39231543.246   204288920.104         762.188          39.000    39231529.977   157969114.426         588.979          44.000  
G32  25598254.545   134519726.465       -4164.641          30.000    25598273.066                       -3246.000          29.000  
G08  24470366.773   128592651.476        3629.170          35.000    24470369.447   100202073.419        2827.800          38.000  
G29  25025337.602   131509037.967       -3466.141          38.000    25025329.426   102474547.025       -2701.224          33.000  
C30  25365773.725   132086230.203        2768.973          41.000                                                                  
G18                                                                  25278942.382   103513050.257        1158.102          34.000  
C13                                                                  40561651.808   163324942.965       -1895.915          40.000  
C08                                                                  41482465.570   167032678.665       -1858.627          40.000  
> 2025 11 03 07 35 55.4800000  0 27                     
G04  21499175.040   112978933.985        1375.215          45.000    21499164.153    88035479.738        1071.749          46.000  
G16  20213347.799   106221863.838         396.769          47.000                                                                  
G28  22853941.130   120098269.920       -2584.061          40.000    22853929.956    93583015.455       -2013.455          41.000  
G31  20961248.184   110152105.307       -1541.785          46.000    20961235.332    85832743.121       -1201.532          44.000  
G03  24323555.073   127821141.374       -2853.136          38.000    24323549.264    99600872.788       -2223.346          36.000  
C16  36733562.068   191281274.543           1.738          48.000    36733548.958   147910775.287           1.324          48.000  
C19  23626097.811   123027274.681       -1955.064          47.000                                                                  
C27  23699340.129   123408667.646        1319.580          45.000                                                                  
C06  36291210.181   188977844.614          -0.496          46.000    36291190.753   146129594.062          -0.366          48.000  
C09  37382506.439   194660502.811         104.385          45.000    37382489.946   150523796.119          80.675          49.000  
C22  24694064.486   128588460.871         883.066          43.000                                                                  
G26  20701356.400   108786366.395       -1814.819          47.000    20701346.428    84768552.722       -1414.111          44.000  
G27  22158147.798   116441860.726        3134.174          42.000    22158139.413    90733880.426        2442.126          43.000  
G09  24122749.043   126765905.615        2893.271          35.000    24122740.792    98778550.387        2254.648          34.000  
C28  24670805.344   128467366.473        -821.685          38.000                                                                  
C07  38107425.606   198435345.008         831.897          42.000    38107406.323   153442739.494         643.381          45.000  
C20  25276241.567   131620014.719       -3592.436          39.000                                                                  
C36  23975152.989   124844896.109        1453.186          44.000                                                                  
C37  24825589.816   129273365.221       -2368.287          38.000                                                                  
C10  39231537.402   204288889.645         761.735          39.000    39231524.119   157969090.860         589.047          44.000  
G32  25598286.268   134519893.105       -4165.728          31.000    25598304.719                       -3245.351          29.000  
G08  24470339.170   128592506.322        3628.922          35.000    24470341.848   100201960.313        2827.617          38.000  
G29  25025364.001   131509176.597       -3465.892          38.000    25025355.814   102474655.055       -2701.069          33.000  
C30  25365752.443   132086119.456        2768.780          41.000                                                                  
G18                                                                  25278931.077   103513003.950        1157.754          34.000  
C13                                                                  40561670.642   163325018.820       -1896.272          40.000  
C08                                                                  41482484.033   167032753.013       -1858.762          40.000  
> 2025 11 03 07 35 55.5200000  0 27                     
G04  21499164.593   112978878.983        1375.088          45.000    21499153.700    88035436.884        1071.418          46.000  
G16  20213344.775   106221847.966         396.725          47.000                                                                  
G28  22853960.798   120098373.271       -2583.839          40.000    22853949.613    93583095.986       -2013.348          41.000  
G31  20961259.886   110152166.966       -1541.577          46.000    20961247.072    85832791.174       -1201.428          44.000  
G03  24323576.804   127821255.487       -2852.968          38.000    24323570.984    99600961.720       -2223.396          36.000  
C16  36733562.064   191281274.470           1.765          48.000    36733548.968   147910775.234           1.319          48.000  
C19  23626112.833   123027352.878       -1955.038          47.000                                                                  
C27  23699329.980   123408614.848        1319.775          45.000                                                                  
C06  36291210.171   188977844.625          -0.404          46.000    36291190.739   146129594.070          -0.283          48.000  
C09  37382505.656   194660498.622         104.585          45.000    37382489.158   150523792.884          80.784          49.000  
C22  24694057.697   128588425.538         883.174          43.000                                                                  
G26  20701370.197   108786438.982       -1814.722          47.000    20701360.233    84768609.285       -1414.117          44.000  
G27  22158123.929   116441735.347        3134.382          42.000    22158115.553    90733782.727        2442.323          43.000  
G09  24122726.999   126765789.841        2893.955          35.000    24122718.771    98778460.182        2254.943          35.000  
C28  24670811.648   128467399.341        -821.681          38.000                                                                  
C07  38107419.204   198435311.715         832.154          42.000    38107399.922   153442713.755         643.419          45.000  
C20  25276269.155   131620158.386       -3592.003          39.000                                                                  
C36  23975141.806   124844837.976        1453.247          44.000                                                                  
C37  24825607.999   129273459.938       -2367.960          38.000                                                                  
C10  39231531.555   204288859.183         761.518          39.000    39231518.269   157969067.289         589.210          44.000  
G32  25598317.932                       -4163.919          31.000    25598336.410                       -3245.497          29.000  
G08  24470311.564   128592361.187        3628.342          35.000    24470314.215   100201847.202        2827.645          38.000  
G29  25025390.376   131509315.227       -3465.747          38.000    25025382.198   102474763.107       -2701.362          33.000  
C30  25365731.173   132086008.704        2768.850          41.000                                                                  
G18                                                                  25278919.777   103512957.628        1157.836          34.000  
C13                                                                  40561689.486   163325094.668       -1896.266          40.000  
C08                                                                  41482502.489   167032827.337       -1858.354          40.000  
> 2025 11 03 07 35 55.5600000  0 27                     
G04  21499154.116   112978823.962        1375.327          45.000    21499143.230    88035394.026        1071.357          46.000  
G16  20213341.742   106221832.102         396.589          47.000                                                                  
G28  22853980.461   120098476.603       -2583.409          40.000    22853969.296    93583176.530       -2013.550          41.000  
G31  20961271.599   110152228.626       -1541.492          46.000    20961258.787    85832839.216       -1201.196          44.000  
G03  24323598.510   127821369.599       -2852.870          38.000    24323592.693    99601050.634       -2223.031          36.000  
C16  36733562.034   191281274.406           1.629          48.000    36733548.972   147910775.176           1.384          48.000  
C19  23626127.849   123027431.079       -1955.099          47.000                                                                  
C27  23699319.852   123408562.054        1319.824          45.000                                                                  
C06  36291210.175   188977844.638          -0.377          46.000    36291190.752   146129594.078          -0.232          48.000  
C09  37382504.848   194660494.434         104.700          45.000    37382488.384   150523789.646          80.879          49.000  
C22  24694050.929   128588390.210         883.151          43.000                                                                  
G26  20701383.996   108786511.569       -1814.716          47.000    20701374.052    84768665.851       -1414.154          44.000  
G27  22158100.075   116441609.963        3134.613          42.000    22158091.683    90733685.023        2442.501          43.000  
G09  24122704.961   126765674.088        2893.917          35.000    24122696.739    98778369.984        2254.998          35.000  
C28  24670817.946   128467432.201        -821.603          38.000                                                                  
C07  38107412.807   198435278.425         832.285          42.000    38107393.527   153442688.019         643.382          45.000  
C20  25276296.764   131620302.059       -3591.903          39.000                                                                  
C36  23975130.654   124844779.842        1453.314          44.000                                                                  
C37  24825626.197   129273554.676       -2368.248          38.000                                                                  
C10  39231525.716   204288828.703         761.735          39.000    39231512.403   157969043.723         589.165          44.000  
G32  25598349.605                       -4164.881          30.000    25598368.128                       -3245.635          29.000  
G08  24470283.942   128592215.967        3629.542          35.000    24470286.567   100201734.059        2828.248          38.000  
G29  25025416.792   131509453.890       -3466.302          38.000    25025408.585   102474871.128       -2700.811          33.000  
C30  25365709.897   132085897.934        2769.156          41.000                                                                  
G18                                                                  25278908.473   103512911.302        1157.993          34.000  
C13                                                                  40561708.336   163325170.506       -1896.100          40.000  
C08                                                                  41482520.975   167032901.669       -1858.312          40.000  
> 2025 11 03 07 35 55.6000000  0 27                     
G04  21499143.645   112978768.955        1375.212          45.000    21499132.739    88035351.160        1071.483          46.000  
G16  20213338.742   106221816.229         396.722          47.000                                                                  
G28  22854000.134   120098579.951       -2583.489          40.000    22853988.965    93583257.067       -2013.517          41.000  
G31  20961283.330   110152290.287       -1541.534          46.000    20961270.515    85832887.272       -1201.361          44.000  
G03  24323620.230   127821483.728       -2853.097          38.000    24323614.403    99601139.531       -2222.516          36.000  
C16  36733562.002   191281274.340           1.586          48.000    36733548.967   147910775.120           1.382          48.000  
C19  23626142.880   123027509.280       -1955.073          47.000                                                                  
C27  23699309.702   123408509.257        1319.922          45.000                                                                  
C06  36291210.203   188977844.654          -0.416          46.000    36291190.762   146129594.088          -0.267          48.000  
C09  37382504.009   194660490.250         104.645          45.000    37382487.591   150523786.410          80.883          49.000  
C22  24694044.136   128588354.889         883.017          43.000                                                                  
G26  20701397.813   108786584.166       -1814.874          47.000    20701387.837    84768722.419       -1414.197          44.000  
G27  22158076.220   116441484.594        3134.384          42.000    22158067.859    90733587.343        2442.134          43.000  
G09  24122682.949   126765558.360        2893.480          35.000    24122674.672    98778279.778        2255.080          35.000  
C28  24670824.250   128467465.062        -821.593          38.000                                                                  
C07  38107406.418   198435245.130         832.383          42.000    38107387.124   153442662.276         643.520          45.000  
C20  25276324.376   131620445.723       -3591.662          39.000                                                                  
C36  23975119.484   124844721.708        1453.369          44.000                                                                  
C37  24825644.388   129273649.387       -2367.957          38.000                                                                  
C10  39231519.847   204288798.217         762.059          39.000    39231506.566   157969020.149         589.312          44.000  
G32  25598381.325                       -4164.424          30.000    25598399.855                       -3245.384          29.000  
G08  24470256.314   128592070.790        3629.547          35.000    24470258.949   100201620.950        2827.948          38.000  
G29  25025443.162   131509592.529       -3466.157          38.000    25025434.952   102474979.150       -2700.633          33.000  
C30  25365688.634   132085787.178        2769.026          41.000                                                                  
G18                                                                  25278897.148   103512864.948        1158.641          34.000  
C13                                                                  40561727.184   163325246.346       -1896.024          40.000  
C08                                                                  41482539.453   167032976.018       -1858.596          40.000  
> 2025 11 03 07 35 55.6400000  0 27                     
G04  21499133.160   112978713.947        1375.137          45.000    21499122.285    88035308.299        1071.497          46.000  
G16  20213335.743   106221800.360         396.696          47.000                                                                  
G28  22854019.825   120098683.313       -2583.786          40.000    22854008.630    93583337.592       -2013.252          41.000  
G31  20961295.066   110152351.956       -1541.693          46.000    20961282.240    85832935.320       -1201.276          44.000  
G03  24323641.943   127821597.850       -2853.105          38.000    24323636.113    99601228.486       -2223.412          36.000  
C16  36733562.027   191281274.267           1.707          48.000    36733548.959   147910775.064           1.348          48.000  
C19  23626157.909   123027587.476       -1954.968          47.000                                                                  
C27  23699299.558   123408456.466        1319.824          45.000                                                                  
C06  36291210.208   188977844.667          -0.398          46.000    36291190.771   146129594.100          -0.341          48.000  
C09  37382503.201   194660486.067         104.579          45.000    37382486.836   150523783.178          80.805          49.000  
C22  24694037.387   128588319.563         883.040          43.000                                                                  
G26  20701411.630   108786656.756       -1814.819          47.000    20701401.655    84768778.982       -1414.117          44.000  
G27  22158052.371   116441359.214        3134.435          42.000    22158044.010    90733489.653        2442.145          43.000  
G09  24122660.918   126765442.645        2892.984          35.000    24122652.642    98778189.591        2254.779          35.000  
C28  24670830.558   128467497.921        -821.590          38.000                                                                  
C07  38107400.026   198435211.841         832.300          42.000    38107380.744   153442636.540         643.463          45.000  
C20  25276351.974   131620589.397       -3591.732          39.000                                                                  
C36  23975108.320   124844663.577        1453.314          44.000                                                                  
C37  24825662.575   129273744.122       -2368.237          39.000                                                                  
C10  39231513.967   204288767.744         761.932          39.000    39231500.709   157968996.581         589.265          44.000  
G32  25598413.034   134520559.372       -4164.375          30.000    25598431.556                       -3244.932          29.000  
G08  24470228.715   128591925.666        3628.578          35.000    24470231.325   100201507.846        2827.615          38.000  
G29  25025469.527   131509731.177       -3466.290          38.000    25025461.316   102475087.195       -2700.917          33.000  
C30  25365667.369   132085676.431        2768.781          41.000                                                                  
G18                                                                  25278885.828   103512818.628        1158.328          34.000  
C13                                                                  40561746.038   163325322.201       -1896.293          40.000  
C08                                                                  41482557.913   167033050.358       -1858.583          40.000  
> 2025 11 03 07 35 55.6800000  0 27                     
G04  21499122.689   112978658.944        1375.065          45.000    21499111.799    88035265.437        1071.505          46.000  
G16  20213332.714   106221784.494         396.622          47.000                                                                  
G28  22854039.512   120098786.666       -2583.907          40.000    22854028.307    93583418.125       -2013.325          41.000  
G31  20961306.809   110152413.626       -1541.779          46.000    20961293.960    85832983.371       -1201.257          44.000  
G03  24323663.657   127821711.981       -2853.231          38.000    24323657.828    99601317.412       -2223.363          36.000  
C16  36733562.015   191281274.192           1.831          48.000    36733548.946   147910775.017           1.198          48.000  
C19  23626172.932   123027665.669       -1954.876          47.000                                                                  
C27  23699289.425   123408403.673        1319.794          45.000                                                                  
C06  36291210.231   188977844.676          -0.305          46.000    36291190.799   146129594.110          -0.311          48.000  
C09  37382502.374   194660481.882         104.566          45.000    37382486.071   150523779.937          80.959          49.000  
C22  24694030.601   128588284.232         883.173          43.000                                                                  
G26  20701425.434   108786729.350       -1814.856          47.000    20701415.499    84768835.546       -1414.081          44.000  
G27  22158028.484   116441233.845        3134.286          42.000    22158020.130    90733391.950        2442.373          43.000  
G09  24122638.895   126765326.908        2893.109          35.000    24122630.638    98778099.435        2254.085          35.000  
C28  24670836.869   128467530.790        -821.692          38.000                                                                  
C07  38107393.640   198435178.569         831.901          42.000    38107374.347   153442610.805         643.400          45.000  
C20  25276379.573   131620733.091       -3592.136          39.000                                                                  
C36  23975097.167   124844605.447        1453.217          44.000                                                                  
C37  24825680.761   129273838.854       -2368.284          39.000                                                                  
C10  39231508.133   204288737.266         761.937          39.000    39231494.853   157968973.026         588.956          44.000  
G32  25598444.745   134520725.971       -4164.737          30.000    25598463.259                       -3244.983          29.000  
G08  24470201.085   128591780.461        3629.467          35.000    24470203.696   100201394.725        2827.854          38.000  
G29  25025495.908   131509869.811       -3466.093          38.000    25025487.710   102475195.217       -2700.649          33.000  
C30  25365646.105   132085565.681        2768.695          41.000                                                                  
G18                                                                  25278874.539   103512772.307        1158.149          34.000  
C13                                                                  40561764.891   163325398.037       -1896.041          40.000  
C08                                                                  41482576.379   167033124.691       -1858.454          40.000  
> 2025 11 03 07 35 55.7200000  0 27                     
G04  21499112.198   112978603.938        1375.076          45.000    21499101.316    88035222.572        1071.571          46.000  
G16  20213329.707   106221768.624         396.691          47.000                                                                  
G28  22854059.190   120098890.007       -2583.691          40.000    22854047.981    93583498.658       -2013.332          41.000  
G31  20961318.530   110152475.294       -1541.760          46.000    20961305.702    85833031.431       -1201.434          44.000  
G03  24323685.376   127821826.104       -2853.160          38.000    24323679.525    99601406.355       -2223.615          36.000  
C16  36733561.993   191281274.115           1.926          48.000    36733548.940   147910774.956           1.394          48.000  
C19  23626187.986   123027743.858       -1954.728          47.000                                                                  
C27  23699279.318   123408350.877        1319.867          45.000                                                                  
C06  36291210.231   188977844.688          -0.300          46.000    36291190.792   146129594.114          -0.192          48.000  
C09  37382501.552   194660477.702         104.484          45.000    37382485.263   150523776.699          80.951          49.000  
C22  24694023.814   128588248.907         883.133          44.000                                                                  
G26  20701439.236   108786801.935       -1814.667          47.000    20701429.305    84768892.107       -1414.026          44.000  
G27  22158004.639   116441108.480        3134.162          42.000    22157996.274    90733294.263        2442.249          43.000  
G09  24122616.860   126765211.151        2893.604          36.000    24122608.600    98778009.255        2254.200          35.000  
C28  24670843.168   128467563.658        -821.761          38.000                                                                  
C07  38107387.247   198435145.282         831.997          42.000    38107367.978   153442585.062         643.500          45.000  
C20  25276407.187   131620876.767       -3591.988          39.000                                                                  
C36  23975086.004   124844547.330        1452.948          44.000                                                                  
C37  24825698.969   129273933.578       -2368.156          39.000                                                                  
C10  39231502.289   204288706.798         761.727          39.000    39231489.018   157968949.454         589.124          44.000  
G32  25598476.467   134520892.539       -4164.411          30.000    25598494.968                       -3245.121          29.000  
G08  24470173.461   128591635.298        3629.224          35.000    24470176.077   100201281.607        2827.855          38.000  
G29  25025522.266   131510008.452       -3466.108          38.000    25025514.100   102475303.259       -2700.892          33.000  
C30  25365624.851   132085454.916        2768.961          41.000                                                                  
G18                                                                  25278863.257   103512725.983        1158.079          34.000  
C13                                                                  40561783.701   163325473.890       -1896.241          40.000  
C08                                                                  41482594.833   167033199.015       -1858.195          40.000  
> 2025 11 03 07 35 55.7600000  0 27                     
G04  21499101.705   112978548.934        1375.071          45.000    21499090.839    88035179.701        1071.727          46.000  
G16  20213326.677   106221752.754         396.715          47.000                                                                  
G28  22854078.861   120098993.352       -2583.687          41.000    22854067.639    93583579.189       -2013.300          41.000  
G31  20961330.280   110152536.959       -1541.681          46.000    20961317.434    85833079.479       -1201.324          44.000  
G03  24323707.095   127821940.216       -2852.853          38.000    24323701.229    99601495.282       -2223.398          36.000  
C16  36733561.993   191281274.034           2.031          48.000    36733548.925   147910774.890           1.560          48.000  
C19  23626203.027   123027822.052       -1954.779          46.000                                                                  
C27  23699269.210   123408298.085        1319.794          45.000                                                                  
C06  36291210.239   188977844.695          -0.216          46.000    36291190.819   146129594.124          -0.200          48.000  
C09  37382500.764   194660473.515         104.595          45.000    37382484.458   150523773.468          80.829          49.000  
C22  24694017.025   128588213.588         883.002          44.000                                                                  
G26  20701453.048   108786874.522       -1814.630          47.000    20701443.096    84768948.668       -1414.020          44.000  
G27  22157980.770   116440983.112        3134.147          42.000    22157972.447    90733196.577        2442.154          43.000  
G09  24122594.859   126765095.438        2893.111          36.000    24122586.570    98777919.043        2254.794          34.000  
C28  24670849.499   128467596.515        -821.568          38.000                                                                  
C07  38107380.848   198435111.996         832.016          42.000    38107361.579   153442559.318         643.580          45.000  
C20  25276434.783   131621020.449       -3591.992          39.000                                                                  
C36  23975074.859   124844489.211        1452.887          44.000                                                                  
C37  24825717.151   129274028.291       -2367.875          39.000                                                                  
C10  39231496.453   204288676.320         761.835          39.000    39231483.164   157968925.893         589.045          45.000  
G32  25598508.165   134521059.123       -4164.536          30.000    25598526.662                       -3244.990          29.000  
G08  24470145.845   128591490.124        3629.454          35.000    24470148.445   100201168.496        2827.743          38.000  
G29  25025548.626   131510147.085       -3465.973          38.000    25025540.461   102475411.313       -2701.424          33.000  
C30  25365603.568   132085344.156        2768.984          41.000                                                                  
G18                                                                  25278851.914   103512679.636        1158.546          34.000  
C13                                                                  40561802.565   163325549.724       -1895.991          40.000  
C08                                                                  41482613.290   167033273.366       -1858.541          40.000  
> 2025 11 03 07 35 55.8000000  0 27                     
G04  21499091.222   112978493.927        1375.096          45.000    21499080.399    88035136.852        1071.399          46.000  
G16  20213323.646   106221736.895         396.516          47.000                                                                  
G28  22854098.538   120099096.710       -2583.855          41.000    22854087.296    93583659.728       -2013.413          41.000  
G31  20961342.024   110152598.628       -1541.724          46.000    20961329.149    85833127.528       -1201.227          44.000  
G03  24323728.796   127822054.348       -2853.127          38.000    24323722.940    99601584.226       -2223.604          36.000  
C16  36733561.963   191281273.962           1.888          48.000    36733548.894   147910774.832           1.495          48.000  
C19  23626218.038   123027900.253       -1954.933          46.000                                                                  
C27  23699259.062   123408245.289        1319.818          45.000                                                                  
C06  36291210.213   188977844.721          -0.535          46.000    36291190.840   146129594.135          -0.275          48.000  
C09  37382499.943   194660469.341         104.429          45.000    37382483.653   150523770.243          80.644          49.000  
C22  24694010.236   128588178.274         882.822          44.000                                                                  
G26  20701466.859   108786947.114       -1814.758          47.000    20701456.923    84769005.239       -1414.209          45.000  
G27  22157956.901   116440857.754        3133.982          43.000    22157948.577    90733098.885        2442.228          43.000  
G09  24122572.835   126764979.682        2893.556          36.000    24122564.553    98777828.864        2254.565          34.000  
C28  24670855.818   128467629.379        -821.583          38.000                                                                  
C07  38107374.481   198435078.722         831.867          42.000    38107355.197   153442533.582         643.442          45.000  
C20  25276462.368   131621164.120       -3591.867          39.000                                                                  
C36  23975063.689   124844431.095        1452.820          44.000                                                                  
C37  24825735.313   129274123.014       -2367.965          39.000                                                                  
C10  39231490.600   204288645.873         761.381          39.000    39231477.318   157968902.334         588.960          45.000  
G32  25598539.875   134521225.715       -4164.771          30.000    25598558.355                       -3244.867          29.000  
G08  24470118.205   128591344.975        3629.104          35.000    24470120.804   100201055.391        2827.595          38.000  
G29  25025575.027   131510285.756       -3466.569          38.000    25025566.863   102475519.340       -2701.120          33.000  
C30  25365582.281   132085233.399        2768.943          41.000                                                                  
G18                                                                  25278840.591   103512633.307        1158.450          34.000  
C13                                                                  40561821.395   163325625.562       -1895.911          40.000  
C08                                                                  41482631.775   167033347.704       -1858.547          40.000  
> 2025 11 03 07 35 55.8400000  0 27                     
G04  21499080.771   112978438.938        1374.802          45.000    21499069.956    88035094.015        1070.995          46.000  
G16  20213320.634   106221721.049         396.175          47.000                                                                  
G28  22854118.194   120099200.051       -2583.646          42.000    22854106.963    93583740.247       -2013.085          41.000  
G31  20961353.753   110152660.294       -1541.693          46.000    20961340.908    85833175.589       -1201.440          44.000  
G03  24323750.513   127822168.498       -2853.584          38.000    24323744.673    99601673.166       -2223.649          36.000  
C16  36733561.924   191281273.898           1.660          48.000    36733548.887   147910774.779           1.377          48.000  
C19  23626233.073   123027978.451       -1954.976          46.000                                                                  
C27  23699248.931   123408192.493        1319.867          45.000                                                                  
C06  36291210.213   188977844.748          -0.698          46.000    36291190.836   146129594.150          -0.365          49.000  
C09  37382499.132   194660465.170         104.278          45.000    37382482.845   150523767.023          80.443          49.000  
C22  24694003.447   128588142.978         882.416          43.000                                                                  
G26  20701480.686   108787019.717       -1815.027          48.000    20701470.739    84769061.800       -1414.136          45.000  
G27  22157933.058   116440732.388        3133.997          43.000    22157924.729    90733001.212        2441.937          43.000  
G09  24122550.818   126764863.955        2893.330          35.000    24122542.513    98777738.666        2254.828          34.000  
C28  24670862.136   128467662.227        -821.337          39.000                                                                  
C07  38107368.081   198435045.459         831.545          42.000    38107348.798   153442507.853         643.225          45.000  
C20  25276489.951   131621307.809       -3592.153          39.000                                                                  
C36  23975052.544   124844372.981        1452.728          44.000                                                                  
C37  24825753.506   129274217.737       -2368.083          39.000                                                                  
C10  39231484.765   204288615.414         761.334          39.000    39231471.465   157968878.782         588.786          45.000  
G32  25598571.606   134521392.338       -4165.465          30.000    25598590.005                       -3244.736          29.000  
G08  24470090.589   128591199.856        3628.296          35.000    24470093.182   100200942.286        2827.529          38.000  
G29  25025601.374   131510424.407       -3466.464          38.000    25025593.242   102475627.359       -2700.763          33.000  
C30  25365560.997   132085122.665        2768.474          41.000                                                                  
G18                                                                  25278829.272   103512586.943        1158.990          34.000  
C13                                                                  40561840.227   163325701.418       -1896.257          40.000  
C08                                                                  41482650.249   167033422.063       -1858.910          40.000  
> 2025 11 03 07 35 55.8800000  0 27                     
G04  21499070.299   112978383.945        1374.733          45.000    21499059.498    88035051.176        1070.839          46.000  
G16  20213317.626   106221705.202         396.048          47.000                                                                  
G28  22854137.871   120099303.405       -2583.760          42.000    22854126.628    93583820.781       -2013.220          41.000  
G31  20961365.477   110152721.951       -1541.510          46.000    20961352.657    85833223.643       -1201.404          44.000  
G03  24323772.260   127822282.622       -2853.310          38.000    24323766.386    99601762.091       -2223.339          36.000  
C16  36733561.889   191281273.845           1.346          48.000    36733548.880   147910774.732           1.189          48.000  
C19  23626248.094   123028056.652       -1955.031          46.000                                                                  
C27  23699238.773   123408139.695        1319.891          45.000                                                                  
C06  36291210.206   188977844.780          -0.874          47.000    36291190.847   146129594.176          -0.601          49.000  
C09  37382498.330   194660460.988         104.417          45.000    37382482.047   150523763.808          80.316          49.000  
C22  24693996.668   128588107.648         882.917          42.000                                                                  
G26  20701494.506   108787092.325       -1815.253          48.000    20701484.559    84769118.370       -1414.252          45.000  
G27  22157909.201   116440607.042        3133.703          43.000    22157900.881    90732903.534        2441.873          43.000  
G09  24122528.781   126764748.230        2893.199          35.000    24122520.463    98777648.440        2255.410          34.000  
C28  24670868.432   128467695.079        -821.287          40.000                                                                  
C07  38107361.705   198435012.188         831.624          42.000    38107342.434   153442482.123         643.165          45.000  
C20  25276517.560   131621451.511       -3592.533          39.000                                                                  
C36  23975041.369   124844314.856        1452.979          44.000                                                                  
C37  24825771.714   129274312.450       -2367.949          39.000                                                                  
C10  39231478.914   204288584.948         761.411          39.000    39231465.584   157968855.242         588.494          45.000  
G32  25598603.303   134521558.962       -4165.861          31.000    25598621.710                       -3245.881          29.000  
G08  24470062.967   128591054.687        3628.716          35.000    24470065.550   100200829.180        2827.550          38.000  
G29  25025627.786   131510563.102       -3467.121          39.000    25025619.598   102475735.391       -2700.759          33.000  
C30  25365539.748   132085011.938        2768.151          42.000                                                                  
G18                                                                  25278817.926   103512540.570        1159.388          34.000  
C13                                                                  40561859.064   163325777.258       -1896.106          40.000  
C08                                                                  41482668.721   167033496.416       -1858.920          40.000  
> 2025 11 03 07 35 55.9200000  0 27                     
G04  21499059.849   112978328.957        1374.628          45.000    21499049.015    88035008.315        1071.204          46.000  
G16  20213314.607   106221689.336         396.400          47.000                                                                  
G28  22854157.549   120099406.742       -2583.463          42.000    22854146.291    93583901.308       -2013.151          42.000  
G31  20961377.190   110152783.613       -1541.510          46.000    20961364.364    85833271.695       -1201.337          44.000  
G03  24323793.985   127822396.743       -2853.084          38.000    24323788.108    99601851.024       -2223.262          36.000  
C16  36733561.901   191281273.788           1.300          48.000    36733548.845   147910774.690           1.025          49.000  
C19  23626263.104   123028134.861       -1955.222          46.000                                                                  
C27  23699228.653   123408086.896        1319.953          45.000                                                                  
C06  36291210.226   188977844.803          -0.743          47.000    36291190.843   146129594.200          -0.697          49.000  
C09  37382497.542   194660456.804         104.519          45.000    37382481.245   150523760.578          80.552          49.000  
C22  24693989.865   128588072.308         883.336          42.000                                                                  
G26  20701508.327   108787164.932       -1815.302          49.000    20701498.395    84769174.947       -1414.453          45.000  
G27  22157885.358   116440481.698        3133.524          43.000    22157877.001    90732805.842        2442.091          43.000  
G09  24122506.756   126764632.451        2894.016          35.000    24122498.440    98777558.248        2255.166          34.000  
C28  24670874.706   128467727.941        -821.436          40.000                                                                  
C07  38107355.327   198434978.914         831.763          42.000    38107336.036   153442456.374         643.552          45.000  
C20  25276545.157   131621595.230       -3593.004          41.000                                                                  
C36  23975030.204   124844256.711        1453.491          43.000                                                                  
C37  24825789.897   129274407.157       -2367.783          39.000                                                                  
C10  39231473.069   204288554.457         761.955          39.000    39231459.738   157968831.694         588.510          45.000  
G32  25598635.046   134521725.590       -4165.978          31.000    25598653.398                       -3245.299          29.000  
G08  24470035.318   128590909.492        3629.430          35.000    24470037.930   100200716.074        2827.646          38.000  
G29  25025654.187   131510701.761       -3466.799          40.000    25025645.959   102475843.441       -2701.125          33.000  
C30  25365518.502   132084901.201        2768.168          42.000                                                                  
G18                                                                  25278806.598   103512494.269        1158.248          34.000  
C13                                                                  40561877.876   163325853.110       -1896.207          39.000  
C08                                                                  41482687.170   167033570.749       -1858.550          40.000  
> 2025 11 03 07 35 55.9600000  0 27                     
G04  21499049.372   112978273.954        1374.859          45.000    21499038.535    88034965.449        1071.488          46.000  
G16  20213311.594   106221673.479         396.436          47.000                                                                  
G28  22854177.230   120099510.100       -2583.775          42.000    22854165.963    93583981.849       -2013.417          42.000  
G31  20961388.926   110152845.284       -1541.711          47.000    20961376.093    85833319.742       -1201.196          44.000  
G03  24323815.712   127822510.875       -2853.169          38.000    24323809.824    99601939.921       -2222.737          36.000  
C16  36733561.915   191281273.717           1.549          48.000    36733548.827   147910774.647           0.976          49.000  
C19  23626278.135   123028213.080       -1955.492          46.000                                                                  
C27  23699218.530   123408034.102        1319.879          45.000                                                                  
C06  36291210.260   188977844.813          -0.446          47.000    36291190.855   146129594.213          -0.516          49.000  
C09  37382496.772   194660452.619         104.586          45.000    37382480.448   150523757.333          80.955          48.000  
C22  24693983.067   128588036.991         883.126          42.000                                                                  
G26  20701522.130   108787237.543       -1815.344          49.000    20701512.196    84769231.516       -1414.380          45.000  
G27  22157861.493   116440356.341        3133.729          43.000    22157853.134    90732708.162        2442.018          44.000  
G09  24122484.734   126764516.730        2893.381          35.000    24122476.433    98777468.100        2254.245          34.000  
C28  24670881.020   128467760.788        -821.272          42.000                                                                  
C07  38107348.936   198434945.629         832.036          42.000    38107329.640   153442430.641         643.445          45.000  
C20  25276572.741   131621738.901       -3592.297          41.000                                                                  
C36  23975019.041   124844198.582        1453.375          43.000                                                                  
C37  24825808.094   129274501.871       -2367.822          39.000                                                                  
C10  39231467.216   204288523.980         761.956          39.000    39231453.885   157968808.124         588.964          45.000  
G32  25598666.757   134521892.187       -4165.377          31.000    25598685.103                       -3245.459          30.000  
G08  24470007.680   128590764.306        3629.703          35.000    24470010.302   100200602.943        2828.088          38.000  
G29  25025680.571   131510840.412       -3466.421          40.000    25025672.349   102475951.509       -2701.643          33.000  
C30  25365497.241   132084790.454        2768.430          42.000                                                                  
G18                                                                  25278795.286   103512447.938        1158.130          34.000  
C13                                                                  40561896.706   163325928.966       -1896.378          39.000  
C08                                                                  41482705.638   167033645.075       -1858.224          40.000  
> 2025 11 03 07 35 56.0000000  0 27                     
G04  21499038.874   112978218.960        1374.829          45.000    21499028.076    88034922.596        1071.393          46.000  
G16  20213308.576   106221657.615         396.522          47.000                                                                  
G28  22854196.897   120099613.463       -2584.039          42.000    22854185.632    93584062.392       -2013.584          42.000  
G31  20961400.663   110152906.974       -1542.200          48.000    20961387.832    85833367.804       -1201.453          44.000  
G03  24323837.447   127822625.006       -2853.153          38.000    24323831.552    99602028.871       -2223.372          37.000  
C16  36733561.906   191281273.641           1.802          48.000    36733548.831   147910774.600           1.039          49.000  
C19  23626293.196   123028291.294       -1955.503          46.000                                                                  
C27  23699208.381   123407981.321        1319.562          45.000                                                                  
C06  36291210.290   188977844.810          -0.066          47.000    36291190.861   146129594.225          -0.365          49.000  
C09  37382495.963   194660448.444         104.457          45.000    37382479.621   150523754.088          81.138          48.000  
C22  24693976.291   128588001.679         882.882          42.000                                                                  
G26  20701535.936   108787310.144       -1815.155          49.000    20701526.005    84769288.094       -1414.471          45.000  
G27  22157837.616   116440230.967        3134.150          43.000    22157829.291    90732610.487        2441.909          44.000  
G09  24122462.713   126764401.056        2892.239          35.000    24122454.425    98777377.950        2253.808          34.000  
C28  24670887.335   128467793.660        -821.591          42.000                                                                  
C07  38107342.547   198434912.333         832.325          42.000    38107323.234   153442404.908         643.332          45.000  
C20  25276600.315   131621882.562       -3591.713          41.000                                                                  
C36  23975007.880   124844140.460        1453.131          43.000                                                                  
C37  24825826.274   129274596.572       -2367.672          39.000                                                                  
C10  39231461.357   204288493.504         761.911          39.000    39231448.016   157968784.540         589.431          45.000  
G32  25598698.449   134522058.764       -4164.650          31.000    25598716.822                       -3245.898          30.000  
G08  24469980.098   128590619.233        3627.594          34.000    24469982.700   100200489.859        2827.448          38.000  
G29  25025706.926   131510979.069       -3466.350          40.000    25025698.703   102476059.525       -2700.910          34.000  
C30  25365475.993   132084679.710        2768.532          42.000                                                                  
G18                                                                  25278783.984   103512401.621        1157.904          34.000  
C13                                                                  40561915.534   163326004.813       -1896.338          39.000  
C08                                                                  41482724.101   167033719.415       -1858.312          40.000  
> 2025 11 03 07 35 56.0400000  0 27                     
G04  21499028.432   112978163.975        1374.637          45.000    21499017.634    88034879.753        1071.154          46.000  
G16  20213305.577   106221641.767         396.291          47.000                                                                  
G28  22854216.571   120099716.832       -2584.299          42.000    22854205.293    93584142.948       -2013.888          42.000  
G31  20961412.402   110152968.682       -1542.743          48.000    20961399.570    85833415.882       -1201.892          45.000  
G03  24323859.164   127822739.153       -2853.507          38.000    24323853.282    99602117.843       -2224.070          37.000  
C16  36733561.877   191281273.579           1.643          48.000    36733548.844   147910774.544           1.278          49.000  
C19  23626308.270   123028369.502       -1955.354          46.000                                                                  
C27  23699198.249   123407928.553        1319.165          45.000                                                                  
C06  36291210.284   188977844.835          -0.391          47.000    36291190.839   146129594.232          -0.226          49.000  
C09  37382495.165   194660444.269         104.395          45.000    37382478.813   150523750.862          80.889          48.000  
C22  24693969.505   128587966.386         882.425          42.000                                                                  
G26  20701549.724   108787382.747       -1815.088          49.000    20701539.804    84769344.668       -1414.459          45.000  
G27  22157813.763   116440105.612        3134.017          43.000    22157805.449    90732512.804        2441.983          44.000  
G09  24122440.685   126764285.300        2893.203          35.000    24122432.414    98777287.766        2254.172          34.000  
C28  24670893.629   128467826.546        -822.090          42.000                                                                  
C07  38107336.167   198434879.058         832.048          42.000    38107316.846   153442379.178         643.220          45.000  
C20  25276627.931   131622026.264       -3592.214          41.000                                                                  
C36  23974996.714   124844082.358        1452.606          43.000                                                                  
C37  24825844.458   129274691.295       -2368.003          39.000                                                                  
C10  39231455.495   204288463.049         761.563          39.000    39231442.163   157968760.983         589.184          45.000  
G32  25598730.151   134522225.351       -4164.544          31.000    25598748.525                       -3245.548          30.000  
G08  24469952.465   128590474.036        3628.710          34.000    24469955.069   100200376.727        2827.893          38.000  
G29  25025733.319   131511117.714       -3466.124          40.000    25025725.089   102476167.577       -2701.182          34.000  
C30  25365454.711   132084568.967        2768.562          42.000                                                                  
G18                                                                  25278772.641   103512355.298        1157.919          34.000  
C13                                                                  40561934.352   163326080.655       -1896.146          39.000  
C08                                                                  41482742.527   167033793.768       -1858.683          40.000  
> 2025 11 03 07 35 56.0800000  0 27                     
G04  21499017.977   112978108.997        1374.448          45.000    21499007.188    88034836.908        1071.061          46.000  
G16  20213302.572   106221625.924         396.074          47.000                                                                  
G28  22854236.243   120099820.206       -2584.476          42.000    22854224.984    93584223.496       -2013.870          42.000  
G31  20961424.151   110153030.379       -1542.688          48.000    20961411.291    85833463.961       -1202.100          45.000  
G03  24323880.897   127822853.322       -2854.142          38.000    24323874.989    99602206.796       -2224.126          37.000  
C16  36733561.830   191281273.527           1.389          48.000    36733548.812   147910774.495           1.239          49.000  
C19  23626323.294   123028447.717       -1955.415          46.000                                                                  
C27  23699188.145   123407875.791        1318.896          45.000                                                                  
C06  36291210.291   188977844.864          -0.646          47.000    36291190.830   146129594.255          -0.428          49.000  
C09  37382494.359   194660440.103         104.185          45.000    37382477.983   150523747.640          80.626          48.000  
C22  24693962.735   128587931.074         882.562          42.000                                                                  
G26  20701563.534   108787455.348       -1815.057          49.000    20701553.619    84769401.250       -1414.569          45.000  
G27  22157789.905   116439980.249        3134.108          43.000    22157781.575    90732415.131        2441.881          44.000  
G09  24122418.652   126764169.570        2893.187          35.000    24122410.383    98777197.562        2254.793          34.000  
C28  24670899.945   128467859.430        -822.252          42.000                                                                  
C07  38107329.755   198434845.801         831.557          42.000    38107310.464   153442353.457         643.003          45.000  
C20  25276655.535   131622169.966       -3592.460          41.000                                                                  
C36  23974985.563   124844024.240        1452.704          43.000                                                                  
C37  24825862.652   129274786.055       -2368.881          41.000                                                                  
C10  39231449.651   204288432.609         761.051          39.000    39231436.307   157968737.432         588.914          45.000  
G32  25598761.883   134522391.944       -4164.654          31.000    25598780.217                       -3245.100          30.000  
G08  24469924.817   128590328.881        3628.789          34.000    24469927.427   100200263.614        2827.792          38.000  
G29  25025759.735   131511256.386       -3466.525          40.000    25025751.477   102476275.662       -2701.889          34.000  
C30  25365433.426   132084458.220        2768.644          42.000                                                                  
G18                                                                  25278761.306   103512308.966        1158.056          34.000  
C13                                                                  40561953.169   163326156.509       -1896.340          39.000  
C08                                                                  41482761.030   167033868.115       -1858.768          40.000  
> 2025 11 03 07 35 56.1200000  0 27                     
G04  21499007.506   112978054.011        1374.490          45.000    21498996.727    88034794.072        1070.897          46.000  
G16  20213299.568   106221610.083         395.939          47.000                                                                  
G28  22854255.930   120099923.582       -2584.526          42.000    22854244.664    93584304.044       -2013.843          43.000  
G31  20961435.876   110153092.049       -1542.078          48.000    20961423.028    85833512.027       -1201.892          45.000  
G03  24323902.618   127822967.480       -2854.261          38.000    24323896.707    99602295.720       -2223.564          37.000  
C16  36733561.820   191281273.467           1.389          48.000    36733548.796   147910774.453           1.093          49.000  
C19  23626338.323   123028525.933       -1955.440          46.000                                                                  
C27  23699178.020   123407823.031        1318.817          45.000                                                                  
C06  36291210.320   188977844.890          -0.717          47.000    36291190.831   146129594.277          -0.553          49.000  
C09  37382493.565   194660435.933         104.177          45.000    37382477.188   150523744.424          80.394          48.000  
C22  24693955.956   128587895.777         882.385          42.000                                                                  
G26  20701577.377   108787527.965       -1815.338          49.000    20701567.433    84769457.830       -1414.594          45.000  
G27  22157766.052   116439854.908        3133.682          43.000    22157757.692    90732317.448        2441.959          44.000  
G09  24122396.621   126764053.818        2893.528          35.000    24122388.385    98777107.382        2254.867          34.000  
C28  24670906.279   128467892.324        -822.471          43.000                                                                  
C07  38107323.390   198434812.528         831.629          42.000    38107304.082   153442327.728         643.056          45.000  
C20  25276683.134   131622313.647       -3592.230          41.000                                                                  
C36  23974974.397   124843966.128        1452.716          43.000                                                                  
C37  24825880.841   129274880.829       -2369.485          41.000                                                                  
C10  39231443.791   204288402.128         761.641          39.000    39231430.482   157968713.887         588.676          45.000  
G32  25598793.574   134522558.548       -4165.008          31.000    25598811.917                       -3244.660          30.000  
G08  24469897.170   128590183.684        3629.521          34.000    24469899.811   100200150.512        2827.518          38.000  
G29  25025786.114   131511395.027       -3466.235          40.000    25025777.876   102476383.702       -2701.494          34.000  
C30  25365412.162   132084347.478        2768.590          42.000                                                                  
G18                                                                  25278749.985   103512262.684        1157.222          34.000  
C13                                                                  40561971.999   163326232.368       -1896.457          39.000  
C08                                                                  41482779.461   167033942.476       -1859.013          40.000  
> 2025 11 03 07 35 56.1600000  0 27                     
G04  21498997.022   112977999.028        1374.514          45.000    21498986.262    88034751.222        1071.050          46.000  
G16  20213296.560   106221594.241         395.930          47.000                                                                  
G28  22854275.601   120100026.944       -2584.226          42.000    22854264.335    93584384.591       -2013.772          43.000  
G31  20961447.626   110153153.732       -1542.010          48.000    20961434.770    85833560.088       -1201.660          45.000  
G03  24323924.333   127823081.631       -2854.083          37.000    24323918.431    99602384.662       -2223.501          37.000  
C16  36733561.825   191281273.412           1.308          48.000    36733548.823   147910774.406           1.115          49.000  
C19  23626353.323   123028604.147       -1955.384          46.000                                                                  
C27  23699167.880   123407770.250        1319.238          45.000                                                                  
C06  36291210.322   188977844.918          -0.776          47.000    36291190.844   146129594.296          -0.527          49.000  
C09  37382492.746   194660431.759         104.251          45.000    37382476.389   150523741.207          80.312          48.000  
C22  24693949.160   128587860.464         882.587          42.000                                                                  
G26  20701591.208   108787600.578       -1815.399          49.000    20701581.245    84769514.411       -1414.606          45.000  
G27  22157742.217   116439729.563        3133.575          43.000    22157733.860    90732219.779        2441.772          44.000  
G09  24122374.603   126763938.090        2893.253          35.000    24122366.355    98777017.196        2254.725          34.000  
C28  24670912.602   128467925.212        -822.395          43.000                                                                  
C07  38107317.014   198434779.258         831.662          42.000    38107297.686   153442302.005         642.994          45.000  
C20  25276710.724   131622457.337       -3592.217          41.000                                                                  
C36  23974963.235   124843908.017        1452.667          43.000                                                                  
C37  24825899.014   129274975.579       -2369.297          41.000                                                                  
C10  39231437.946   204288371.655         761.856          39.000    39231424.643   157968690.333         588.715          45.000  
G32  25598825.286   134522725.169       -4165.487          31.000    25598843.623                       -3245.094          30.000  
G08  24469869.550   128590038.564        3628.492          34.000    24469872.218   100200037.420        2827.260          38.000  
G29  25025812.521   131511533.700       -3466.660          40.000    25025804.270   102476491.732       -2700.967          34.000  
C30  25365390.898   132084236.736        2768.537          42.000                                                                  
G18                                                                  25278738.649   103512216.340        1157.968          34.000  
C13                                                                  40561990.845   163326308.225       -1896.479          39.000  
C08                                                                  41482797.904   167034016.824       -1858.882          40.000  
> 2025 11 03 07 35 56.2000000  0 27                     
G04  21498986.552   112977944.046        1374.531          45.000    21498975.800    88034708.384        1070.945          46.000  
G16  20213293.539   106221578.391         396.112          47.000                                                                  
G28  22854295.293   120100130.326       -2584.441          42.000    22854284.005    93584465.141       -2013.771          43.000  
G31  20961459.381   110153215.415       -1542.047          48.000    20961446.526    85833608.156       -1201.672          45.000  
G03  24323946.043   127823195.738       -2853.196          37.000    24323940.150    99602473.609       -2223.577          37.000  
C16  36733561.803   191281273.349           1.449          48.000    36733548.845   147910774.360           1.102          49.000  
C19  23626368.348   123028682.361       -1955.372          46.000                                                                  
C27  23699157.749   123407717.479        1319.263          45.000                                                                  
C06  36291210.339   188977844.945          -0.754          47.000    36291190.806   146129594.317          -0.551          49.000  
C09  37382491.956   194660427.585         104.301          45.000    37382475.580   150523737.977          80.533          48.000  
C22  24693942.377   128587825.157         882.626          42.000                                                                  
G26  20701605.049   108787673.190       -1815.399          49.000    20701595.061    84769570.987       -1414.484          46.000  
G27  22157718.352   116439604.210        3133.651          43.000    22157710.018    90732122.110        2441.657          44.000  
G09  24122352.574   126763822.376        2892.968          35.000    24122344.335    98776927.032        2254.273          34.000  
C28  24670918.919   128467958.112        -822.538          43.000                                                                  
C07  38107310.628   198434745.994         831.619          42.000    38107291.269   153442276.268         643.257          45.000  
C20  25276738.333   131622601.033       -3592.347          41.000                                                                  
C36  23974952.074   124843849.899        1452.832          43.000                                                                  
C37  24825917.206   129275070.322       -2368.969          41.000                                                                  
C10  39231432.107   204288341.187         761.795          39.000    39231418.794   157968666.777         588.763          45.000  
G32  25598856.956   134522891.737       -4164.724          31.000    25598875.301                       -3245.225          30.000  
G08  24469841.929   128589893.414        3628.491          34.000    24469844.589   100199924.312        2827.433          38.000  
G29  25025838.919   131511672.383       -3467.038          40.000    25025830.612   102476599.768       -2700.842          34.000  
C30  25365369.615   132084126.002        2768.360          42.000                                                                  
G18                                                                  25278727.325   103512170.000        1158.403          34.000  
C13                                                                  40562009.680   163326384.065       -1896.199          39.000  
C08                                                                  41482816.358   167034091.153       -1858.501          40.000  
> 2025 11 03 07 35 56.2400000  0 27                     
G04  21498976.091   112977889.064        1374.524          45.000    21498965.349    88034665.541        1070.974          46.000  
G16  20213290.534   106221562.547         396.080          47.000                                                                  
G28  22854314.953   120100233.707       -2584.508          42.000    22854303.666    93584545.694       -2013.789          43.000  
G31  20961471.129   110153277.109       -1542.255          48.000    20961458.288    85833656.223       -1201.697          45.000  
G03  24323967.739   127823309.868       -2853.119          37.000    24323961.863    99602562.567       -2223.840          37.000  
C16  36733561.767   191281273.292           1.402          48.000    36733548.856   147910774.311           1.156          49.000  
C19  23626383.338   123028760.587       -1955.612          46.000                                                                  
C27  23699147.612   123407664.709        1319.232          45.000                                                                  
C06  36291210.357   188977844.972          -0.720          47.000    36291190.794   146129594.339          -0.582          49.000  
C09  37382491.147   194660423.414         104.242          45.000    37382474.778   150523734.746          80.686          48.000  
C22  24693935.624   128587789.860         882.427          42.000                                                                  
G26  20701618.833   108787745.801       -1815.375          49.000    20701608.865    84769627.566       -1414.484          46.000  
G27  22157694.507   116439478.856        3133.743          43.000    22157686.161    90732024.431        2441.804          44.000  
G09  24122330.562   126763706.641        2893.193          35.000    24122322.314    98776836.837        2254.540          34.000  
C28  24670925.254   128467991.000        -822.395          43.000                                                                  
C07  38107304.255   198434712.722         831.707          42.000    38107284.875   153442250.545         643.125          45.000  
C20  25276765.924   131622744.732       -3592.499          41.000                                                                  
C36  23974940.918   124843791.788        1452.789          43.000                                                                  
C37  24825935.407   129275165.056       -2368.583          41.000                                                                  
C10  39231426.256   204288310.734         761.505          39.000    39231412.968   157968643.226         588.739          45.000  
G32  25598888.672   134523058.366       -4165.354          31.000    25598906.983                       -3245.973          30.000  
G08  24469814.281   128589748.259        3628.677          34.000    24469816.950   100199811.211        2827.412          38.000  
G29  25025865.303   131511811.043       -3466.780          40.000    25025857.013   102476707.834       -2701.375          34.000  
C30  25365348.363   132084015.262        2768.401          42.000                                                                  
G18                                                                  25278715.989   103512123.701        1157.829          34.000  
C13                                                                  40562028.499   163326459.918       -1896.278          39.000  
C08                                                                  41482834.813   167034165.486       -1858.310          40.000  
> 2025 11 03 07 35 56.2800000  0 27                     
G04  21498965.642   112977834.102        1374.172          45.000    21498954.899    88034622.711        1070.786          46.000  
G16  20213287.532   106221546.711         395.937          47.000                                                                  
G28  22854334.616   120100337.085       -2584.520          42.000    22854323.341    93584626.244       -2013.790          43.000  
G31  20961482.886   110153338.804       -1542.401          48.000    20961470.040    85833704.297       -1201.819          45.000  
G03  24323989.448   127823424.021       -2853.569          37.000    24323983.602    99602651.508       -2223.664          37.000  
C16  36733561.730   191281273.235           1.391          48.000    36733548.861   147910774.268           1.071          49.000  
C19  23626398.342   123028838.813       -1955.716          46.000                                                                  
C27  23699137.480   123407611.947        1319.073          45.000                                                                  
C06  36291210.383   188977844.994          -0.648          47.000    36291190.804   146129594.358          -0.541          49.000  
C09  37382490.335   194660419.251         104.082          45.000    37382473.960   150523731.517          80.741          48.000  
C22  24693928.820   128587754.567         882.269          42.000                                                                  
G26  20701632.639   108787818.413       -1815.369          49.000    20701622.701    84769684.160       -1414.771          46.000  
G27  22157670.661   116439353.518        3133.518          43.000    22157662.275    90731926.758        2441.798          44.000  
G09  24122308.535   126763590.921        2893.156          34.000    24122300.309    98776746.689        2253.959          34.000  
C28  24670931.598   128468023.887        -822.297          43.000                                                                  
C07  38107297.864   198434679.460         831.576          42.000    38107278.503   153442224.821         643.069          45.000  
C20  25276793.538   131622888.431       -3592.546          41.000                                                                  
C36  23974929.756   124843733.687        1452.564          43.000                                                                  
C37  24825953.603   129275259.794       -2368.433          41.000                                                                  
C10  39231420.416   204288280.291         761.123          39.000    39231407.131   157968619.664         588.906          45.000  
G32  25598920.367   134523224.936       -4164.612          31.000    25598938.672                       -3244.683          31.000  
G08  24469786.636   128589603.087        3629.109          34.000    24469789.334   100199698.098        2827.720          38.000  
G29  25025891.676   131511949.711       -3466.765          40.000    25025883.396   102476815.884       -2701.417          34.000  
C30  25365327.091   132083904.523        2768.436          42.000                                                                  
G18                                                                  25278704.678   103512077.410        1157.333          34.000  
C13                                                                  40562047.348   163326535.769       -1896.277          39.000  
C08                                                                  41482853.275   167034239.828       -1858.391          40.000  
