     3.04           OBSERVATION DATA    M: Mixed            RINEX VERSION / TYPE
RTKCONV 2.4.3 b34                       20251103 075539 UTC PGM / RUN BY / DATE 
format: u-blox UBX                                          COMMENT             
log: D:\GPdata\11_3\fingure_280_11_33_1.ubx                 COMMENT             
                                                            MARKER NAME         
                                                            MARKER NUMBER       
                                                            MARKER TYPE         
                                                            OBSERVER / AGENCY   
                                                            REC # / TYPE / VERS 
                                                            ANT # / TYPE        
        0.0000        0.0000        0.0000                  APPROX POSITION XYZ 
        0.0000        0.0000        0.0000                  ANTENNA: DELTA H/E/N
G    8 C1C L1C D1C S1C C2L L2L D2L S2L                      SYS / # / OBS TYPES 
C    8 C2I L2I D2I S2I C7I L7I D7I S7I                      SYS / # / OBS TYPES 
  2025    11    03    07    43   32.3600000     GPS         TIME OF FIRST OBS   
  2025    11    03    07    43   56.6800000     GPS         TIME OF LAST OBS    
G L1C                                                       SYS / PHASE SHIFT   
G L2L  0.00000                                              SYS / PHASE SHIFT   
C L2I                                                       SYS / PHASE SHIFT   
C L7I                                                       SYS / PHASE SHIFT   
  0                                                         GLONASS SLOT / FRQ #
 C1C    0.000 C1P    0.000 C2C    0.000 C2P    0.000        GLONASS COD/PHS/BIS 
                                                            END OF HEADER       
> 2025 11 03 07 43 32.3600000  0 26                     
G04  21391278.205   112411925.0233       1099.318          43.000    21391267.124                         856.512          46.000  
G16  20188453.997   106091041.7373        171.892          46.000                                                                  
G28  23083685.892   121305587.6703      -2705.643          41.000    23083676.318                       -2108.476          44.000  
G31  21101888.089   110891169.7423      -1698.779          46.000    21101874.753                       -1323.503          45.000  
G03  24575371.878                3      -2939.597          31.000    24575365.796                       -2291.312          37.000  
G18  25155447.292                3       1346.685          35.000    25155437.993                        1048.458          38.000  
C16  36732931.091   191278011.1543          7.626          48.000    36732915.813                           5.615          49.000  
C19  23806886.094   123968702.8593      -2168.549          46.000                                                                  
C27  23591973.021   122849594.6083       1120.026          46.000                                                                  
C06  36290797.198   188975704.1483          4.590          47.000    36290776.680                           3.585          49.000  
C09  37372263.585   194607183.5783        123.950          45.000    37372246.295                          95.714          48.000  
C22  24627240.246   128240501.9683        633.843          42.000                                                                  
G26  20864949.167   109646047.3553      -1951.373          47.000    20864939.424                       -1520.441          45.000  
G27  21892641.913   115046609.3793       2964.437          43.000    21892632.880                        2309.990          43.000  
G09  23877160.740   125475325.9843       2747.235          36.000    23877154.139                        2140.985          39.000  
C28  24753472.047                3      -1067.556          43.000                                                                  
C07  38036028.844   198063583.0153        790.437          41.000    38036010.049                         611.008          45.000  
C20  25592607.558   133267423.0103      -3620.878          41.000                                                                  
C36  23849579.341                3       1404.242          44.000                                                                  
C37  25034523.437                3      -2399.201          42.000                                                                  
C10  39165895.524   203947095.4533        729.256          38.000    39165881.026                         563.824          43.000  
G08  24155795.306                3       3597.911          35.000    24155795.247                        2803.533          36.000  
G29  25332307.104                3      -3595.975          37.000    25332297.483                       -2802.023          37.000  
C30  25122995.015   130822027.5293       2756.754          44.000                                                                  
C13  40775785.567                3      -2432.123          34.000    40775788.329                3      -1880.755          38.000  
C08                                                                  41691421.268                       -1827.630          39.000  
> 2025 11 03 07 43 32.4000000  0 26                     
G04  21391269.832   112411881.0282       1099.578          43.000    21391258.754                         856.707          46.000  
G16  20188452.696   106091034.8522        171.994          46.000                                                                  
G28  23083706.482   121305695.8762      -2705.348          41.000    23083696.903                       -2108.322          44.000  
G31  21101900.996   110891237.6782      -1698.646          46.000    21101887.670                       -1323.433          45.000  
G03  24575394.247                2      -2940.846          32.000    24575388.161                       -2290.846          37.000  
G18  25155437.047   132192713.3633       1346.273          35.000    25155427.735                        1049.206          38.000  
C16  36732931.052   191278010.8432          7.693          48.000    36732915.809                           5.704          48.000  
C19  23806902.755   123968789.5882      -2168.414          46.000                                                                  
C27  23591964.411   122849549.7852       1120.293          46.000                                                                  
C06  36290797.146   188975703.9482          4.755          47.000    36290776.620                           3.729          49.000  
C09  37372262.635   194607178.6112        124.063          45.000    37372245.368   150482548.126          95.919          48.000  
C22  24627235.374   128240476.6012        633.930          42.000                                                                  
G26  20864963.996   109646125.4002      -1951.251          47.000    20864954.269                       -1520.520          45.000  
G27  21892619.354   115046490.7832       2964.656          43.000    21892610.301                        2310.185          43.000  
G09  23877139.811   125475216.0772       2747.412          36.000    23877133.224                        2141.101          39.000  
C28  24753480.223   128897866.4113      -1067.207          43.000                                                                  
C07  38036022.775   198063551.3982        790.375          41.000    38036003.983                         611.193          45.000  
C20  25592635.373   133267567.8432      -3620.832          41.000                                                                  
C36  23849568.545                2       1404.956          44.000                                                                  
C37  25034541.870   130361428.9193      -2398.906          42.000                                                                  
C10  39165889.919   203947066.2692        729.397          38.000    39165875.401                         564.056          43.000  
G08  24155767.914   126939416.3413       3597.867          35.000    24155767.862                        2803.673          36.000  
G29  25332334.476   133122316.2583      -3596.303          37.000    25332324.862                       -2802.165          37.000  
C30  25122973.844   130821917.2562       2756.649          44.000                                                                  
C13  40775804.243                2      -2432.469          34.000    40775807.005                2      -1880.711          38.000  
C08                                                                  41691439.437                       -1827.234          39.000  
> 2025 11 03 07 43 32.4400000  0 26                     
G04  21391261.459   112411837.0432       1099.570          43.000    21391250.371    87593595.729         856.821          46.000  
G16  20188451.369   106091027.9642        172.120          46.000                                                                  
G28  23083727.084   121305804.1082      -2705.684          41.000    23083717.486    94523950.997       -2108.209          44.000  
G31  21101913.899   110891305.6082      -1698.421          46.000    21101900.621    86408753.659       -1323.561          45.000  
G03  24575416.607                2      -2940.387          32.000    24575410.544                       -2290.887          37.000  
G18  25155426.824   132192659.5262       1345.890          35.000    25155417.488                        1049.210          38.000  
C16  36732931.004   191278010.5312          7.779          48.000    36732915.764   147908231.248           5.930          49.000  
C19  23806919.422   123968876.3182      -2168.311          46.000                                                                  
C27  23591955.787   122849504.9542       1120.620          46.000                                                                  
C06  36290797.101   188975703.7442          4.962          47.000    36290776.552   146127925.393           3.691          49.000  
C09  37372261.676   194607173.6392        124.216          45.000    37372244.416   150482544.289          95.907          48.000  
C22  24627230.522   128240451.2272        634.118          42.000                                                                  
G26  20864978.851   109646203.4462      -1951.166          47.000    20864969.104    85438561.941       -1520.294          45.000  
G27  21892596.771   115046372.1782       2964.930          43.000    21892587.709                        2310.464          43.000  
G09  23877118.899   125475106.1812       2747.321          36.000    23877112.315                        2141.010          39.000  
C28  24753488.408   128897909.0722      -1066.704          43.000                                                                  
C07  38036016.717   198063519.7782        790.434          41.000    38035997.912   153155208.113         611.167          45.000  
C20  25592663.200   133267712.6742      -3620.801          41.000                                                                  
C36  23849557.735                2       1405.139          44.000                                                                  
C37  25034560.310   130361524.8732      -2398.833          42.000                                                                  
C10  39165884.320   203947037.1022        729.230          38.000    39165869.815   157704796.746         563.910          43.000  
G08  24155740.513                2       3598.683          35.000    24155740.482                        2803.782          36.000  
G29  25332361.845   133122460.1022      -3596.279          37.000    25332352.233                       -2801.917          37.000  
C30  25122952.657   130821806.9692       2756.905          44.000                                                                  
C13  40775822.934                2      -2432.612          34.000    40775825.697   164187353.4323      -1880.756          38.000  
C08                                                                  41691457.550                       -1827.289          39.000  
> 2025 11 03 07 43 32.4800000  0 26                     
G04  21391253.086   112411793.0552       1099.611          43.000    21391242.000    87593561.448         856.967          46.000  
G16  20188450.066   106091021.0852        171.994          46.000                                                                  
G28  23083747.681   121305912.3402      -2705.826          41.000    23083738.093    94524035.334       -2108.360          44.000  
G31  21101926.828   110891373.5432      -1698.386          46.000    21101913.558    86408806.599       -1323.580          45.000  
G03  24575438.971                2      -2940.002          32.000    24575432.931                       -2291.147          37.000  
G18  25155416.606   132192605.6972       1345.657          35.000    25155407.234                        1048.715          38.000  
C16  36732930.924   191278010.2282          7.639          48.000    36732915.741   147908231.007           6.033          49.000  
C19  23806936.088   123968963.0462      -2168.231          46.000                                                                  
C27  23591947.192   122849460.1282       1120.705          46.000                                                                  
C06  36290797.045   188975703.5512          4.879          47.000    36290776.499   146127925.242           3.724          49.000  
C09  37372260.721   194607168.6702        124.233          45.000    37372243.472   150482540.449          95.939          48.000  
C22  24627225.644   128240425.8612        634.086          42.000                                                                  
G26  20864993.708   109646281.4952      -1951.215          47.000    20864983.952    85438622.763       -1520.428          45.000  
G27  21892574.211   115046253.5722       2965.093          43.000    21892565.117    89646412.351        2310.342          43.000  
G09  23877097.979   125474996.2712       2747.620          36.000    23877091.396                        2140.942          39.000  
C28  24753496.591   128897951.7532      -1066.816          43.000                                                                  
C07  38036010.641   198063488.1622        790.396          41.000    38035991.856   153155183.666         611.143          45.000  
C20  25592691.000   133267857.5112      -3620.897          41.000                                                                  
C36  23849546.942                2       1404.926          44.000                                                                  
C37  25034578.737   130361620.8322      -2398.867          42.000                                                                  
C10  39165878.700   203947007.9282        729.318          38.000    39165864.234   157704774.180         564.053          43.000  
G08  24155713.110                2       3598.407          35.000    24155713.087                        2804.039          36.000  
G29  25332389.213   133122603.9362      -3596.065          37.000    25332379.616                       -2802.213          37.000  
C30  25122931.465   130821696.6822       2757.078          44.000                                                                  
C13  40775841.625   212330507.2573      -2432.797          35.000    40775844.380   164187428.6652      -1880.761          38.000  
C08                                                                  41691475.711                       -1826.935          39.000  
> 2025 11 03 07 43 32.5200000  0 26                     
G04  21391244.705   112411749.0772       1099.458          43.000    21391233.626    87593527.172         856.927          46.000  
G16  20188448.750   106091014.2032        172.007          46.000                                                                  
G28  23083768.271   121306020.5762      -2705.974          41.000    23083758.687    94524119.667       -2108.385          44.000  
G31  21101939.780   110891441.4822      -1698.457          46.000    21101926.498    86408859.544       -1323.656          45.000  
G03  24575461.340                2      -2939.514          32.000    24575455.311                       -2290.664          37.000  
G18  25155406.352   132192551.8332       1346.206          35.000    25155396.977                        1048.924          38.000  
C16  36732930.829   191278009.9212          7.615          48.000    36732915.698   147908230.772           5.937          48.000  
C19  23806952.714   123969049.7752      -2168.250          46.000                                                                  
C27  23591938.561   122849415.3022       1120.679          46.000                                                                  
C06  36290797.006   188975703.3522          4.916          47.000    36290776.469   146127925.085           3.835          49.000  
C09  37372259.788   194607163.7062        124.155          45.000    37372242.508   150482536.602          96.078          48.000  
C22  24627220.779   128240400.4912        634.165          42.000                                                                  
G26  20865008.543   109646359.5462      -1951.263          47.000    20864998.793    85438683.580       -1520.435          45.000  
G27  21892551.643   115046134.9742       2965.030          43.000    21892542.541    89646319.947        2310.133          43.000  
G09  23877077.017   125474886.3422       2748.096          36.000    23877070.487                        2140.912          39.000  
C28  24753504.782   128897994.4362      -1066.980          43.000                                                                  
C07  38036004.542   198063456.5552        790.221          41.000    38035985.780   153155159.218         611.161          45.000  
C20  25592718.785   133268002.3412      -3620.820          41.000                                                                  
C36  23849536.140   124190793.0793       1404.755          44.000                                                                  
C37  25034597.167   130361716.7962      -2399.066          42.000                                                                  
C10  39165873.104   203946978.7352        729.583          38.000    39165858.613   157704751.617         564.085          43.000  
G08  24155685.718                2       3597.999          35.000    24155685.702                        2803.610          36.000  
G29  25332416.601   133122747.7852      -3596.240          37.000    25332407.005                       -2802.362          37.000  
C30  25122910.300   130821586.3902       2757.236          44.000                                                                  
C13  40775860.308                2      -2432.269          35.000    40775863.068   164187503.8912      -1880.675          38.000  
C08                                                                  41691493.863   167874375.217       -1826.978          39.000  
> 2025 11 03 07 43 32.5600000  0 26                     
G04  21391236.345   112411705.0822       1099.698          43.000    21391225.278    87593492.903         856.753          46.000  
G16  20188447.447   106091007.3202        172.045          46.000                                                                  
G28  23083788.848   121306128.8032      -2705.832          41.000    23083779.291    94524204.002       -2108.409          44.000  
G31  21101952.726   110891509.4272      -1698.615          46.000    21101939.415    86408912.481       -1323.555          45.000  
G03  24575483.728                2      -2939.148          32.000    24575477.685                       -2290.800          37.000  
G18  25155396.108   132192497.9812       1346.305          35.000    25155386.739                        1049.112          38.000  
C16  36732930.746   191278009.6162          7.569          48.000    36732915.648   147908230.535           5.943          48.000  
C19  23806969.358   123969136.5102      -2168.378          46.000                                                                  
C27  23591929.933   122849370.4882       1120.420          46.000                                                                  
C06  36290796.959   188975703.1612          4.783          47.000    36290776.426   146127924.934           3.779          49.000  
C09  37372258.837   194607158.7452        124.045          45.000    37372241.555   150482532.758          96.088          48.000  
C22  24627215.908   128240375.1222        634.162          42.000                                                                  
G26  20865023.381   109646437.5952      -1951.245          47.000    20865013.639    85438744.402       -1520.520          45.000  
G27  21892529.107   115046016.3882       2964.762          43.000    21892519.990    89646227.540        2310.094          43.000  
G09  23877056.096   125474776.4262       2748.022          36.000    23877049.572    97772538.995        2141.113          39.000  
C28  24753512.978   128898037.1322      -1067.319          43.000                                                                  
C07  38035998.474   198063424.9362        790.350          41.000    38035979.672   153155134.767         611.231          45.000  
C20  25592746.593   133268147.1782      -3620.910          41.000                                                                  
C36  23849525.359   124190736.8912       1404.688          44.000                                                                  
C37  25034615.586   130361812.7512      -2398.992          42.000                                                                  
C10  39165867.487   203946949.5402        729.837          38.000    39165853.014   157704729.054         564.075          43.000  
G08  24155658.345                2       3598.169          35.000    24155658.319                        2803.956          36.000  
G29  25332443.968   133122891.6212      -3596.050          37.000    25332434.364                       -2802.250          37.000  
C30  25122889.111   130821476.0982       2757.315          44.000                                                                  
C13  40775879.014   212330701.8132      -2432.194          35.000    40775881.736   164187579.1162      -1880.638          38.000  
C08                                                                  41691512.047   167874448.319       -1827.405          39.000  
> 2025 11 03 07 43 32.6000000  0 26                     
G04  21391227.955   112411661.0892       1099.780          43.000    21391216.909    87593458.628         856.797          46.000  
G16  20188446.126   106091000.4372        172.051          46.000                                                                  
G28  23083809.474   121306237.0272      -2705.687          41.000    23083799.867    94524288.332       -2108.320          44.000  
G31  21101965.656   110891577.3672      -1698.584          46.000    21101952.337    86408965.413       -1323.438          45.000  
G03  24575506.124                2      -2939.574          32.000    24575500.070                       -2290.743          37.000  
G18  25155385.882   132192444.1472       1346.008          35.000    25155376.483                        1048.701          38.000  
C16  36732930.677   191278009.2992          7.767          48.000    36732915.623   147908230.299           5.904          48.000  
C19  23806985.990   123969223.2412      -2168.359          46.000                                                                  
C27  23591921.327   122849325.6712       1120.365          46.000                                                                  
C06  36290796.881   188975702.9672          4.758          47.000    36290776.370   146127924.780           3.811          49.000  
C09  37372257.876   194607153.7812        124.035          45.000    37372240.609   150482528.916          96.042          48.000  
C22  24627211.019   128240349.7542        634.162          42.000                                                                  
G26  20865038.220   109646515.6472      -1951.324          47.000    20865028.497    85438805.220       -1520.514          45.000  
G27  21892506.544   115045897.7952       2964.735          43.000    21892497.420    89646135.125        2310.234          43.000  
G09  23877035.210   125474666.5272       2747.638          36.000    23877028.654    97772453.344        2141.254          39.000  
C28  24753521.172   128898079.8352      -1067.616          43.000                                                                  
C07  38035992.399   198063393.3192        790.386          41.000    38035973.600   153155110.320         611.198          45.000  
C20  25592774.419   133268292.0102      -3620.877          41.000                                                                  
C36  23849514.587   124190680.6932       1404.852          44.000                                                                  
C37  25034634.025   130361908.6992      -2398.790          42.000                                                                  
C10  39165861.869   203946920.3612        729.651          38.000    39165847.411   157704706.492         564.088          43.000  
G08  24155630.941                2       3598.535          35.000    24155630.927                        2804.011          36.000  
G29  25332471.353   133123035.4722      -3596.145          37.000    25332461.744                       -2801.902          37.000  
C30  25122867.912   130821365.8162       2757.202          44.000                                                                  
C13  40775897.701   212330799.0742      -2431.700          35.000    40775900.432   164187654.3242      -1880.274          38.000  
C08                                                                  41691530.212   167874521.422       -1827.661          39.000  
> 2025 11 03 07 43 32.6400000  0 26                     
G04  21391219.589   112411617.1162       1099.403          43.000    21391208.554    87593424.362         856.669          46.000  
G16  20188444.804   106090993.5502        172.119          46.000                                                                  
G28  23083830.069   121306345.2442      -2705.507          41.000    23083820.483    94524372.672       -2108.471          44.000  
G31  21101978.576   110891645.3082      -1698.567          46.000    21101965.274    86409018.351       -1323.453          45.000  
G03  24575528.542                2      -2940.112          32.000    24575522.443   100632641.349       -2291.088          37.000  
G18  25155375.642   132192390.2652       1346.770          35.000    25155366.248   103007022.755        1048.962          38.000  
C16  36732930.593   191278008.9932          7.692          48.000    36732915.550   147908230.059           5.962          48.000  
C19  23807002.659   123969309.9672      -2168.237          46.000                                                                  
C27  23591912.749   122849280.8532       1120.391          46.000                                                                  
C06  36290796.873   188975702.7652          4.950          47.000    36290776.307   146127924.635           3.673          49.000  
C09  37372256.913   194607148.8092        124.229          45.000    37372239.659   150482525.082          95.882          48.000  
C22  24627206.138   128240324.3852        634.146          42.000                                                                  
G26  20865053.098   109646593.7012      -1951.373          47.000    20865043.345    85438866.036       -1520.465          45.000  
G27  21892483.983   115045779.2042       2964.718          43.000    21892474.855    89646042.715        2310.232          43.000  
G09  23877014.323   125474556.6312       2747.369          36.000    23877007.728    97772367.702        2141.144          39.000  
C28  24753529.356   128898122.5112      -1067.257          44.000                                                                  
C07  38035986.347   198063361.6932        790.549          41.000    38035967.538   153155085.874         611.155          45.000  
C20  25592802.246   133268436.8412      -3620.820          41.000                                                                  
C36  23849503.814   124190624.5022       1404.828          44.000                                                                  
C37  25034652.441   130362004.6532      -2398.794          42.000                                                                  
C10  39165856.245   203946891.1902        729.368          38.000    39165841.783   157704683.923         564.193          43.000  
G08  24155603.556                2       3598.148          35.000    24155603.536                        2804.208          36.000  
G29  25332498.728   133123179.3132      -3596.074          37.000    25332489.124   103732294.361       -2802.063          37.000  
C30  25122846.748   130821255.5222       2757.346          44.000                                                                  
C13  40775916.380   212330896.3692      -2432.148          35.000    40775919.103   164187729.5602      -1880.630          38.000  
C08                                                                  41691548.383   167874594.503       -1827.301          39.000  
> 2025 11 03 07 43 32.6800000  0 26                     
G04  21391211.229   112411573.1452       1099.258          43.000    21391200.203    87593390.092         856.714          46.000  
G16  20188443.467   106090986.6602        172.212          46.000                                                                  
G28  23083850.649   121306453.4572      -2705.353          41.000    23083841.065    94524456.997       -2108.275          44.000  
G31  21101991.491   110891713.2372      -1698.353          46.000    21101978.190    86409071.284       -1323.368          45.000  
G03  24575550.917                2      -2940.508          32.000    24575544.818   100632732.992       -2291.219          37.000  
G18  25155365.369   132192336.4052       1346.694          35.000    25155356.008   103006980.805        1048.786          38.000  
C16  36732930.514   191278008.6822          7.732          48.000    36732915.485   147908229.820           5.955          48.000  
C19  23807019.311   123969396.6892      -2168.073          46.000                                                                  
C27  23591904.153   122849236.0252       1120.588          46.000                                                                  
C06  36290796.836   188975702.5602          5.112          47.000    36290776.254   146127924.472           3.921          49.000  
C09  37372255.975   194607143.8272        124.443          45.000    37372238.734   150482521.233          96.077          48.000  
C22  24627201.289   128240299.0082        634.298          42.000                                                                  
G26  20865067.951   109646671.7482      -1951.263          47.000    20865058.195    85438926.855       -1520.453          45.000  
G27  21892461.391   115045660.6002       2964.954          43.000    21892452.273    89645950.293        2310.439          43.000  
G09  23876993.429   125474446.7472       2747.095          36.000    23876986.806    97772282.065        2140.942          39.000  
C28  24753537.586   128898165.1842      -1066.937          44.000                                                                  
C07  38035980.287   198063330.0612        790.793          41.000    38035961.452   153155061.418         611.305          45.000  
C20  25592830.074   133268581.6702      -3620.750          41.000                                                                  
C36  23849493.017   124190568.2972       1405.029          44.000                                                                  
C37  25034670.867   130362100.6042      -2398.771          42.000                                                                  
C10  39165850.664   203946862.0202        729.255          38.000    39165836.192   157704661.362         564.068          43.000  
G08  24155576.186                2       3598.179          35.000    24155576.150                        2803.462          36.000  
G29  25332526.093   133123323.1462      -3595.917          37.000    25332516.489   103732406.432       -2801.833          38.000  
C30  25122825.565   130821145.2372       2757.205          44.000                                                                  
C13  40775935.066   212330993.6782      -2432.798          34.000    40775937.781   164187804.7892      -1880.731          38.000  
C08                                                                  41691566.542   167874667.582       -1827.069          39.000  
> 2025 11 03 07 43 32.7200000  0 26                     
G04  21391202.861   112411529.1462       1099.674          43.000    21391191.823    87593355.803         857.036          46.000  
G16  20188442.157   106090979.7752        172.167          46.000                                                                  
G28  23083871.259   121306561.6792      -2705.411          41.000    23083861.611    94524541.320       -2108.126          44.000  
G31  21102004.405   110891781.1672      -1698.247          46.000    21101991.120    86409124.218       -1323.364          45.000  
G03  24575573.272                2      -2940.293          32.000    24575567.203   100632824.608       -2290.748          37.000  
G18  25155355.133   132192282.5902       1345.797          35.000    25155345.754   103006938.842        1048.911          38.000  
C16  36732930.460   191278008.3602          7.966          48.000    36732915.437   147908229.571           6.144          48.000  
C19  23807035.946   123969483.4112      -2168.011          46.000                                                                  
C27  23591895.557   122849191.2002       1120.643          46.000                                                                  
C06  36290796.796   188975702.3452          5.349          47.000    36290776.182   146127924.309           4.048          49.000  
C09  37372255.028   194607138.8442        124.598          45.000    37372237.810   150482517.377          96.313          48.000  
C22  24627196.441   128240273.6372        634.274          42.000                                                                  
G26  20865082.781   109646749.7872      -1951.050          47.000    20865073.017    85438987.665       -1520.325          45.000  
G27  21892438.820   115045541.9892       2965.228          43.000    21892429.691    89645857.871        2310.551          43.000  
G09  23876972.531   125474336.8362       2747.400          36.000    23876965.878    97772196.425        2140.857          39.000  
C28  24753545.755   128898207.8622      -1066.874          44.000                                                                  
C07  38035974.209   198063298.4462        790.582          41.000    38035955.342   153155036.952         611.548          45.000  
C20  25592857.868   133268726.4862      -3620.507          41.000                                                                  
C36  23849482.218   124190512.0932       1405.084          44.000                                                                  
C37  25034689.301   130362196.5512      -2398.709          42.000                                                                  
C10  39165845.067   203946832.8362        729.458          38.000    39165830.598   157704638.784         564.320          43.000  
G08  24155548.786                2       3598.103          35.000    24155548.739                        2804.421          36.000  
G29  25332553.479   133123466.9812      -3595.864          37.000    25332543.846   103732518.511       -2801.889          38.000  
C30  25122804.391   130821034.9402       2757.347          44.000                                                                  
C13  40775953.753   212331090.9402      -2432.135          34.000    40775956.480   164187880.0192      -1880.747          38.000  
C08                                                                  41691584.703   167874740.657       -1826.935          39.000  
> 2025 11 03 07 43 32.7600000  0 26                     
G04  21391194.476   112411485.1442       1099.935          43.000    21391183.448    87593321.524         857.026          46.000  
G16  20188440.827   106090972.8922        172.105          46.000                                                                  
G28  23083891.842   121306669.8942      -2705.369          41.000    23083882.192    94524625.635       -2107.895          44.000  
G31  21102017.336   110891849.1002      -1698.284          46.000    21102004.033    86409177.151       -1323.339          45.000  
G03  24575595.642                2      -2939.260          32.000    24575589.576   100632916.247       -2290.902          37.000  
G18  25155344.894   132192228.7452       1345.904          35.000    25155335.505   103006896.863        1049.305          38.000  
C16  36732930.387   191278008.0422          8.011          48.000    36732915.407   147908229.321           6.256          48.000  
C19  23807052.608   123969570.1332      -2168.011          46.000                                                                  
C27  23591886.988   122849146.3692       1120.759          46.000                                                                  
C06  36290796.773   188975702.1352          5.369          47.000    36290776.143   146127924.141           4.193          49.000  
C09  37372254.062   194607133.8662        124.553          45.000    37372236.898   150482513.529          96.281          48.000  
C22  24627191.561   128240248.2622        634.312          42.000                                                                  
G26  20865097.630   109646827.8212      -1950.879          47.000    20865087.877    85439048.472       -1520.184          45.000  
G27  21892416.233   115045423.3732       2965.413          43.000    21892407.133    89645765.449        2310.591          43.000  
G09  23876951.627   125474226.9002       2748.053          36.000    23876944.966    97772110.779        2141.052          39.000  
C28  24753553.943   128898250.5352      -1066.837          44.000                                                                  
C07  38035968.158   198063266.8142        790.719          41.000    38035949.283   153155012.499         611.445          45.000  
C20  25592885.661   133268871.3062      -3620.479          41.000                                                                  
C36  23849471.409   124190455.8992       1404.907          44.000                                                                  
C37  25034707.719   130362292.5002      -2398.685          42.000                                                                  
C10  39165839.456   203946803.6372        729.847          38.000    39165824.975   157704616.212         564.345          43.000  
G08  24155521.368                2       3598.833          35.000    24155521.354                        2804.273          36.000  
G29  25332580.841   133123610.8082      -3595.754          37.000    25332571.213   103732630.596       -2802.093          38.000  
C30  25122783.228   130820924.6492       2757.345          44.000                                                                  
C13  40775972.435   212331188.2012      -2431.626          34.000    40775975.178   164187955.2472      -1880.752          38.000  
C08                                                                  41691602.847   167874813.719       -1826.617          39.000  
> 2025 11 03 07 43 32.8000000  0 26                     
G04  21391186.116   112411441.1482       1099.956          43.000    21391175.085    87593287.239         857.141          46.000  
G16  20188439.500   106090966.0002        172.223          46.000                                                                  
G28  23083912.433   121306778.1002      -2705.240          41.000    23083902.764    94524709.961       -2108.000          44.000  
G31  21102030.246   110891917.0262      -1698.214          46.000    21102016.958    86409230.081       -1323.282          45.000  
G03  24575618.005                2      -2940.006          32.000    24575611.956   100633007.868       -2290.670          37.000  
G18  25155334.636   132192174.8762       1346.345          35.000    25155325.266   103006854.900        1049.164          38.000  
C16  36732930.296   191278007.7192          8.097          48.000    36732915.361   147908229.084           6.062          48.000  
C19  23807069.252   123969656.8592      -2168.121          46.000                                                                  
C27  23591878.401   122849101.5352       1120.876          46.000                                                                  
C06  36290796.744   188975701.9272          5.253          47.000    36290776.105   146127923.978           4.178          49.000  
C09  37372253.114   194607128.8862        124.538          45.000    37372235.955   150482509.680          96.253          48.000  
C22  24627186.666   128240222.8842        634.387          42.000                                                                  
G26  20865112.482   109646905.8592      -1950.897          47.000    20865102.732    85439109.278       -1520.135          45.000  
G27  21892393.656   115045304.7702       2965.255          43.000    21892384.570    89645673.041        2310.301          43.000  
G09  23876930.695   125474116.9712       2748.315          36.000    23876924.042    97772025.123        2141.364          39.000  
C28  24753562.149   128898293.2132      -1066.896          44.000                                                                  
C07  38035962.097   198063235.1742        790.917          41.000    38035943.231   153154988.034         611.588          45.000  
C20  25592913.466   133269016.1272      -3620.521          41.000                                                                  
C36  23849460.599   124190399.6912       1405.090          44.000                                                                  
C37  25034726.151   130362388.4402      -2398.523          42.000                                                                  
C10  39165833.859   203946774.4282        730.242          39.000    39165819.352   157704593.642         564.301          43.000  
G08  24155493.963                2       3599.267          35.000    24155493.973    98912792.655        2804.017          36.000  
G29  25332608.236   133123754.6312      -3595.616          37.000    25332598.602   103732742.676       -2802.029          38.000  
C30  25122762.041   130820814.3532       2757.361          44.000                                                                  
C13  40775991.087   212331285.4552      -2431.345          34.000    40775993.863   164188030.4662      -1880.570          38.000  
C08                                                                  41691620.987   167874886.793       -1826.697          39.000  
> 2025 11 03 07 43 32.8400000  0 26                     
G04  21391177.726   112411397.1612       1099.779          43.000    21391166.696    87593252.960         857.050          46.000  
G16  20188438.178   106090959.0992        172.472          46.000                                                                  
G28  23083933.073   121306886.3372      -2705.706          41.000    23083923.344    94524794.280       -2107.995          44.000  
G31  21102043.169   110891984.9492      -1698.090          46.000    21102029.887    86409282.999       -1323.025          45.000  
G03  24575640.376                2      -2940.331          32.000    24575634.349   100633099.496       -2290.685          37.000  
G18  25155324.374   132192120.9712       1347.317          35.000    25155315.018   103006812.932        1049.160          38.000  
C16  36732930.248   191278007.3912          8.195          48.000    36732915.293   147908228.831           6.245          48.000  
C19  23807085.906   123969743.5792      -2168.042          46.000                                                                  
C27  23591869.797   122849056.7032       1120.875          46.000                                                                  
C06  36290796.674   188975701.7132          5.283          47.000    36290776.071   146127923.815           4.114          49.000  
C09  37372252.158   194607123.9022        124.615          45.000    37372234.997   150482505.826          96.323          48.000  
C22  24627181.776   128240197.5122        634.335          42.000                                                                  
G26  20865127.323   109646983.8892      -1950.763          47.000    20865117.576    85439170.086       -1520.123          45.000  
G27  21892371.117   115045186.1722       2965.052          43.000    21892361.985    89645580.619        2310.421          43.000  
G09  23876909.781   125474007.0532       2748.108          36.000    23876903.120    97771939.469        2141.425          39.000  
C28  24753570.371   128898335.8912      -1066.942          44.000                                                                  
C07  38035956.009   198063203.5282        791.161          41.000    38035937.136   153154963.577         611.485          45.000  
C20  25592941.266   133269160.9502      -3620.598          41.000                                                                  
C36  23849449.816   124190343.4762       1405.383          44.000                                                                  
C37  25034744.579   130362484.3702      -2398.256          42.000                                                                  
C10  39165828.248   203946745.2452        729.848          39.000    39165813.772   157704571.066         564.322          43.000  
G08  24155466.612                2       3598.622          35.000    24155466.575    98912680.490        2804.067          36.000  
G29  25332635.605   133123898.4632      -3595.675          37.000    25332625.956   103732854.747       -2801.790          38.000  
C30  25122740.868   130820704.0452       2757.612          44.000                                                                  
C13  40776009.750   212331382.7072      -2431.149          34.000    40776012.556   164188105.6652      -1880.126          38.000  
C08                                                                  41691639.126   167874959.876       -1826.971          39.000  
> 2025 11 03 07 43 32.8800000  0 26                     
G04  21391169.324   112411353.1572       1099.971          43.000    21391158.318    87593218.678         857.068          46.000  
G16  20188436.874   106090952.1982        172.563          46.000                                                                  
G28  23083953.664   121306994.5382      -2705.255          41.000    23083943.938    94524878.596       -2107.915          44.000  
G31  21102056.084   110892052.8672      -1697.963          46.000    21102042.817    86409335.932       -1323.153          45.000  
G03  24575662.734                2      -2939.621          32.000    24575656.714   100633191.095       -2290.172          37.000  
G18  25155314.123   132192067.1222       1346.730          35.000    25155304.750   103006770.954        1049.403          38.000  
C16  36732930.193   191278007.0542          8.378          48.000    36732915.253   147908228.571           6.462          48.000  
C19  23807102.579   123969830.2892      -2167.822          46.000                                                                  
C27  23591861.176   122849011.8612       1121.053          46.000                                                                  
C06  36290796.615   188975701.4982          5.333          47.000    36290776.032   146127923.645           4.218          49.000  
C09  37372251.200   194607118.9102        124.779          45.000    37372234.045   150482501.961          96.563          48.000  
C22  24627176.886   128240172.1332        634.406          42.000                                                                  
G26  20865142.167   109647061.9172      -1950.708          47.000    20865132.428    85439230.892       -1520.123          45.000  
G27  21892348.556   115045067.5622       2965.186          43.000    21892339.400    89645488.183        2310.792          43.000  
G09  23876888.884   125473897.1312       2748.084          36.000    23876882.192    97771853.803        2141.638          39.000  
C28  24753578.560   128898378.5662      -1066.922          44.000                                                                  
C07  38035949.938   198063171.8922        791.062          41.000    38035931.070   153154939.119         611.448          45.000  
C20  25592969.083   133269305.7652      -3620.458          41.000                                                                  
C36  23849439.003   124190287.2682       1405.310          44.000                                                                  
C37  25034762.992   130362580.3132      -2398.375          42.000                                                                  
C10  39165822.645   203946716.0392        730.001          39.000    39165808.165   157704548.484         564.487          43.000  
G08  24155439.223                2       3598.873          35.000    24155439.171    98912568.300        2804.510          36.000  
G29  25332662.984   133124042.2992      -3595.831          37.000    25332653.330   103732966.833       -2802.067          37.000  
C30  25122719.711   130820593.7262       2757.902          44.000                                                                  
C13  40776028.410   212331479.9722      -2431.369          34.000    40776031.262   164188180.8732      -1880.049          38.000  
C08                                                                  41691657.258   167875032.951       -1826.941          39.000  
> 2025 11 03 07 43 32.9200000  0 26                     
G04  21391160.955   112411309.1652       1099.908          43.000    21391149.963    87593184.393         857.078          46.000  
G16  20188435.567   106090945.2932        172.686          46.000                                                                  
G28  23083974.233   121307102.7262      -2704.852          41.000    23083964.511    94524962.913       -2107.922          44.000  
G31  21102069.019   110892120.7852      -1697.898          46.000    21102055.733    86409388.861       -1323.175          45.000  
G03  24575685.087                2      -2939.415          32.000    24575679.082   100633282.722       -2290.369          37.000  
G18  25155303.881   132192013.2622       1346.594          35.000    25155294.503   103006728.960        1049.791          38.000  
C16  36732930.137   191278006.7152          8.501          48.000    36732915.174   147908228.303           6.703          48.000  
C19  23807119.263   123969916.9932      -2167.603          46.000                                                                  
C27  23591852.565   122848967.0242       1121.003          46.000                                                                  
C06  36290796.567   188975701.2702          5.560          47.000    36290775.967   146127923.479           4.175          49.000  
C09  37372250.255   194607113.9142        124.940          45.000    37372233.076   150482498.095          96.673          48.000  
C22  24627172.005   128240146.7402        634.683          42.000                                                                  
G26  20865157.005   109647139.9452      -1950.665          47.000    20865147.273    85439291.691       -1520.026          45.000  
G27  21892325.969   115044948.9482       2965.308          43.000    21892316.815    89645395.762        2310.633          43.000  
G09  23876867.968   125473787.2012       2748.132          36.000    23876861.282    97771768.145        2141.559          39.000  
C28  24753586.736   128898421.2232      -1066.591          44.000                                                                  
C07  38035943.864   198063140.2552        791.003          41.000    38035924.988   153154914.648         611.655          45.000  
C20  25592996.867   133269450.5672      -3620.135          41.000                                                                  
C36  23849428.204   124190231.0432       1405.615          44.000                                                                  
C37  25034781.385   130362676.2332      -2398.042          42.000                                                                  
C10  39165817.045   203946686.8512        729.773          39.000    39165802.562   157704525.904         564.485          43.000  
G08  24155411.818   126937545.1002       3598.891          35.000    24155411.769    98912456.129        2804.445          36.000  
G29  25332690.362   133124186.1102      -3595.325          37.000    25332680.696   103733078.887       -2801.551          37.000  
C30  25122698.527   130820483.4152       2757.905          44.000                                                                  
C13  40776047.085   212331577.2522      -2431.771          34.000    40776049.929   164188256.0642      -1879.772          37.000  
C08                                                                  41691675.409   167875106.011       -1826.660          39.000  
> 2025 11 03 07 43 32.9600000  0 26                     
G04  21391152.579   112411265.1492       1100.265          43.000    21391141.590    87593150.099         857.241          46.000  
G16  20188434.271   106090938.3912        172.640          46.000                                                                  
G28  23083994.815   121307210.9142      -2704.651          41.000    23083985.102    94525047.222       -2107.773          44.000  
G31  21102081.919   110892188.6922      -1697.714          46.000    21102068.645    86409441.779       -1323.052          45.000  
G03  24575707.403                2      -2938.795          32.000    24575701.452   100633374.332       -2290.286          37.000  
G18  25155293.639   132191959.4212       1346.183          35.000    25155284.250   103006686.986        1049.543          38.000  
C16  36732930.057   191278006.3882          8.329          48.000    36732915.097   147908228.034           6.775          48.000  
C19  23807135.931   123970003.6962      -2167.511          46.000                                                                  
C27  23591843.968   122848922.1822       1121.033          46.000                                                                  
C06  36290796.511   188975701.0382          5.757          47.000    36290775.936   146127923.300           4.397          49.000  
C09  37372249.314   194607108.9082        125.144          45.000    37372232.109   150482494.229          96.712          48.000  
C22  24627167.098   128240121.3512        634.718          42.000                                                                  
G26  20865171.847   109647217.9742      -1950.714          47.000    20865162.113    85439352.488       -1519.910          45.000  
G27  21892303.386   115044830.3272       2965.471          43.000    21892294.245    89645303.329        2310.787          43.000  
G09  23876847.050   125473677.2612       2748.401          36.000    23876840.372    97771682.493        2141.388          39.000  
C28  24753594.948   128898463.8832      -1066.462          44.000                                                                  
C07  38035937.789   198063108.6092        791.071          41.000    38035918.907   153154890.166         611.973          45.000  
C20  25593024.643   133269595.3652      -3619.939          41.000                                                                  
C36  23849417.438   124190174.8252       1405.566          44.000                                                                  
C37  25034799.787   130362772.1682      -2398.243          42.000                                                                  
C10  39165811.451   203946657.6332        730.231          39.000    39165796.918   157704503.314         564.638          43.000  
G08  24155384.434   126937401.1272       3599.182          35.000    24155384.372    98912343.963        2804.168          36.000  
G29  25332717.756   133124329.9372      -3595.436          37.000    25332708.057   103733190.951       -2801.522          37.000  
C30  25122677.323   130820373.1122       2757.710          44.000                                                                  
C13  40776065.773   212331674.5172      -2431.763          34.000    40776068.611   164188331.2642      -1879.873          37.000  
C08                                                                  41691693.542   167875179.062       -1826.331          39.000  
> 2025 11 03 07 43 33.0000000  0 26                     
G04  21391144.207   112411221.1512       1100.112          43.000    21391133.203    87593115.811         857.235          46.000  
G16  20188432.984   106090931.4902        172.564          46.000                                                                  
G28  23084015.411   121307319.1212      -2704.971          41.000    23084005.704    94525131.540       -2107.868          44.000  
G31  21102094.845   110892256.6052      -1697.731          46.000    21102081.590    86409494.706       -1323.146          45.000  
G03  24575729.753                2      -2937.969          32.000    24575723.828   100633465.958       -2290.494          37.000  
G18  25155283.397   132191905.5332       1346.813          35.000    25155274.005   103006645.016        1049.361          38.000  
C16  36732929.981   191278006.0552          8.288          48.000    36732915.036   147908227.772           6.647          48.000  
C19  23807152.567   123970090.4132      -2167.761          46.000                                                                  
C27  23591835.346   122848877.3542       1120.823          46.000                                                                  
C06  36290796.434   188975700.8162          5.669          47.000    36290775.875   146127923.124           4.427          49.000  
C09  37372248.353   194607103.9182        124.912          45.000    37372231.129   150482490.368          96.605          48.000  
C22  24627162.239   128240095.9642        634.741          42.000                                                                  
G26  20865186.682   109647296.0012      -1950.671          47.000    20865176.978    85439413.290       -1519.971          45.000  
G27  21892280.808   115044711.6992       2965.671          43.000    21892271.674    89645210.902        2310.772          43.000  
G09  23876826.134   125473567.3412       2748.193          36.000    23876819.460    97771596.843        2141.241          39.000  
C28  24753603.114   128898506.5372      -1066.349          44.000                                                                  
C07  38035931.735   198063076.9632        791.134          41.000    38035912.840   153154865.691         611.974          45.000  
C20  25593052.431   133269740.1742      -3620.085          41.000                                                                  
C36  23849406.639   124190118.6092       1405.481          44.000                                                                  
C37  25034818.195   130362868.1092      -2398.485          42.000                                                                  
C10  39165805.821   203946628.4272        730.263          39.000    39165791.334   157704480.733         564.559          43.000  
G08  24155357.012   126937257.1542       3599.181          35.000    24155356.995    98912231.793        2804.166          36.000  
G29  25332745.132   133124473.7392      -3595.068          37.000    25332735.420   103733303.016       -2801.545          37.000  
C30  25122656.110   130820262.8042       2757.692          44.000                                                                  
C13  40776084.432   212331771.7682      -2431.389          34.000    40776087.296   164188406.4582      -1879.805          37.000  
C08                                                                  41691711.672   167875252.140       -1826.697          39.000  
> 2025 11 03 07 43 33.0400000  0 26                     
G04  21391135.828   112411177.1442       1100.148          43.000    21391124.846    87593081.529         857.095          46.000  
G16  20188431.669   106090924.6022        172.252          46.000                                                                  
G28  23084036.008   121307427.3312      -2705.216          41.000    23084026.285    94525215.851       -2107.812          44.000  
G31  21102107.782   110892324.5362      -1698.101          46.000    21102094.496    86409547.621       -1322.972          45.000  
G03  24575752.107                2      -2939.076          32.000    24575746.206   100633557.587       -2290.646          37.000  
G18  25155273.147   132191851.6632       1346.755          35.000    25155263.758   103006603.043        1049.237          38.000  
C16  36732929.881   191278005.7162          8.372          48.000    36732914.956   147908227.519           6.423          48.000  
C19  23807169.194   123970177.1342      -2167.999          46.000                                                                  
C27  23591826.725   122848832.5262       1120.682          46.000                                                                  
C06  36290796.364   188975700.5942          5.601          47.000    36290775.832   146127922.949           4.409          49.000  
C09  37372247.374   194607098.9252        124.835          45.000    37372230.177   150482486.509          96.489          48.000  
C22  24627157.368   128240070.5792        634.654          42.000                                                                  
G26  20865201.542   109647374.0322      -1950.763          47.000    20865191.831    85439474.089       -1519.989          45.000  
G27  21892258.240   115044593.0932       2965.368          43.000    21892249.130    89645118.476        2310.684          43.000  
G09  23876805.238   125473457.4122       2748.151          36.000    23876798.537    97771511.183        2141.388          39.000  
C28  24753611.288   128898549.2192      -1066.770          44.000                                                                  
C07  38035925.667   198063045.3232        791.063          41.000    38035906.762   153154841.230         611.657          45.000  
C20  25593080.227   133269884.9852      -3620.247          41.000                                                                  
C36  23849395.834   124190062.3932       1405.414          44.000                                                                  
C37  25034836.607   130362964.0332      -2398.259          42.000                                                                  
C10  39165800.214   203946599.2212        730.246          39.000    39165785.721   157704458.157         564.418          43.000  
G08  24155329.623                2       3598.312          35.000    24155329.612    98912119.627        2804.202          36.000  
G29  25332772.485   133124617.5652      -3595.394          37.000    25332762.794   103733415.070       -2801.335          37.000  
C30  25122634.912   130820152.4992       2757.628          44.000                                                                  
C13  40776103.103   212331869.0342      -2431.479          34.000    40776105.987   164188481.6692      -1880.213          37.000  
C08                                                                  41691729.826   167875325.210       -1826.746          39.000  
> 2025 11 03 07 43 33.0800000  0 26                     
G04  21391127.448   112411133.1942       1099.111          43.000    21391116.489    87593047.269         856.614          46.000  
G16  20188430.368   106090917.7252        171.887          46.000                                                                  
G28  23084056.601   121307535.5692      -2705.905          41.000    23084046.874    94525300.201       -2108.510          44.000  
G31  21102120.720   110892392.4872      -1698.688          46.000    21102107.421    86409600.564       -1323.381          45.000  
G03  24575774.502                2      -2941.273          32.000    24575768.578   100633649.208       -2290.636          37.000  
G18  25155262.883   132191797.8032       1346.564          35.000    25155253.524   103006561.093        1048.805          38.000  
C16  36732929.813   191278005.4182          7.685          48.000    36732914.907   147908227.287           5.885          48.000  
C19  23807185.828   123970263.8802      -2168.591          46.000                                                                  
C27  23591818.093   122848787.7182       1120.239          46.000                                                                  
C06  36290796.324   188975700.4112          4.835          47.000    36290775.789   146127922.804           3.818          49.000  
C09  37372246.409   194607093.9622        124.241          45.000    37372229.200   150482482.661          96.215          48.000  
C22  24627152.498   128240045.2282        634.007          42.000                                                                  
G26  20865216.407   109647452.0942      -1951.404          47.000    20865206.702    85439534.922       -1520.667          45.000  
G27  21892235.679   115044474.5132       2964.677          43.000    21892226.565    89645026.066        2310.300          43.000  
G09  23876784.336   125473347.5392       2747.107          36.000    23876777.628    97771425.545        2141.028          39.000  
C28  24753619.482   128898591.9252      -1067.505          44.000                                                                  
C07  38035919.616   198063013.7182        790.372          41.000    38035900.668   153154816.789         611.105          45.000  
C20  25593108.068   133270029.8382      -3621.101          41.000                                                                  
C36  23849385.046   124190006.2112       1404.736          44.000                                                                  
C37  25034855.028   130363059.9922      -2398.784          42.000                                                                  
C10  39165794.622   203946570.0512        729.542          39.000    39165780.109   157704435.606         563.887          43.000  
G08  24155302.258   126936969.3262       3597.502          35.000    24155302.241    98912007.473        2803.827          36.000  
G29  25332799.856   133124761.4342      -3596.426          37.000    25332790.171   103733527.162       -2802.021          38.000  
C30  25122613.715   130820042.2102       2757.293          44.000                                                                  
C13  40776121.775   212331966.3082      -2431.803          34.000    40776124.662   164188556.8832      -1880.396          37.000  
C08                                                                  41691747.998   167875398.295       -1827.118          39.000  
> 2025 11 03 07 43 33.1200000  0 26                     
G04  21391119.099   112411089.2322       1098.838          43.000    21391108.137    87593013.022         856.191          46.000  
G16  20188429.069   106090910.8542        171.655          46.000                                                                  
G28  23084077.190   121307643.7982      -2705.982          41.000    23084067.449    94525384.533       -2108.496          44.000  
G31  21102133.649   110892460.4442      -1699.011          46.000    21102120.374    86409653.512       -1323.668          45.000  
G03  24575796.857                2      -2940.894          32.000    24575790.965   100633740.867       -2291.228          37.000  
G18  25155252.634   132191743.9642       1346.062          35.000    25155243.280   103006519.143        1048.610          38.000  
C16  36732929.745   191278005.1102          7.521          48.000    36732914.850   147908227.054           5.689          49.000  
C19  23807202.475   123970350.6222      -2168.744          46.000                                                                  
C27  23591809.515   122848742.9012       1120.223          46.000                                                                  
C06  36290796.307   188975700.2162          4.689          47.000    36290775.731   146127922.654           3.638          49.000  
C09  37372245.459   194607088.9932        124.062          45.000    37372228.247   150482478.817          96.062          48.000  
C22  24627147.622   128240019.8752        633.724          42.000                                                                  
G26  20865231.248   109647530.1402      -1951.385          47.000    20865221.558    85439595.738       -1520.648          45.000  
G27  21892213.112   115044355.9252       2964.492          43.000    21892203.993    89644933.676        2309.764          43.000  
G09  23876763.430   125473237.6362       2747.101          36.000    23876756.730    97771339.907        2140.881          39.000  
C28  24753627.689   128898634.6242      -1067.668          44.000                                                                  
C07  38035913.565   198062982.0852        790.563          41.000    38035894.615   153154792.340         611.025          45.000  
C20  25593135.887   133270174.6702      -3621.106          41.000                                                                  
C36  23849374.255   124189950.0142       1404.706          44.000                                                                  
C37  25034873.435   130363155.9422      -2398.877          42.000                                                                  
C10  39165788.990   203946540.8882        729.079          39.000    39165774.535   157704413.037         563.992          43.000  
G08  24155274.873   126936825.3642       3598.393          35.000    24155274.861    98911895.312        2803.863          36.000  
G29  25332827.224   133124905.2842      -3596.560          37.000    25332817.550   103733639.263       -2802.538          37.000  
C30  25122592.518   130819931.9302       2756.938          44.000                                                                  
C13  40776140.454   212332063.5882      -2432.097          34.000    40776143.321   164188632.1202      -1880.868          37.000  
C08                                                                  41691766.144   167875471.374       -1827.136          41.000  
> 2025 11 03 07 43 33.1600000  0 26                     
G04  21391110.729   112411045.2392       1099.368          43.000    21391099.741    87592978.739         856.642          46.000  
G16  20188427.752   106090903.9642        171.964          46.000                                                                  
G28  23084097.788   121307752.0122      -2705.648          41.000    23084088.037    94525468.843       -2108.040          44.000  
G31  21102146.577   110892528.3702      -1698.588          46.000    21102133.298    86409706.449       -1323.575          45.000  
G03  24575819.193                2      -2939.183          32.000    24575813.339   100633832.490       -2290.844          37.000  
G18  25155242.378   132191690.0922       1346.431          35.000    25155233.026   103006477.172        1049.022          38.000  
C16  36732929.683   191278004.7712          8.099          48.000    36732914.823   147908226.794           6.170          49.000  
C19  23807219.120   123970437.3342      -2168.140          46.000                                                                  
C27  23591800.895   122848698.0632       1120.693          46.000                                                                  
C06  36290796.250   188975699.9912          5.240          47.000    36290775.716   146127922.481           4.031          49.000  
C09  37372244.516   194607083.9942        124.625          45.000    37372227.247   150482474.954          96.384          48.000  
C22  24627142.740   128239994.4962        634.114          42.000                                                                  
G26  20865246.077   109647608.1782      -1951.123          47.000    20865236.402    85439656.539       -1520.264          45.000  
G27  21892190.545   115044237.3132       2964.941          43.000    21892181.428    89644841.249        2310.257          43.000  
G09  23876742.505   125473127.7242       2747.400          36.000    23876735.816    97771254.258        2141.101          39.000  
C28  24753635.891   128898677.3042      -1067.329          44.000                                                                  
C07  38035907.470   198062950.4462        790.778          41.000    38035888.560   153154767.881         611.259          45.000  
C20  25593163.683   133270319.4802      -3620.595          41.000                                                                  
C36  23849363.471   124189893.7942       1405.261          44.000                                                                  
C37  25034891.871   130363251.8742      -2398.559          42.000                                                                  
C10  39165783.393   203946511.6842        729.617          39.000    39165768.909   157704390.469         564.053          43.000  
G08  24155247.460   126936681.3692       3599.497          35.000    24155247.470    98911783.162        2803.726          36.000  
G29  25332854.618   133125049.0972      -3595.848          37.000    25332844.926   103733751.354       -2802.521          38.000  
C30  25122571.325   130819821.6162       2757.443          44.000                                                                  
C13  40776159.125   212332160.8432      -2431.631          34.000    40776161.999   164188707.3222      -1880.343          37.000  
C08                                                                  41691784.276   167875544.460       -1827.252          41.000  
> 2025 11 03 07 43 33.2000000  0 26                     
G04  21391102.361   112411001.2092       1100.363          43.000    21391091.366    87592944.434         857.334          46.000  
G16  20188426.429   106090897.0372        172.849          46.000                                                                  
G28  23084118.363   121307860.1952      -2704.895          41.000    23084108.637    94525553.138       -2107.495          44.000  
G31  21102159.502   110892596.2572      -1697.611          46.000    21102146.219    86409759.347       -1322.807          45.000  
G03  24575841.538                2      -2937.773          32.000    24575835.702   100633924.082       -2290.131          37.000  
G18  25155232.136   132191636.2222       1346.706          35.000    25155222.756   103006435.186        1049.538          38.000  
C16  36732929.591   191278004.4062          8.868          48.000    36732914.774   147908226.509           6.877          49.000  
C19  23807235.764   123970524.0192      -2167.267          46.000                                                                  
C27  23591792.290   122848653.2022       1121.382          46.000                                                                  
C06  36290796.197   188975699.7402          6.019          47.000    36290775.662   146127922.290           4.561          49.000  
C09  37372243.536   194607078.9672        125.459          45.000    37372226.245   150482471.069          96.925          48.000  
C22  24627137.872   128239969.0862        634.890          42.000                                                                  
G26  20865260.931   109647686.1812      -1950.311          47.000    20865251.252    85439717.324       -1519.733          45.000  
G27  21892167.961   115044118.6762       2965.678          43.000    21892158.843    89644748.806        2310.872          43.000  
G09  23876721.599   125473017.7402       2748.987          36.000    23876714.892    97771168.578        2141.828          39.000  
C28  24753644.080   128898719.9312      -1066.175          44.000                                                                  
C07  38035901.383   198062918.7802        791.469          41.000    38035882.458   153154743.394         611.957          45.000  
C20  25593191.473   133270464.2502      -3619.597          41.000                                                                  
C36  23849352.667   124189837.5472       1406.079          44.000                                                                  
C37  25034910.290   130363347.7912      -2398.089          42.000                                                                  
C10  39165777.767   203946482.4462        730.567          39.000    39165763.295   157704367.870         564.619          43.000  
G08  24155220.067   126936537.4032       3599.490          35.000    24155220.072    98911670.933        2805.042          36.000  
G29  25332881.956   133125192.8942      -3595.182          37.000    25332872.302   103733863.394       -2801.425          38.000  
C30  25122550.105   130819711.2742       2758.241          44.000                                                                  
C13  40776177.788   212332258.0822      -2431.059          34.000    40776180.651   164188782.5102      -1879.862          37.000  
C08                                                                  41691802.400   167875617.501       -1826.385          41.000  
> 2025 11 03 07 43 33.2400000  0 26                     
G04  21391093.979   112410957.1632       1101.147          43.000    21391082.971    87592910.114         857.944          46.000  
G16  20188425.091   106090890.1002        173.433          46.000                                                                  
G28  23084138.947   121307968.3512      -2704.005          41.000    23084129.212    94525637.427       -2107.145          44.000  
G31  21102172.409   110892664.1272      -1696.854          46.000    21102159.120    86409812.244       -1322.396          45.000  
G03  24575863.936                2      -2938.429          32.000    24575858.060   100634015.675       -2289.815          37.000  
G18  25155221.909   132191582.3322       1347.151          35.000    25155212.493   103006393.181        1050.119          38.000  
C16  36732929.527   191278004.0272          9.483          48.000    36732914.721   147908226.217           7.358          49.000  
C19  23807252.422   123970610.6952      -2166.760          46.000                                                                  
C27  23591783.658   122848608.3312       1121.841          46.000                                                                  
C06  36290796.149   188975699.4692          6.743          47.000    36290775.596   146127922.090           4.990          49.000  
C09  37372242.587   194607073.9272        126.047          45.000    37372225.267   150482467.180          97.266          48.000  
C22  24627132.973   128239943.6632        635.521          42.000                                                                  
G26  20865275.782   109647764.1782      -1949.811          47.000    20865266.070    85439778.100       -1519.360          45.000  
G27  21892145.371   115044000.0162       2966.407          43.000    21892136.279    89644656.344        2311.490          43.000  
G09  23876700.640   125472907.7712       2749.426          36.000    23876693.961    97771082.896        2142.145          39.000  
C28  24753652.276   128898762.5692      -1065.764          44.000                                                                  
C07  38035895.314   198062887.1052        791.938          41.000    38035876.399   153154718.889         612.570          45.000  
C20  25593219.269   133270609.0242      -3619.196          41.000                                                                  
C36  23849341.858   124189781.2972       1406.433          44.000                                                                  
C37  25034928.690   130363443.6752      -2397.266          42.000                                                                  
C10  39165772.152   203946453.2002        731.114          39.000    39165757.693   157704345.248         565.361          43.000  
G08  24155192.629   126936393.4102       3599.913          34.000    24155192.669    98911558.708        2805.710          36.000  
G29  25332909.324   133125336.6692      -3594.504          37.000    25332899.657   103733975.417       -2800.631          38.000  
C30  25122528.922   130819600.9192       2758.882          44.000                                                                  
C13  40776196.481   212332355.3212      -2430.815          34.000    40776199.318   164188857.6832      -1879.360          37.000  
C08                                                                  41691820.565   167875690.537       -1825.867          40.000  
> 2025 11 03 07 43 33.2800000  0 26                     
G04  21391085.618   112410913.1292       1101.240          43.000    21391074.580    87592875.805         857.992          46.000  
G16  20188423.760   106090883.1702        173.499          46.000                                                                  
G28  23084159.537   121308076.5202      -2703.972          41.000    23084149.792    94525721.707       -2106.909          44.000  
G31  21102185.340   110892732.0092      -1696.726          46.000    21102172.039    86409865.144       -1322.292          45.000  
G03  24575886.300                2      -2938.993          32.000    24575880.427   100634107.257       -2289.495          37.000  
G18  25155211.628   132191528.4292       1347.588          35.000    25155202.241   103006351.173        1050.415          38.000  
C16  36732929.424   191278003.6582          9.538          48.000    36732914.688   147908225.933           7.345          49.000  
C19  23807269.061   123970697.3812      -2166.846          46.000                                                                  
C27  23591775.025   122848563.4582       1122.010          46.000                                                                  
C06  36290796.088   188975699.2052          6.888          47.000    36290775.557   146127921.880           5.328          49.000  
C09  37372241.588   194607068.8982        126.023          45.000    37372224.329   150482463.292          97.368          48.000  
C22  24627128.092   128239918.2442        635.701          42.000                                                                  
G26  20865290.615   109647842.1682      -1949.536          47.000    20865280.919    85439838.873       -1519.214          45.000  
G27  21892122.811   115043881.3692       2966.486          43.000    21892113.675    89644563.877        2311.878          43.000  
G09  23876679.723   125472797.8322       2748.987          36.000    23876673.041    97770997.211        2142.316          39.000  
C28  24753660.457   128898805.2132      -1065.809          44.000                                                                  
C07  38035889.235   198062855.4342        791.989          41.000    38035870.336   153154694.391         612.677          45.000  
C20  25593247.074   133270753.7992      -3619.163          41.000                                                                  
C36  23849331.025   124189725.0482       1406.427          44.000                                                                  
C37  25034947.115   130363539.5682      -2397.108          42.000                                                                  
C10  39165766.522   203946423.9602        731.200          39.000    39165752.052   157704322.645         565.377          43.000  
G08  24155165.237   126936249.4272       3599.802          34.000    24155165.289    98911446.526        2805.139          36.000  
G29  25332936.699   133125480.4662      -3594.660          37.000    25332927.024   103734087.460       -2800.716          38.000  
C30  25122507.726   130819490.5702       2758.989          45.000                                                                  
C13  40776215.135   212332452.5692      -2431.053          34.000    40776217.985   164188932.8402      -1878.848          37.000  
C08                                                                  41691838.716   167875763.567       -1825.574          41.000  
> 2025 11 03 07 43 33.3200000  0 26                     
G04  21391077.241   112410869.1172       1100.747          43.000    21391066.206    87592841.499         857.844          46.000  
G16  20188422.459   106090876.2512        173.263          46.000                                                                  
G28  23084180.109   121308184.7072      -2704.364          41.000    23084170.380    94525806.001       -2107.102          44.000  
G31  21102198.283   110892799.8982      -1696.917          46.000    21102184.964    86409918.044       -1322.320          45.000  
G03  24575908.656                2      -2938.995          32.000    24575902.789   100634198.863       -2289.871          37.000  
G18  25155201.376   132191474.5332       1347.602          35.000    25155191.970   103006309.159        1050.501          38.000  
C16  36732929.309   191278003.2972          9.322          48.000    36732914.602   147908225.653           7.199          49.000  
C19  23807285.685   123970784.0712      -2167.059          46.000                                                                  
C27  23591766.386   122848518.5962       1121.778          46.000                                                                  
C06  36290796.033   188975698.9552          6.631          47.000    36290775.533   146127921.683           5.192          49.000  
C09  37372240.636   194607063.8792        125.728          45.000    37372223.354   150482459.408          97.253          48.000  
C22  24627123.196   128239892.8382        635.498          42.000                                                                  
G26  20865305.452   109647920.1712      -1949.792          47.000    20865295.767    85439899.655       -1519.385          45.000  
G27  21892100.227   115043762.7322       2966.262          43.000    21892091.099    89644471.436        2311.522          43.000  
G09  23876658.817   125472687.8672       2749.115          36.000    23876652.109    97770911.530        2142.181          39.000  
C28  24753668.627   128898847.8592      -1065.942          44.000                                                                  
C07  38035883.143   198062823.7692        791.883          41.000    38035864.247   153154669.914         612.274          45.000  
C20  25593274.845   133270898.5742      -3619.198          41.000                                                                  
C36  23849320.218   124189668.8082       1406.183          44.000                                                                  
C37  25034965.533   130363635.4732      -2397.361          42.000                                                                  
C10  39165760.905   203946394.7402        730.827          39.000    39165746.438   157704300.040         565.326          43.000  
G08  24155137.816   126936105.4582       3599.492          34.000    24155137.911    98911334.331        2805.041          36.000  
G29  25332964.060   133125624.2582      -3594.662          37.000    25332954.403   103734199.517       -2801.106          38.000  
C30  25122486.541   130819380.2332       2758.758          45.000                                                                  
C13  40776233.791   212332549.7522      -2429.962          34.000    40776236.649   164189008.0392      -1879.437          37.000  
C08                                                                  41691856.872   167875836.622       -1825.958          41.000  
> 2025 11 03 07 43 33.3600000  0 26                     
G04  21391068.875   112410825.1122       1100.303          43.000    21391057.845    87592807.211         857.401          46.000  
G16  20188421.143   106090869.3362        173.019          46.000                                                                  
G28  23084200.700   121308292.9012      -2704.750          41.000    23084190.977    94525890.312       -2107.563          44.000  
G31  21102211.184   110892867.8112      -1697.487          46.000    21102197.889    86409970.962       -1322.690          45.000  
G03  24575931.001                2      -2938.926          32.000    24575925.169   100634290.458       -2289.856          37.000  
G18  25155191.109   132191420.6052       1348.094          35.000    25155181.720   103006267.190        1049.631          38.000  
C16  36732929.229   191278002.9462          8.991          48.000    36732914.556   147908225.381           6.953          49.000  
C19  23807302.321   123970870.7742      -2167.468          46.000                                                                  
C27  23591757.783   122848473.7582       1121.143          46.000                                                                  
C06  36290795.987   188975698.7232          6.095          47.000    36290775.503   146127921.498           4.824          49.000  
C09  37372239.675   194607058.8682        125.413          45.000    37372222.395   150482455.534          96.974          48.000  
C22  24627118.321   128239867.4562        634.897          42.000                                                                  
G26  20865320.311   109647998.1922      -1950.311          47.000    20865310.615    85439960.446       -1519.684          45.000  
G27  21892077.656   115043644.1112       2965.771          43.000    21892068.523    89644379.000        2311.133          43.000  
G09  23876637.915   125472577.9422       2748.425          36.000    23876631.198    97770825.863        2141.888          39.000  
C28  24753676.804   128898890.5162      -1066.269          44.000                                                                  
C07  38035877.065   198062792.1022        791.767          41.000    38035858.163   153154645.432         612.097          45.000  
C20  25593302.673   133271043.3792      -3619.824          41.000                                                                  
C36  23849309.413   124189612.5752       1405.927          44.000                                                                  
C37  25034983.954   130363731.3892      -2397.754          42.000                                                                  
C10  39165755.305   203946365.5212        730.597          39.000    39165740.872   157704277.440         565.140          43.000  
G08  24155110.407   126935961.4762       3599.535          34.000    24155110.510    98911222.128        2805.184          36.000  
G29  25332991.399   133125768.0392      -3594.553          37.000    25332981.771   103734311.581       -2801.478          38.000  
C30  25122465.355   130819269.9032       2758.415          45.000                                                                  
C13  40776252.470   212332646.9902      -2430.439          34.000    40776255.341   164189083.2432      -1879.863          37.000  
C08                                                                  41691875.013   167875909.677       -1826.282          41.000  
> 2025 11 03 07 43 33.4000000  0 26                     
G04  21391060.521   112410781.1052       1100.105          43.000    21391049.470    87592772.921         857.228          46.000  
G16  20188419.824   106090862.4282        172.753          46.000                                                                  
G28  23084221.275   121308401.0812      -2704.648          41.000    23084211.567    94525974.606       -2107.480          44.000  
G31  21102224.120   110892935.7212      -1697.760          47.000    21102210.825    86410023.867       -1322.663          45.000  
G03  24575953.345                2      -2937.863          32.000    24575947.529   100634382.057       -2289.935          37.000  
G18  25155180.838   132191366.7312       1347.427          35.000    25155171.464   103006225.200        1049.531          38.000  
C16  36732929.159   191278002.5922          8.857          48.000    36732914.511   147908225.104           6.886          49.000  
C19  23807318.962   123970957.4672      -2167.438          46.000                                                                  
C27  23591749.184   122848428.9032       1121.200          46.000                                                                  
C06  36290795.965   188975698.4802          6.006          47.000    36290775.447   146127921.311           4.657          49.000  
C09  37372238.729   194607053.8462        125.457          45.000    37372221.432   150482451.650          97.015          48.000  
C22  24627113.430   128239842.0502        635.013          42.000                                                                  
G26  20865335.134   109648076.2022      -1950.360          47.000    20865325.460    85440021.239       -1519.830          45.000  
G27  21892055.078   115043525.4832       2965.641          43.000    21892045.965    89644286.577        2310.691          43.000  
G09  23876616.978   125472467.9862       2748.621          36.000    23876610.291    97770740.201        2141.534          39.000  
C28  24753684.956   128898933.1722      -1066.387          44.000                                                                  
C07  38035870.979   198062760.4442        791.579          41.000    38035852.080   153154620.953         611.967          45.000  
C20  25593330.484   133271188.1602      -3619.676          41.000                                                                  
C36  23849298.603   124189556.3372       1405.872          44.000                                                                  
C37  25035002.382   130363827.3012      -2397.857          42.000                                                                  
C10  39165749.672   203946336.2982        730.508          39.000    39165735.268   157704254.845         564.904          43.000  
G08  24155083.032   126935817.4602       3600.211          34.000    24155083.130    98911109.952        2804.677          36.000  
G29  25333018.787   133125911.8582      -3595.110          37.000    25333009.155   103734423.632       -2801.414          38.000  
C30  25122444.152   130819159.5622       2758.419          45.000                                                                  
C13  40776271.139   212332744.2242      -2430.751          34.000    40776273.993   164189158.4162      -1879.538          37.000  
C08                                                                  41691893.142   167875982.731       -1826.391          41.000  
> 2025 11 03 07 43 33.4400000  0 26                     
G04  21391052.150   112410737.0852       1100.275          43.000    21391041.077    87592738.614         857.455          46.000  
G16  20188418.497   106090855.5052        172.911          46.000                                                                  
G28  23084241.872   121308509.2642      -2704.616          41.000    23084232.142    94526058.897       -2107.348          44.000  
G31  21102237.015   110893003.6182      -1697.616          46.000    21102223.738    86410076.773       -1322.633          45.000  
G03  24575975.738                2      -2939.553          32.000    24575969.881   100634473.654       -2289.868          37.000  
G18  25155170.583   132191312.8762       1346.643          35.000    25155161.215   103006183.208        1049.628          38.000  
C16  36732929.093   191278002.2312          8.915          48.000    36732914.468   147908224.821           7.014          49.000  
C19  23807335.643   123971044.1622      -2167.419          46.000                                                                  
C27  23591740.575   122848384.0412       1121.430          46.000                                                                  
C06  36290795.940   188975698.2222          6.229          47.000    36290775.423   146127921.113           4.790          49.000  
C09  37372237.751   194607048.8212        125.548          45.000    37372220.498   150482447.762          97.112          48.000  
C22  24627108.540   128239816.6402        635.158          42.000                                                                  
G26  20865349.968   109648154.2022      -1950.165          47.000    20865340.282    85440082.017       -1519.604          45.000  
G27  21892032.514   115043406.8372       2965.934          44.000    21892023.400    89644194.128        2310.956          43.000  
G09  23876596.064   125472358.0352       2748.627          36.000    23876589.366    97770654.534        2141.510          39.000  
C28  24753693.144   128898975.8172      -1066.229          44.000                                                                  
C07  38035864.897   198062728.7662        791.818          41.000    38035846.016   153154596.455         612.285          45.000  
C20  25593358.271   133271332.9312      -3619.396          41.000                                                                  
C36  23849287.806   124189500.0952       1405.945          44.000                                                                  
C37  25035020.804   130363923.2142      -2397.855          42.000                                                                  
C10  39165744.053   203946307.0712        730.563          39.000    39165729.630   157704232.252         564.802          43.000  
G08  24155055.641   126935673.4572       3600.438          34.000    24155055.722    98910997.733        2805.193          36.000  
G29  25333046.130   133126055.6432      -3594.889          37.000    25333036.525   103734535.682       -2801.240          38.000  
C30  25122422.980   130819049.2202       2758.474          45.000                                                                  
C13  40776289.824   212332841.4642      -2430.935          34.000    40776292.653   164189233.5902      -1879.344          37.000  
C08                                                                  41691911.283   167876055.769       -1826.123          41.000  
> 2025 11 03 07 43 33.4800000  0 26                     
G04  21391043.776   112410693.0602       1100.516          43.000    21391032.686    87592704.311         857.512          46.000  
G16  20188417.196   106090848.5652        173.347          46.000                                                                  
G28  23084262.446   121308617.4232      -2704.123          41.000    23084252.747    94526143.192       -2107.310          44.000  
G31  21102249.910   110893071.4942      -1697.155          47.000    21102236.660    86410129.664       -1322.402          45.000  
G03  24575998.086                2      -2937.478          32.000    24575992.237   100634565.255       -2289.951          37.000  
G18  25155160.323   132191258.9882       1346.835          35.000    25155150.948   103006141.204        1049.976          38.000  
C16  36732929.019   191278001.8502          9.308          48.000    36732914.412   147908224.530           7.200          49.000  
C19  23807352.293   123971130.8372      -2167.053          46.000                                                                  
C27  23591731.971   122848339.1632       1121.849          46.000                                                                  
C06  36290795.876   188975697.9542          6.538          47.000    36290775.370   146127920.908           5.009          49.000  
C09  37372236.807   194607043.7772        125.957          45.000    37372219.546   150482443.864          97.368          48.000  
C22  24627103.644   128239791.2402        635.073          42.000                                                                  
G26  20865364.778   109648232.1922      -1949.829          47.000    20865355.106    85440142.784       -1519.250          45.000  
G27  21892009.948   115043288.1882       2966.178          43.000    21892000.823    89644101.667        2311.352          43.000  
G09  23876575.131   125472248.0602       2749.121          36.000    23876568.439    97770568.844        2141.962          39.000  
C28  24753701.334   128899018.4482      -1065.897          44.000                                                                  
C07  38035858.808   198062697.0692        792.268          41.000    38035839.932   153154571.952         612.521          45.000  
C20  25593386.085   133271477.7042      -3619.299          41.000                                                                  
C36  23849277.006   124189443.8352       1406.390          44.000                                                                  
C37  25035039.203   130364019.1002      -2397.361          42.000                                                                  
C10  39165738.422   203946277.8362        730.780          39.000    39165724.007   157704209.637         565.163          43.000  
G08  24155028.229   126935529.4462       3600.424          34.000    24155028.333    98910885.535        2805.154          36.000  
G29  25333073.500   133126199.4342      -3594.805          37.000    25333063.884   103734647.712       -2800.900          38.000  
C30  25122401.815   130818938.8732       2758.597          45.000                                                                  
C13  40776308.477   212332938.7002      -2430.950          34.000    40776311.316   164189308.8002      -1879.970          37.000  
C08                                                                  41691929.431   167876128.806       -1826.001          41.000  
> 2025 11 03 07 43 33.5200000  0 26                     
G04  21391035.388   112410649.0352       1100.574          43.000    21391024.290    87592670.003         857.621          46.000  
G16  20188415.874   106090841.6312        173.417          46.000                                                                  
G28  23084283.008   121308725.5812      -2703.891          41.000    23084273.314    94526227.474       -2107.106          44.000  
G31  21102262.823   110893139.3722      -1696.935          47.000    21102249.580    86410182.564       -1322.445          45.000  
G03  24576020.436                2      -2939.072          32.000    24576014.603   100634656.824       -2289.524          37.000  
G18  25155150.055   132191205.0782       1347.444          35.000    25155140.697   103006099.210        1049.979          38.000  
C16  36732928.926   191278001.4682          9.533          48.000    36732914.370   147908224.233           7.403          49.000  
C19  23807368.920   123971217.5192      -2167.017          46.000                                                                  
C27  23591723.367   122848294.2862       1121.995          46.000                                                                  
C06  36290795.823   188975697.6882          6.658          47.000    36290775.331   146127920.704           5.089          49.000  
C09  37372235.828   194607038.7372        126.078          45.000    37372218.585   150482439.968          97.426          48.000  
C22  24627098.762   128239765.8192        635.365          42.000                                                                  
G26  20865379.599   109648310.1822      -1949.725          47.000    20865369.965    85440203.552       -1519.141          45.000  
G27  21891987.346   115043169.5342       2966.357          44.000    21891978.243    89644009.216        2311.342          43.000  
G09  23876554.218   125472138.1172       2748.834          36.000    23876547.521    97770483.156        2142.176          39.000  
C28  24753709.531   128899061.0922      -1066.014          44.000                                                                  
C07  38035852.744   198062665.3862        792.191          41.000    38035833.868   153154547.452         612.534          45.000  
C20  25593413.865   133271622.4742      -3619.240          41.000                                                                  
C36  23849266.213   124189387.5762       1406.519          44.000                                                                  
C37  25035057.631   130364114.9842      -2397.127          42.000                                                                  
C10  39165732.790   203946248.5632        731.493          39.000    39165718.403   157704187.018         565.406          43.000  
G08  24155000.838   126935385.4492       3600.148          34.000    24155000.923    98910773.321        2805.341          36.000  
G29  25333100.857   133126343.2182      -3594.680          37.000    25333091.240   103734759.744       -2800.774          38.000  
C30  25122380.617   130818828.5222       2758.695          45.000                                                                  
C13  40776327.138   212333035.8772      -2429.921          34.000    40776329.991   164189383.9602      -1879.401          37.000  
C08                                                                  41691947.588   167876201.838       -1825.848          41.000  
> 2025 11 03 07 43 33.5600000  0 26                     
G04  21391027.003   112410605.0032       1100.712          43.000    21391015.924    87592635.701         857.565          46.000  
G16  20188414.600   106090834.7052        173.247          46.000                                                                  
G28  23084303.592   121308833.7492      -2703.988          41.000    23084293.882    94526311.759       -2107.096          44.000  
G31  21102275.754   110893207.2622      -1697.104          47.000    21102262.497    86410235.458       -1322.363          45.000  
G03  24576042.810                2      -2938.325          32.000    24576036.967   100634748.434       -2289.945          37.000  
G18  25155139.798   132191151.1722       1347.709          35.000    25155130.447   103006057.211        1050.055          38.000  
C16  36732928.834   191278001.1032          9.313          48.000    36732914.312   147908223.949           7.245          49.000  
C19  23807385.550   123971304.2042      -2167.090          46.000                                                                  
C27  23591714.765   122848249.4312       1121.605          46.000                                                                  
C06  36290795.752   188975697.4312          6.517          47.000    36290775.295   146127920.504           5.051          49.000  
C09  37372234.851   194607033.7042        126.009          45.000    37372217.629   150482436.083          97.236          48.000  
C22  24627093.859   128239740.4042        635.431          42.000                                                                  
G26  20865394.450   109648388.1772      -1949.768          47.000    20865384.844    85440264.332       -1519.324          45.000  
G27  21891964.754   115043050.8932       2966.166          43.000    21891955.667    89643916.763        2311.370          43.000  
G09  23876533.276   125472028.1732       2748.737          36.000    23876526.620    97770397.477        2142.035          39.000  
C28  24753717.720   128899103.7372      -1066.081          44.000                                                                  
C07  38035846.673   198062633.7242        791.782          41.000    38035827.795   153154522.965         612.293          45.000  
C20  25593441.671   133271767.2462      -3619.274          41.000                                                                  
C36  23849255.396   124189331.3232       1406.451          44.000                                                                  
C37  25035076.052   130364210.8722      -2397.078          42.000                                                                  
C10  39165727.147   203946219.3402        731.003          39.000    39165712.782   157704164.411         565.314          43.000  
G08  24154973.433   126935241.4882       3599.273          34.000    24154973.521    98910661.133        2804.923          36.000  
G29  25333128.228   133126487.0202      -3595.034          37.000    25333118.595   103734871.797       -2801.127          38.000  
C30  25122359.449   130818718.1742       2758.726          45.000                                                                  
C13  40776345.795   212333133.1142      -2430.581          34.000    40776348.676   164189459.1432      -1879.480          37.000  
C08                                                                  41691965.708   167876274.886       -1826.080          41.000  
> 2025 11 03 07 43 33.6000000  0 26                     
G04  21391018.611   112410560.9742       1100.739          43.000    21391007.519    87592601.390         857.695          46.000  
G16  20188413.297   106090827.7852        173.061          46.000                                                                  
G28  23084324.181   121308941.9302      -2704.357          41.000    23084314.477    94526396.056       -2107.277          44.000  
G31  21102288.670   110893275.1522      -1697.201          47.000    21102275.417    86410288.362       -1322.512          45.000  
G03  24576065.168                2      -2938.647          32.000    24576059.341   100634840.033       -2290.042          37.000  
G18  25155129.517   132191097.2792       1347.508          35.000    25155120.178   103006015.207        1050.181          38.000  
C16  36732928.745   191278000.7342          9.246          48.000    36732914.254   147908223.665           7.133          49.000  
C19  23807402.202   123971390.8952      -2167.255          46.000                                                                  
C27  23591706.144   122848204.5712       1121.488          46.000                                                                  
C06  36290795.670   188975697.1712          6.489          47.000    36290775.244   146127920.304           5.035          49.000  
C09  37372233.834   194607028.6762        125.838          45.000    37372216.649   150482432.186          97.359          48.000  
C22  24627088.969   128239715.0022        635.204          42.000                                                                  
G26  20865409.296   109648466.1772      -1949.908          47.000    20865399.726    85440325.102       -1519.305          45.000  
G27  21891942.197   115042932.2512       2966.041          43.000    21891933.091    89643824.315        2311.299          43.000  
G09  23876512.334   125471918.2062       2749.017          36.000    23876505.679    97770311.787        2142.236          39.000  
C28  24753725.914   128899146.3832      -1066.151          44.000                                                                  
C07  38035840.576   198062602.0532        791.690          41.000    38035821.688   153154498.476         612.169          45.000  
C20  25593469.474   133271912.0142      -3619.245          41.000                                                                  
C36  23849244.574   124189275.0702       1406.360          44.000                                                                  
C37  25035094.455   130364306.7692      -2397.267          42.000                                                                  
C10  39165721.542   203946190.0962        731.070          39.000    39165707.149   157704141.806         565.189          43.000  
G08  24154946.032   126935097.4682       3600.003          34.000    24154946.117    98910548.906        2805.292          36.000  
G29  25333155.603   133126630.8152      -3595.027          37.000    25333145.958   103734983.844       -2801.220          38.000  
C30  25122338.237   130818607.8402       2758.493          44.000                                                                  
C13  40776364.472   212333230.3562      -2431.064          34.000    40776367.361   164189534.3182      -1879.366          37.000  
C08                                                                  41691983.878   167876347.925       -1826.062          41.000  
> 2025 11 03 07 43 33.6400000  0 26                     
G04  21391010.218   112410516.9412       1100.806          43.000    21390999.124    87592567.081         857.703          46.000  
G16  20188411.973   106090820.8632        172.993          46.000                                                                  
G28  23084344.768   121309050.1022      -2704.425          41.000    23084335.053    94526480.339       -2107.165          44.000  
G31  21102301.585   110893343.0432      -1697.280          47.000    21102288.332    86410341.262       -1322.529          45.000  
G03  24576087.552                2      -2937.789          32.000    24576081.725   100634931.633       -2290.038          37.000  
G18  25155119.253   132191043.3722       1347.599          35.000    25155109.922   103005973.212        1050.059          38.000  
C16  36732928.692   191278000.3562          9.364          48.000    36732914.202   147908223.372           7.233          49.000  
C19  23807418.863   123971477.5832      -2167.310          46.000                                                                  
C27  23591697.515   122848159.7062       1121.551          46.000                                                                  
C06  36290795.630   188975696.9052          6.609          47.000    36290775.185   146127920.099           5.092          49.000  
C09  37372232.863   194607023.6342        125.926          45.000    37372215.673   150482428.291          97.384          48.000  
C22  24627084.108   128239689.5892        635.298          42.000                                                                  
G26  20865424.137   109648544.1722      -1949.915          47.000    20865414.570    85440385.879       -1519.409          45.000  
G27  21891919.609   115042813.6092       2966.032          43.000    21891910.517    89643731.865        2311.251          43.000  
G09  23876491.406   125471808.2572       2748.810          36.000    23876484.745    97770226.109        2142.029          39.000  
C28  24753734.107   128899189.0252      -1066.098          44.000                                                                  
C07  38035834.505   198062570.3692        791.932          41.000    38035815.619   153154473.974         612.384          45.000  
C20  25593497.263   133272056.7932      -3619.449          41.000                                                                  
C36  23849233.782   124189218.8192       1406.287          44.000                                                                  
C37  25035112.865   130364402.6562      -2397.142          42.000                                                                  
C10  39165715.935   203946160.8662        730.847          39.000    39165701.533   157704119.200         565.130          43.000  
G08  24154918.648   126934953.4922       3599.648          34.000    24154918.700    98910436.707        2805.096          36.000  
G29  25333182.980   133126774.5862      -3594.489          37.000    25333173.317   103735095.890       -2801.141          38.000  
C30  25122317.043   130818497.4852       2758.755          44.000                                                                  
C13  40776383.149   212333327.5922      -2431.229          34.000    40776386.010   164189609.4972      -1879.393          37.000  
C08                                                                  41692002.008   167876420.957       -1825.903          41.000  
> 2025 11 03 07 43 33.6800000  0 26                     
G04  21391001.855   112410472.9282       1100.480          43.000    21390990.763    87592532.787         857.451          46.000  
G16  20188410.662   106090813.9322        173.125          46.000                                                                  
G28  23084365.321   121309158.2742      -2704.398          41.000    23084355.658    94526564.629       -2107.215          44.000  
G31  21102314.503   110893410.9342      -1697.315          47.000    21102301.242    86410394.166       -1322.594          45.000  
G03  24576109.911                2      -2937.964          32.000    24576104.092   100635023.226       -2289.902          37.000  
G18  25155108.984   132190989.4782       1347.463          35.000    25155099.661   103005931.211        1050.064          38.000  
C16  36732928.636   191277999.9802          9.401          48.000    36732914.127   147908223.080           7.276          49.000  
C19  23807435.505   123971564.2682      -2167.224          46.000                                                                  
C27  23591688.891   122848114.8402       1121.600          46.000                                                                  
C06  36290795.580   188975696.6412          6.617          47.000    36290775.138   146127919.891           5.176          49.000  
C09  37372231.883   194607018.6022        125.816          45.000    37372214.715   150482424.397          97.368          48.000  
C22  24627079.228   128239664.1782        635.268          42.000                                                                  
G26  20865438.964   109648622.1712      -1949.994          47.000    20865429.423    85440446.656       -1519.458          45.000  
G27  21891897.045   115042694.9632       2966.094          43.000    21891887.938    89643639.418        2311.203          43.000  
G09  23876470.495   125471698.2782       2749.292          36.000    23876463.834    97770140.430        2141.931          39.000  
C28  24753742.309   128899231.6602      -1065.962          44.000                                                                  
C07  38035828.414   198062538.6952        791.907          41.000    38035809.547   153154449.482         612.327          45.000  
C20  25593525.089   133272201.5632      -3619.384          41.000                                                                  
C36  23849222.968   124189162.5692       1406.232          44.000                                                                  
C37  25035131.275   130364498.5652      -2397.540          42.000                                                                  
C10  39165710.338   203946131.6282        730.889          38.000    39165695.922   157704096.598         565.128          43.000  
G08  24154891.226   126934809.4632       3600.295          33.000    24154891.299    98910324.531        2804.562          35.000  
G29  25333210.326   133126918.3692      -3594.492          37.000    25333200.693   103735207.924       -2800.964          38.000  
C30  25122295.881   130818387.1402       2758.677          44.000                                                                  
C13  40776401.823   212333424.7902      -2430.481          34.000    40776404.697   164189684.6932      -1879.739          37.000  
C08                                                                  41692020.163   167876493.989       -1825.812          41.000  
> 2025 11 03 07 43 33.7200000  0 26                     
G04  21390993.500   112410428.9052       1100.475          43.000    21390982.382    87592498.482         857.545          46.000  
G16  20188409.344   106090806.9992        173.243          46.000                                                                  
G28  23084385.894   121309266.4462      -2704.391          41.000    23084376.241    94526648.915       -2107.185          44.000  
G31  21102327.406   110893478.8152      -1697.153          47.000    21102314.160    86410447.063       -1322.511          45.000  
G03  24576132.282                2      -2939.227          32.000    24576126.456   100635114.810       -2289.661          37.000  
G18  25155098.732   132190935.5922       1347.190          35.000    25155089.395   103005889.195        1050.361          38.000  
C16  36732928.577   191277999.5982          9.496          48.000    36732914.050   147908222.790           7.275          49.000  
C19  23807452.147   123971650.9422      -2166.986          46.000                                                                  
C27  23591680.272   122848069.9632       1121.846          46.000                                                                  
C06  36290795.535   188975696.3712          6.715          47.000    36290775.104   146127919.687           5.146          49.000  
C09  37372230.911   194607013.5732        125.701          45.000    37372213.772   150482420.499          97.426          48.000  
C22  24627074.312   128239638.7682        635.292          42.000                                                                  
G26  20865453.805   109648700.1652      -1949.933          47.000    20865444.284    85440507.431       -1519.391          45.000  
G27  21891874.444   115042576.3162       2966.158          43.000    21891865.374    89643546.957        2311.436          43.000  
G09  23876449.585   125471588.3162       2749.194          36.000    23876442.907    97770054.757        2141.840          39.000  
C28  24753750.494   128899274.2952      -1065.895          44.000                                                                  
C07  38035822.332   198062507.0112        792.057          41.000    38035803.478   153154424.975         612.546          45.000  
C20  25593552.904   133272346.3162      -3619.029          41.000                                                                  
C36  23849212.175   124189106.3042       1406.506          44.000                                                                  
C37  25035149.699   130364594.4582      -2397.490          42.000                                                                  
C10  39165704.719   203946102.3762        731.148          38.000    39165690.313   157704073.974         565.423          43.000  
G08  24154863.801   126934665.4452       3600.493          33.000    24154863.910    98910212.334        2804.660          35.000  
G29  25333237.669   133127062.1622      -3594.682          37.000    25333228.067   103735319.973       -2801.114          38.000  
C30  25122274.705   130818276.7862       2758.759          44.000                                                                  
C13  40776420.482   212333521.9622      -2429.639          34.000    40776423.350   164189759.8352      -1878.939          37.000  
C08                                                                  41692038.295   167876567.020       -1825.812          41.000  
> 2025 11 03 07 43 33.7600000  0 26                     
G04  21390985.113   112410384.8742       1100.635          43.000    21390974.017    87592464.166         857.783          46.000  
G16  20188407.995   106090800.0572        173.504          46.000                                                                  
G28  23084406.490   121309374.6032      -2704.048          41.000    23084396.837    94526733.199       -2107.122          44.000  
G31  21102340.310   110893546.6892      -1696.917          47.000    21102327.062    86410499.946       -1322.195          45.000  
G03  24576154.613                2      -2938.124          32.000    24576148.814   100635206.374       -2289.267          37.000  
G18  25155088.475   132190881.6602       1347.872          35.000    25155079.146   103005847.196        1050.137          38.000  
C16  36732928.497   191277999.2052          9.754          48.000    36732913.985   147908222.479           7.648          49.000  
C19  23807468.797   123971737.6122      -2166.779          46.000                                                                  
C27  23591671.606   122848025.0892       1121.888          46.000                                                                  
C06  36290795.460   188975696.0912          6.962          47.000    36290775.072   146127919.474           5.269          49.000  
C09  37372229.965   194607008.5172        126.100          45.000    37372212.823   150482416.598          97.508          48.000  
C22  24627069.445   128239613.3432        635.517          42.000                                                                  
G26  20865468.632   109648778.1422      -1949.548          47.000    20865459.119    85440568.202       -1519.330          45.000  
G27  21891851.851   115042457.6542       2966.433          43.000    21891842.776    89643454.496        2311.533          43.000  
G09  23876428.635   125471478.3562       2749.109          36.000    23876421.955    97769969.064        2142.133          39.000  
C28  24753758.686   128899316.9282      -1065.792          44.000                                                                  
C07  38035816.253   198062475.3092        792.471          41.000    38035797.406   153154400.461         612.834          45.000  
C20  25593580.674   133272491.0752      -3618.964          41.000                                                                  
C36  23849201.369   124189050.0422       1406.573          44.000                                                                  
C37  25035168.137   130364690.3412      -2397.200          42.000                                                                  
C10  39165699.111   203946073.1202        731.380          38.000    39165684.717   157704051.358         565.424          43.000  
G08  24154836.390   126934521.4372       3600.371          33.000    24154836.504    98910100.115        2805.133          35.000  
G29  25333265.012   133127205.9412      -3594.541          37.000    25333255.407   103735431.996       -2800.730          38.000  
C30  25122253.510   130818166.4182       2759.122          44.000                                                                  
C13  40776439.131   212333619.1772      -2430.021          34.000    40776442.016   164189835.0082      -1879.135          37.000  
C08                                                                  41692056.434   167876640.045       -1825.671          41.000  
> 2025 11 03 07 43 33.8000000  0 26                     
G04  21390976.737   112410340.8432       1100.723          43.000    21390965.633    87592429.850         857.914          46.000  
G16  20188406.697   106090793.1222        173.464          46.000                                                                  
G28  23084427.053   121309482.7552      -2703.808          41.000    23084417.407    94526817.478       -2106.979          44.000  
G31  21102353.217   110893614.5622      -1696.793          47.000    21102339.969    86410552.830       -1322.058          45.000  
G03  24576176.935                2      -2938.160          32.000    24576171.175   100635297.952       -2289.260          37.000  
G18  25155078.200   132190827.7442       1348.015          35.000    25155068.907   103005805.205        1049.839          38.000  
C16  36732928.413   191277998.8192          9.752          48.000    36732913.926   147908222.183           7.566          49.000  
C19  23807485.431   123971824.2872      -2166.833          46.000                                                                  
C27  23591662.980   122847980.2142       1121.900          47.000                                                                  
C06  36290795.401   188975695.8202          6.886          47.000    36290775.021   146127919.258           5.397          49.000  
C09  37372228.998   194607003.4672        126.250          45.000    37372211.846   150482412.697          97.531          48.000  
C22  24627064.551   128239587.9302        635.363          42.000                                                                  
G26  20865483.466   109648856.1262      -1949.524          47.000    20865473.957    85440628.972       -1519.269          45.000  
G27  21891829.267   115042339.0012       2966.399          43.000    21891820.210    89643362.048        2311.350          43.000  
G09  23876407.722   125471368.3822       2749.304          36.000    23876401.009    97769883.359        2142.529          39.000  
C28  24753766.853   128899359.5652      -1065.835          44.000                                                                  
C07  38035810.177   198062443.6252        792.313          41.000    38035791.307   153154375.958         612.709          45.000  
C20  25593608.494   133272635.8432      -3619.140          41.000                                                                  
C36  23849190.578   124188993.7782       1406.628          44.000                                                                  
C37  25035186.575   130364786.2182      -2396.940          42.000                                                                  
C10  39165693.472   203946043.8632        731.436          38.000    39165679.102   157704028.733         565.573          43.000  
G08  24154808.981   126934377.4492       3599.963          33.000    24154809.088    98909987.881        2805.665          35.000  
G29  25333292.366   133127349.7242      -3594.637          37.000    25333282.777   103735544.033       -2800.793          38.000  
C30  25122232.306   130818056.0652       2758.975          44.000                                                                  
C13  40776457.817   212333716.3952      -2430.382          34.000    40776460.683   164189910.1872      -1879.376          37.000  
C08                                                                  41692074.574   167876713.075       -1825.671          41.000  
> 2025 11 03 07 43 33.8400000  0 26                     
G04  21390968.351   112410296.8012       1100.935          43.000    21390957.261    87592395.543         857.788          46.000  
G16  20188405.376   106090786.1832        173.519          46.000                                                                  
G28  23084447.619   121309590.9162      -2703.873          41.000    23084437.972    94526901.755       -2106.932          44.000  
G31  21102366.134   110893682.4332      -1696.732          47.000    21102352.893    86410605.726       -1322.192          45.000  
G03  24576199.301                2      -2938.177          32.000    24576193.564   100635389.545       -2289.541          37.000  
G18  25155067.933   132190773.8342       1347.907          35.000    25155058.647   103005763.207        1049.805          38.000  
C16  36732928.309   191277998.4372          9.651          48.000    36732913.879   147908221.884           7.513          49.000  
C19  23807502.072   123971910.9632      -2166.888          46.000                                                                  
C27  23591654.338   122847935.3362       1121.968          47.000                                                                  
C06  36290795.354   188975695.5482          6.875          47.000    36290774.996   146127919.047           5.336          49.000  
C09  37372228.026   194606998.4172        126.335          45.000    37372210.847   150482408.796          97.535          48.000  
C22  24627059.682   128239562.5112        635.395          42.000                                                                  
G26  20865498.319   109648934.1072      -1949.469          47.000    20865488.803    85440689.737       -1519.159          45.000  
G27  21891806.668   115042220.3462       2966.409          43.000    21891797.641    89643269.589        2311.448          43.000  
G09  23876386.769   125471258.4162       2749.286          36.000    23876380.089    97769797.674        2142.310          39.000  
C28  24753775.018   128899402.2032      -1065.923          44.000                                                                  
C07  38035804.095   198062411.9362        792.267          41.000    38035785.207   153154351.464         612.438          45.000  
C20  25593636.299   133272780.6012      -3619.011          41.000                                                                  
C36  23849179.738   124188937.5182       1406.549          44.000                                                                  
C37  25035204.983   130364882.0972      -2396.899          42.000                                                                  
C10  39165687.849   203946014.6062        731.380          39.000    39165673.473   157704006.117         565.483          43.000  
G08  24154781.583   126934233.4642       3599.608          33.000    24154781.681    98909875.657        2805.756          35.000  
G29  25333319.721   133127493.5092      -3594.633          37.000    25333310.136   103735656.071       -2800.874          38.000  
C30  25122211.109   130817945.7072       2758.951          44.000                                                                  
C13  40776476.464   212333813.5842      -2430.008          34.000    40776479.346   164189985.3472      -1879.201          37.000  
C08                                                                  41692092.708   167876786.094       -1825.525          41.000  
> 2025 11 03 07 43 33.8800000  0 26                     
G04  21390959.977   112410252.7712       1100.800          43.000    21390948.915    87592361.238         857.654          46.000  
G16  20188404.028   106090779.2422        173.523          46.000                                                                  
G28  23084468.202   121309699.0792      -2703.992          41.000    23084458.564    94526986.033       -2106.952          44.000  
G31  21102379.071   110893750.3102      -1696.847          47.000    21102365.798    86410658.616       -1322.229          45.000  
G03  24576221.663                2      -2938.496          32.000    24576215.944   100635481.115       -2289.381          37.000  
G18  25155057.640   132190719.9112       1347.969          35.000    25155048.382   103005721.185        1050.256          38.000  
C16  36732928.212   191277998.0512          9.675          48.000    36732913.838   147908221.586           7.453          49.000  
C19  23807518.713   123971997.6392      -2166.919          46.000                                                                  
C27  23591645.735   122847890.4612       1121.930          47.000                                                                  
C06  36290795.317   188975695.2722          6.885          47.000    36290774.935   146127918.837           5.294          49.000  
C09  37372227.055   194606993.3682        126.317          45.000    37372209.846   150482404.888          97.669          48.000  
C22  24627054.791   128239537.0842        635.599          42.000                                                                  
G26  20865513.183   109649012.0932      -1949.579          47.000    20865503.641    85440750.497       -1519.012          45.000  
G27  21891784.071   115042101.6882       2966.446          43.000    21891775.049    89643177.127        2311.583          43.000  
G09  23876365.827   125471148.4442       2749.316          36.000    23876359.175    97769711.992        2142.078          39.000  
C28  24753783.215   128899444.8302      -1065.780          44.000                                                                  
C07  38035798.024   198062380.2422        792.368          41.000    38035779.136   153154326.960         612.483          45.000  
C20  25593664.088   133272925.3592      -3618.963          41.000                                                                  
C36  23849168.945   124188881.2512       1406.622          44.000                                                                  
C37  25035223.400   130364977.9782      -2396.971          42.000                                                                  
C10  39165682.253   203945985.3512        731.409          39.000    39165667.851   157703983.495         565.500          43.000  
G08  24154754.151   126934089.4532       3599.910          33.000    24154754.270    98909763.436        2805.585          35.000  
G29  25333347.062   133127637.2662      -3594.174          37.000    25333337.484   103735768.087       -2800.536          38.000  
C30  25122189.932   130817835.3432       2759.021          44.000                                                                  
C13  40776495.113   212333910.7912      -2430.156          34.000    40776498.000   164190060.5082      -1879.075          37.000  
C08                                                                  41692110.853   167876859.110       -1825.421          41.000  
> 2025 11 03 07 43 33.9200000  0 26                     
G04  21390951.621   112410208.7502       1100.546          43.000    21390940.524    87592326.926         857.737          46.000  
G16  20188402.707   106090772.3052        173.467          46.000                                                                  
G28  23084488.762   121309807.2412      -2704.062          41.000    23084479.146    94527070.313       -2107.009          44.000  
G31  21102392.004   110893818.1912      -1696.987          47.000    21102378.719    86410711.512       -1322.357          45.000  
G03  24576244.016                2      -2938.203          32.000    24576238.315   100635572.689       -2289.325          37.000  
G18  25155047.362   132190666.0272       1347.436          35.000    25155038.118   103005679.177        1050.257          38.000  
C16  36732928.125   191277997.6602          9.767          48.000    36732913.781   147908221.283           7.526          49.000  
C19  23807535.365   123972084.3122      -2166.888          46.000                                                                  
C27  23591637.121   122847845.5852       1121.930          47.000                                                                  
C06  36290795.275   188975694.9902          6.995          47.000    36290774.867   146127918.621           5.367          49.000  
C09  37372226.096   194606988.3112        126.424          45.000    37372208.872   150482400.971          97.909          48.000  
C22  24627049.910   128239511.6632        635.589          42.000                                                                  
G26  20865528.043   109649090.0792      -1949.652          47.000    20865518.479    85440811.259       -1518.982          45.000  
G27  21891761.467   115041983.0292       2966.474          43.000    21891752.479    89643084.671        2311.473          43.000  
G09  23876344.890   125471038.4702       2749.335          36.000    23876338.240    97769626.294        2142.297          39.000  
C28  24753791.396   128899487.4552      -1065.660          44.000                                                                  
C07  38035791.942   198062348.5402        792.542          41.000    38035773.039   153154302.439         612.829          45.000  
C20  25593691.876   133273070.1032      -3618.677          41.000                                                                  
C36  23849158.148   124188824.9862       1406.610          44.000                                                                  
C37  25035241.830   130365073.8432      -2396.727          42.000                                                                  
C10  39165676.636   203945956.0822        731.553          39.000    39165662.242   157703960.875         565.485          43.000  
G08  24154726.739   126933945.4332       3600.320          33.000    24154726.875    98909651.222        2805.354          35.000  
G29  25333374.417   133127781.0402      -3594.252          37.000    25333364.852   103735880.132       -2800.915          38.000  
C30  25122168.713   130817724.9852       2758.969          44.000                                                                  
C13  40776513.799   212334008.0222      -2430.631          34.000    40776516.662   164190135.6662      -1878.944          37.000  
C08                                                                  41692129.002   167876932.137       -1825.562          41.000  
> 2025 11 03 07 43 33.9600000  0 26                     
G04  21390943.224   112410164.7052       1100.870          43.000    21390932.150    87592292.609         857.832          46.000  
G16  20188401.384   106090765.3642        173.492          46.000                                                                  
G28  23084509.354   121309915.3972      -2703.986          41.000    23084499.737    94527154.589       -2106.990          44.000  
G31  21102404.939   110893886.0682      -1696.968          47.000    21102391.614    86410764.391       -1322.122          45.000  
G03  24576266.339                2      -2937.659          32.000    24576260.675   100635664.266       -2289.331          37.000  
G18  25155037.081   132190612.0712       1348.428          35.000    25155027.852   103005637.173        1050.238          38.000  
C16  36732928.045   191277997.2692          9.823          48.000    36732913.696   147908220.982           7.531          49.000  
C19  23807552.010   123972170.9852      -2166.864          46.000                                                                  
C27  23591628.525   122847800.7012       1122.065          47.000                                                                  
C06  36290795.232   188975694.7052          7.115          47.000    36290774.819   146127918.405           5.392          49.000  
C09  37372225.129   194606983.2572        126.420          45.000    37372207.909   150482397.057          97.915          48.000  
C22  24627045.013   128239486.2472        635.475          42.000                                                                  
G26  20865542.875   109649168.0572      -1949.512          47.000    20865533.323    85440872.017       -1518.884          45.000  
G27  21891738.899   115041864.3752       2966.409          43.000    21891729.914    89642992.214        2311.435          43.000  
G09  23876323.948   125470928.4922       2749.414          36.000    23876317.319    97769540.601        2142.310          39.000  
C28  24753799.561   128899530.0942      -1065.847          44.000                                                                  
C07  38035785.846   198062316.8342        792.704          41.000    38035766.967   153154277.926         612.909          45.000  
C20  25593719.659   133273214.8382      -3618.431          41.000                                                                  
C36  23849147.342   124188768.7082       1406.836          44.000                                                                  
C37  25035260.232   130365169.7202      -2396.797          42.000                                                                  
C10  39165671.014   203945926.8242        731.454          39.000    39165656.624   157703938.250         565.577          43.000  
G08  24154699.334   126933801.4252       3600.451          33.000    24154699.472    98909539.007        2805.367          35.000  
G29  25333401.764   133127924.8062      -3594.240          37.000    25333392.237   103735992.184       -2801.270          38.000  
C30  25122147.510   130817614.6212       2759.032          44.000                                                                  
C13  40776532.462   212334105.2062      -2430.017          34.000    40776535.325   164190210.8042      -1878.551          37.000  
C08                                                                  41692147.122   167877005.145       -1825.275          41.000  
> 2025 11 03 07 43 34.0000000  0 26                     
G04  21390934.847   112410120.6672       1100.927          43.000    21390923.768    87592258.287         857.966          46.000  
G16  20188400.075   106090758.4232        173.517          46.000                                                                  
G28  23084529.924   121310023.5432      -2703.706          41.000    23084520.313    94527238.860       -2106.828          44.000  
G31  21102417.843   110893953.9352      -1696.789          47.000    21102404.555    86410817.278       -1322.132          45.000  
G03  24576288.676                2      -2937.096          32.000    24576283.037   100635755.840       -2289.329          37.000  
G18  25155026.840   132190558.1822       1347.789          35.000    25155017.593   103005595.142        1050.648          38.000  
C16  36732927.956   191277996.8642         10.059          48.000    36732913.621   147908220.674           7.653          49.000  
C19  23807568.662   123972257.6452      -2166.614          46.000                                                                  
C27  23591619.898   122847755.8122       1122.231          47.000                                                                  
C06  36290795.176   188975694.4222          7.089          47.000    36290774.764   146127918.177           5.592          49.000  
C09  37372224.142   194606978.1962        126.501          45.000    37372206.962   150482393.145          97.871          48.000  
C22  24627040.107   128239460.8092        635.809          42.000                                                                  
G26  20865557.688   109649246.0272      -1949.298          47.000    20865548.168    85440932.788       -1519.128          45.000  
G27  21891716.304   115041745.7172       2966.437          43.000    21891707.319    89642899.738        2311.751          43.000  
G09  23876302.999   125470818.5142       2749.481          36.000    23876296.387    97769454.899        2142.511          39.000  
C28  24753807.735   128899572.7192      -1065.729          44.000                                                                  
C07  38035779.785   198062285.1382        792.542          41.000    38035760.865   153154253.409         612.975          45.000  
C20  25593747.455   133273359.5872      -3618.552          41.000                                                                  
C36  23849136.554   124188712.4252       1407.037          44.000                                                                  
C37  25035278.651   130365265.5862      -2396.656          42.000                                                                  
C10  39165665.379   203945897.5662        731.438          39.000    39165651.016   157703915.610         565.895          43.000  
G08  24154671.904   126933657.3792       3600.997          34.000    24154672.049    98909426.776        2805.607          35.000  
G29  25333429.118   133128068.5742      -3594.209          37.000    25333419.586   103736104.198       -2800.804          38.000  
C30  25122126.304   130817504.2412       2759.387          44.000                                                                  
C13  40776551.143   212334202.3852      -2429.438          34.000    40776553.967   164190285.9462      -1878.425          37.000  
C08                                                                  41692165.281   167877078.162       -1825.299          41.000  
> 2025 11 03 07 43 34.0400000  0 26                     
G04  21390926.446   112410076.6252       1101.014          43.000    21390915.396    87592223.974         857.869          46.000  
G16  20188398.754   106090751.4752        173.634          46.000                                                                  
G28  23084550.509   121310131.6972      -2703.752          41.000    23084540.890    94527323.128       -2106.692          44.000  
G31  21102430.750   110894021.7992      -1696.648          47.000    21102417.491    86410870.151       -1321.882          45.000  
G03  24576311.020                2      -2938.319          32.000    24576305.405   100635847.402       -2289.143          37.000  
G18  25155016.563   132190504.2612       1347.823          35.000    25155007.333   103005553.122        1050.630          38.000  
C16  36732927.884   191277996.4612         10.101          48.000    36732913.564   147908220.359           7.818          49.000  
C19  23807585.307   123972344.3172      -2166.742          46.000                                                                  
C27  23591611.259   122847710.9312       1122.132          47.000                                                                  
C06  36290795.126   188975694.1292          7.249          47.000    36290774.712   146127917.949           5.703          49.000  
C09  37372223.160   194606973.1272        126.717          45.000    37372206.002   150482389.234          97.779          48.000  
C22  24627035.214   128239435.3912        635.597          42.000                                                                  
G26  20865572.513   109649324.0062      -1949.402          47.000    20865562.997    85440993.553       -1519.177          45.000  
G27  21891693.716   115041627.0572       2966.460          43.000    21891684.720    89642807.270        2311.749          43.000  
G09  23876282.065   125470708.5462       2749.268          36.000    23876275.457    97769369.211        2142.303          39.000  
C28  24753815.882   128899615.3472      -1065.745          44.000                                                                  
C07  38035773.678   198062253.4342        792.585          41.000    38035754.778   153154228.898         612.846          45.000  
C20  25593775.245   133273504.3292      -3618.588          41.000                                                                  
C36  23849125.745   124188656.1472       1406.982          44.000                                                                  
C37  25035297.056   130365361.4652      -2396.863          42.000                                                                  
C10  39165659.760   203945868.3042        731.506          39.000    39165645.421   157703892.984         565.759          42.000  
G08  24154644.485   126933513.3302       3601.299          34.000    24154644.634    98909314.549        2805.603          35.000  
G29  25333456.461   133128212.3462      -3594.346          37.000    25333446.947   103736216.208       -2800.424          38.000  
C30  25122105.104   130817393.8752       2759.263          43.000                                                                  
C13  40776569.796   212334299.6002      -2429.918          34.000    40776572.635   164190361.1162      -1878.945          37.000  
C08                                                                  41692183.420   167877151.171       -1825.171          41.000  
> 2025 11 03 07 43 34.0800000  0 26                     
G04  21390918.074   112410032.5942       1100.851          43.000    21390907.015    87592189.671         857.625          46.000  
G16  20188397.440   106090744.5332        173.577          46.000                                                                  
G28  23084571.072   121310239.8482      -2703.766          41.000    23084561.488    94527407.409       -2106.887          44.000  
G31  21102443.667   110894089.6712      -1696.759          47.000    21102430.403    86410923.051       -1322.249          45.000  
G03  24576333.385                2      -2939.258          32.000    24576327.747   100635938.999       -2289.712          37.000  
G18  25155006.298   132190450.3792       1347.211          35.000    25154997.080   103005511.109        1050.448          38.000  
C16  36732927.770   191277996.0712          9.872          48.000    36732913.491   147908220.059           7.600          49.000  
C19  23807601.920   123972430.9972      -2166.962          46.000                                                                  
C27  23591602.630   122847666.0612       1121.842          47.000                                                                  
C06  36290795.050   188975693.8472          7.131          47.000    36290774.673   146127917.737           5.437          49.000  
C09  37372222.187   194606968.0782        126.401          45.000    37372205.045   150482385.335          97.524          48.000  
C22  24627030.346   128239409.9822        635.282          42.000                                                                  
G26  20865587.386   109649401.9952      -1949.664          47.000    20865577.838    85441054.326       -1519.336          45.000  
G27  21891671.124   115041508.3932       2966.528          43.000    21891662.150    89642714.808        2311.629          43.000  
G09  23876261.111   125470598.5742       2749.255          36.000    23876254.522    97769283.510        2142.432          39.000  
C28  24753824.067   128899657.9742      -1065.720          44.000                                                                  
C07  38035767.615   198062221.7402        792.415          41.000    38035748.675   153154204.396         612.588          45.000  
C20  25593803.060   133273649.0892      -3618.917          41.000                                                                  
C36  23849114.926   124188599.8832       1406.671          44.000                                                                  
C37  25035315.464   130365457.3442      -2397.000          42.000                                                                  
C10  39165654.137   203945839.0482        731.482          39.000    39165639.796   157703870.351         565.767          42.000  
G08  24154617.080   126933369.3542       3600.124          34.000    24154617.233    98909202.373        2804.657          35.000  
G29  25333483.834   133128356.1322      -3594.653          37.000    25333474.299   103736328.230       -2800.511          38.000  
C30  25122083.922   130817283.5132       2759.137          43.000                                                                  
C13  40776588.462   212334396.7902      -2429.717          34.000    40776591.311   164190436.2842      -1879.226          37.000  
C08                                                                  41692201.576   167877224.191       -1825.385          41.000  
> 2025 11 03 07 43 34.1200000  0 26                     
G04  21390909.673   112409988.5692       1100.676          43.000    21390898.638    87592155.374         857.408          46.000  
G16  20188396.124   106090737.6062        173.260          46.000                                                                  
G28  23084591.654   121310348.0082      -2703.947          41.000    23084582.066    94527491.690       -2107.030          44.000  
G31  21102456.590   110894157.5522      -1696.951          47.000    21102443.304    86410975.944       -1322.339          45.000  
G03  24576355.731                2      -2937.998          32.000    24576350.121   100636030.599       -2290.009          37.000  
G18  25154996.025   132190396.4512       1347.770          34.000    25154986.841   103005469.113        1050.001          38.000  
C16  36732927.657   191277995.6912          9.562          48.000    36732913.437   147908219.761           7.446          49.000  
C19  23807618.557   123972517.6742      -2167.017          46.000                                                                  
C27  23591594.018   122847621.1922       1121.688          47.000                                                                  
C06  36290794.956   188975693.5732          6.901          47.000    36290774.630   146127917.530           5.198          49.000  
C09  37372221.225   194606963.0282        126.210          45.000    37372204.060   150482381.428          97.555          48.000  
C22  24627025.462   128239384.5752        635.089          42.000                                                                  
G26  20865602.215   109649479.9812      -1949.719          47.000    20865592.673    85441115.090       -1519.214          45.000  
G27  21891648.564   115041389.7352       2966.442          43.000    21891639.585    89642622.360        2311.314          43.000  
G09  23876240.189   125470488.6052       2749.182          36.000    23876233.582    97769197.816        2142.389          39.000  
C28  24753832.241   128899700.6122      -1065.903          44.000                                                                  
C07  38035761.533   198062190.0482        792.264          41.000    38035742.600   153154179.896         612.479          45.000  
C20  25593830.875   133273793.8542      -3619.153          42.000                                                                  
C36  23849104.120   124188543.6222       1406.476          44.000                                                                  
C37  25035333.878   130365553.2272      -2397.117          42.000                                                                  
C10  39165648.518   203945809.7832        731.531          39.000    39165634.176   157703847.723         565.678          42.000  
G08  24154589.693   126933225.3672       3599.678          34.000    24154589.823    98909090.139        2805.208          35.000  
G29  25333511.205   133128499.9152      -3594.729          37.000    25333501.669   103736440.298       -2801.390          38.000  
C30  25122062.719   130817173.1512       2759.063          43.000                                                                  
C13  40776607.110   212334493.9882      -2429.814          34.000    40776609.987   164190511.4412      -1879.120          37.000  
C08                                                                  41692219.702   167877297.208       -1825.458          40.000  
> 2025 11 03 07 43 34.1600000  0 26                     
G04  21390901.315   112409944.5382       1100.690          43.000    21390890.243    87592121.053         857.742          46.000  
G16  20188394.795   106090730.6672        173.311          46.000                                                                  
G28  23084612.225   121310456.1652      -2703.970          41.000    23084602.655    94527575.970       -2107.116          44.000  
G31  21102469.507   110894225.4242      -1696.897          47.000    21102456.219    86411028.830       -1322.283          45.000  
G03  24576378.074                2      -2938.005          32.000    24576372.503   100636122.176       -2289.738          37.000  
G18  25154985.734   132190342.5212       1348.218          34.000    25154976.588   103005427.102        1050.075          38.000  
C16  36732927.560   191277995.2932          9.748          48.000    36732913.371   147908219.449           7.621          48.000  
C19  23807635.242   123972604.3452      -2166.876          46.000                                                                  
C27  23591585.417   122847576.3092       1121.918          47.000                                                                  
C06  36290794.881   188975693.2922          6.934          47.000    36290774.559   146127917.307           5.385          49.000  
C09  37372220.272   194606957.9612        126.486          45.000    37372203.085   150482377.515          97.724          48.000  
C22  24627020.573   128239359.1512        635.333          42.000                                                                  
G26  20865617.043   109649557.9542      -1949.451          47.000    20865607.491    85441175.843       -1518.921          45.000  
G27  21891625.984   115041271.0762       2966.444          43.000    21891616.989    89642529.906        2311.250          43.000  
G09  23876219.253   125470378.6192       2749.493          36.000    23876212.661    97769112.125        2142.334          39.000  
C28  24753840.441   128899743.2492      -1065.949          44.000                                                                  
C07  38035755.455   198062158.3482        792.387          41.000    38035736.499   153154155.380         612.720          45.000  
C20  25593858.657   133273938.6022      -3618.964          42.000                                                                  
C36  23849093.327   124188487.3402       1406.830          44.000                                                                  
C37  25035352.292   130365649.0912      -2396.810          42.000                                                                  
C10  39165642.911   203945780.5292        731.350          39.000    39165628.554   157703825.089         565.755          42.000  
G08  24154562.261   126933081.3452       3599.951          34.000    24154562.397    98908977.899        2805.693          35.000  
G29  25333538.560   133128643.6712      -3594.202          37.000    25333529.035   103736552.300       -2800.599          38.000  
C30  25122041.556   130817062.7832       2759.177          43.000                                                                  
C13  40776625.780   212334591.1442      -2429.072          34.000    40776628.646   164190586.6012      -1879.042          37.000  
C08                                                                  41692237.829   167877370.211       -1825.207          39.000  
> 2025 11 03 07 43 34.2000000  0 26                     
G04  21390892.934   112409900.4942       1100.936          43.000    21390881.850    87592086.723         858.121          46.000  
G16  20188393.467   106090723.7152        173.655          46.000                                                                  
G28  23084632.786   121310564.3132      -2703.789          41.000    23084623.244    94527660.242       -2106.915          44.000  
G31  21102482.402   110894293.2802      -1696.570          47.000    21102469.134    86411081.714       -1322.203          45.000  
G03  24576400.468                2      -2937.136          32.000    24576394.854   100636213.721       -2288.993          37.000  
G18  25154975.465   132190288.5852       1348.483          34.000    25154966.314   103005385.082        1050.326          38.000  
C16  36732927.448   191277994.8822         10.135          48.000    36732913.267   147908219.137           7.730          48.000  
C19  23807651.882   123972691.0022      -2166.547          46.000                                                                  
C27  23591576.805   122847531.4122       1122.318          47.000                                                                  
C06  36290794.821   188975692.9952          7.246          47.000    36290774.514   146127917.072           5.735          49.000  
C09  37372219.313   194606952.8962        126.599          45.000    37372202.096   150482373.587          98.069          48.000  
C22  24627015.644   128239333.7062        635.875          42.000                                                                  
G26  20865631.871   109649635.9132      -1949.072          47.000    20865622.321    85441236.593       -1518.744          45.000  
G27  21891603.400   115041152.4102       2966.574          43.000    21891594.407    89642437.432        2311.590          43.000  
G09  23876198.331   125470268.6562       2749.231          36.000    23876191.712    97769026.426        2142.407          39.000  
C28  24753848.650   128899785.8662      -1065.619          44.000                                                                  
C07  38035749.365   198062126.6442        792.518          41.000    38035730.418   153154130.860         612.907          45.000  
C20  25593886.445   133274083.3282      -3618.385          42.000                                                                  
C36  23849082.525   124188431.0492       1407.202          44.000                                                                  
C37  25035370.680   130365744.9412      -2396.379          42.000                                                                  
C10  39165637.289   203945751.2752        731.313          39.000    39165622.941   157703802.445         565.952          42.000  
G08  24154534.837   126932937.3102       3600.414          34.000    24154534.992    98908865.684        2805.486          35.000  
G29  25333565.893   133128787.4082      -3593.615          37.000    25333556.392   103736664.304       -2800.196          38.000  
C30  25122020.362   130816952.4012       2759.478          43.000                                                                  
C13  40776644.419   212334688.3592      -2429.868          34.000    40776647.299   164190661.7412      -1878.640          37.000  
C08                                                                  41692255.939   167877443.208       -1824.969          39.000  
> 2025 11 03 07 43 34.2400000  0 26                     
G04  21390884.545   112409856.4352       1101.332          43.000    21390873.475    87592052.397         858.199          46.000  
G16  20188392.138   106090716.7562        173.920          46.000                                                                  
G28  23084653.360   121310672.4452      -2703.417          41.000    23084643.794    94527744.499       -2106.536          44.000  
G31  21102495.312   110894361.1322      -1696.332          47.000    21102482.051    86411134.590       -1321.997          45.000  
G03  24576422.840                2      -2937.135          32.000    24576417.226   100636305.261       -2288.447          37.000  
G18  25154965.191   132190234.6702       1348.129          35.000    25154956.056   103005343.050        1050.693          38.000  
C16  36732927.362   191277994.4572         10.568          48.000    36732913.177   147908218.811           8.019          48.000  
C19  23807668.525   123972777.6482      -2166.174          46.000                                                                  
C27  23591568.206   122847486.5222       1122.366          47.000                                                                  
C06  36290794.787   188975692.6862          7.634          47.000    36290774.448   146127916.829           6.012          49.000  
C09  37372218.331   194606947.8132        126.959          45.000    37372201.112   150482369.660          98.228          48.000  
C22  24627010.759   128239308.2622        636.150          42.000                                                                  
G26  20865646.680   109649713.8692      -1948.853          47.000    20865637.150    85441297.345       -1518.744          45.000  
G27  21891580.796   115041033.7352       2966.803          43.000    21891571.808    89642344.954        2311.897          43.000  
G09  23876177.400   125470158.6692       2749.511          36.000    23876170.796    97768940.730        2142.438          39.000  
C28  24753856.851   128899828.4802      -1065.342          44.000                                                                  
C07  38035743.284   198062094.9222        792.952          41.000    38035724.292   153154106.330         613.207          45.000  
C20  25593914.214   133274228.0502      -3618.071          42.000                                                                  
C36  23849071.733   124188374.7612       1407.294          44.000                                                                  
C37  25035389.080   130365840.8002      -2396.332          42.000                                                                  
C10  39165631.654   203945721.9632        732.333          39.000    39165617.300   157703779.820         565.703          42.000  
G08  24154507.410   126932793.2532       3601.132          34.000    24154507.593    98908753.452        2805.672          35.000  
G29  25333593.234   133128931.1432      -3593.356          37.000    25333583.778   103736776.328       -2800.333          38.000  
C30  25121999.151   130816842.0102       2759.779          44.000                                                                  
C13  40776663.102   212334785.5362      -2429.556          34.000    40776665.976   164190736.8782      -1878.360          37.000  
C08                                                                  41692274.085   167877516.211       -1825.024          39.000  
> 2025 11 03 07 43 34.2800000  0 26                     
G04  21390876.184   112409812.3822       1101.417          43.000    21390865.110    87592018.080         858.064          46.000  
G16  20188390.830   106090709.7962        174.054          46.000                                                                  
G28  23084673.929   121310780.5842      -2703.402          41.000    23084664.373    94527828.756       -2106.352          44.000  
G31  21102508.223   110894428.9862      -1696.282          47.000    21102494.952    86411187.462       -1321.816          45.000  
G03  24576445.178                2      -2937.772          32.000    24576439.577   100636396.794       -2288.185          37.000  
G18  25154954.927   132190180.7222       1348.476          34.000    25154945.770   103005301.023        1050.816          38.000  
C16  36732927.259   191277994.0422         10.543          48.000    36732913.089   147908218.482           8.219          48.000  
C19  23807685.146   123972864.3042      -2166.278          46.000                                                                  
C27  23591559.591   122847441.6222       1122.488          47.000                                                                  
C06  36290794.738   188975692.3752          7.836          47.000    36290774.398   146127916.598           5.945          49.000  
C09  37372217.356   194606942.7422        126.932          45.000    37372200.137   150482365.734          98.253          48.000  
C22  24627005.877   128239282.8392        635.867          42.000                                                                  
G26  20865661.527   109649791.8372      -1949.036          47.000    20865652.005    85441358.103       -1518.878          45.000  
G27  21891558.214   115040915.0532       2967.029          43.000    21891549.223    89642252.487        2311.805          43.000  
G09  23876156.465   125470048.6822       2749.664          36.000    23876149.881    97768855.024        2142.633          39.000  
C28  24753865.034   128899871.0862      -1065.149          44.000                                                                  
C07  38035737.195   198062063.2082        792.990          41.000    38035718.206   153154081.802         613.264          45.000  
C20  25593942.010   133274372.7822      -3618.125          42.000                                                                  
C36  23849060.903   124188318.4702       1407.343          44.000                                                                  
C37  25035407.492   130365936.6622      -2396.423          42.000                                                                  
C10  39165626.026   203945692.6872        732.167          39.000    39165611.689   157703757.171         566.013          42.000  
G08  24154480.001   126932649.2512       3600.363          34.000    24154480.188    98908641.229        2805.591          35.000  
G29  25333620.583   133129074.8822      -3593.257          37.000    25333611.152   103736888.354       -2800.516          38.000  
C30  25121977.938   130816731.6182       2759.856          44.000                                                                  
C13  40776681.770   212334882.7242      -2429.595          34.000    40776684.617   164190812.0162      -1878.298          37.000  
C08                                                                  41692292.224   167877589.219       -1825.159          39.000  
> 2025 11 03 07 43 34.3200000  0 26                     
G04  21390867.805   112409768.3432       1101.154          43.000    21390856.739    87591983.767         857.877          46.000  
G16  20188389.508   106090702.8462        173.877          46.000                                                                  
G28  23084694.517   121310888.7372      -2703.741          41.000    23084684.943    94527913.021       -2106.474          44.000  
G31  21102521.171   110894496.8512      -1696.457          47.000    21102507.857    86411240.332       -1321.750          45.000  
G03  24576467.578                2      -2937.628          32.000    24576461.929   100636488.374       -2288.982          37.000  
G18  25154944.662   132190126.7892       1348.423          34.000    25154935.505   103005259.010        1050.505          38.000  
C16  36732927.131   191277993.6322         10.374          48.000    36732913.030   147908218.171           7.973          48.000  
C19  23807701.789   123972950.9652      -2166.431          46.000                                                                  
C27  23591550.983   122847396.7352       1122.302          47.000                                                                  
C06  36290794.661   188975692.0742          7.728          47.000    36290774.345   146127916.373           5.741          49.000  
C09  37372216.393   194606937.6702        126.883          45.000    37372199.166   150482361.812          98.138          48.000  
C22  24627001.006   128239257.4122        635.707          42.000                                                                  
G26  20865676.358   109649869.8072      -1949.200          47.000    20865666.834    85441418.855       -1518.829          45.000  
G27  21891535.633   115040796.3842       2966.885          43.000    21891526.644    89642160.003        2312.052          43.000  
G09  23876135.523   125469938.7032       2749.542          36.000    23876128.933    97768769.325        2142.584          39.000  
C28  24753873.213   128899913.7132      -1065.488          44.000                                                                  
C07  38035731.126   198062031.4772        793.295          41.000    38035712.106   153154057.277         613.242          45.000  
C20  25593969.829   133274517.5212      -3618.365          42.000                                                                  
C36  23849050.104   124188262.1882       1407.153          44.000                                                                  
C37  25035425.891   130366032.5252      -2396.525          42.000                                                                  
C10  39165620.390   203945663.4152        731.918          39.000    39165606.072   157703734.539         565.873          42.000  
G08  24154452.587   126932505.1992       3600.861          33.000    24154452.769    98908529.007        2805.559          35.000  
G29  25333647.966   133129218.6782      -3594.341          37.000    25333638.532   103737000.370       -2800.458          38.000  
C30  25121956.752   130816621.2362       2759.658          44.000                                                                  
C13  40776700.475   212334979.8952      -2429.254          34.000    40776703.253   164190887.1732      -1878.724          37.000  
C08                                                                  41692310.363   167877662.226       -1825.207          39.000  
> 2025 11 03 07 43 34.3600000  0 26                     
G04  21390859.450   112409724.3182       1100.746          43.000    21390848.363    87591949.455         857.761          46.000  
G16  20188388.184   106090695.9052        173.596          46.000                                                                  
G28  23084715.111   121310996.8752      -2703.666          41.000    23084705.528    94527997.285       -2106.550          44.000  
G31  21102534.107   110894564.7192      -1696.637          47.000    21102520.777    86411293.210       -1321.844          45.000  
G03  24576489.912                2      -2937.373          32.000    24576484.308   100636579.973       -2289.764          37.000  
G18  25154934.401   132190072.8902       1347.742          34.000    25154925.254   103005216.987        1050.508          38.000  
C16  36732927.043   191277993.2352         10.041          48.000    36732912.964   147908217.856           7.896          48.000  
C19  23807718.432   123973037.6382      -2166.766          46.000                                                                  
C27  23591542.353   122847351.8532       1122.086          47.000                                                                  
C06  36290794.599   188975691.7852          7.419          47.000    36290774.277   146127916.149           5.626          49.000  
C09  37372215.421   194606932.5982        126.810          45.000    37372198.209   150482357.902          97.862          48.000  
C22  24626996.095   128239231.9792        635.687          42.000                                                                  
G26  20865691.199   109649947.7822      -1949.414          47.000    20865681.656    85441479.614       -1518.945          45.000  
G27  21891513.069   115040677.7242       2966.610          44.000    21891504.059    89642067.547        2311.637          43.000  
G09  23876114.573   125469828.7022       2749.884          36.000    23876108.003    97768683.609        2142.804          39.000  
C28  24753881.376   128899956.3462      -1065.752          44.000                                                                  
C07  38035725.025   198061999.7692        792.942          41.000    38035706.011   153154032.757         613.089          45.000  
C20  25593997.635   133274662.2602      -3618.491          42.000                                                                  
C36  23849039.290   124188205.9092       1406.958          44.000                                                                  
C37  25035444.312   130366128.3792      -2396.368          42.000                                                                  
C10  39165614.781   203945634.1382        731.813          39.000    39165600.458   157703711.911         565.759          43.000  
G08  24154425.182   126932361.1842       3600.626          33.000    24154425.369    98908416.781        2805.542          35.000  
G29  25333675.320   133129362.4602      -3594.646          37.000    25333665.893   103737112.394       -2800.589          38.000  
C30  25121935.548   130816510.8612       2759.398          44.000                                                                  
C13  40776719.115   212335077.0802      -2429.410          34.000    40776721.941   164190962.3402      -1879.118          37.000  
C08                                                                  41692328.495   167877735.246       -1825.513          41.000  
> 2025 11 03 07 43 34.4000000  0 26                     
G04  21390851.055   112409680.2962       1100.494          43.000    21390839.970    87591915.145         857.667          46.000  
G16  20188386.871   106090688.9702        173.356          46.000                                                                  
G28  23084735.703   121311105.0432      -2704.081          41.000    23084726.143    94528081.567       -2106.929          44.000  
G31  21102547.028   110894632.5942      -1696.871          47.000    21102533.687    86411346.107       -1322.257          45.000  
G03  24576512.295                2      -2938.297          32.000    24576506.686   100636671.587       -2290.358          37.000  
G18  25154924.161   132190018.9992       1347.237          34.000    25154915.007   103005174.999        1049.900          38.000  
C16  36732926.962   191277992.8362          9.899          48.000    36732912.901   147908217.555           7.590          48.000  
C19  23807735.061   123973124.3212      -2167.090          46.000                                                                  
C27  23591533.735   122847306.9802       1121.809          47.000                                                                  
C06  36290794.520   188975691.5002          7.162          47.000    36290774.207   146127915.925           5.573          49.000  
C09  37372214.467   194606927.5442        126.459          45.000    37372197.239   150482353.989          97.771          48.000  
C22  24626991.220   128239206.5682        635.337          42.000                                                                  
G26  20865706.042   109650025.7602      -1949.530          47.000    20865696.514    85441540.377       -1519.086          45.000  
G27  21891490.497   115040559.0782       2966.175          43.000    21891481.480    89641975.102        2311.189          43.000  
G09  23876093.631   125469718.7262       2749.554          36.000    23876087.091    97768597.904        2142.657          39.000  
C28  24753889.566   128899998.9972      -1066.220          44.000                                                                  
C07  38035718.930   198061968.0752        792.406          41.000    38035699.946   153154008.255         612.670          45.000  
C20  25594025.448   133274807.0232      -3618.950          42.000                                                                  
C36  23849028.488   124188149.6402       1406.708          44.000                                                                  
C37  25035462.699   130366224.2482      -2396.618          42.000                                                                  
C10  39165609.159   203945604.8842        731.377          39.000    39165594.828   157703689.280         565.722          43.000  
G08  24154397.771   126932217.1072       3601.666          33.000    24154397.978    98908304.561        2805.449          36.000  
G29  25333702.664   133129506.2172      -3594.267          37.000    25333693.247   103737224.425       -2800.685          38.000  
C30  25121914.368   130816400.4892       2759.250          44.000                                                                  
C13  40776737.785   212335174.2942      -2430.083          34.000    40776740.616   164191037.5082      -1879.313          37.000  
C08                                                                  41692346.609   167877808.263       -1825.604          41.000  
> 2025 11 03 07 43 34.4400000  0 26                     
G04  21390842.658   112409636.2612       1100.627          43.000    21390831.603    87591880.832         857.673          46.000  
G16  20188385.547   106090682.0342        173.265          46.000                                                                  
G28  23084756.284   121311213.1862      -2703.804          41.000    23084746.723    94528165.846       -2107.057          44.000  
G31  21102559.926   110894700.4722      -1697.019          47.000    21102546.606    86411398.997       -1322.322          45.000  
G03  24576534.658                2      -2938.418          32.000    24576529.048   100636763.154       -2289.794          37.000  
G18  25154913.866   132189965.0662       1347.840          34.000    25154904.754   103005132.969        1050.389          38.000  
C16  36732926.860   191277992.4352          9.923          48.000    36732912.808   147908217.247           7.601          48.000  
C19  23807751.701   123973210.9922      -2166.968          46.000                                                                  
C27  23591525.095   122847262.1062       1121.725          47.000                                                                  
C06  36290794.475   188975691.2142          7.081          47.000    36290774.160   146127915.694           5.674          49.000  
C09  37372213.473   194606922.4912        126.260          45.000    37372196.269   150482350.074          97.795          48.000  
C22  24626986.336   128239181.1522        635.229          42.000                                                                  
G26  20865720.870   109650103.7462      -1949.713          47.000    20865711.357    85441601.139       -1519.110          45.000  
G27  21891467.920   115040440.4212       2966.208          43.000    21891458.892    89641882.633        2311.455          43.000  
G09  23876072.713   125469608.7612       2749.231          36.000    23876066.175    97768512.224        2142.163          39.000  
C28  24753897.744   128900041.6252      -1066.036          44.000                                                                  
C07  38035712.845   198061936.3832        792.161          41.000    38035693.849   153153983.742         612.700          45.000  
C20  25594053.232   133274951.7662      -3618.808          42.000                                                                  
C36  23849017.663   124188093.3632       1406.769          44.000                                                                  
C37  25035481.128   130366320.1292      -2396.922          42.000                                                                  
C10  39165603.559   203945575.6012        731.737          39.000    39165589.242   157703666.635         565.985          43.000  
G08  24154370.325                2       3601.343          33.000    24154370.562    98908192.318        2805.878          36.000  
G29  25333730.017   133129649.9842      -3594.255          37.000    25333720.597   103737336.452       -2800.681          38.000  
C30  25121893.157   130816290.1182       2759.160          44.000                                                                  
C13  40776756.431   212335271.4802      -2429.914          34.000    40776759.253   164191112.6442      -1878.709          37.000  
C08                                                                  41692364.734   167877881.270       -1825.372          41.000  
> 2025 11 03 07 43 34.4800000  0 26                     
G04  21390834.289   112409592.2192       1100.900          43.000    21390823.217    87591846.519         857.703          46.000  
G16  20188384.200   106090675.0942        173.367          46.000                                                                  
G28  23084776.835   121311321.3092      -2703.262          41.000    23084767.291    94528250.119       -2106.942          44.000  
G31  21102572.826   110894768.3392      -1696.873          47.000    21102559.497    86411451.883       -1322.257          45.000  
G03  24576557.013                2      -2939.136          32.000    24576551.404   100636854.683       -2288.729          37.000  
G18  25154903.583   132189911.1222       1348.361          34.000    25154894.484   103005090.962        1050.222          38.000  
C16  36732926.753   191277992.0252         10.108          48.000    36732912.732   147908216.931           7.742          49.000  
C19  23807768.338   123973297.6492      -2166.620          46.000                                                                  
C27  23591516.472   122847217.2222       1121.929          47.000                                                                  
C06  36290794.433   188975690.9222          7.168          47.000    36290774.121   146127915.463           5.752          49.000  
C09  37372212.486   194606917.4092        126.707          45.000    37372195.321   150482346.148          98.008          48.000  
C22  24626981.462   128239155.7372        635.227          42.000                                                                  
G26  20865735.698   109650181.7152      -1949.451          47.000    20865726.196    85441661.894       -1518.976          45.000  
G27  21891445.316   115040321.7572       2966.430          43.000    21891436.309    89641790.164        2311.612          43.000  
G09  23876051.767   125469498.7902       2749.139          36.000    23876045.256    97768426.546        2141.852          39.000  
C28  24753905.935   128900084.2482      -1065.815          44.000                                                                  
C07  38035706.772   198061904.6732        792.426          41.000    38035687.747   153153959.210         613.086          45.000  
C20  25594081.011   133275096.4962      -3618.450          42.000                                                                  
C36  23849006.845   124188037.0722       1407.111          44.000                                                                  
C37  25035499.547   130366415.9992      -2396.908          42.000                                                                  
C10  39165597.912   203945546.3362        731.609          38.000    39165583.635   157703643.996         566.055          43.000  
G08  24154342.910                2       3600.402          33.000    24154343.153    98908080.097        2805.680          36.000  
G29  25333757.371   133129793.7422      -3594.042          37.000    25333747.953   103737448.477       -2800.696          38.000  
C30  25121871.962   130816179.7322       2759.438          44.000                                                                  
C13  40776775.091   212335368.6702      -2429.914          34.000    40776777.889   164191187.7922      -1878.689          37.000  
C08                                                                  41692382.858   167877954.279       -1825.269          41.000  
> 2025 11 03 07 43 34.5200000  0 26                     
G04  21390825.908   112409548.1862       1100.853          43.000    21390814.829    87591812.196         857.915          46.000  
G16  20188382.876   106090668.1442        173.585          46.000                                                                  
G28  23084797.428   121311429.4632      -2703.672          41.000    23084787.862    94528334.384       -2106.774          44.000  
G31  21102585.724   110894836.1882      -1696.419          47.000    21102572.417    86411504.762       -1322.104          45.000  
G03  24576579.357                2      -2937.343          32.000    24576573.760   100636946.242       -2288.718          37.000  
G18  25154893.295   132189857.1902       1348.406          34.000    25154884.230   103005048.965        1049.953          38.000  
C16  36732926.661   191277991.6082         10.327          48.000    36732912.655   147908216.612           7.885          49.000  
C19  23807784.966   123973384.3112      -2166.541          46.000                                                                  
C27  23591507.872   122847172.3322       1122.170          46.000                                                                  
C06  36290794.364   188975690.6182          7.417          47.000    36290774.088   146127915.236           5.691          49.000  
C09  37372211.504   194606912.3322        126.884          45.000    37372194.332   150482342.223          98.107          48.000  
C22  24626976.573   128239130.3042        635.580          42.000                                                                  
G26  20865750.518   109650259.6802      -1949.261          47.000    20865741.037    85441722.643       -1518.768          45.000  
G27  21891422.743   115040203.0892       2966.610          43.000    21891413.720    89641697.701        2311.596          43.000  
G09  23876030.846   125469388.8022       2749.469          36.000    23876024.341    97768340.834        2142.462          39.000  
C28  24753914.130   128900126.8642      -1065.518          44.000                                                                  
C07  38035700.685   198061872.9552        792.766          41.000    38035681.674   153153934.683         613.182          45.000  
C20  25594108.781   133275241.2222      -3618.247          41.000                                                                  
C36  23848996.028   124187980.7832       1407.251          44.000                                                                  
C37  25035517.982   130366511.8532      -2396.568          42.000                                                                  
C10  39165592.307   203945517.0482        731.989          38.000    39165577.988   157703621.363         565.918          43.000  
G08  24154315.499   126931785.0582       3600.603          33.000    24154315.759    98907967.892        2805.259          36.000  
G29  25333784.745   133129937.5152      -3594.259          37.000    25333775.319   103737560.498       -2800.637          37.000  
C30  25121850.772   130816069.3542       2759.429          44.000                                                                  
C13  40776793.735   212335465.8412      -2429.608          34.000    40776796.550   164191262.9132      -1878.222          37.000  
C08                                                                  41692400.971   167878027.299       -1825.446          41.000  
> 2025 11 03 07 43 34.5600000  0 26                     
G04  21390817.516   112409504.1502       1100.835          43.000    21390806.457    87591777.884         857.880          46.000  
G16  20188381.558   106090661.2002        173.590          46.000                                                                  
G28  23084818.017   121311537.6192      -2703.914          41.000    23084808.445    94528418.658       -2106.844          44.000  
G31  21102598.628   110894904.0512      -1696.466          47.000    21102585.348    86411557.636       -1321.921          45.000  
G03  24576601.694                2      -2937.543          32.000    24576596.155   100637037.808       -2288.887          37.000  
G18  25154883.056   132189803.2742       1348.115          34.000    25154873.972   103005006.933        1050.513          38.000  
C16  36732926.574   191277991.1972         10.301          48.000    36732912.585   147908216.291           8.005          48.000  
C19  23807801.616   123973470.9902      -2166.858          46.000                                                                  
C27  23591499.222   122847127.4532       1122.064          46.000                                                                  
C06  36290794.292   188975690.3202          7.444          47.000    36290774.047   146127915.009           5.670          49.000  
C09  37372210.502   194606907.2702        126.672          45.000    37372193.361   150482338.319          97.745          48.000  
C22  24626971.690   128239104.8822        635.575          42.000                                                                  
G26  20865765.344   109650337.6522      -1949.249          47.000    20865755.872    85441783.403       -1518.915          45.000  
G27  21891400.154   115040084.4252       2966.589          43.000    21891391.132    89641605.236        2311.609          43.000  
G09  23876009.919   125469278.8362       2749.194          36.000    23876003.407    97768255.144        2142.273          39.000  
C28  24753922.309   128900169.4962      -1065.647          44.000                                                                  
C07  38035694.582   198061841.2562        792.588          41.000    38035675.572   153153910.167         613.004          45.000  
C20  25594136.563   133275385.9652      -3618.468          41.000                                                                  
C36  23848985.231   124187924.4982       1407.196          44.000                                                                  
C37  25035536.413   130366607.7152      -2396.514          42.000                                                                  
C10  39165586.694   203945487.7722        731.982          38.000    39165572.358   157703598.751         565.447          43.000  
G08  24154288.094   126931641.0532       3600.238          33.000    24154288.365    98907855.665        2805.416          36.000  
G29  25333812.097   133130081.2812      -3594.264          37.000    25333802.677   103737672.509       -2800.367          37.000  
C30  25121829.561   130815958.9822       2759.324          44.000                                                                  
C13  40776812.397   212335563.0412      -2429.885          34.000    40776815.219   164191338.0632      -1878.581          37.000  
C08                                                                  41692419.094   167878100.290       -1825.006          41.000  
> 2025 11 03 07 43 34.6000000  0 26                     
G04  21390809.137   112409460.1352       1100.465          43.000    21390798.082    87591743.585         857.561          46.000  
G16  20188380.246   106090654.2712        173.309          46.000                                                                  
G28  23084838.584   121311645.7762      -2704.018          41.000    23084829.044    94528502.943       -2107.118          43.000  
G31  21102611.546   110894971.9372      -1696.917          47.000    21102598.274    86411610.534       -1322.254          45.000  
G03  24576624.034                2      -2937.528          32.000    24576618.528   100637129.395       -2289.397          37.000  
G18  25154872.811   132189749.3792       1347.553          34.000    25154863.696   103004964.922        1050.371          38.000  
C16  36732926.458   191277990.8092          9.859          48.000    36732912.500   147908215.986           7.730          49.000  
C19  23807818.236   123973557.6712      -2167.065          46.000                                                                  
C27  23591490.599   122847082.5882       1121.713          46.000                                                                  
C06  36290794.220   188975690.0392          7.115          47.000    36290773.999   146127914.794           5.427          49.000  
C09  37372209.527   194606902.2092        126.533          45.000    37372192.374   150482334.404          97.769          48.000  
C22  24626966.783   128239079.4702        635.362          42.000                                                                  
G26  20865780.189   109650415.6432      -1949.597          47.000    20865770.726    85441844.176       -1519.250          45.000  
G27  21891377.592   115039965.7742       2966.342          43.000    21891368.553    89641512.787        2311.254          43.000  
G09  23875988.985   125469168.8542       2749.396          36.000    23875982.502    97768169.448        2142.334          39.000  
C28  24753930.495   128900212.1382      -1065.951          44.000                                                                  
C07  38035688.494   198061809.5632        792.323          41.000    38035669.501   153153885.663         612.658          45.000  
C20  25594164.350   133275530.7192      -3618.817          41.000                                                                  
C36  23848974.422   124187868.2442       1406.525          44.000                                                                  
C37  25035554.809   130366703.5872      -2396.719          42.000                                                                  
C10  39165581.081   203945458.5332        731.313          38.000    39165566.759   157703576.124         565.498          43.000  
G08  24154260.682   126931497.0612       3599.928          33.000    24154260.966    98907743.446        2805.356          36.000  
G29  25333839.449   133130225.0462      -3594.124          37.000    25333830.029   103737784.544       -2800.653          37.000  
C30  25121808.358   130815848.6192       2759.141          44.000                                                                  
C13  40776831.046   212335660.2512      -2430.254          34.000    40776833.901   164191413.2262      -1878.995          37.000  
C08                                                                  41692437.200   167878173.313       -1825.433          40.000  
> 2025 11 03 07 43 34.6400000  0 26                     
G04  21390800.754   112409416.1232       1100.249          43.000    21390789.706    87591709.298         857.202          46.000  
G16  20188378.950   106090647.3512        173.006          46.000                                                                  
G28  23084859.169   121311753.9472      -2704.327          41.000    23084849.623    94528587.217       -2107.016          44.000  
G31  21102624.474   110895039.8342      -1697.374          47.000    21102611.179    86411663.435       -1322.508          45.000  
G03  24576646.373                2      -2937.915          32.000    24576640.886   100637220.987       -2289.774          37.000  
G18  25154862.571   132189695.4882       1347.225          34.000    25154853.432   103004922.925        1050.035          38.000  
C16  36732926.346   191277990.4272          9.496          48.000    36732912.447   147908215.688           7.473          49.000  
C19  23807834.877   123973644.3652      -2167.407          46.000                                                                  
C27  23591481.965   122847037.7322       1121.400          46.000                                                                  
C06  36290794.158   188975689.7672          6.799          47.000    36290773.945   146127914.575           5.402          49.000  
C09  37372208.548   194606897.1652        126.131          45.000    37372191.416   150482330.495          97.682          48.000  
C22  24626961.899   128239054.0732        635.008          42.000                                                                  
G26  20865795.046   109650493.6422      -1949.951          47.000    20865785.573    85441904.956       -1519.513          45.000  
G27  21891355.027   115039847.1342       2966.024          43.000    21891345.998    89641420.331        2311.229          43.000  
G09  23875968.050   125469058.9052       2748.785          36.000    23875961.567    97768083.774        2141.949          39.000  
C28  24753938.697   128900254.7932      -1066.335          44.000                                                                  
C07  38035682.424   198061777.8722        792.176          41.000    38035663.419   153153861.161         612.467          45.000  
C20  25594192.149   133275675.4792      -3619.070          41.000                                                                  
C36  23848963.605   124187811.9902       1406.207          44.000                                                                  
C37  25035573.234   130366799.4872      -2397.323          42.000                                                                  
C10  39165575.491   203945429.2792        731.197          39.000    39165561.132   157703553.502         565.471          43.000  
G08  24154233.293   126931353.0272       3600.519          33.000    24154233.564    98907631.205        2805.702          36.000  
G29  25333866.830   133130368.8272      -3594.342          37.000    25333857.397   103737896.593       -2801.058          37.000  
C30  25121787.154   130815738.2572       2758.975          44.000                                                                  
C13  40776849.705   212335757.4142      -2429.552          34.000    40776852.594   164191488.4052      -1879.441          37.000  
C08                                                                  41692455.341   167878246.332       -1825.549          40.000  
> 2025 11 03 07 43 34.6800000  0 26                     
G04  21390792.385   112409372.1352       1099.729          43.000    21390781.363    87591675.025         856.782          46.000  
G16  20188377.651   106090640.4472        172.562          46.000                                                                  
G28  23084879.755   121311862.1372      -2704.764          41.000    23084870.211    94528671.527       -2107.651          44.000  
G31  21102637.406   110895107.7452      -1697.830          47.000    21102624.126    86411716.356       -1323.012          45.000  
G03  24576668.718                2      -2938.427          32.000    24576663.263   100637312.609       -2290.554          37.000  
G18  25154852.312   132189641.5932       1347.168          34.000    25154843.171   103004880.955        1049.307          38.000  
C16  36732926.251   191277990.0502          9.303          48.000    36732912.367   147908215.401           7.136          49.000  
C19  23807851.520   123973731.0672      -2167.651          46.000                                                                  
C27  23591473.336   122846992.8912       1120.989          46.000                                                                  
C06  36290794.086   188975689.5082          6.420          47.000    36290773.893   146127914.376           5.020          49.000  
C09  37372207.582   194606892.1402        125.616          45.000    37372190.467   150482326.600          97.397          48.000  
C22  24626957.013   128239028.6862        634.640          42.000                                                                  
G26  20865809.896   109650571.6542      -1950.342          47.000    20865800.441    85441965.752       -1519.928          45.000  
G27  21891332.456   115039728.5112       2965.567          43.000    21891323.436    89641327.891        2310.970          43.000  
G09  23875947.154   125468948.9662       2748.370          36.000    23875940.639    97767998.117        2141.467          39.000  
C28  24753946.883   128900297.4592      -1066.679          44.000                                                                  
C07  38035676.326   198061746.2002        791.751          41.000    38035657.341   153153836.676         612.076          45.000  
C20  25594219.945   133275820.2382      -3619.146          41.000                                                                  
C36  23848952.810   124187755.7452       1405.963          44.000                                                                  
C37  25035591.645   130366895.3842      -2397.582          42.000                                                                  
C10  39165569.894   203945400.0412        730.867          38.000    39165555.495   157703530.889         565.281          43.000  
G08  24154205.857   126931209.0212       3600.357          33.000    24154206.172    98907519.010        2805.090          36.000  
G29  25333894.181   133130512.6422      -3595.167          37.000    25333884.763   103738008.648       -2801.437          37.000  
C30  25121765.933   130815627.9172       2758.510          44.000                                                                  
C13  40776868.401   212335854.6332      -2430.107          34.000    40776871.259   164191563.5832      -1879.653          37.000  
C08                                                                  41692473.483   167878319.359       -1825.708          40.000  
> 2025 11 03 07 43 34.7200000  0 26                     
G04  21390784.018   112409328.1432       1099.587          43.000    21390772.974    87591640.744         856.771          46.000  
G16  20188376.327   106090633.5452        172.387          46.000                                                                  
G28  23084900.318   121311970.3212      -2704.827          41.000    23084890.793    94528755.823       -2107.639          43.000  
G31  21102650.308   110895175.6532      -1697.955          47.000    21102637.052    86411769.274       -1323.158          45.000  
G03  24576691.093                2      -2940.018          32.000    24576685.639   100637404.218       -2290.646          37.000  
G18  25154842.062   132189587.7022       1347.190          34.000    25154832.924   103004838.961        1049.410          38.000  
C16  36732926.190   191277989.6842          9.052          48.000    36732912.287   147908215.126           6.806          49.000  
C19  23807868.182   123973817.7762      -2167.859          46.000                                                                  
C27  23591464.710   122846948.0452       1120.955          46.000                                                                  
C06  36290794.039   188975689.2522          6.250          47.000    36290773.852   146127914.182           4.785          49.000  
C09  37372206.620   194606887.1002        125.684          45.000    37372189.509   150482322.700          97.373          48.000  
C22  24626952.142   128239003.3092        634.290          42.000                                                                  
G26  20865824.698   109650649.6652      -1950.464          47.000    20865815.297    85442026.534       -1519.812          45.000  
G27  21891309.899   115039609.8882       2965.392          43.000    21891300.866    89641235.469        2310.526          43.000  
G09  23875926.246   125468839.0362       2748.090          36.000    23875919.714    97767912.443        2141.577          39.000  
C28  24753955.085   128900340.1342      -1066.981          44.000                                                                  
C07  38035670.206   198061714.5252        791.691          41.000    38035651.274   153153812.183         612.071          45.000  
C20  25594247.750   133275965.0082      -3619.336          41.000                                                                  
C36  23848942.009   124187699.4992       1405.963          44.000                                                                  
C37  25035610.063   130366991.2752      -2397.500          42.000                                                                  
C10  39165564.295   203945370.8102        730.658          38.000    39165549.874   157703508.281         565.112          43.000  
G08  24154178.454   126931065.0382       3599.767          33.000    24154178.779    98907406.821        2804.668          36.000  
G29  25333921.545   133130656.4492      -3595.367          37.000    25333912.120   103738120.715       -2801.756          37.000  
C30  25121744.733   130815517.5742       2758.390          44.000                                                                  
C13  40776887.065   212335951.8772      -2430.932          34.000    40776889.940   164191638.7442      -1879.344          37.000  
C08                                                                  41692491.629   167878392.394       -1825.934          40.000  
> 2025 11 03 07 43 34.7600000  0 26                     
G04  21390775.621   112409284.1392       1099.763          43.000    21390764.590    87591606.458         856.897          46.000  
G16  20188375.011   106090626.6352        172.472          46.000                                                                  
G28  23084920.884   121312078.4862      -2704.456          41.000    23084911.381    94528840.119       -2107.522          43.000  
G31  21102663.224   110895243.5452      -1697.653          47.000    21102649.959    86411822.185       -1323.038          45.000  
G03  24576713.488                2      -2939.485          32.000    24576707.991   100637495.789       -2289.927          37.000  
G18  25154831.806   132189533.8342       1346.733          34.000    25154822.665   103004796.951        1049.854          38.000  
C16  36732926.100   191277989.3002          9.289          48.000    36732912.244   147908214.829           7.078          49.000  
C19  23807884.846   123973904.4762      -2167.725          46.000                                                                  
C27  23591456.103   122846903.1912       1121.147          46.000                                                                  
C06  36290793.999   188975688.9812          6.487          47.000    36290773.845   146127913.976           4.919          49.000  
C09  37372205.641   194606882.0542        125.924          45.000    37372188.562   150482318.808          97.250          48.000  
C22  24626947.229   128238977.9302        634.268          42.000                                                                  
G26  20865839.510   109650727.6672      -1950.287          47.000    20865830.144    85442087.317       -1519.690          45.000  
G27  21891287.322   115039491.2502       2965.623          43.000    21891278.291    89641143.026        2310.711          43.000  
G09  23875905.309   125468729.0882       2748.328          36.000    23875898.794    97767826.761        2141.913          39.000  
C28  24753963.298   128900382.7912      -1066.727          44.000                                                                  
C07  38035664.125   198061682.8412        791.852          41.000    38035645.194   153153787.689         612.183          45.000  
C20  25594275.548   133276109.7762      -3619.328          41.000                                                                  
C36  23848931.191   124187643.2292       1406.470          44.000                                                                  
C37  25035628.498   130367087.1612      -2397.352          42.000                                                                  
C10  39165558.664   203945341.5762        730.669          39.000    39165544.260   157703485.673         565.064          43.000  
G08  24154151.039                2       3598.232          33.000    24154151.391    98907294.606        2804.957          36.000  
G29  25333948.919   133130800.2352      -3595.000          37.000    25333939.484   103738232.749       -2801.229          37.000  
C30  25121723.564   130815407.2192       2758.642          44.000                                                                  
C13  40776905.747   212336049.0972      -2430.826          34.000    40776908.606   164191713.9212      -1879.359          37.000  
C08                                                                  41692509.783   167878465.416       -1825.751          40.000  
> 2025 11 03 07 43 34.8000000  0 26                     
G04  21390767.242   112409240.1252       1100.127          43.000    21390756.203    87591572.149         857.465          46.000  
G16  20188373.690   106090619.7152        172.792          46.000                                                                  
G28  23084941.483   121312186.6682      -2704.537          41.000    23084931.965    94528924.406       -2107.304          43.000  
G31  21102676.150   110895311.4292      -1697.297          47.000    21102662.871    86411875.081       -1322.677          45.000  
G03  24576735.838                2      -2938.365          32.000    24576730.382   100637587.372       -2289.630          37.000  
G18  25154821.564   132189479.9432       1346.968          34.000    25154812.425   103004754.961        1049.768          38.000  
C16  36732926.022   191277988.9102          9.559          48.000    36732912.177   147908214.523           7.442          49.000  
C19  23807901.484   123973991.1632      -2167.358          46.000                                                                  
C27  23591447.478   122846858.3352       1121.326          46.000                                                                  
C06  36290793.939   188975688.7002          6.826          47.000    36290773.783   146127913.758           5.234          49.000  
C09  37372204.687   194606876.9972        126.263          45.000    37372187.595   150482314.905          97.423          48.000  
C22  24626942.322   128238952.5262        634.798          42.000                                                                  
G26  20865854.341   109650805.6592      -1949.963          47.000    20865844.973    85442148.082       -1519.281          45.000  
G27  21891264.745   115039372.6142       2965.796          43.000    21891255.714    89641050.570        2311.172          43.000  
G09  23875884.387   125468619.1202       2748.907          36.000    23875877.869    97767741.075        2142.133          39.000  
C28  24753971.487   128900425.4492      -1066.599          44.000                                                                  
C07  38035658.063   198061651.1572        791.980          41.000    38035639.094   153153763.179         612.542          45.000  
C20  25594303.372   133276254.5372      -3619.154          41.000                                                                  
C36  23848920.384   124187586.9672       1406.573          44.000                                                                  
C37  25035646.912   130367183.0432      -2397.170          42.000                                                                  
C10  39165553.050   203945312.3182        731.159          38.000    39165538.620   157703463.049         565.366          43.000  
G08  24154123.624                2       3599.896          33.000    24154123.993    98907182.405        2804.938          36.000  
G29  25333976.284   133130944.0082      -3594.451          37.000    25333966.829   103738344.798       -2801.138          37.000  
C30  25121702.374   130815296.8572       2758.915          44.000                                                                  
C13  40776924.401   212336146.2992      -2430.381          34.000    40776927.278   164191789.0602      -1878.647          37.000  
C08                                                                  41692527.915   167878538.438       -1825.598          40.000  
> 2025 11 03 07 43 34.8400000  0 26                     
G04  21390758.853   112409196.1052       1100.388          43.000    21390747.829    87591537.845         857.640          46.000  
G16  20188372.376   106090612.7882        173.102          46.000                                                                  
G28  23084962.058   121312294.8222      -2704.090          41.000    23084952.550    94529008.679       -2106.945          43.000  
G31  21102689.067   110895379.3142      -1697.133          47.000    21102675.765    86411927.967       -1322.264          45.000  
G03  24576758.212                2      -2938.859          32.000    24576752.719   100637678.936       -2289.209          37.000  
G18  25154811.300   132189426.0392       1347.370          34.000    25154802.179   103004712.978        1049.566          38.000  
C16  36732925.941   191277988.5172          9.784          48.000    36732912.092   147908214.208           7.826          49.000  
C19  23807918.169   123974077.8472      -2167.126          46.000                                                                  
C27  23591438.882   122846813.4662       1121.621          46.000                                                                  
C06  36290793.896   188975688.4212          6.991          47.000    36290773.722   146127913.531           5.571          49.000  
C09  37372203.727   194606871.9422        126.392          45.000    37372186.618   150482310.988          97.773          48.000  
C22  24626937.481   128238927.1142        635.223          42.000                                                                  
G26  20865869.192   109650883.6492      -1949.768          47.000    20865859.778    85442208.850       -1519.147          45.000  
G27  21891242.162   115039253.9662       2966.066          43.000    21891233.136    89640958.118        2311.339          43.000  
G09  23875863.451   125468509.1702       2748.846          36.000    23875856.940    97767655.394        2142.090          39.000  
C28  24753979.689   128900468.0972      -1066.312          44.000                                                                  
C07  38035651.992   198061619.4552        792.413          41.000    38035632.992   153153738.668         612.759          45.000  
C20  25594331.156   133276399.3002      -3619.064          41.000                                                                  
C36  23848909.566   124187530.6942       1406.787          44.000                                                                  
C37  25035665.324   130367278.9272      -2397.087          42.000                                                                  
C10  39165547.431   203945283.0652        731.372          38.000    39165532.996   157703440.425         565.571          43.000  
G08  24154096.192                2       3601.493          33.000    24154096.576    98907070.205        2804.901          36.000  
G29  25334003.628   133131087.7932      -3594.476          37.000    25333994.190   103738456.837       -2801.037          37.000  
C30  25121681.189   130815186.4912       2759.116          44.000                                                                  
C13  40776943.067   212336243.5072      -2430.219          34.000    40776945.935   164191864.2052      -1878.449          37.000  
C08                                                                  41692546.034   167878611.446       -1825.269          40.000  
> 2025 11 03 07 43 34.8800000  0 26                     
G04  21390750.472   112409152.0882       1100.485          43.000    21390739.449    87591503.553         857.490          46.000  
G16  20188371.052   106090605.8662        173.117          46.000                                                                  
G28  23084982.639   121312402.9882      -2704.049          41.000    23084973.126    94529092.964       -2106.992          43.000  
G31  21102701.983   110895447.1962      -1697.019          47.000    21102688.668    86411980.855       -1322.135          45.000  
G03  24576780.564                2      -2938.286          32.000    24576775.081   100637770.492       -2288.853          37.000  
G18  25154801.040   132189372.1152       1347.966          34.000    25154791.922   103004670.953        1050.285          38.000  
C16  36732925.850   191277988.1172         10.003          48.000    36732911.999   147908213.895           7.921          49.000  
C19  23807934.786   123974164.5282      -2166.962          46.000                                                                  
C27  23591430.261   122846768.5972       1121.774          46.000                                                                  
C06  36290793.859   188975688.1312          7.218          47.000    36290773.667   146127913.305           5.702          49.000  
C09  37372202.778   194606866.8802        126.559          45.000    37372185.641   150482307.077          97.816          48.000  
C22  24626932.611   128238901.6972        635.480          42.000                                                                  
G26  20865884.044   109650961.6392      -1949.719          47.000    20865874.608    85442269.619       -1519.122          45.000  
G27  21891219.578   115039135.3162       2966.274          43.000    21891210.551    89640865.664        2311.422          43.000  
G09  23875842.533   125468399.2032       2749.103          36.000    23875836.027    97767569.722        2141.821          39.000  
C28  24753987.887   128900510.7432      -1066.137          44.000                                                                  
C07  38035645.903   198061587.7602        792.437          41.000    38035626.905   153153714.155         612.849          45.000  
C20  25594358.944   133276544.0592      -3618.951          41.000                                                                  
C36  23848898.733   124187474.4312       1406.696          44.000                                                                  
C37  25035683.719   130367374.8142      -2397.116          42.000                                                                  
C10  39165541.796   203945253.7942        731.687          38.000    39165527.374   157703417.794         565.767          43.000  
G08  24154068.773                2       3601.225          33.000    24154069.171    98906957.947        2805.992          36.000  
G29  25334030.997   133131231.5822      -3594.584          37.000    25334021.559   103738568.881       -2801.080          37.000  
C30  25121659.983   130815076.1172       2759.326          44.000                                                                  
C13  40776961.734   212336340.6702      -2429.324          34.000    40776964.615   164191939.3772      -1878.985          37.000  
C08                                                                  41692564.164   167878684.469       -1825.439          40.000  
> 2025 11 03 07 43 34.9200000  0 26                     
G04  21390742.102   112409108.0812       1100.344          43.000    21390731.086    87591469.270         857.223          46.000  
G16  20188369.707   106090598.9412        173.140          46.000                                                                  
G28  23085003.226   121312511.1492      -2703.976          41.000    23084993.696    94529177.251       -2107.093          43.000  
G31  21102714.915   110895515.0782      -1696.990          47.000    21102701.600    86412033.754       -1322.298          45.000  
G03  24576802.926                2      -2937.446          32.000    24576797.473   100637862.100       -2289.615          37.000  
G18  25154790.779   132189318.2192       1347.730          34.000    25154781.677   103004628.972        1049.866          38.000  
C16  36732925.759   191277987.7172         10.077          48.000    36732911.945   147908213.591           7.761          49.000  
C19  23807951.398   123974251.2222      -2167.188          46.000                                                                  
C27  23591421.640   122846723.7422       1121.551          46.000                                                                  
C06  36290793.806   188975687.8482          7.191          47.000    36290773.628   146127913.087           5.590          49.000  
C09  37372201.840   194606861.8182        126.607          45.000    37372184.667   150482303.159          97.933          48.000  
C22  24626927.717   128238876.2932        635.336          42.000                                                                  
G26  20865898.899   109651039.6292      -1949.725          47.000    20865889.459    85442330.400       -1519.373          45.000  
G27  21891197.003   115039016.6742       2966.173          43.000    21891187.977    89640773.205        2311.484          43.000  
G09  23875821.610   125468289.2352       2749.243          36.000    23875815.123    97767484.045        2141.858          39.000  
C28  24753996.099   128900553.3822      -1065.971          44.000                                                                  
C07  38035639.801   198061556.0662        792.409          41.000    38035620.807   153153689.652         612.674          45.000  
C20  25594386.745   133276688.7912      -3618.382          41.000                                                                  
C36  23848887.900   124187418.1692       1406.598          44.000                                                                  
C37  25035702.149   130367470.6892      -2396.952          42.000                                                                  
C10  39165536.190   203945224.5282        731.746          38.000    39165521.750   157703395.180         565.499          43.000  
G08  24154041.345                2       3601.175          33.000    24154041.759    98906845.727        2805.824          36.000  
G29  25334058.357   133131375.3672      -3594.680          37.000    25334048.912   103738680.912       -2800.906          37.000  
C30  25121638.778   130814965.7522       2759.260          44.000                                                                  
C13  40776980.409   212336437.8492      -2429.229          34.000    40776983.269   164192014.5542      -1879.354          37.000  
C08                                                                  41692582.285   167878757.481       -1825.385          40.000  
> 2025 11 03 07 43 34.9600000  0 26                     
G04  21390733.724   112409064.0812       1100.118          43.000    21390722.712    87591434.983         857.144          46.000  
G16  20188368.393   106090592.0202        173.064          46.000                                                                  
G28  23085023.807   121312619.3182      -2704.165          41.000    23085014.293    94529261.540       -2107.237          43.000  
G31  21102727.834   110895582.9712      -1697.196          47.000    21102714.543    86412086.654       -1322.427          45.000  
G03  24576825.300                2      -2936.769          32.000    24576819.836   100637953.694       -2289.929          37.000  
G18  25154780.549   132189264.3272       1347.432          34.000    25154771.430   103004586.975        1049.879          38.000  
C16  36732925.653   191277987.3312          9.826          48.000    36732911.874   147908213.301           7.406          49.000  
C19  23807968.035   123974337.9252      -2167.480          46.000                                                                  
C27  23591413.026   122846678.8902       1121.335          46.000                                                                  
C06  36290793.758   188975687.5652          7.137          47.000    36290773.596   146127912.877           5.363          49.000  
C09  37372200.852   194606856.7682        126.359          45.000    37372183.695   150482299.252          97.761          48.000  
C22  24626922.846   128238850.9242        634.557          42.000                                                                  
G26  20865913.737   109651117.6302      -1949.963          47.000    20865904.313    85442391.183       -1519.556          45.000  
G27  21891174.421   115038898.0212       2966.293          43.000    21891165.419    89640680.756        2311.316          43.000  
G09  23875800.685   125468179.2702       2749.328          36.000    23875794.210    97767398.361        2142.017          39.000  
C28  24754004.293   128900596.0432      -1066.321          44.000                                                                  
C07  38035633.725   198061524.3772        792.269          41.000    38035614.704   153153665.148         612.619          45.000  
C20  25594414.558   133276833.5342      -3618.374          41.000                                                                  
C36  23848877.106   124187361.9052       1406.573          44.000                                                                  
C37  25035720.584   130367566.5602      -2396.808          42.000                                                                  
C10  39165530.589   203945195.2762        731.442          38.000    39165516.127   157703372.559         565.458          43.000  
G08  24154013.912                2       3600.256          33.000    24154014.363    98906733.533        2805.211          36.000  
G29  25334085.700   133131519.1552      -3594.742          37.000    25334076.257   103738792.948       -2800.910          37.000  
C30  25121617.551   130814855.3902       2759.113          44.000                                                                  
C13  40776999.097   212336535.0642      -2429.940          34.000    40777001.932   164192089.7232      -1879.426          37.000  
C08                                                                  41692600.423   167878830.501       -1825.500          40.000  
> 2025 11 03 07 43 35.0000000  0 26                     
G04  21390725.364   112409020.0742       1100.089          43.000    21390714.332    87591400.692         857.195          46.000  
G16  20188367.063   106090585.1042        172.940          46.000                                                                  
G28  23085044.393   121312727.4872      -2704.233          41.000    23085034.887    94529345.837       -2107.435          43.000  
G31  21102740.742   110895650.8652      -1697.313          47.000    21102727.471    86412139.563       -1322.643          45.000  
G03  24576847.672                2      -2938.312          32.000    24576842.221   100638045.288       -2290.036          37.000  
G18  25154770.294   132189210.4522       1346.920          34.000    25154761.158   103004544.976        1049.905          38.000  
C16  36732925.558   191277986.9382          9.794          48.000    36732911.803   147908213.001           7.395          49.000  
C19  23807984.680   123974424.6162      -2167.426          46.000                                                                  
C27  23591404.432   122846634.0332       1121.323          46.000                                                                  
C06  36290793.703   188975687.2892          6.957          47.000    36290773.568   146127912.669           5.203          49.000  
C09  37372199.869   194606851.7192        126.228          45.000    37372182.730   150482295.345          97.679          48.000  
C22  24626917.966   128238825.5252        634.698          42.000                                                                  
G26  20865928.573   109651195.6282      -1950.006          47.000    20865919.170    85442451.963       -1519.562          45.000  
G27  21891151.846   115038779.3862       2966.024          43.000    21891142.828    89640588.319        2310.988          43.000  
G09  23875779.723   125468069.3212       2748.895          36.000    23875773.271    97767312.675        2142.090          39.000  
C28  24754012.486   128900638.7082      -1066.577          44.000                                                                  
C07  38035627.654   198061492.6862        792.225          41.000    38035608.630   153153640.645         612.557          45.000  
C20  25594442.381   133276978.3032      -3618.908          41.000                                                                  
C36  23848866.276   124187305.6362       1406.641          44.000                                                                  
C37  25035738.987   130367662.4432      -2396.916          42.000                                                                  
C10  39165524.974   203945166.0132        731.523          38.000    39165510.533   157703349.934         565.518          43.000  
G08  24153986.507                2       3599.269          33.000    24153986.948    98906621.312        2805.303          36.000  
G29  25334113.052   133131662.9452      -3594.778          37.000    25334103.630   103738904.990       -2801.033          37.000  
C30  25121596.364   130814745.0262       2759.104          44.000                                                                  
C13  40777017.759   212336632.2662      -2430.004          34.000    40777020.630   164192164.8982      -1879.537          37.000  
C08                                                                  41692618.591   167878903.521       -1825.525          40.000  
> 2025 11 03 07 43 35.0400000  0 26                     
G04  21390716.973   112408976.0602       1100.217          43.000    21390705.951    87591366.397         857.286          46.000  
G16  20188365.745   106090578.1912        172.823          46.000                                                                  
G28  23085064.977   121312835.6662      -2704.431          41.000    23085055.483    94529430.134       -2107.475          43.000  
G31  21102753.657   110895718.7502      -1697.235          47.000    21102740.382    86412192.465       -1322.663          45.000  
G03  24576870.032                2      -2939.027          32.000    24576864.590   100638136.864       -2289.740          37.000  
G18  25154760.039   132189156.5422       1347.425          34.000    25154750.921   103004502.957        1050.326          38.000  
C16  36732925.458   191277986.5502          9.671          48.000    36732911.773   147908212.700           7.446          49.000  
C19  23808001.336   123974511.3072      -2167.352          46.000                                                                  
C27  23591395.806   122846589.1762       1121.330          46.000                                                                  
C06  36290793.640   188975687.0052          7.035          47.000    36290773.523   146127912.451           5.323          49.000  
C09  37372198.899   194606846.6632        126.295          45.000    37372181.752   150482291.439          97.616          48.000  
C22  24626913.084   128238800.1252        634.868          42.000                                                                  
G26  20865943.406   109651273.6322      -1950.152          47.000    20865933.999    85442512.736       -1519.428          45.000  
G27  21891129.284   115038660.7462       2965.949          43.000    21891120.257    89640495.875        2310.983          43.000  
G09  23875758.815   125467959.3852       2748.431          36.000    23875752.336    97767226.984        2142.181          39.000  
C28  24754020.674   128900681.3562      -1066.426          44.000                                                                  
C07  38035621.566   198061460.9842        792.467          41.000    38035602.541   153153616.137         612.614          45.000  
C20  25594470.170   133277123.0642      -3619.055          41.000                                                                  
C36  23848855.472   124187249.3712       1406.598          44.000                                                                  
C37  25035757.388   130367758.3192      -2396.926          42.000                                                                  
C10  39165519.357   203945136.7752        731.133          38.000    39165504.897   157703327.314         565.451          43.000  
G08  24153959.112                2       3600.298          33.000    24153959.557    98906509.107        2805.130          36.000  
G29  25334140.406   133131806.7162      -3594.517          37.000    25334130.987   103739017.037       -2801.199          37.000  
C30  25121575.176   130814634.6562       2759.159          44.000                                                                  
C13  40777036.422   212336729.4852      -2430.379          34.000    40777039.310   164192240.0242      -1878.601          37.000  
C08                                                                  41692636.740   167878976.529       -1825.256          40.000  
> 2025 11 03 07 43 35.0800000  0 26                     
G04  21390708.600   112408932.0532       1100.183          43.000    21390697.590    87591332.107         857.273          46.000  
G16  20188364.414   106090571.2712        172.906          46.000                                                                  
G28  23085085.544   121312943.8202      -2704.050          41.000    23085076.058    94529514.407       -2107.058          43.000  
G31  21102766.563   110895786.6332      -1697.147          47.000    21102753.290    86412245.370       -1322.699          45.000  
G03  24576892.381                2      -2939.098          32.000    24576886.945   100638228.439       -2289.510          37.000  
G18  25154749.784   132189102.6662       1347.100          34.000    25154740.677   103004460.963        1050.031          38.000  
C16  36732925.375   191277986.1612          9.684          48.000    36732911.696   147908212.387           7.682          49.000  
C19  23808017.981   123974597.9922      -2167.200          46.000                                                                  
C27  23591387.175   122846544.3182       1121.386          46.000                                                                  
C06  36290793.605   188975686.7222          7.075          47.000    36290773.470   146127912.231           5.430          49.000  
C09  37372197.937   194606841.6022        126.437          45.000    37372180.788   150482287.533          97.586          48.000  
C22  24626908.177   128238774.7362        634.701          42.000                                                                  
G26  20865958.240   109651351.6222      -1949.927          47.000    20865948.809    85442573.501       -1519.238          45.000  
G27  21891106.700   115038542.1002       2966.049          43.000    21891097.682    89640403.426        2311.091          43.000  
G09  23875737.903   125467849.4182       2748.932          36.000    23875731.416    97767141.324        2141.650          39.000  
C28  24754028.839   128900724.0172      -1066.509          43.000                                                                  
C07  38035615.491   198061429.2892        792.466          41.000    38035596.458   153153591.628         612.671          45.000  
C20  25594497.977   133277267.8192      -3619.001          41.000                                                                  
C36  23848844.655   124187193.1012       1406.702          44.000                                                                  
C37  25035775.763   130367854.2042      -2397.095          42.000                                                                  
C10  39165513.734   203945107.5212        731.212          38.000    39165499.299   157703304.693         565.469          43.000  
G08  24153931.688                2       3599.657          33.000    24153932.156    98906396.873        2805.551          36.000  
G29  25334167.777   133131950.4902      -3594.390          37.000    25334158.351   103739129.076       -2801.132          37.000  
C30  25121553.986   130814524.2892       2759.137          44.000                                                                  
C13  40777055.095   212336826.6612      -2429.609          34.000    40777057.962   164192315.1732      -1878.533          37.000  
C08                                                                  41692654.891   167879049.544       -1825.287          40.000  
> 2025 11 03 07 43 35.1200000  0 26                     
G04  21390700.217   112408888.0422       1100.210          43.000    21390689.208    87591297.808         857.361          46.000  
G16  20188363.061   106090564.3392        173.185          46.000                                                                  
G28  23085106.121   121313051.9692      -2703.790          41.000    23085096.640    94529598.679       -2106.830          43.000  
G31  21102779.469   110895854.5102      -1696.964          47.000    21102766.210    86412298.265       -1322.522          45.000  
G03  24576914.753                2      -2938.070          32.000    24576909.312   100638320.012       -2289.338          37.000  
G18  25154739.519   132189048.7582       1347.459          34.000    25154730.417   103004418.962        1050.055          38.000  
C16  36732925.302   191277985.7572          9.947          48.000    36732911.652   147908212.079           7.736          49.000  
C19  23808034.638   123974684.6692      -2166.980          46.000                                                                  
C27  23591378.566   122846499.4482       1121.639          46.000                                                                  
C06  36290793.548   188975686.4312          7.225          47.000    36290773.398   146127912.000           5.690          49.000  
C09  37372196.985   194606836.5342        126.647          45.000    37372179.805   150482283.618          97.749          48.000  
C22  24626903.308   128238749.3202        635.162          42.000                                                                  
G26  20865973.081   109651429.5992      -1949.573          47.000    20865963.650    85442634.265       -1519.086          45.000  
G27  21891084.132   115038423.4562       2966.075          43.000    21891075.112    89640310.981        2311.146          43.000  
G09  23875716.973   125467739.4272       2749.561          36.000    23875710.481    97767055.642        2141.840          39.000  
C28  24754037.048   128900766.6632      -1066.277          43.000                                                                  
C07  38035609.408   198061397.5962        792.356          41.000    38035590.379   153153567.118         612.720          45.000  
C20  25594525.785   133277412.5822      -3619.107          41.000                                                                  
C36  23848833.861   124187136.8292       1406.769          44.000                                                                  
C37  25035794.174   130367950.0622      -2396.705          42.000                                                                  
C10  39165508.124   203945078.2552        731.478          38.000    39165493.689   157703282.060         565.703          43.000  
G08  24153904.287                2       3600.601          33.000    24153904.748    98906284.654        2805.571          36.000  
G29  25334195.149   133132094.2712      -3594.472          37.000    25334185.703   103739241.098       -2800.745          37.000  
C30  25121532.793   130814413.9122       2759.319          44.000                                                                  
C13  40777073.749   212336923.8402      -2429.274          34.000    40777076.651   164192390.3252      -1878.601          37.000  
C08                                                                  41692673.010   167879122.559       -1825.366          40.000  
> 2025 11 03 07 43 35.1600000  0 26                     
G04  21390691.821   112408844.0282       1100.316          43.000    21390680.816    87591263.510         857.405          46.000  
G16  20188361.742   106090557.4132        173.195          46.000                                                                  
G28  23085126.696   121313160.1462      -2704.191          41.000    23085117.219    94529682.962       -2106.926          43.000  
G31  21102792.366   110895922.3952      -1697.064          47.000    21102779.123    86412351.150       -1322.238          45.000  
G03  24576937.107                2      -2937.770          32.000    24576931.670   100638411.570       -2288.973          37.000  
G18  25154729.267   132188994.8452       1347.701          34.000    25154720.170   103004376.957        1050.126          38.000  
C16  36732925.224   191277985.3492         10.190          48.000    36732911.574   147908211.769           7.789          49.000  
C19  23808051.247   123974771.3592      -2167.114          46.000                                                                  
C27  23591369.939   122846454.5812       1121.712          46.000                                                                  
C06  36290793.472   188975686.1442          7.225          47.000    36290773.350   146127911.772           5.740          49.000  
C09  37372196.013   194606831.4582        126.871          45.000    37372178.868   150482279.700          97.875          48.000  
C22  24626898.421   128238723.9112        635.292          42.000                                                                  
G26  20865987.929   109651507.5852      -1949.573          47.000    20865978.496    85442695.035       -1519.159          45.000  
G27  21891061.558   115038304.8192       2965.999          43.000    21891052.523    89640218.526        2311.279          43.000  
G09  23875696.064   125467629.4672       2749.341          36.000    23875689.540    97766969.942        2142.322          39.000  
C28  24754045.213   128900809.3102      -1066.184          43.000                                                                  
C07  38035603.309   198061365.8972        792.393          41.000    38035584.284   153153542.605         612.775          45.000  
C20  25594553.574   133277557.3212      -3618.699          41.000                                                                  
C36  23848823.055   124187080.5562       1406.836          44.000                                                                  
C37  25035812.593   130368045.9242      -2396.542          42.000                                                                  
C10  39165502.503   203945048.9992        731.433          38.000    39165488.075   157703259.433         565.704          43.000  
G08  24153876.860                2       3600.551          33.000    24153877.336    98906172.429        2805.647          36.000  
G29  25334222.513   133132238.0562      -3594.560          37.000    25334213.068   103739353.132       -2800.737          37.000  
C30  25121511.583   130814303.5392       2759.335          44.000                                                                  
C13  40777092.422   212337021.0152      -2429.300          34.000    40777095.315   164192465.4852      -1878.849          37.000  
C08                                                                  41692691.141   167879195.575       -1825.500          40.000  
> 2025 11 03 07 43 35.2000000  0 26                     
G04  21390683.443   112408800.0192       1100.238          43.000    21390672.430    87591229.216         857.362          46.000  
G16  20188360.437   106090550.4902        173.125          46.000                                                                  
G28  23085147.299   121313268.3132      -2704.252          41.000    23085137.819    94529767.250       -2107.101          43.000  
G31  21102805.306   110895990.2822      -1697.147          47.000    21102792.019    86412404.038       -1322.161          45.000  
G03  24576959.466                2      -2937.260          32.000    24576954.037   100638503.185       -2289.817          37.000  
G18  25154718.999   132188940.9172       1348.059          34.000    25154709.919   103004334.959        1049.987          38.000  
C16  36732925.125   191277984.9432         10.225          48.000    36732911.515   147908211.463           7.714          49.000  
C19  23808067.911   123974858.0522      -2167.297          46.000                                                                  
C27  23591361.347   122846409.7222       1121.557          46.000                                                                  
C06  36290793.398   188975685.8512          7.316          47.000    36290773.312   146127911.552           5.615          49.000  
C09  37372195.025   194606826.3992        126.666          45.000    37372177.884   150482275.778          98.031          48.000  
C22  24626893.522   128238698.5152        635.065          42.000                                                                  
G26  20866002.778   109651585.5762      -1949.713          47.000    20865993.355    85442755.810       -1519.312          45.000  
G27  21891038.960   115038186.1672       2966.138          43.000    21891029.946    89640126.075        2311.287          43.000  
G09  23875675.155   125467519.5362       2748.596          36.000    23875668.611    97766884.242        2142.566          39.000  
C28  24754053.416   128900851.9542      -1066.112          43.000                                                                  
C07  38035597.230   198061334.1992        792.438          41.000    38035578.195   153153518.086         612.924          45.000  
C20  25594581.371   133277702.0572      -3618.430          41.000                                                                  
C36  23848812.257   124187024.2922       1406.683          44.000                                                                  
C37  25035831.003   130368141.7982      -2396.731          42.000                                                                  
C10  39165496.876   203945019.7352        731.527          38.000    39165482.455   157703236.809         565.677          43.000  
G08  24153849.456                2       3600.413          33.000    24153849.947    98906060.230        2805.216          36.000  
G29  25334249.885   133132381.8402      -3594.651          37.000    25334240.424   103739465.164       -2800.869          37.000  
C30  25121490.383   130814193.1722       2759.236          44.000                                                                  
C13  40777111.103   212337118.2222      -2429.908          34.000    40777113.982   164192540.6362      -1878.842          37.000  
C08                                                                  41692709.283   167879268.587       -1825.366          40.000  
> 2025 11 03 07 43 35.2400000  0 26                     
G04  21390675.061   112408756.0142       1100.154          43.000    21390664.068    87591194.932         857.159          46.000  
G16  20188359.128   106090543.5732        172.957          46.000                                                                  
G28  23085167.888   121313376.4682      -2703.983          41.000    23085158.386    94529851.529       -2107.051          43.000  
G31  21102818.234   110896058.1752      -1697.282          47.000    21102804.932    86412456.940       -1322.369          45.000  
G03  24576981.849                2      -2937.854          32.000    24576976.408   100638594.778       -2289.851          37.000  
G18  25154708.737   132188887.0192       1347.664          34.000    25154699.664   103004292.959        1049.948          38.000  
C16  36732924.993   191277984.5462         10.049          48.000    36732911.431   147908211.158           7.641          49.000  
C19  23808084.563   123974944.7442      -2167.358          46.000                                                                  
C27  23591352.724   122846364.8612       1121.489          46.000                                                                  
C06  36290793.367   188975685.5712          7.133          47.000    36290773.288   146127911.341           5.383          49.000  
C09  37372194.059   194606821.3462        126.422          45.000    37372176.876   150482271.863          97.944          48.000  
C22  24626888.652   128238673.1272        634.730          42.000                                                                  
G26  20866017.627   109651663.5582      -1949.621          47.000    20866008.172    85442816.580       -1519.293          45.000  
G27  21891016.400   115038067.5282       2965.987          43.000    21891007.355    89640033.625        2311.232          43.000  
G09  23875654.238   125467409.5782       2748.645          36.000    23875647.684    97766798.551        2142.450          39.000  
C28  24754061.594   128900894.6122      -1066.339          43.000                                                                  
C07  38035591.116   198061302.5142        792.218          41.000    38035572.108   153153493.574         612.879          45.000  
C20  25594609.172   133277846.8012      -3618.455          41.000                                                                  
C36  23848801.423   124186968.0292       1406.555          44.000                                                                  
C37  25035849.404   130368237.6912      -2397.143          42.000                                                                  
C10  39165491.272   203944990.4782        731.428          38.000    39165476.869   157703214.180         565.692          43.000  
G08  24153822.046                2       3600.344          33.000    24153822.570    98905948.028        2805.027          36.000  
G29  25334277.245   133132525.6232      -3594.642          37.000    25334267.799   103739577.217       -2801.258          37.000  
C30  25121469.199   130814082.7932       2759.357          44.000                                                                  
C13  40777129.759   212337215.4282      -2430.174          34.000    40777132.653   164192615.8192      -1879.394          37.000  
C08                                                                  41692727.427   167879341.598       -1825.275          40.000  
> 2025 11 03 07 43 35.2800000  0 26                     
G04  21390666.686   112408712.0152       1099.994          43.000    21390655.700    87591160.646         857.085          46.000  
G16  20188357.815   106090536.6562        172.897          46.000                                                                  
G28  23085188.483   121313484.6342      -2704.084          41.000    23085178.961    94529935.817       -2107.207          44.000  
G31  21102831.152   110896126.0702      -1697.397          47.000    21102817.858    86412509.849       -1322.634          45.000  
G03  24577004.197                2      -2937.956          32.000    24576998.750   100638686.329       -2289.197          37.000  
G18  25154698.501   132188833.1172       1347.498          34.000    25154689.400   103004250.963        1049.860          38.000  
C16  36732924.909   191277984.1612          9.735          48.000    36732911.358   147908210.842           7.805          49.000  
C19  23808101.226   123975031.4352      -2167.334          46.000                                                                  
C27  23591344.109   122846320.0092       1121.323          46.000                                                                  
C06  36290793.331   188975685.2852          7.101          47.000    36290773.219   146127911.116           5.496          49.000  
C09  37372193.106   194606816.2882        126.369          45.000    37372175.939   150482267.954          97.789          48.000  
C22  24626883.789   128238647.7342        634.687          42.000                                                                  
G26  20866032.452   109651741.5492      -1949.719          47.000    20866023.006    85442877.357       -1519.403          45.000  
G27  21890993.834   115037948.8832       2966.033          43.000    21890984.778    89639941.188        2311.014          43.000  
G09  23875633.327   125467299.6062       2749.084          36.000    23875626.755    97766712.891        2141.779          39.000  
C28  24754069.767   128900937.2722      -1066.512          43.000                                                                  
C07  38035585.036   198061270.8162        792.333          41.000    38035566.020   153153469.069         612.716          45.000  
C20  25594636.959   133277991.5352      -3618.326          41.000                                                                  
C36  23848790.621   124186911.7472       1406.873          44.000                                                                  
C37  25035867.827   130368333.5712      -2397.101          42.000                                                                  
C10  39165485.644   203944961.2092        731.572          38.000    39165471.246   157703191.553         565.670          43.000  
G08  24153794.621   126929048.9122       3600.206          33.000    24153795.135    98905835.819        2805.063          36.000  
G29  25334304.608   133132669.3972      -3594.508          37.000    25334295.165   103739689.245       -2800.987          37.000  
C30  25121447.996   130813972.4192       2759.377          43.000                                                                  
C13  40777148.423   212337312.6312      -2430.282          34.000    40777151.308   164192690.9722      -1879.150          37.000  
C08                                                                  41692745.545   167879414.601       -1825.122          40.000  
> 2025 11 03 07 43 35.3200000  0 26                     
G04  21390658.321   112408668.0072       1100.093          43.000    21390647.308    87591126.353         857.195          46.000  
G16  20188356.494   106090529.7432        172.792          46.000                                                                  
G28  23085209.048   121313592.8112      -2704.365          41.000    23085199.531    94530020.097       -2107.113          44.000  
G31  21102844.062   110896193.9532      -1697.260          47.000    21102830.776    86412562.746       -1322.565          45.000  
G03  24577026.593                2      -2938.601          32.000    24577021.099   100638777.910       -2289.355          37.000  
G18  25154688.249   132188779.2292       1347.200          34.000    25154679.140   103004208.943        1050.249          38.000  
C16  36732924.830   191277983.7622          9.787          48.000    36732911.287   147908210.528           7.853          49.000  
C19  23808117.867   123975118.1312      -2167.419          46.000                                                                  
C27  23591335.473   122846275.1462       1121.441          46.000                                                                  
C06  36290793.284   188975684.9982          7.122          47.000    36290773.167   146127910.895           5.504          49.000  
C09  37372192.120   194606811.2192        126.576          44.000    37372174.979   150482264.042          97.759          48.000  
C22  24626878.934   128238622.3472        634.583          42.000                                                                  
G26  20866047.288   109651819.5352      -1949.689          47.000    20866037.849    85442938.127       -1519.330          45.000  
G27  21890971.261   115037830.2332       2966.165          43.000    21890962.204    89639848.737        2311.135          43.000  
G09  23875612.401   125467189.6272       2749.493          36.000    23875605.830    97766627.220        2141.626          39.000  
C28  24754077.988   128900979.9262      -1066.486          43.000                                                                  
C07  38035578.950   198061239.1072        792.608          41.000    38035559.936   153153444.559         612.698          45.000  
C20  25594664.726   133278136.2942      -3618.749          41.000                                                                  
C36  23848779.802   124186855.4782       1406.806          44.000                                                                  
C37  25035886.207   130368429.4362      -2396.820          42.000                                                                  
C10  39165480.029   203944931.9472        731.558          38.000    39165465.613   157703168.937         565.448          43.000  
G08  24153767.212   126928904.9032       3600.147          33.000    24153767.716    98905723.592        2805.442          36.000  
G29  25334331.976   133132813.1752      -3594.464          37.000    25334322.532   103739801.274       -2800.793          37.000  
C30  25121426.783   130813862.0502       2759.279          43.000                                                                  
C13  40777167.096   212337409.8002      -2429.643          34.000    40777169.956   164192766.1132      -1878.721          37.000  
C08                                                                  41692763.697   167879487.611       -1825.189          40.000  
> 2025 11 03 07 43 35.3600000  0 26                     
G04  21390649.945   112408624.0082       1099.994          43.000    21390638.925    87591092.061         857.242          46.000  
G16  20188355.191   106090522.8302        172.762          46.000                                                                  
G28  23085229.639   121313700.9692      -2704.165          41.000    23085220.126    94530104.387       -2107.256          44.000  
G31  21102856.976   110896261.8352      -1697.141          47.000    21102843.675    86412615.644       -1322.530          45.000  
G03  24577048.936                2      -2938.811          32.000    24577043.473   100638869.502       -2289.747          37.000  
G18  25154677.974   132188725.3392       1347.051          34.000    25154668.885   103004166.933        1050.268          38.000  
C16  36732924.774   191277983.3672          9.811          48.000    36732911.217   147908210.223           7.714          49.000  
C19  23808134.508   123975204.8282      -2167.456          46.000                                                                  
C27  23591326.870   122846230.2912       1121.373          46.000                                                                  
C06  36290793.228   188975684.7132          7.090          47.000    36290773.138   146127910.674           5.516          49.000  
C09  37372191.168   194606806.1552        126.588          44.000    37372173.994   150482260.131          97.729          48.000  
C22  24626874.057   128238596.9362        634.982          42.000                                                                  
G26  20866062.140   109651897.5352      -1949.933          47.000    20866052.703    85442998.903       -1519.373          45.000  
G27  21890948.689   115037711.5962       2966.015          43.000    21890939.629    89639756.290        2311.126          43.000  
G09  23875591.444   125467079.6522       2749.487          36.000    23875584.913    97766541.539        2141.766          39.000  
C28  24754086.161   128901022.5852      -1066.500          43.000                                                                  
C07  38035572.841   198061207.4072        792.535          41.000    38035553.854   153153420.050         612.699          45.000  
C20  25594692.541   133278281.0542      -3618.986          41.000                                                                  
C36  23848769.013   124186799.2072       1406.775          44.000                                                                  
C37  25035904.603   130368525.3082      -2396.752          42.000                                                                  
C10  39165474.427   203944902.6802        731.622          38.000    39165460.008   157703146.310         565.521          43.000  
G08  24153739.775   126928760.8802       3600.375          33.000    24153740.296    98905611.360        2805.683          36.000  
G29  25334359.334   133132956.9572      -3594.535          37.000    25334349.908   103739913.338       -2801.373          37.000  
C30  25121405.590   130813751.6832       2759.185          43.000                                                                  
C13  40777185.768   212337507.0092      -2430.024          34.000    40777188.629   164192841.2662      -1878.796          37.000  
C08                                                                  41692781.837   167879560.632       -1825.427          40.000  
> 2025 11 03 07 43 35.4000000  0 26                     
G04  21390641.554   112408580.0032       1100.028          43.000    21390630.552    87591057.778         857.103          46.000  
G16  20188353.854   106090515.9122        172.844          46.000                                                                  
G28  23085250.225   121313809.1312      -2704.115          41.000    23085240.717    94530188.679       -2107.373          44.000  
G31  21102869.889   110896329.7232      -1697.177          47.000    21102856.598    86412668.547       -1322.579          45.000  
G03  24577071.330                2      -2938.229          32.000    24577065.823   100638961.070       -2289.469          37.000  
G18  25154667.715   132188671.4542       1347.117          34.000    25154658.642   103004124.951        1049.768          38.000  
C16  36732924.688   191277982.9652          9.938          48.000    36732911.137   147908209.918           7.611          49.000  
C19  23808151.166   123975291.5152      -2167.279          46.000                                                                  
C27  23591318.263   122846185.4402       1121.269          46.000                                                                  
C06  36290793.200   188975684.4282          7.085          47.000    36290773.083   146127910.454           5.481          49.000  
C09  37372190.207   194606801.1002        126.412          44.000    37372173.015   150482256.223          97.666          48.000  
C22  24626869.182   128238571.5442        634.843          42.000                                                                  
G26  20866076.988   109651975.5342      -1950.000          47.000    20866067.556    85443059.678       -1519.403          45.000  
G27  21890926.129   115037592.9622       2965.861          43.000    21890917.056    89639663.835        2311.264          43.000  
G09  23875570.540   125466969.7202       2748.645          36.000    23875563.984    97766455.849        2142.029          39.000  
C28  24754094.368   128901065.2412      -1066.473          43.000                                                                  
C07  38035566.748   198061175.7002        792.596          41.000    38035547.777   153153395.539         612.737          45.000  
C20  25594720.346   133278425.8132      -3619.088          41.000                                                                  
C36  23848758.187   124186742.9402       1406.696          44.000                                                                  
C37  25035923.012   130368621.1942      -2397.008          42.000                                                                  
C10  39165468.817   203944873.4392        731.197          38.000    39165454.380   157703123.672         565.791          43.000  
G08  24153712.374   126928616.8862       3600.001          33.000    24153712.893    98905499.134        2805.732          36.000  
G29  25334386.694   133133100.7542      -3594.823          36.000    25334377.270   103740025.364       -2801.003          37.000  
C30  25121384.394   130813641.3242       2759.004          43.000                                                                  
C13  40777204.443   212337604.2032      -2430.024          34.000    40777207.305   164192916.4272      -1879.005          37.000  
C08                                                                  41692799.977   167879633.647       -1825.421          40.000  
> 2025 11 03 07 43 35.4400000  0 26                     
G04  21390633.182   112408535.9972       1100.104          43.000    21390622.176    87591023.497         856.973          46.000  
G16  20188352.557   106090509.0032        172.738          46.000                                                                  
G28  23085270.813   121313917.3122      -2704.444          41.000    23085261.279    94530272.965       -2107.278          44.000  
G31  21102882.821   110896397.6232      -1697.416          47.000    21102869.514    86412721.444       -1322.522          45.000  
G03  24577093.745                2      -2938.317          32.000    24577088.210   100639052.669       -2289.800          37.000  
G18  25154657.463   132188617.5792       1346.809          34.000    25154648.393   103004082.959        1049.699          38.000  
C16  36732924.601   191277982.5722          9.871          48.000    36732911.100   147908209.622           7.406          49.000  
C19  23808167.833   123975378.2072      -2167.303          46.000                                                                  
C27  23591309.665   122846140.5882       1121.239          46.000                                                                  
C06  36290793.153   188975684.1492          6.974          47.000    36290773.028   146127910.234           5.475          49.000  
C09  37372189.240   194606796.0482        126.280          44.000    37372172.050   150482252.315          97.642          48.000  
C22  24626864.330   128238546.1592        634.677          42.000                                                                  
G26  20866091.832   109652053.5292      -1949.963          47.000    20866082.401    85443120.451       -1519.379          45.000  
G27  21890903.554   115037474.3382       2965.647          43.000    21890894.484    89639571.402        2310.938          43.000  
G09  23875549.621   125466859.7882       2748.199          36.000    23875543.058    97766370.167        2142.072          39.000  
C28  24754102.531   128901107.9002      -1066.492          43.000                                                                  
C07  38035560.672   198061144.0182        792.207          41.000    38035541.684   153153371.029         612.717          45.000  
C20  25594748.153   133278570.5692      -3619.046          41.000                                                                  
C36  23848747.369   124186686.6822       1406.500          44.000                                                                  
C37  25035941.429   130368717.0752      -2397.103          42.000                                                                  
C10  39165463.228   203944844.1802        731.288          38.000    39165448.737   157703101.057         565.545          43.000  
G08  24153684.963   126928472.8672       3600.220          33.000    24153685.503    98905386.941        2805.154          36.000  
G29  25334414.045   133133244.5542      -3595.074          36.000    25334404.632   103740137.404       -2801.050          37.000  
C30  25121363.200   130813530.9612       2758.998          43.000                                                                  
C13  40777223.124   212337701.4242      -2430.604          34.000    40777225.972   164192991.5912      -1879.116          37.000  
C08                                                                  41692818.074   167879706.668       -1825.568          40.000  
> 2025 11 03 07 43 35.4800000  0 26                     
G04  21390624.810   112408492.0122       1099.739          43.000    21390613.804    87590989.216         856.940          46.000  
G16  20188351.247   106090502.0912        172.752          46.000                                                                  
G28  23085291.396   121314025.4732      -2704.212          41.000    23085281.858    94530357.254       -2107.240          44.000  
G31  21102895.754   110896465.5232      -1697.535          47.000    21102882.439    86412774.364       -1322.878          45.000  
G03  24577116.106                2      -2937.641          32.000    24577110.576   100639144.259       -2289.862          37.000  
G18  25154647.204   132188563.6632       1347.437          34.000    25154638.147   103004040.964        1049.819          38.000  
C16  36732924.508   191277982.1812          9.788          48.000    36732911.043   147908209.319           7.458          49.000  
C19  23808184.463   123975464.9112      -2167.554          46.000                                                                  
C27  23591301.036   122846095.7372       1121.220          46.000                                                                  
C06  36290793.114   188975683.8712          6.891          47.000    36290772.972   146127910.017           5.416          49.000  
C09  37372188.265   194606790.9902        126.356          44.000    37372171.056   150482248.406          97.657          48.000  
C22  24626859.479   128238520.7782        634.521          42.000                                                                  
G26  20866106.662   109652131.5302      -1950.030          47.000    20866097.254    85443181.229       -1519.415          45.000  
G27  21890880.985   115037355.7072       2965.648          43.000    21890871.893    89639478.966        2310.814          43.000  
G09  23875528.718   125466749.8472       2748.206          36.000    23875522.124    97766284.484        2142.065          39.000  
C28  24754110.730   128901150.5682      -1066.659          43.000                                                                  
C07  38035554.596   198061112.3452        791.846          41.000    38035535.594   153153346.527         612.593          45.000  
C20  25594775.931   133278715.3252      -3619.045          41.000                                                                  
C36  23848736.570   124186630.4222       1406.433          44.000                                                                  
C37  25035959.858   130368812.9422      -2396.848          42.000                                                                  
C10  39165457.593   203944814.9192        731.377          38.000    39165443.117   157703078.451         565.200          43.000  
G08  24153657.560   126928328.8802       3599.861          33.000    24153658.110    98905274.738        2804.998          36.000  
G29  25334441.409   133133388.3202      -3594.475          36.000    25334431.994   103740249.486       -2801.823          37.000  
C30  25121342.008   130813420.5882       2759.196          43.000                                                                  
C13  40777241.787   212337798.5982      -2429.854          34.000    40777244.631   164193066.7552      -1879.183          37.000  
C08                                                                  41692836.195   167879779.678       -1825.391          40.000  
> 2025 11 03 07 43 35.5200000  0 26                     
G04  21390616.441   112408448.0142       1099.788          43.000    21390605.442    87590954.936         856.904          46.000  
G16  20188349.941   106090495.1812        172.727          46.000                                                                  
G28  23085311.993   121314133.6532      -2704.410          41.000    23085302.428    94530441.543       -2107.265          44.000  
G31  21102908.661   110896533.4152      -1697.476          47.000    21102895.349    86412827.265       -1322.734          45.000  
G03  24577138.474                2      -2938.505          32.000    24577132.935   100639235.836       -2289.651          37.000  
G18  25154636.948   132188509.7492       1347.787          34.000    25154627.883   103003998.981        1049.680          38.000  
C16  36732924.428   191277981.7872          9.768          48.000    36732910.997   147908209.018           7.448          49.000  
C19  23808201.112   123975551.6152      -2167.657          46.000                                                                  
C27  23591292.446   122846050.8862       1121.221          46.000                                                                  
C06  36290793.077   188975683.5922          6.876          47.000    36290772.908   146127909.798           5.426          49.000  
C09  37372187.278   194606785.9372        126.272          44.000    37372170.068   150482244.487          97.876          48.000  
C22  24626854.604   128238495.3842        634.676          42.000                                                                  
G26  20866121.491   109652209.5292      -1950.018          47.000    20866112.121    85443242.008       -1519.501          45.000  
G27  21890858.390   115037237.0672       2965.839          43.000    21890849.306    89639386.526        2310.866          43.000  
G09  23875507.797   125466639.8892       2748.627          36.000    23875501.208    97766198.821        2141.638          39.000  
C28  24754118.927   128901193.2352      -1066.719          43.000                                                                  
C07  38035548.510   198061080.6682        791.759          41.000    38035529.509   153153322.027         612.461          45.000  
C20  25594803.721   133278860.0752      -3618.905          41.000                                                                  
C36  23848725.759   124186574.1612       1406.415          44.000                                                                  
C37  25035978.285   130368908.8312      -2397.100          42.000                                                                  
C10  39165451.991   203944785.6742        731.128          38.000    39165437.512   157703055.828         565.319          43.000  
G08  24153630.168   126928184.8362       3600.667          33.000    24153630.699    98905162.530        2805.002          36.000  
G29  25334468.755   133133532.1132      -3594.714          36.000    25334459.353   103740361.521       -2801.335          37.000  
C30  25121320.787   130813310.2262       2759.123          43.000                                                                  
C13  40777260.455   212337895.7852      -2429.674          34.000    40777263.300   164193141.8982      -1878.797          37.000  
C08                                                                  41692854.285   167879852.689       -1825.287          40.000  
> 2025 11 03 07 43 35.5600000  0 26                     
G04  21390608.058   112408404.0232       1099.728          43.000    21390597.076    87590920.655         856.923          46.000  
G16  20188348.613   106090488.2732        172.653          46.000                                                                  
G28  23085332.574   121314241.8312      -2704.503          41.000    23085323.016    94530525.845       -2107.495          44.000  
G31  21102921.569   110896601.3082      -1697.414          47.000    21102908.270    86412880.181       -1322.899          45.000  
G03  24577160.863                2      -2938.580          32.000    24577155.302   100639327.413       -2289.551          37.000  
G18  25154626.709   132188455.8652       1347.449          34.000    25154617.630   103003956.985        1049.826          38.000  
C16  36732924.325   191277981.3892          9.841          48.000    36732910.936   147908208.706           7.667          49.000  
C19  23808217.782   123975638.3222      -2167.755          46.000                                                                  
C27  23591283.797   122846006.0422       1121.092          46.000                                                                  
C06  36290793.026   188975683.3072          6.991          47.000    36290772.854   146127909.582           5.388          49.000  
C09  37372186.300   194606780.8842        126.248          44.000    37372169.087   150482240.573          97.886          48.000  
C22  24626849.715   128238470.0192        634.286          42.000                                                                  
G26  20866136.361   109652287.5272      -1950.018          47.000    20866126.952    85443302.790       -1519.568          45.000  
G27  21890835.803   115037118.4322       2965.863          43.000    21890826.733    89639294.081        2310.997          43.000  
G09  23875486.879   125466529.9262       2748.981          36.000    23875480.295    97766113.172        2141.235          39.000  
C28  24754127.097   128901235.8962      -1066.666          43.000                                                                  
C07  38035542.425   198061048.9652        792.254          41.000    38035523.437   153153297.521         612.527          45.000  
C20  25594831.559   133279004.8392      -3619.030          41.000                                                                  
C36  23848714.959   124186517.8912       1406.635          44.000                                                                  
C37  25035996.709   130369004.7062      -2396.980          42.000                                                                  
C10  39165446.358   203944756.4192        731.210          38.000    39165431.858   157703033.217         565.246          43.000  
G08  24153602.773   126928040.8362       3600.259          33.000    24153603.298    98905050.325        2805.017          36.000  
G29  25334496.109   133133675.8892      -3594.535          36.000    25334486.714   103740473.536       -2800.635          37.000  
C30  25121299.596   130813199.8542       2759.267          43.000                                                                  
C13  40777279.106   212337992.9542      -2429.262          34.000    40777281.962   164193217.0482      -1878.672          37.000  
C08                                                                  41692872.414   167879925.708       -1825.427          40.000  
> 2025 11 03 07 43 35.6000000  0 26                     
G04  21390599.710   112408360.0352       1099.659          43.000    21390588.698    87590886.372         856.982          46.000  
G16  20188347.300   106090481.3722        172.504          46.000                                                                  
G28  23085353.156   121314349.9992      -2704.321          41.000    23085343.591    94530610.136       -2107.412          44.000  
G31  21102934.495   110896669.2052      -1697.481          47.000    21102921.184    86412933.079       -1322.640          45.000  
G03  24577183.271                2      -2939.575          32.000    24577177.671   100639419.000       -2289.667          37.000  
G18  25154616.454   132188401.9902       1347.056          35.000    25154607.380   103003914.978        1050.102          38.000  
C16  36732924.205   191277980.9982          9.755          48.000    36732910.865   147908208.398           7.715          49.000  
C19  23808234.428   123975725.0272      -2167.731          46.000                                                                  
C27  23591275.192   122845961.1952       1121.080          46.000                                                                  
C06  36290793.006   188975683.0262          6.997          47.000    36290772.817   146127909.368           5.337          49.000  
C09  37372185.327   194606775.8252        126.325          44.000    37372168.099   150482236.668          97.710          48.000  
C22  24626844.829   128238444.6382        634.374          42.000                                                                  
G26  20866151.188   109652365.5322      -1950.140          47.000    20866141.803    85443363.575       -1519.635          45.000  
G27  21890813.228   115036999.7982       2965.855          43.000    21890804.152    89639201.642        2310.950          43.000  
G09  23875465.960   125466419.9812       2748.773          36.000    23875459.377    97766027.506        2141.388          39.000  
C28  24754135.302   128901278.5682      -1066.807          43.000                                                                  
C07  38035536.329   198061017.2682        792.440          41.000    38035517.376   153153273.020         612.477          45.000  
C20  25594859.355   133279149.5972      -3618.976          41.000                                                                  
C36  23848704.164   124186461.6262       1406.659          44.000                                                                  
C37  25036015.109   130369100.5892      -2397.059          42.000                                                                  
C10  39165440.755   203944727.1842        730.936          38.000    39165426.233   157703010.587         565.551          43.000  
G08  24153575.359   126927896.8362       3599.925          33.000    24153575.891    98904938.112        2805.110          36.000  
G29  25334523.479   133133819.7062      -3595.204          36.000    25334514.073   103740585.577       -2800.749          37.000  
C30  25121278.390   130813089.4992       2759.018          43.000                                                                  
C13  40777297.780   212338090.1582      -2429.681          34.000    40777300.626   164193292.2042      -1878.835          37.000  
C08                                                                  41692890.542   167879998.731       -1825.543          40.000  
> 2025 11 03 07 43 35.6400000  0 26                     
G04  21390591.320   112408316.0482       1099.640          43.000    21390580.325    87590852.101         856.807          46.000  
G16  20188346.003   106090474.4802        172.294          46.000                                                                  
G28  23085373.753   121314458.1892      -2704.607          41.000    23085364.179    94530694.432       -2107.455          44.000  
G31  21102947.448   110896737.1232      -1697.843          47.000    21102934.121    86412985.998       -1322.868          45.000  
G03  24577205.646                2      -2939.368          32.000    24577200.054   100639510.604       -2290.040          37.000  
G18  25154606.198   132188348.1402       1346.384          35.000    25154597.141   103003873.007        1049.612          38.000  
C16  36732924.121   191277980.6242          9.417          48.000    36732910.832   147908208.106           7.423          49.000  
C19  23808251.082   123975811.7372      -2167.773          46.000                                                                  
C27  23591266.562   122845916.3612       1120.871          46.000                                                                  
C06  36290792.945   188975682.7602          6.720          47.000    36290772.780   146127909.168           5.056          49.000  
C09  37372184.356   194606770.7802        126.133          45.000    37372167.123   150482232.765          97.559          48.000  
C22  24626839.975   128238419.2522        634.520          42.000                                                                  
G26  20866166.047   109652443.5482      -1950.372          47.000    20866156.635    85443424.359       -1519.635          45.000  
G27  21890790.658   115036881.1862       2965.441          43.000    21890781.576    89639109.214        2310.743          43.000  
G09  23875445.032   125466310.0472       2748.517          36.000    23875438.451    97765941.825        2141.772          39.000  
C28  24754143.489   128901321.2492      -1067.032          43.000                                                                  
C07  38035530.229   198060985.5822        792.292          41.000    38035511.303   153153248.526         612.353          45.000  
C20  25594887.149   133279294.3502      -3618.889          41.000                                                                  
C36  23848693.384   124186405.3742       1406.384          44.000                                                                  
C37  25036033.516   130369196.4972      -2397.548          42.000                                                                  
C10  39165435.146   203944697.9442        730.903          38.000    39165420.612   157702987.965         565.590          43.000  
G08  24153547.977                2       3599.432          33.000    24153548.482    98904825.901        2805.111          36.000  
G29  25334550.828   133133963.5042      -3595.207          36.000    25334541.440   103740697.620       -2800.990          37.000  
C30  25121257.177   130812979.1442       2758.864          43.000                                                                  
C13  40777316.474   212338187.3822      -2430.328          34.000    40777319.283   164193367.3712      -1879.099          37.000  
C08                                                                  41692908.669   167880071.767       -1825.867          40.000  
> 2025 11 03 07 43 35.6800000  0 26                     
G04  21390582.955   112408272.0682       1099.491          43.000    21390571.954    87590817.833         856.668          46.000  
G16  20188344.685   106090467.5782        172.384          46.000                                                                  
G28  23085394.348   121314566.3712      -2704.643          41.000    23085384.761    94530778.729       -2107.493          44.000  
G31  21102960.358   110896805.0322      -1697.883          47.000    21102947.046    86413038.921       -1323.077          45.000  
G03  24577227.964                2      -2937.789          32.000    24577222.424   100639602.201       -2290.066          37.000  
G18  25154595.943   132188294.2502       1346.707          35.000    25154586.905   103003831.023        1049.512          38.000  
C16  36732924.035   191277980.2382          9.494          48.000    36732910.749   147908207.806           7.415          49.000  
C19  23808267.727   123975898.4492      -2167.822          46.000                                                                  
C27  23591257.963   122845871.5262       1120.785          47.000                                                                  
C06  36290792.895   188975682.4822          6.857          47.000    36290772.714   146127908.958           5.126          49.000  
C09  37372183.386   194606765.7342        126.047          45.000    37372166.176   150482228.870          97.370          48.000  
C22  24626835.090   128238393.8692        634.524          42.000                                                                  
G26  20866180.895   109652521.5502      -1950.183          47.000    20866171.481    85443485.148       -1519.720          45.000  
G27  21890768.078   115036762.5672       2965.387          43.000    21890759.009    89639016.786        2310.626          43.000  
G09  23875424.132   125466200.1172       2748.272          36.000    23875417.515    97765856.134        2142.181          39.000  
C28  24754151.680   128901363.9292      -1067.128          43.000                                                                  
C07  38035524.153   198060953.8982        792.165          41.000    38035505.205   153153224.023         612.461          45.000  
C20  25594914.946   133279439.1062      -3618.910          41.000                                                                  
C36  23848682.560   124186349.1232       1406.219          44.000                                                                  
C37  25036051.939   130369292.3892      -2397.477          42.000                                                                  
C10  39165429.515   203944668.6982        730.966          38.000    39165414.984   157702965.347         565.527          43.000  
G08  24153520.586   126927608.8362       3600.246          33.000    24153521.046    98904713.680        2805.280          36.000  
G29  25334578.190   133134107.3072      -3595.130          36.000    25334568.808   103740809.670       -2801.218          37.000  
C30  25121235.978   130812868.7962       2758.682          43.000                                                                  
C13  40777335.129   212338284.5762      -2430.114          34.000    40777337.962   164193442.5352      -1879.177          37.000  
C08                                                                  41692926.788   167880144.787       -1825.677          40.000  
> 2025 11 03 07 43 35.7200000  0 26                     
G04  21390574.561   112408228.0842       1099.503          43.000    21390563.582    87590783.561         856.702          46.000  
G16  20188343.351   106090460.6712        172.578          46.000                                                                  
G28  23085414.915   121314674.5572      -2704.698          41.000    23085405.347    94530863.027       -2107.516          44.000  
G31  21102973.271   110896872.9302      -1697.652          47.000    21102959.978    86413091.826       -1322.854          45.000  
G03  24577250.310                2      -2936.890          32.000    24577244.800   100639693.779       -2289.642          37.000  
G18  25154585.682   132188240.3422       1347.376          35.000    25154576.654   103003789.030        1049.667          38.000  
C16  36732923.969   191277979.8462          9.677          48.000    36732910.677   147908207.512           7.320          49.000  
C19  23808284.387   123975985.1562      -2167.743          46.000                                                                  
C27  23591249.352   122845826.6732       1121.132          47.000                                                                  
C06  36290792.861   188975682.1992          7.015          47.000    36290772.687   146127908.735           5.392          49.000  
C09  37372182.420   194606760.6802        126.212          45.000    37372165.224   150482224.965          97.466          48.000  
C22  24626830.213   128238368.4982        634.314          42.000                                                                  
G26  20866195.720   109652599.5512      -1950.043          47.000    20866186.298    85443545.932       -1519.678          45.000  
G27  21890745.499   115036643.9482       2965.361          43.000    21890736.422    89638924.346        2310.840          43.000  
G09  23875403.215   125466090.1772       2748.370          36.000    23875396.592    97765770.460        2141.998          39.000  
C28  24754159.877   128901406.5982      -1066.951          43.000                                                                  
C07  38035518.081   198060922.2162        792.053          41.000    38035499.147   153153199.520         612.525          45.000  
C20  25594942.730   133279583.8692      -3619.077          41.000                                                                  
C36  23848671.768   124186292.8672       1406.281          44.000                                                                  
C37  25036070.346   130369388.2642      -2397.055          42.000                                                                  
C10  39165423.907   203944639.4362        731.320          38.000    39165409.375   157702942.744         565.214          43.000  
G08  24153493.143                2       3600.400          33.000    24153493.665    98904601.499        2804.824          36.000  
G29  25334605.527   133134251.1122      -3595.187          36.000    25334596.177   103740921.742       -2801.706          37.000  
C30  25121214.785   130812758.4322       2758.924          44.000                                                                  
C13  40777353.798   212338381.7992      -2430.579          34.000    40777356.617   164193517.7132      -1879.399          37.000  
C08                                                                  41692944.925   167880217.796       -1825.336          40.000  
