     3.04           OBSERVATION DATA    M: Mixed            RINEX VERSION / TYPE
RTKCONV 2.4.3 b34                       20251103 075555 UTC PGM / RUN BY / DATE 
format: u-blox UBX                                          COMMENT             
log: D:\GPdata\11_3\fingure_280_11_33_2.ubx                 COMMENT             
                                                            MARKER NAME         
                                                            MARKER NUMBER       
                                                            MARKER TYPE         
                                                            OBSERVER / AGENCY   
                                                            REC # / TYPE / VERS 
                                                            ANT # / TYPE        
        0.0000        0.0000        0.0000                  APPROX POSITION XYZ 
        0.0000        0.0000        0.0000                  ANTENNA: DELTA H/E/N
G    8 C1C L1C D1C S1C C2L L2L D2L S2L                      SYS / # / OBS TYPES 
C    8 C2I L2I D2I S2I C7I L7I D7I S7I                      SYS / # / OBS TYPES 
  2025    11    03    07    44   11.8400000     GPS         TIME OF FIRST OBS   
  2025    11    03    07    44   30.2400000     GPS         TIME OF LAST OBS    
G L1C                                                       SYS / PHASE SHIFT   
G L2L  0.00000                                              SYS / PHASE SHIFT   
C L2I                                                       SYS / PHASE SHIFT   
C L7I                                                       SYS / PHASE SHIFT   
  0                                                         GLONASS SLOT / FRQ #
 C1C    0.000 C1P    0.000 C2C    0.000 C2P    0.000        GLONASS COD/PHS/BIS 
                                                            END OF HEADER       
> 2025 11 03 07 44 11.8400000  0 26                     
G04  21383078.260   112368834.3541       1080.237          44.000    21383067.404    87560087.5981        841.805          46.000  
G16  20187202.751   106084466.6191        157.991          46.000                                                                  
G28  23104022.095   121412453.9851      -2710.468          42.000    23104011.688    94607054.7391      -2112.345          43.000  
G31  21114668.556   110958334.4601      -1707.108          47.000    21114655.795    86460983.9201      -1330.274          45.000  
G03  24597449.896                1      -2941.582          31.000    24597447.420   100722419.7561      -2291.741          38.000  
G18  25145353.575                1       1338.828          31.000    25145343.584   102965980.2391       1042.501          34.000  
C16  36732840.299   191277542.8271         13.056          48.000    36732825.669   147907869.9711         10.161          49.000  
C19  23823362.165   124054497.3441      -2180.835          46.000                                                                  
C27  23583515.236   122805552.1071       1107.535          47.000                                                                  
C06  36290729.966   188975346.9761         10.306          47.000    36290709.502   146127649.9131          7.990          49.000  
C09  37371285.570   194602092.1211        130.866          44.000    37371268.181   150478614.9761        101.240          48.000  
C22  24622483.662   128215734.6611        617.046          42.000                                                                  
G26  20879620.323   109723145.7021      -1957.519          47.000    20879610.916    85498516.9511      -1525.330          45.000  
G27  21870395.082   114929705.3411       2954.124          44.000    21870386.554    89555595.7521       2302.029          43.000  
G09  23856538.731   125366956.4651       2739.087          36.000    23856531.779    97688524.0241       2134.522          39.000  
C28  24761613.218   128940210.6651      -1083.263          45.000                                                                  
C07  38030019.719   198032292.0771        791.799          41.000    38030000.819   153131061.3741        612.194          45.000  
C20  25620035.993   133410249.5941      -3617.548          42.000                                                                  
C36  23838913.820   124135481.1691       1405.646          44.000                                                                  
C37  25052691.687   130455938.1881      -2396.672          44.000                                                                  
C10  39160345.509   203918196.1191        731.865          38.000    39160330.858   157682495.6301        565.773          43.000  
G08  24128744.430   126797409.7111       3599.716          35.000    24128744.400    98803261.2981       2805.198          37.000  
G29  25359331.213   133264189.3041      -3601.566          35.000    25359323.647   103842172.7041      -2806.462          38.000  
C30  25102067.750   130713056.4391       2760.021          44.000                                                                  
C13  40794188.157   212426042.5101      -2424.950          33.000    40794191.098   164261301.3411      -1875.208          37.000  
C08                                                                  41709291.580   167946044.5221      -1820.264          41.000  
> 2025 11 03 07 44 11.8800000  0 26                     
G04  21383070.038   112368791.163        1080.167          44.000    21383059.200    87560053.947         841.610          46.000  
G16  20187201.546   106084460.324         157.721          46.000                                                                  
G28  23104042.711   121412562.459       -2711.152          42.000    23104032.342    94607139.261       -2112.622          43.000  
G31  21114681.548   110958402.757       -1707.098          47.000    21114668.801    86461037.133       -1330.162          45.000  
G03  24597472.269                       -2941.204          31.000    24597469.809   100722511.457       -2292.054          38.000  
G18  25145343.354                        1337.759          31.000    25145333.380   102965938.517        1043.015          34.000  
C16  36732840.201   191277542.329          12.868          48.000    36732825.546   147907869.585           9.957          49.000  
C19  23823378.913   124054584.600       -2181.042          46.000                                                                  
C27  23583506.731   122805507.826        1107.340          47.000                                                                  
C06  36290729.878   188975346.596          10.022          47.000    36290709.438   146127649.612           7.852          49.000  
C09  37371284.582   194602086.920         130.530          44.000    37371267.171   150478610.947         101.041          48.000  
C22  24622478.928   128215709.968         617.404          42.000                                                                  
G26  20879635.228   109723224.019       -1957.642          47.000    20879625.835    85498577.978       -1525.446          45.000  
G27  21870372.609   114929587.186        2954.176          43.000    21870364.079    89555503.692        2301.843          43.000  
G09  23856517.868   125366846.930        2738.733          36.000    23856510.939    97688438.668        2134.271          39.000  
C28  24761621.544   128940254.020       -1083.469          45.000                                                                  
C07  38030013.656   198032260.423         791.702          41.000    38029994.744   153131036.899         612.127          45.000  
C20  25620063.784   133410394.320       -3617.805          42.000                                                                  
C36  23838903.028   124135424.965        1405.438          44.000                                                                  
C37  25052710.109   130456034.073       -2396.764          43.000                                                                  
C10  39160339.884   203918166.881         731.618          38.000    39160325.264   157682473.019         565.689          43.000  
G08  24128717.042   126797265.757        3599.412          35.000    24128717.000    98803149.128        2804.848          37.000  
G29  25359358.636   133264333.380       -3601.587          35.000    25359351.079   103842284.977       -2806.658          38.000  
C30  25102046.529   130712946.055        2759.876          44.000                                                                  
C13  40794206.813   212426139.534       -2425.218          33.000    40794209.741   164261376.383       -1875.611          37.000  
C08                                                                  41709309.681   167946117.358       -1820.508          41.000  
> 2025 11 03 07 44 11.9200000  0 26                     
G04  21383061.830   112368748.008        1079.357          44.000    21383050.989    87560020.317         841.056          46.000  
G16  20187200.350   106084454.050         157.107          46.000                                                                  
G28  23104063.368   121412670.958       -2712.120          41.000    23104052.980    94607223.789       -2112.966          43.000  
G31  21114694.532   110958471.076       -1707.545          47.000    21114681.820    86461090.372       -1330.598          45.000  
G03  24597494.681                       -2942.030          31.000    24597492.197   100722603.175       -2292.591          38.000  
G18  25145333.223                        1336.219          31.000    25145323.198   102965896.857        1042.140          34.000  
C16  36732840.101   191277541.847          12.398          48.000    36732825.450   147907869.212           9.556          49.000  
C19  23823395.656   124054671.882       -2181.720          46.000                                                                  
C27  23583498.218   122805463.557        1106.937          47.000                                                                  
C06  36290729.801   188975346.225           9.569          47.000    36290709.355   146127649.329           7.395          49.000  
C09  37371283.583   194602081.730         130.028          44.000    37371266.200   150478606.933         100.605          48.000  
C22  24622474.208   128215685.311         616.902          42.000                                                                  
G26  20879650.129   109723302.358       -1958.209          47.000    20879640.745    85498639.021       -1525.848          45.000  
G27  21870350.147   114929469.057        2953.663          43.000    21870341.601    89555411.643        2301.410          43.000  
G09  23856497.036   125366737.399        2738.409          36.000    23856490.088    97688353.332        2133.685          39.000  
C28  24761629.859   128940297.388       -1083.912          45.000                                                                  
C07  38030007.596   198032228.808         790.848          41.000    38029988.664   153131012.446         611.632          45.000  
C20  25620091.567   133410539.049       -3618.038          42.000                                                                  
C36  23838892.236   124135368.776        1404.962          44.000                                                                  
C37  25052728.525   130456129.985       -2397.405          43.000                                                                  
C10  39160334.264   203918137.660         731.004          38.000    39160319.659   157682450.417         565.344          43.000  
G08  24128689.659   126797121.801        3599.087          35.000    24128689.591    98803036.935        2804.858          37.000  
G29  25359386.055   133264477.470       -3601.909          35.000    25359378.494   103842397.246       -2806.657          38.000  
C30  25102025.344   130712835.683        2759.538          44.000                                                                  
C13  40794225.460   212426236.605       -2426.318          33.000    40794228.393   164261451.425       -1875.909          37.000  
C08                                                                  41709327.783   167946190.218       -1821.173          41.000  
> 2025 11 03 07 44 11.9600000  0 26                     
G04  21383053.614   112368704.847        1079.047          44.000    21383042.794    87559986.696         840.564          46.000  
G16  20187199.162   106084447.785         156.638          46.000                                                                  
G28  23104084.007   121412779.452       -2712.455          41.000    23104073.640    94607308.332       -2113.445          43.000  
G31  21114707.517   110958539.407       -1708.105          47.000    21114694.816    86461143.624       -1331.109          45.000  
G03  24597517.098                       -2942.471          31.000    24597514.601   100722694.881       -2292.673          38.000  
G18  25145323.044                        1337.164          31.000    25145313.012   102965855.178        1041.979          34.000  
C16  36732839.995   191277541.368          12.034          48.000    36732825.352   147907868.848           9.182          49.000  
C19  23823412.404   124054759.170       -2182.172          46.000                                                                  
C27  23583489.709   122805419.307        1106.359          47.000                                                                  
C06  36290729.722   188975345.864           9.125          47.000    36290709.288   146127649.052           6.996          49.000  
C09  37371282.580   194602076.550         129.552          44.000    37371265.241   150478602.928         100.186          48.000  
C22  24622469.457   128215660.665         616.402          42.000                                                                  
G26  20879665.033   109723380.707       -1958.728          47.000    20879655.679    85498700.078       -1526.373          45.000  
G27  21870327.668   114929350.939        2953.135          43.000    21870319.145    89555319.607        2300.945          43.000  
G09  23856476.195   125366627.878        2738.031          36.000    23856469.258    97688267.991        2133.496          38.000  
C28  24761638.172   128940340.769       -1084.412          45.000                                                                  
C07  38030001.543   198032197.195         790.325          41.000    38029982.584   153130988.000         611.213          45.000  
C20  25620119.375   133410683.809       -3618.734          42.000                                                                  
C36  23838881.432   124135312.605        1404.352          44.000                                                                  
C37  25052746.927   130456225.901       -2397.861          43.000                                                                  
C10  39160328.656   203918108.453         730.349          38.000    39160314.050   157682427.827         564.880          43.000  
G08  24128662.248   126796977.870        3598.404          35.000    24128662.196    98802924.808        2803.736          37.000  
G29  25359413.467   133264621.569       -3602.366          35.000    25359405.921   103842509.538       -2807.104          38.000  
C30  25102004.170   130712725.330        2758.985          44.000                                                                  
C13  40794244.077   212426333.632       -2425.910          33.000    40794247.012   164261526.455       -1875.799          37.000  
C08                                                                  41709345.868   167946263.074       -1821.405          41.000  
> 2025 11 03 07 44 12.0000000  0 26                     
G04  21383045.415   112368661.695        1078.746          44.000    21383034.582    87559953.071         840.430          46.000  
G16  20187197.946   106084441.505         156.743          46.000                                                                  
G28  23104104.653   121412887.953       -2712.634          41.000    23104094.311    94607392.874       -2113.696          43.000  
G31  21114720.530   110958607.746       -1708.515          47.000    21114707.822    86461196.887       -1331.619          45.000  
G03  24597539.490                       -2942.851          31.000    24597537.006   100722786.586       -2292.653          38.000  
G18  25145312.867                        1337.351          31.000    25145302.855   102965813.509        1041.700          34.000  
C16  36732839.917   191277540.898          11.699          48.000    36732825.240   147907868.486           8.953          49.000  
C19  23823429.156   124054846.464       -2182.471          46.000                                                                  
C27  23583481.192   122805375.058        1106.097          47.000                                                                  
C06  36290729.667   188975345.513           8.761          46.000    36290709.211   146127648.774           6.840          49.000  
C09  37371281.582   194602071.366         129.423          44.000    37371264.277   150478598.931          99.870          48.000  
C22  24622464.737   128215636.023         616.081          42.000                                                                  
G26  20879679.961   109723459.060       -1958.954          46.000    20879670.608    85498761.134       -1526.544          45.000  
G27  21870305.211   114929232.823        2952.830          43.000    21870296.664    89555227.568        2300.846          43.000  
G09  23856455.367   125366518.382        2737.506          36.000    23856448.410    97688182.639        2133.667          38.000  
C28  24761646.506   128940384.151       -1084.649          45.000                                                                  
C07  38029995.473   198032165.580         790.152          41.000    38029976.528   153130963.555         611.012          45.000  
C20  25620147.181   133410828.555       -3618.806          42.000                                                                  
C36  23838870.634   124135256.437        1404.041          44.000                                                                  
C37  25052765.358   130456321.825       -2398.235          43.000                                                                  
C10  39160323.057   203918079.251         729.969          38.000    39160308.441   157682405.250         564.460          43.000  
G08  24128634.869   126796833.928        3598.267          35.000    24128634.805    98802812.660        2803.521          37.000  
G29  25359440.883   133264765.666       -3602.438          35.000    25359433.333   103842621.810       -2806.996          38.000  
C30  25101982.987   130712614.957        2759.075          44.000                                                                  
C13  40794262.710   212426430.728       -2426.937          33.000    40794265.657   164261601.532       -1876.629          37.000  
C08                                                                  41709363.969   167946335.945       -1821.820          41.000  
> 2025 11 03 07 44 12.0400000  0 26                     
G04  21383037.193   112368618.535        1078.757          44.000    21383026.364    87559919.439         840.548          46.000  
G16  20187196.748   106084435.242         156.534          46.000                                                                  
G28  23104125.299   121412996.440       -2712.411          41.000    23104114.959    94607477.411       -2113.624          43.000  
G31  21114733.540   110958676.085       -1708.682          47.000    21114720.812    86461250.126       -1331.365          45.000  
G03  24597561.867                       -2942.965          31.000    24597559.405   100722878.303       -2292.859          38.000  
G18  25145302.673                        1337.008          31.000    25145292.660   102965771.821        1041.963          34.000  
C16  36732839.841   191277540.431          11.527          48.000    36732825.158   147907868.115           9.030          49.000  
C19  23823445.903   124054933.748       -2182.343          46.000                                                                  
C27  23583472.684   122805330.806        1106.118          47.000                                                                  
C06  36290729.595   188975345.152           8.766          46.000    36290709.121   146127648.494           6.842          49.000  
C09  37371280.563   194602066.184         129.373          44.000    37371263.283   150478594.924          99.920          48.000  
C22  24622460.032   128215611.369         616.162          42.000                                                                  
G26  20879694.861   109723537.407       -1958.929          46.000    20879685.502    85498822.178       -1526.355          45.000  
G27  21870282.729   114929114.700        2952.860          43.000    21870274.191    89555135.526        2300.834          43.000  
G09  23856434.520   125366408.873        2737.427          36.000    23856427.566    97688097.311        2133.289          38.000  
C28  24761654.871   128940427.535       -1084.737          45.000                                                                  
C07  38029989.408   198032133.967         790.097          41.000    38029970.461   153130939.099         611.143          45.000  
C20  25620174.982   133410973.304       -3618.862          42.000                                                                  
C36  23838859.842   124135200.255        1404.205          44.000                                                                  
C37  25052783.792   130456417.736       -2398.115          43.000                                                                  
C10  39160317.437   203918050.032         730.131          38.000    39160302.824   157682382.659         564.537          43.000  
G08  24128607.475   126796689.993        3598.264          35.000    24128607.385    98802700.499        2803.723          37.000  
G29  25359468.300   133264909.779       -3602.798          35.000    25359460.751   103842734.100       -2807.273          38.000  
C30  25101961.767   130712504.596        2758.958          44.000                                                                  
C13  40794281.357   212426527.797       -2426.977          33.000    40794284.310   164261676.584       -1876.563          37.000  
C08                                                                  41709382.100   167946408.803       -1821.716          41.000  
> 2025 11 03 07 44 12.0800000  0 26                     
G04  21383028.951   112368575.375        1078.815          44.000    21383018.137    87559885.804         840.714          46.000  
G16  20187195.537   106084428.968         156.694          46.000                                                                  
G28  23104145.929   121413104.922       -2712.142          40.000    23104135.597    94607561.948       -2113.584          43.000  
G31  21114746.522   110958744.407       -1708.361          47.000    21114733.820    86461303.359       -1331.041          45.000  
G03  24597584.306                       -2943.199          31.000    24597581.823   100722970.022       -2292.960          38.000  
G18  25145292.508                        1337.291          31.000    25145282.482   102965730.138        1042.098          34.000  
C16  36732839.763   191277539.956          11.612          47.000    36732825.067   147907867.739           9.227          49.000  
C19  23823462.676   124055021.031       -2182.190          46.000                                                                  
C27  23583464.170   122805286.540        1106.415          47.000                                                                  
C06  36290729.523   188975344.781           9.008          46.000    36290709.051   146127648.209           6.963          49.000  
C09  37371279.576   194602060.989         129.643          44.000    37371262.290   150478590.905         100.247          48.000  
C22  24622455.282   128215586.727         615.990          42.000                                                                  
G26  20879709.749   109723615.745       -1958.630          46.000    20879700.409    85498883.221       -1526.196          45.000  
G27  21870260.249   114928996.579        2952.869          43.000    21870251.722    89555043.478        2300.980          43.000  
G09  23856413.686   125366299.341        2738.019          36.000    23856406.715    97688011.969        2133.392          38.000  
C28  24761663.185   128940470.904       -1084.478          45.000                                                                  
C07  38029983.327   198032102.325         790.667          41.000    38029964.401   153130914.635         611.403          45.000  
C20  25620202.800   133411118.040       -3618.570          42.000                                                                  
C36  23838849.080   124135144.066        1404.498          44.000                                                                  
C37  25052802.206   130456513.633       -2397.740          43.000                                                                  
C10  39160311.810   203918020.818         730.216          38.000    39160297.212   157682360.067         564.635          43.000  
G08  24128580.064   126796546.024        3598.758          35.000    24128579.987    98802588.313        2804.345          37.000  
G29  25359495.710   133265053.864       -3602.415          35.000    25359488.173   103842846.394       -2807.438          38.000  
C30  25101940.589   130712394.234        2758.953          44.000                                                                  
C13  40794299.989   212426624.808       -2425.937          33.000    40794302.968   164261751.642       -1876.531          37.000  
C08                                                                  41709400.215   167946481.646       -1821.326          41.000  
> 2025 11 03 07 44 12.1200000  0 26                     
G04  21383020.731   112368532.218        1078.833          44.000    21383009.923    87559852.157         841.038          46.000  
G16  20187194.359   106084422.689         156.861          46.000                                                                  
G28  23104166.560   121413213.403       -2711.982          40.000    23104156.222    94607646.481       -2113.415          43.000  
G31  21114759.516   110958812.721       -1708.024          47.000    21114746.797    86461356.592       -1330.851          45.000  
G03  24597606.712                       -2942.643          31.000    24597604.222   100723061.721       -2292.619          38.000  
G18  25145282.337                        1336.818          31.000    25145272.319   102965688.490        1041.522          34.000  
C16  36732839.691   191277539.461          12.088          47.000    36732824.972   147907867.366           9.305          49.000  
C19  23823479.467   124055108.311       -2182.056          46.000                                                                  
C27  23583455.693   122805242.270        1106.692          47.000                                                                  
C06  36290729.466   188975344.401           9.337          46.000    36290709.000   146127647.914           7.213          49.000  
C09  37371278.597   194602055.797         129.765          44.000    37371261.287   150478586.879         100.558          48.000  
C22  24622450.564   128215562.066         616.284          42.000                                                                  
G26  20879724.646   109723694.082       -1958.453          47.000    20879715.300    85498944.254       -1525.885          45.000  
G27  21870237.803   114928878.457        2952.940          43.000    21870229.239    89554951.425        2301.204          43.000  
G09  23856392.845   125366189.824        2737.982          36.000    23856385.875    97687926.627        2133.484          38.000  
C28  24761671.494   128940514.261       -1084.085          45.000                                                                  
C07  38029977.241   198032070.682         790.984          41.000    38029958.318   153130890.173         611.521          45.000  
C20  25620230.577   133411262.773       -3618.382          42.000                                                                  
C36  23838838.303   124135087.877        1404.675          44.000                                                                  
C37  25052820.619   130456609.530       -2397.529          43.000                                                                  
C10  39160306.218   203917991.598         730.381          38.000    39160291.585   157682337.452         565.145          43.000  
G08  24128552.676   126796402.074        3598.749          35.000    24128552.579    98802476.131        2804.617          37.000  
G29  25359523.106   133265197.965       -3602.500          35.000    25359515.589   103842958.655       -2806.927          38.000  
C30  25101919.395   130712283.863        2759.138          44.000                                                                  
C13  40794318.629   212426721.876       -2426.422          33.000    40794321.596   164261826.679       -1876.076          37.000  
C08                                                                  41709418.284   167946554.493       -1821.155          41.000  
> 2025 11 03 07 44 12.1600000  0 26                     
G04  21383012.510   112368489.055        1078.960          44.000    21383001.700    87559818.528         840.868          46.000  
G16  20187193.169   106084416.415         156.848          46.000                                                                  
G28  23104187.194   121413321.890       -2712.065          40.000    23104176.854    94607731.004       -2113.193          43.000  
G31  21114772.506   110958881.038       -1707.902          47.000    21114759.806    86461409.834       -1330.977          45.000  
G03  24597629.098                       -2942.523          31.000    24597626.618   100723153.460       -2293.194          38.000  
G18  25145272.163                        1336.583          31.000    25145262.116   102965646.790        1042.165          34.000  
C16  36732839.617   191277538.972          12.236          47.000    36732824.876   147907866.992           9.321          49.000  
C19  23823496.236   124055195.591       -2182.043          46.000                                                                  
C27  23583447.187   122805198.012        1106.549          47.000                                                                  
C06  36290729.409   188975344.034           9.233          46.000    36290708.935   146127647.631           7.133          49.000  
C09  37371277.623   194602050.604         129.825          44.000    37371260.290   150478582.865         100.480          48.000  
C22  24622445.821   128215537.425         616.109          42.000                                                                  
G26  20879739.566   109723772.423       -1958.496          47.000    20879730.218    85499005.294       -1525.916          45.000  
G27  21870215.328   114928760.322        2953.193          43.000    21870206.775    89554859.384        2301.103          43.000  
G09  23856372.000   125366080.308        2737.909          36.000    23856365.016    97687841.299        2133.179          38.000  
C28  24761679.849   128940557.630       -1084.101          44.000                                                                  
C07  38029971.170   198032039.060         790.669          41.000    38029952.255   153130865.722         611.310          45.000  
C20  25620258.374   133411407.500       -3618.236          42.000                                                                  
C36  23838827.494   124135031.703        1404.443          44.000                                                                  
C37  25052839.036   130456705.439       -2397.619          43.000                                                                  
C10  39160300.606   203917962.361         730.767          38.000    39160285.997   157682314.853         565.133          43.000  
G08  24128525.279   126796258.115        3598.913          35.000    24128525.193    98802363.977        2804.155          37.000  
G29  25359550.523   133265342.043       -3602.055          35.000    25359543.012   103843070.947       -2807.160          38.000  
C30  25101898.190   130712173.487        2759.336          44.000                                                                  
C13  40794337.274   212426818.892       -2425.775          33.000    40794340.212   164261901.704       -1875.622          37.000  
C08                                                                  41709436.342   167946627.347       -1821.246          40.000  
> 2025 11 03 07 44 12.2000000  0 26                     
G04  21383004.310   112368445.896        1078.938          44.000    21382993.501    87559784.912         840.523          46.000  
G16  20187191.999   106084410.148         156.711          46.000                                                                  
G28  23104207.859   121413430.376       -2712.135          42.000    23104197.510    94607815.545       -2113.406          43.000  
G31  21114785.497   110958949.383       -1708.400          47.000    21114772.806    86461463.094       -1331.400          45.000  
G03  24597651.505                       -2942.423          31.000    24597649.018   100723245.171       -2292.952          38.000  
G18  25145261.952                        1336.503          31.000    25145251.942   102965605.146        1041.484          34.000  
C16  36732839.527   191277538.502          11.893          47.000    36732824.823   147907866.628           9.175          49.000  
C19  23823512.999   124055282.891       -2182.422          46.000                                                                  
C27  23583438.680   122805153.764        1106.284          47.000                                                                  
C06  36290729.318   188975343.680           8.948          46.000    36290708.867   146127647.355           6.954          49.000  
C09  37371276.590   194602045.420         129.676          44.000    37371259.294   150478578.855         100.303          48.000  
C22  24622441.062   128215512.788         615.950          42.000                                                                  
G26  20879754.498   109723850.775       -1958.734          47.000    20879745.138    85499066.359       -1526.447          45.000  
G27  21870192.831   114928642.208        2952.968          43.000    21870184.298    89554767.351        2300.921          43.000  
G09  23856351.145   125365970.799        2737.756          36.000    23856344.177    97687755.959        2133.258          38.000  
C28  24761688.170   128940601.026       -1084.670          44.000                                                                  
C07  38029965.101   198032007.447         790.362          41.000    38029946.196   153130841.278         611.085          45.000  
C20  25620286.157   133411552.259       -3618.748          42.000                                                                  
C36  23838816.691   124134975.525        1404.370          44.000                                                                  
C37  25052857.476   130456801.354       -2397.848          43.000                                                                  
C10  39160294.989   203917933.136         730.697          38.000    39160280.368   157682292.267         564.823          43.000  
G08  24128497.885   126796114.174        3598.662          35.000    24128497.803    98802251.811        2804.135          37.000  
G29  25359577.955   133265486.180       -3602.920          35.000    25359570.426   103843183.243       -2807.363          38.000  
C30  25101877.016   130712063.127        2759.111          44.000                                                                  
C13  40794355.929   212426915.990       -2426.878          33.000    40794358.809   164261976.747       -1875.819          37.000  
C08                                                                  41709454.445   167946700.203       -1821.344          40.000  
> 2025 11 03 07 44 12.2400000  0 26                     
G04  21382996.108   112368402.763        1078.491          44.000    21382985.280    87559751.304         840.177          46.000  
G16  20187190.810   106084403.902         156.239          46.000                                                                  
G28  23104228.499   121413538.884       -2712.615          42.000    23104218.159    94607900.104       -2113.865          43.000  
G31  21114798.528   110959017.734       -1708.761          47.000    21114785.832    86461516.356       -1331.639          45.000  
G03  24597673.882                       -2941.869          31.000    24597671.427   100723336.895       -2293.092          38.000  
G18  25145251.780                        1336.918          31.000    25145241.754   102965563.498        1041.192          34.000  
C16  36732839.453   191277538.045          11.514          47.000    36732824.728   147907866.265           9.054          49.000  
C19  23823529.767   124055370.198       -2182.709          46.000                                                                  
C27  23583430.184   122805109.527        1105.946          47.000                                                                  
C06  36290729.241   188975343.334           8.639          46.000    36290708.809   146127647.093           6.611          49.000  
C09  37371275.608   194602040.250         129.326          44.000    37371258.302   150478574.860          99.940          48.000  
C22  24622436.315   128215488.168         615.550          42.000                                                                  
G26  20879769.432   109723929.142       -1959.125          47.000    20879760.061    85499127.426       -1526.740          45.000  
G27  21870170.372   114928524.114        2952.461          43.000    21870161.821    89554675.328        2300.618          43.000  
G09  23856330.323   125365861.308        2737.341          36.000    23856323.354    97687670.647        2132.788          38.000  
C28  24761696.491   128940644.428       -1085.064          44.000                                                                  
C07  38029959.043   198031975.842         790.065          41.000    38029940.121   153130816.834         610.969          45.000  
C20  25620313.954   133411697.022       -3619.131          42.000                                                                  
C36  23838805.882   124134919.365        1404.028          44.000                                                                  
C37  25052875.897   130456897.280       -2398.134          43.000                                                                  
C10  39160289.378   203917903.945         730.023          38.000    39160274.738   157682269.698         564.346          43.000  
G08  24128470.502   126795970.263        3598.141          35.000    24128470.412    98802139.664        2803.750          37.000  
G29  25359605.371   133265630.282       -3602.769          35.000    25359597.850   103843295.538       -2807.414          37.000  
C30  25101855.800   130711952.779        2758.777          44.000                                                                  
C13  40794374.561   212427013.054       -2426.852          33.000    40794377.454   164262051.798       -1876.233          37.000  
C08                                                                  41709472.539   167946773.077       -1821.814          40.000  
> 2025 11 03 07 44 12.2800000  0 26                     
G04  21382987.903   112368359.626        1078.347          44.000    21382977.074    87559717.688         840.244          46.000  
G16  20187189.602   106084397.649         156.193          46.000                                                                  
G28  23104249.151   121413647.392       -2712.835          41.000    23104238.825    94607984.659       -2113.973          43.000  
G31  21114811.537   110959086.084       -1708.902          47.000    21114798.833    86461569.611       -1331.568          45.000  
G03  24597696.279                       -2943.203          31.000    24597693.822   100723428.616       -2293.081          38.000  
G18  25145241.616                        1336.877          31.000    25145231.572   102965521.806        1041.848          34.000  
C16  36732839.421   191277537.587          11.343          47.000    36732824.648   147907865.910           8.876          49.000  
C19  23823546.548   124055457.501       -2182.739          46.000                                                                  
C27  23583421.685   122805065.296        1105.701          47.000                                                                  
C06  36290729.167   188975342.983           8.643          46.000    36290708.784   146127646.823           6.611          49.000  
C09  37371274.589   194602035.081         129.146          44.000    37371257.301   150478570.866          99.757          48.000  
C22  24622431.570   128215463.537         615.577          42.000                                                                  
G26  20879784.339   109724007.508       -1959.283          47.000    20879774.978    85499188.493       -1526.831          45.000  
G27  21870147.908   114928406.011        2952.425          43.000    21870139.368    89554583.311        2300.360          43.000  
G09  23856309.475   125365751.790        2737.628          36.000    23856302.523    97687585.340        2132.538          38.000  
C28  24761704.826   128940687.827       -1085.162          44.000                                                                  
C07  38029952.993   198031944.232         790.083          41.000    38029934.062   153130792.399         610.815          45.000  
C20  25620341.758   133411841.788       -3619.344          42.000                                                                  
C36  23838795.108   124134863.199        1403.992          44.000                                                                  
C37  25052894.335   130456993.201       -2398.137          43.000                                                                  
C10  39160283.765   203917874.762         729.546          38.000    39160269.155   157682247.113         564.400          43.000  
G08  24128443.133   126795826.331        3598.237          35.000    24128443.046    98802027.536        2803.268          37.000  
G29  25359632.795   133265774.389       -3602.686          35.000    25359625.267   103843407.835       -2807.475          37.000  
C30  25101834.619   130711842.432        2758.605          44.000                                                                  
C13  40794393.198   212427110.075       -2425.863          33.000    40794396.108   164262126.894       -1877.280          37.000  
C08                                                                  41709490.614   167946845.935       -1821.686          40.000  
> 2025 11 03 07 44 12.3200000  0 26                     
G04  21382979.699   112368316.499        1078.116          44.000    21382968.856    87559684.074         840.250          46.000  
G16  20187188.388   106084391.400         156.121          46.000                                                                  
G28  23104269.803   121413755.909       -2713.074          41.000    23104259.488    94608069.208       -2113.851          43.000  
G31  21114824.560   110959154.433       -1708.927          47.000    21114811.830    86461622.856       -1331.349          45.000  
G03  24597718.681                       -2943.257          31.000    24597716.223   100723520.348       -2293.332          38.000  
G18  25145231.453                        1336.243          31.000    25145221.408   102965480.156        1041.480          34.000  
C16  36732839.360   191277537.124          11.373          47.000    36732824.589   147907865.556           8.781          49.000  
C19  23823563.323   124055544.802       -2182.666          46.000                                                                  
C27  23583413.197   122805021.059        1105.746          47.000                                                                  
C06  36290729.079   188975342.629           8.674          46.000    36290708.712   146127646.553           6.624          49.000  
C09  37371273.602   194602029.901         129.295          44.000    37371256.286   150478566.862          99.885          48.000  
C22  24622426.835   128215438.902         615.701          42.000                                                                  
G26  20879799.263   109724085.867       -1959.167          47.000    20879789.874    85499249.549       -1526.630          45.000  
G27  21870125.434   114928287.905        2952.467          43.000    21870116.917    89554491.269        2300.753          43.000  
G09  23856288.635   125365642.281        2737.683          36.000    23856281.676    97687500.012        2132.953          38.000  
C28  24761713.159   128940731.218       -1084.978          44.000                                                                  
C07  38029946.919   198031912.615         790.199          41.000    38029927.999   153130767.961         610.807          45.000  
C20  25620369.574   133411986.539       -3619.081          42.000                                                                  
C36  23838784.333   124134807.032        1404.053          44.000                                                                  
C37  25052912.742   130457089.127       -2398.228          43.000                                                                  
C10  39160278.174   203917845.576         729.379          38.000    39160263.574   157682224.539         564.275          43.000  
G08  24128415.756   126795682.424        3597.837          35.000    24128415.636    98801915.378        2803.568          37.000  
G29  25359660.228   133265918.502       -3602.789          35.000    25359652.684   103843520.125       -2807.371          37.000  
C30  25101813.444   130711732.081        2758.614          44.000                                                                  
C13  40794411.840   212427207.159       -2426.555          33.000    40794414.769   164262201.954       -1877.020          37.000  
C08                                                                  41709508.721   167946918.801       -1821.692          40.000  
> 2025 11 03 07 44 12.3600000  0 26                     
G04  21382971.500   112368273.361        1078.229          44.000    21382960.630    87559650.455         840.374          46.000  
G16  20187187.182   106084385.147         156.179          46.000                                                                  
G28  23104290.456   121413864.415       -2712.863          41.000    23104280.115    94608153.754       -2113.719          43.000  
G31  21114837.535   110959222.767       -1708.596          47.000    21114824.848    86461676.119       -1331.525          45.000  
G03  24597741.080                       -2943.039          32.000    24597738.633   100723612.072       -2293.271          38.000  
G18  25145221.273                        1336.327          31.000    25145211.240   102965438.484        1041.829          34.000  
C16  36732839.293   191277536.651          11.608          47.000    36732824.529   147907865.195           8.872          49.000  
C19  23823580.118   124055632.111       -2182.788          46.000                                                                  
C27  23583404.707   122804976.823        1105.778          47.000                                                                  
C06  36290729.033   188975342.277           8.705          46.000    36290708.629   146127646.275           6.792          49.000  
C09  37371272.601   194602024.727         129.303          44.000    37371255.264   150478562.862          99.921          48.000  
C22  24622422.112   128215414.270         615.729          42.000                                                                  
G26  20879814.148   109724164.228       -1959.094          47.000    20879804.775    85499310.606       -1526.495          45.000  
G27  21870102.941   114928169.803        2952.486          43.000    21870094.436    89554399.238        2300.763          43.000  
G09  23856267.789   125365532.790        2737.372          36.000    23856260.842    97687414.677        2133.270          38.000  
C28  24761721.478   128940774.606       -1084.833          44.000                                                                  
C07  38029940.847   198031881.011         790.100          41.000    38029921.925   153130743.518         610.916          45.000  
C20  25620397.375   133412131.306       -3619.173          42.000                                                                  
C36  23838773.553   124134750.872        1403.986          44.000                                                                  
C37  25052931.151   130457185.056       -2398.266          43.000                                                                  
C10  39160272.562   203917816.359         729.875          38.000    39160257.940   157682201.955         564.427          43.000  
G08  24128388.369   126795538.464        3598.688          35.000    24128388.244    98801803.209        2803.979          37.000  
G29  25359687.636   133266062.614       -3602.805          35.000    25359680.102   103843632.427       -2807.543          37.000  
C30  25101792.246   130711621.735        2758.594          44.000                                                                  
C13  40794430.493   212427304.273       -2427.565          33.000    40794433.410   164262276.989       -1876.367          37.000  
C08                                                                  41709526.840   167946991.674       -1821.844          40.000  
> 2025 11 03 07 44 12.4000000  0 26                     
G04  21382963.288   112368230.223        1078.306          44.000    21382952.429    87559616.844         840.330          46.000  
G16  20187185.992   106084378.897         156.206          46.000                                                                  
G28  23104311.113   121413972.930       -2712.893          41.000    23104300.775    94608238.303       -2113.734          43.000  
G31  21114850.523   110959291.114       -1708.630          47.000    21114837.858    86461729.377       -1331.549          45.000  
G03  24597763.453                       -2943.361          32.000    24597761.040   100723703.795       -2293.125          38.000  
G18  25145211.109                        1336.680          31.000    25145201.090   102965396.841        1041.381          34.000  
C16  36732839.201   191277536.182          11.678          48.000    36732824.422   147907864.835           8.913          49.000  
C19  23823596.853   124055719.416       -2182.703          46.000                                                                  
C27  23583396.230   122804932.581        1105.933          47.000                                                                  
C06  36290728.963   188975341.931           8.629          46.000    36290708.562   146127646.007           6.710          49.000  
C09  37371271.605   194602019.554         129.259          44.000    37371254.261   150478558.863          99.949          48.000  
C22  24622417.405   128215389.647         615.613          42.000                                                                  
G26  20879829.041   109724242.593       -1959.125          47.000    20879819.659    85499371.665       -1526.495          45.000  
G27  21870080.456   114928051.708        2952.351          43.000    21870071.962    89554307.204        2300.799          43.000  
G09  23856246.941   125365423.292        2737.378          36.000    23856239.994    97687329.342        2133.350          38.000  
C28  24761729.828   128940818.000       -1084.861          44.000                                                                  
C07  38029934.786   198031849.404         790.122          41.000    38029915.858   153130719.078         610.941          45.000  
C20  25620425.188   133412276.064       -3619.063          42.000                                                                  
C36  23838762.756   124134694.702        1404.102          44.000                                                                  
C37  25052949.557   130457280.981       -2398.211          43.000                                                                  
C10  39160266.969   203917787.151         730.031          38.000    39160252.357   157682179.382         564.358          43.000  
G08  24128360.974   126795394.537        3598.552          35.000    24128360.844    98801691.042        2804.170          37.000  
G29  25359715.047   133266206.725       -3602.886          35.000    25359707.523   103843744.740       -2807.789          37.000  
C30  25101771.059   130711511.387        2758.624          44.000                                                                  
C13  40794449.127   212427401.309       -2426.437          33.000    40794452.051   164262352.040       -1876.186          37.000  
C08                                                                  41709544.957   167947064.548       -1821.912          40.000  
> 2025 11 03 07 44 12.4400000  0 26                     
G04  21382955.065   112368187.079        1078.485          44.000    21382944.239    87559583.241         840.117          46.000  
G16  20187184.791   106084372.646         156.243          46.000                                                                  
G28  23104331.753   121414081.434       -2712.687          41.000    23104321.423    94608322.866       -2114.021          43.000  
G31  21114863.524   110959359.462       -1708.679          47.000    21114850.855    86461782.634       -1331.539          45.000  
G03  24597785.843                       -2943.020          32.000    24597783.449   100723795.511       -2292.950          38.000  
G18  25145200.939   132138879.7891       1336.341          31.000    25145190.936   102965355.230        1040.602          34.000  
C16  36732839.131   191277535.721          11.598          48.000    36732824.343   147907864.474           8.984          49.000  
C19  23823613.626   124055806.720       -2182.629          46.000                                                                  
C27  23583387.750   122804888.336        1106.074          47.000                                                                  
C06  36290728.896   188975341.578           8.711          47.000    36290708.518   146127645.736           6.733          49.000  
C09  37371270.612   194602014.377         129.350          44.000    37371253.242   150478554.860         100.026          48.000  
C22  24622412.682   128215365.033         615.389          42.000                                                                  
G26  20879843.950   109724320.956       -1959.106          47.000    20879834.571    85499432.728       -1526.544          45.000  
G27  21870057.972   114927933.604        2952.461          43.000    21870049.487    89554215.183        2300.594          43.000  
G09  23856226.107   125365313.795        2737.372          36.000    23856219.161    97687244.024        2133.069          38.000  
C28  24761738.167   128940861.409       -1085.129          44.000                                                                  
C07  38029928.700   198031817.801         790.041          41.000    38029909.750   153130694.635         611.017          45.000  
C20  25620452.996   133412420.820       -3618.923          42.000                                                                  
C36  23838751.946   124134638.539        1404.065          44.000                                                                  
C37  25052967.982   130457376.891       -2397.941          43.000                                                                  
C10  39160261.360   203917757.932         730.369          38.000    39160246.742   157682156.792         564.622          42.000  
G08  24128333.567   126795250.605        3598.482          35.000    24128333.450    98801578.881        2804.125          37.000  
G29  25359742.456   133266350.851       -3603.039          35.000    25359734.938   103843857.035       -2807.510          37.000  
C30  25101749.888   130711401.036        2758.703          44.000                                                                  
C13  40794467.762   212427498.364       -2426.235          33.000    40794470.684   164262427.095       -1876.305          37.000  
C08                                                                  41709563.018   167947137.406       -1821.588          40.000  
> 2025 11 03 07 44 12.4800000  0 26                     
G04  21382946.866   112368143.941        1078.474          44.000    21382936.020    87559549.625         840.276          47.000  
G16  20187183.606   106084366.397         156.218          46.000                                                                  
G28  23104352.381   121414189.929       -2712.402          41.000    23104342.079    94608407.421       -2114.000          43.000  
G31  21114876.552   110959427.821       -1708.904          47.000    21114863.873    86461835.910       -1331.811          45.000  
G03  24597808.257                       -2942.628          32.000    24597805.823   100723887.242       -2293.166          38.000  
G18  25145190.784   132138826.345        1336.097          31.000    25145180.759   102965313.575        1040.954          34.000  
C16  36732839.072   191277535.257          11.579          48.000    36732824.273   147907864.112           9.015          49.000  
C19  23823630.375   124055894.024       -2182.587          46.000                                                                  
C27  23583379.233   122804844.098        1106.012          47.000                                                                  
C06  36290728.830   188975341.226           8.765          47.000    36290708.433   146127645.464           6.760          49.000  
C09  37371269.619   194602009.210         129.222          44.000    37371252.261   150478550.857         100.062          48.000  
C22  24622407.959   128215340.404         615.552          42.000                                                                  
G26  20879858.865   109724399.316       -1959.015          47.000    20879849.478    85499493.799       -1526.776          45.000  
G27  21870035.476   114927815.500        2952.524          43.000    21870027.009    89554123.153        2300.646          43.000  
G09  23856205.296   125365204.307        2737.189          36.000    23856198.332    97687158.711        2132.886          38.000  
C28  24761746.498   128940904.812       -1085.141          44.000                                                                  
C07  38029922.628   198031786.191         790.180          41.000    38029903.696   153130670.196         610.984          45.000  
C20  25620480.784   133412565.572       -3618.798          42.000                                                                  
C36  23838741.176   124134582.380        1403.998          44.000                                                                  
C37  25052986.367   130457472.820       -2398.106          43.000                                                                  
C10  39160255.749   203917728.737         730.140          38.000    39160241.122   157682134.198         564.839          42.000  
G08  24128306.147   126795106.683        3598.200          35.000    24128306.081    98801466.745        2803.620          37.000  
G29  25359769.872   133266494.964       -3602.878          35.000    25359762.353   103843969.356       -2807.945          37.000  
C30  25101728.685   130711290.687        2758.707          44.000                                                                  
C13  40794486.423   212427595.476       -2427.234          33.000    40794489.329   164262502.149       -1876.345          37.000  
C08                                                                  41709581.099   167947210.258       -1821.320          40.000  
> 2025 11 03 07 44 12.5200000  0 26                     
G04  21382938.690   112368100.819        1078.163          44.000    21382927.801    87559516.010         840.347          47.000  
G16  20187182.419   106084360.146         156.243          46.000                                                                  
G28  23104373.033   121414298.423       -2712.318          41.000    23104362.715    94608491.957       -2113.619          43.000  
G31  21114889.556   110959496.176       -1708.949          47.000    21114876.868    86461889.155       -1331.431          45.000  
G03  24597830.637                       -2942.750          31.000    24597828.210   100723978.965       -2293.180          38.000  
G18  25145180.606   132138772.871        1336.546          31.000    25145170.581   102965271.876        1041.943          34.000  
C16  36732838.998   191277534.797          11.481          48.000    36732824.181   147907863.751           9.000          49.000  
C19  23823647.154   124055981.330       -2182.642          46.000                                                                  
C27  23583370.713   122804799.870        1105.765          47.000                                                                  
C06  36290728.759   188975340.872           8.829          47.000    36290708.365   146127645.190           6.785          49.000  
C09  37371268.625   194602004.023         129.532          44.000    37371251.251   150478546.854         100.080          48.000  
C22  24622403.260   128215315.780         615.551          42.000                                                                  
G26  20879873.799   109724477.679       -1959.039          47.000    20879864.389    85499554.864       -1526.776          45.000  
G27  21870013.000   114927697.393        2952.614          43.000    21870004.542    89554031.124        2300.646          43.000  
G09  23856184.459   125365094.803        2737.427          36.000    23856177.492    97687073.375        2133.215          38.000  
C28  24761754.843   128940948.216       -1085.168          44.000                                                                  
C07  38029916.555   198031754.576         790.278          41.000    38029897.643   153130645.740         611.267          45.000  
C20  25620508.579   133412710.323       -3618.790          42.000                                                                  
C36  23838730.396   124134526.215        1404.053          44.000                                                                  
C37  25053004.796   130457568.741       -2398.041          43.000                                                                  
C10  39160250.141   203917699.531         730.159          38.000    39160235.501   157682111.623         564.576          42.000  
G08  24128278.784   126794962.759        3598.042          35.000    24128278.692    98801354.599        2803.591          37.000  
G29  25359797.298   133266639.076       -3602.782          35.000    25359789.789   103844081.650       -2807.568          37.000  
C30  25101707.490   130711180.337        2758.739          44.000                                                                  
C13  40794505.066   212427692.514       -2426.358          33.000    40794507.957   164262577.217       -1876.608          37.000  
C08                                                                  41709599.201   167947283.108       -1821.259          40.000  
> 2025 11 03 07 44 12.5600000  0 26                     
G04  21382930.498   112368057.684        1078.242          44.000    21382919.592    87559482.393         840.383          46.000  
G16  20187181.210   106084353.894         156.255          46.000                                                                  
G28  23104393.683   121414406.933       -2712.607          41.000    23104383.389    94608576.508       -2113.708          43.000  
G31  21114902.561   110959564.519       -1708.738          47.000    21114889.873    86461942.417       -1331.503          45.000  
G03  24597853.046   129262593.4831      -2942.347          31.000    24597850.618   100724070.693       -2293.243          38.000  
G18  25145170.417   132138719.395        1336.781          31.000    25145160.395   102965230.218        1041.689          34.000  
C16  36732838.929   191277534.328          11.615          48.000    36732824.098   147907863.391           8.986          49.000  
C19  23823663.914   124056068.636       -2182.684          46.000                                                                  
C27  23583362.232   122804755.631        1105.840          47.000                                                                  
C06  36290728.694   188975340.518           8.832          47.000    36290708.273   146127644.920           6.744          49.000  
C09  37371267.654   194601998.848         129.437          44.000    37371250.251   150478542.850         100.078          48.000  
C22  24622398.541   128215291.151         615.615          42.000                                                                  
G26  20879888.701   109724556.045       -1959.113          47.000    20879879.301    85499615.919       -1526.550          45.000  
G27  21869990.537   114927579.290        2952.559          43.000    21869982.081    89553939.098        2300.650          43.000  
G09  23856163.603   125364985.299        2737.616          36.000    23856156.647    97686988.042        2133.282          38.000  
C28  24761763.174   128940991.609       -1084.956          44.000                                                                  
C07  38029910.480   198031722.963         790.314          41.000    38029891.575   153130621.302         611.069          45.000  
C20  25620536.359   133412855.082       -3618.894          42.000                                                                  
C36  23838719.607   124134470.042        1404.266          44.000                                                                  
C37  25053023.215   130457664.660       -2398.002          43.000                                                                  
C10  39160244.521   203917670.327         730.109          38.000    39160229.909   157682089.044         564.476          42.000  
G08  24128251.411   126794818.852        3597.753          35.000    24128251.320    98801242.454        2803.552          37.000  
G29  25359824.709   133266783.194       -3602.902          35.000    25359817.209   103844193.937       -2807.253          37.000  
C30  25101686.295   130711069.980        2758.855          44.000                                                                  
C13  40794523.704   212427789.599       -2426.798          33.000    40794526.581   164262652.271       -1876.524          37.000  
C08                                                                  41709617.289   167947355.966       -1821.368          40.000  
> 2025 11 03 07 44 12.6000000  0 26                     
G04  21382922.292   112368014.545        1078.383          44.000    21382911.396    87559448.783         840.295          46.000  
G16  20187179.999   106084347.637         156.386          46.000                                                                  
G28  23104414.327   121414515.456       -2713.042          41.000    23104404.078    94608661.067       -2113.927          43.000  
G31  21114915.556   110959632.852       -1708.442          47.000    21114902.888    86461995.663       -1331.279          45.000  
G03  24597875.426   129262711.204       -2942.681          31.000    24597873.006   100724162.404       -2292.982          38.000  
G18  25145160.250   132138665.940        1336.364          31.000    25145150.217   102965188.590        1041.033          34.000  
C16  36732838.876   191277533.850          11.847          48.000    36732824.025   147907863.035           8.928          49.000  
C19  23823680.694   124056155.940       -2182.672          46.000                                                                  
C27  23583353.704   122804711.394        1105.896          47.000                                                                  
C06  36290728.628   188975340.162           8.896          47.000    36290708.198   146127644.645           6.823          49.000  
C09  37371266.677   194601993.667         129.493          44.000    37371249.264   150478538.850         100.021          48.000  
C22  24622393.797   128215266.518         615.767          42.000                                                                  
G26  20879903.617   109724634.406       -1959.052          47.000    20879894.203    85499676.978       -1526.459          45.000  
G27  21869968.037   114927461.193        2952.449          43.000    21869959.607    89553847.071        2300.657          43.000  
G09  23856142.755   125364875.818        2737.250          36.000    23856135.820    97686902.724        2133.032          38.000  
C28  24761771.530   128941034.999       -1084.770          44.000                                                                  
C07  38029904.410   198031691.353         790.250          41.000    38029885.481   153130596.856         611.113          45.000  
C20  25620564.176   133412999.837       -3618.867          42.000                                                                  
C36  23838708.832   124134413.868        1404.340          44.000                                                                  
C37  25053041.652   130457760.579       -2397.978          43.000                                                                  
C10  39160238.897   203917641.130         729.970          38.000    39160224.299   157682066.476         564.247          42.000  
G08  24128224.020   126794674.908        3598.280          35.000    24128223.903    98801130.290        2803.853          37.000  
G29  25359852.142   133266927.331       -3603.286          35.000    25359844.627   103844306.242       -2807.520          37.000  
C30  25101665.096   130710959.623        2758.903          44.000                                                                  
C13  40794542.349   212427886.643       -2426.527          33.000    40794545.211   164262727.321       -1876.308          37.000  
C08                                                                  41709635.417   167947428.824       -1821.442          40.000  
> 2025 11 03 07 44 12.6400000  0 26                     
G04  21382914.080   112367971.409        1078.380          44.000    21382903.174    87559415.163         840.428          46.000  
G16  20187178.803   106084341.386         156.329          46.000                                                                  
G28  23104434.984   121414623.981       -2713.218          41.000    23104424.736    94608745.610       -2113.707          43.000  
G31  21114928.558   110959701.191       -1708.406          47.000    21114915.907    86462048.907       -1331.106          45.000  
G03  24597897.820   129262828.900       -2942.432          31.000    24597895.404   100724254.129       -2293.056          38.000  
G18  25145150.061   132138612.478        1336.433          30.000    25145140.055   102965146.986        1040.417          34.000  
C16  36732838.778   191277533.384          11.771          48.000    36732823.948   147907862.669           9.067          49.000  
C19  23823697.439   124056243.243       -2182.599          46.000                                                                  
C27  23583345.224   122804667.150        1106.025          47.000                                                                  
C06  36290728.602   188975339.803           8.959          47.000    36290708.139   146127644.360           7.032          49.000  
C09  37371265.683   194601988.489         129.460          44.000    37371248.264   150478534.836         100.225          48.000  
C22  24622389.088   128215241.893         615.705          42.000                                                                  
G26  20879918.517   109724712.765       -1959.003          47.000    20879909.124    85499738.036       -1526.440          45.000  
G27  21869945.559   114927343.078        2952.727          43.000    21869937.146    89553755.037        2300.822          43.000  
G09  23856121.912   125364766.296        2737.830          36.000    23856114.982    97686817.400        2133.032          38.000  
C28  24761779.876   128941078.395       -1084.830          44.000                                                                  
C07  38029898.347   198031659.735         790.415          41.000    38029879.433   153130572.405         611.219          45.000  
C20  25620592.001   133413144.589       -3618.809          42.000                                                                  
C36  23838698.044   124134357.700        1404.236          44.000                                                                  
C37  25053060.083   130457856.488       -2397.772          43.000                                                                  
C10  39160233.294   203917611.926         729.994          38.000    39160218.669   157682043.892         564.431          42.000  
G08  24128196.619   126794530.958        3598.714          35.000    24128196.524    98801018.139        2803.807          37.000  
G29  25359879.556   133267071.419       -3602.608          35.000    25359872.054   103844418.527       -2807.308          37.000  
C30  25101643.908   130710849.266        2758.918          44.000                                                                  
C13  40794560.964   212427983.689       -2426.284          33.000    40794563.818   164262802.357       -1875.997          37.000  
C08                                                                  41709653.499   167947501.692       -1821.625          40.000  
> 2025 11 03 07 44 12.6800000  0 26                     
G04  21382905.857   112367928.261        1078.602          44.000    21382894.974    87559381.555         840.275          46.000  
G16  20187177.624   106084335.130         156.366          46.000                                                                  
G28  23104455.620   121414732.467       -2712.562          41.000    23104445.385    94608830.151       -2113.546          43.000  
G31  21114941.586   110959769.530       -1708.400          47.000    21114928.916    86462102.164       -1331.291          45.000  
G03  24597920.241   129262946.604       -2942.332          31.000    24597917.815   100724345.859       -2293.185          38.000  
G18  25145139.892   132138559.048        1335.902          30.000    25145129.865   102965105.321        1041.033          34.000  
C16  36732838.719   191277532.910          11.853          48.000    36732823.885   147907862.299           9.167          49.000  
C19  23823714.196   124056330.550       -2182.648          46.000                                                                  
C27  23583336.719   122804622.908        1106.080          47.000                                                                  
C06  36290728.520   188975339.437           9.092          47.000    36290708.051   146127644.077           7.092          49.000  
C09  37371264.701   194601983.308         129.478          44.000    37371247.274   150478530.832         100.151          48.000  
C22  24622384.391   128215217.270         615.639          42.000                                                                  
G26  20879933.420   109724791.118       -1958.874          47.000    20879924.021    85499799.092       -1526.398          45.000  
G27  21869923.070   114927224.962        2952.890          43.000    21869914.667    89553662.994        2301.066          43.000  
G09  23856101.083   125364656.781        2737.988          36.000    23856094.126    97686732.081        2132.928          38.000  
C28  24761788.219   128941121.783       -1084.729          44.000                                                                  
C07  38029892.272   198031628.125         790.339          41.000    38029873.355   153130547.956         611.231          45.000  
C20  25620619.781   133413289.332       -3618.647          42.000                                                                  
C36  23838687.295   124134301.526        1404.327          44.000                                                                  
C37  25053078.498   130457952.405       -2397.810          43.000                                                                  
C10  39160227.671   203917582.703         730.360          38.000    39160213.068   157682021.294         564.767          42.000  
G08  24128169.252   126794387.016        3598.790          35.000    24128169.136    98800905.979        2803.829          37.000  
G29  25359906.969   133267215.537       -3602.755          35.000    25359899.469   103844530.809       -2807.127          37.000  
C30  25101622.705   130710738.905        2758.987          44.000                                                                  
C13  40794579.614   212428080.736       -2426.174          33.000    40794582.462   164262877.442       -1876.820          37.000  
C08                                                                  41709671.578   167947574.559       -1821.710          40.000  
> 2025 11 03 07 44 12.7200000  0 26                     
G04  21382897.654   112367885.125        1078.483          44.000    21382886.762    87559347.947         840.205          46.000  
G16  20187176.442   106084328.877         156.341          46.000                                                                  
G28  23104476.257   121414840.949       -2712.091          41.000    23104466.049    94608914.700       -2113.617          43.000  
G31  21114954.634   110959837.878       -1708.592          47.000    21114941.946    86462155.417       -1331.353          45.000  
G03  24597942.649   129263064.354       -2943.347          32.000    24597940.213   100724437.582       -2293.145          38.000  
G18  25145129.694                        1335.706          30.000    25145119.677   102965063.658        1041.345          34.000  
C16  36732838.655   191277532.433          11.914          48.000    36732823.813   147907861.931           9.201          49.000  
C19  23823731.004   124056417.854       -2182.617          46.000                                                                  
C27  23583328.191   122804578.665        1106.085          47.000                                                                  
C06  36290728.451   188975339.078           9.042          47.000    36290707.992   146127643.798           7.031          49.000  
C09  37371263.712   194601978.114         129.739          44.000    37371246.303   150478526.819         100.266          48.000  
C22  24622379.661   128215192.636         615.748          42.000                                                                  
G26  20879948.333   109724869.474       -1958.880          47.000    20879938.932    85499860.144       -1526.306          45.000  
G27  21869900.611   114927106.857        2952.745          43.000    21869892.199    89553570.972        2300.755          43.000  
G09  23856080.242   125364547.268        2737.909          36.000    23856073.284    97686646.739        2133.380          38.000  
C28  24761796.523   128941165.181       -1084.856          44.000                                                                  
C07  38029886.195   198031596.499         790.609          41.000    38029867.274   153130523.506         611.243          45.000  
C20  25620647.578   133413434.081       -3618.662          42.000                                                                  
C36  23838676.507   124134245.354        1404.321          44.000                                                                  
C37  25053096.936   130458048.314       -2397.715          43.000                                                                  
C10  39160222.068   203917553.500         730.219          38.000    39160207.452   157681998.700         564.890          42.000  
G08  24128141.848   126794243.075        3598.704          35.000    24128141.754    98800793.806        2804.237          37.000  
G29  25359934.393   133267359.656       -3602.845          35.000    25359926.878   103844643.095       -2807.059          37.000  
C30  25101601.512   130710628.546        2759.019          44.000                                                                  
C13  40794598.227   212428177.798       -2426.311          33.000    40794601.109   164262952.500       -1876.765          37.000  
C08                                                                  41709689.682   167947647.393       -1821.039          40.000  
> 2025 11 03 07 44 12.7600000  0 26                     
G04  21382889.464   112367841.993        1078.336          44.000    21382878.558    87559314.332         840.266          46.000  
G16  20187175.249   106084322.627         156.272          46.000                                                                  
G28  23104496.903   121414949.441       -2712.128          41.000    23104486.690    94608999.231       -2113.375          43.000  
G31  21114967.649   110959906.227       -1708.745          47.000    21114954.959    86462208.671       -1331.383          45.000  
G03  24597965.046   129263182.056       -2942.906          31.000    24597962.597   100724529.280       -2292.654          38.000  
G18  25145119.520                        1336.688          30.000    25145109.476   102965021.965        1042.039          34.000  
C16  36732838.579   191277531.958          11.868          48.000    36732823.710   147907861.563           9.204          49.000  
C19  23823747.770   124056505.158       -2182.599          46.000                                                                  
C27  23583319.666   122804534.427        1105.962          47.000                                                                  
C06  36290728.380   188975338.717           9.047          47.000    36290707.915   146127643.522           6.930          49.000  
C09  37371262.702   194601972.935         129.594          44.000    37371245.297   150478522.809         100.256          48.000  
C22  24622374.923   128215168.016         615.537          42.000                                                                  
G26  20879963.265   109724947.830       -1958.893          47.000    20879953.861    85499921.202       -1526.398          45.000  
G27  21869878.142   114926988.753        2952.605          43.000    21869869.721    89553478.944        2300.707          43.000  
G09  23856059.406   125364437.786        2737.280          36.000    23856052.453    97686561.413        2133.276          38.000  
C28  24761804.874   128941208.587       -1085.110          44.000                                                                  
C07  38029880.130   198031564.891         790.386          41.000    38029861.227   153130499.063         611.116          45.000  
C20  25620675.375   133413578.840       -3618.853          42.000                                                                  
C36  23838665.717   124134189.184        1404.279          44.000                                                                  
C37  25053115.371   130458144.235       -2397.873          43.000                                                                  
C10  39160216.430   203917524.279         730.429          38.000    39160201.798   157681976.101         565.005          42.000  
G08  24128114.464   126794099.147        3598.295          35.000    24128114.377    98800681.670        2803.790          37.000  
G29  25359961.840   133267503.764       -3602.710          35.000    25359954.297   103844755.393       -2807.300          37.000  
C30  25101580.305   130710518.193        2758.845          44.000                                                                  
C13  40794616.864                       -2426.495          33.000    40794619.778   164263027.540       -1876.282          37.000  
C08                                                                  41709707.787   167947720.248       -1821.155          40.000  
> 2025 11 03 07 44 12.8000000  0 26                     
G04  21382881.262   112367798.869        1078.107          44.000    21382870.353    87559280.724         840.199          46.000  
G16  20187174.069   106084316.380         156.167          46.000                                                                  
G28  23104517.526   121415057.948       -2712.518          41.000    23104507.322    94609083.791       -2113.832          43.000  
G31  21114980.665   110959974.579       -1708.837          47.000    21114967.976    86462261.925       -1331.407          45.000  
G03  24597987.439   129263299.739       -2942.284          31.000    24597985.009   100724621.005       -2292.886          38.000  
G18  25145109.376                        1336.044          30.000    25145099.288   102964980.292        1042.061          34.000  
C16  36732838.481   191277531.491          11.718          48.000    36732823.640   147907861.202           9.072          49.000  
C19  23823764.529   124056592.462       -2182.605          46.000                                                                  
C27  23583311.165   122804490.199        1105.740          47.000                                                                  
C06  36290728.284   188975338.369           8.788          47.000    36290707.858   146127643.247           6.846          49.000  
C09  37371261.698   194601967.756         129.465          44.000    37371244.340   150478518.806         100.101          48.000  
C22  24622370.212   128215143.386         615.673          42.000                                                                  
G26  20879978.191   109725026.191       -1959.015          47.000    20879968.781    85499982.265       -1526.538          45.000  
G27  21869855.691   114926870.668        2952.231          43.000    21869847.246    89553386.917        2300.657          43.000  
G09  23856038.580   125364328.300        2737.079          36.000    23856031.619    97686476.104        2132.825          38.000  
C28  24761813.211   128941251.988       -1085.110          44.000                                                                  
C07  38029874.040   198031533.275         790.372          41.000    38029855.195   153130474.624         610.947          45.000  
C20  25620703.180   133413723.602       -3619.016          42.000                                                                  
C36  23838654.924   124134133.019        1404.150          44.000                                                                  
C37  25053133.793   130458240.153       -2397.944          44.000                                                                  
C10  39160210.823   203917495.073         730.254          38.000    39160196.221   157681953.533         564.454          42.000  
G08  24128087.071   126793955.221        3598.065          35.000    24128086.988    98800569.526        2803.615          37.000  
G29  25359989.273   133267647.880       -3602.875          35.000    25359981.722   103844867.715       -2807.854          37.000  
C30  25101559.108   130710407.845        2758.700          44.000                                                                  
C13  40794635.526                       -2426.771          33.000    40794638.406   164263102.584       -1876.135          37.000  
C08                                                                  41709725.865   167947793.112       -1821.442          40.000  
> 2025 11 03 07 44 12.8400000  0 26                     
G04  21382873.064   112367755.732        1078.223          44.000    21382862.170    87559247.122         840.057          46.000  
G16  20187172.890   106084310.134         156.131          46.000                                                                  
G28  23104538.186   121415166.468       -2712.977          41.000    23104527.978    94609168.350       -2114.029          43.000  
G31  21114993.667   110960042.932       -1708.880          47.000    21114980.981    86462315.190       -1331.618          45.000  
G03  24598009.826   129263417.461       -2942.670          31.000    24598007.398   100724712.739       -2293.209          38.000  
G18  25145099.210                        1335.061          30.000    25145089.124   102964938.672        1041.021          34.000  
C16  36732838.391   191277531.033          11.459          48.000    36732823.526   147907860.849           8.859          49.000  
C19  23823781.301   124056679.766       -2182.587          46.000                                                                  
C27  23583302.684   122804445.969        1105.649          47.000                                                                  
C06  36290728.198   188975338.015           8.795          47.000    36290707.785   146127642.978           6.711          49.000  
C09  37371260.686   194601962.588         129.230          44.000    37371243.354   150478514.801         100.058          48.000  
C22  24622365.498   128215118.761         615.640          42.000                                                                  
G26  20879993.122   109725104.558       -1959.155          47.000    20879983.693    85500043.334       -1526.721          45.000  
G27  21869833.215   114926752.570        2952.255          43.000    21869824.767    89553294.891        2300.646          43.000  
G09  23856017.733   125364218.798        2737.329          36.000    23856010.773    97686390.782        2132.843          38.000  
C28  24761821.562   128941295.389       -1085.119          44.000                                                                  
C07  38029867.974   198031501.663         790.304          41.000    38029849.132   153130450.194         610.729          45.000  
C20  25620730.975   133413868.363       -3619.089          42.000                                                                  
C36  23838644.126   124134076.850        1404.169          44.000                                                                  
C37  25053152.208   130458336.075       -2398.059          44.000                                                                  
C10  39160205.196   203917465.861         730.277          38.000    39160190.602   157681930.960         564.276          42.000  
G08  24128059.661   126793811.281        3598.221          35.000    24128059.614    98800457.371        2803.734          37.000  
G29  25360016.693   133267791.986       -3602.745          35.000    25360009.127   103844980.000       -2807.512          37.000  
C30  25101537.905   130710297.492        2758.704          44.000                                                                  
C13  40794654.166                       -2426.896          33.000    40794657.055   164263177.651       -1876.477          37.000  
C08                                                                  41709743.974   167947865.969       -1821.472          40.000  
> 2025 11 03 07 44 12.8800000  0 26                     
G04  21382864.857   112367712.605        1078.175          44.000    21382853.985    87559213.518         840.024          47.000  
G16  20187171.679   106084303.890         156.070          46.000                                                                  
G28  23104558.846   121415275.002       -2713.370          41.000    23104548.620    94609252.900       -2113.919          43.000  
G31  21115006.664   110960111.276       -1708.729          47.000    21114994.008    86462368.458       -1331.765          45.000  
G03  24598032.236   129263535.166       -2942.560          31.000    24598029.771   100724804.467       -2293.282          38.000  
G18  25145089.029                        1336.453          30.000    25145078.956   102964897.046        1040.495          34.000  
C16  36732838.340   191277530.560          11.626          48.000    36732823.452   147907860.487           8.898          49.000  
C19  23823798.064   124056767.070       -2182.623          46.000                                                                  
C27  23583294.186   122804401.741        1105.613          47.000                                                                  
C06  36290728.113   188975337.662           8.773          47.000    36290707.711   146127642.708           6.678          49.000  
C09  37371259.720   194601957.412         129.275          44.000    37371242.364   150478510.805          99.921          48.000  
C22  24622360.778   128215094.146         615.410          42.000                                                                  
G26  20880008.021   109725182.924       -1959.198          47.000    20879998.603    85500104.395       -1526.672          45.000  
G27  21869810.757   114926634.474        2952.303          43.000    21869802.294    89553202.863        2300.675          43.000  
G09  23855996.882   125364109.290        2737.628          36.000    23855989.926    97686305.467        2132.813          38.000  
C28  24761829.908   128941338.791       -1085.117          44.000                                                                  
C07  38029861.930   198031470.057         790.193          41.000    38029843.038   153130425.740         611.066          45.000  
C20  25620758.791   133414013.106       -3618.744          42.000                                                                  
C36  23838633.329   124134020.681        1404.181          44.000                                                                  
C37  25053170.618   130458431.982       -2397.809          44.000                                                                  
C10  39160199.583   203917436.666         729.946          38.000    39160184.992   157681908.377         564.395          42.000  
G08  24128032.270   126793667.328        3598.404          35.000    24128032.232    98800345.208        2803.933          37.000  
G29  25360044.114   133267936.080       -3602.418          35.000    25360036.567   103845092.310       -2807.729          37.000  
C30  25101516.696   130710187.139        2758.726          44.000                                                                  
C13  40794672.801                       -2426.849          33.000    40794675.685   164263252.695       -1876.249          37.000  
C08                                                                  41709762.082   167947938.823       -1821.399          40.000  
> 2025 11 03 07 44 12.9200000  0 26                     
G04  21382856.627   112367669.467        1078.351          44.000    21382845.792    87559179.900         840.284          47.000  
G16  20187170.488   106084297.639         156.208          46.000                                                                  
G28  23104579.496   121415383.501       -2712.808          41.000    23104569.271    94609337.460       -2114.012          43.000  
G31  21115019.642   110960179.615       -1708.551          47.000    21115007.003    86462421.706       -1331.475          45.000  
G03  24598054.589   129263652.857       -2942.306          31.000    24598052.160   100724896.180       -2293.006          38.000  
G18  25145078.845                        1337.331          30.000    25145068.778   102964855.406        1040.623          34.000  
C16  36732838.271   191277530.083          11.803          48.000    36732823.374   147907860.111           9.208          49.000  
C19  23823814.815   124056854.379       -2182.721          46.000                                                                  
C27  23583285.704   122804357.501        1105.860          47.000                                                                  
C06  36290728.063   188975337.293           9.078          47.000    36290707.648   146127642.424           6.907          49.000  
C09  37371258.747   194601952.217         129.683          44.000    37371241.359   150478506.794         100.097          48.000  
C22  24622356.031   128215069.528         615.413          42.000                                                                  
G26  20880022.922   109725261.279       -1958.966          47.000    20880013.515    85500165.452       -1526.508          45.000  
G27  21869788.266   114926516.368        2952.520          43.000    21869779.811    89553110.840        2300.581          43.000  
G09  23855976.041   125363999.792        2737.555          36.000    23855969.085    97686220.132        2133.142          38.000  
C28  24761838.264   128941382.184       -1084.953          44.000                                                                  
C07  38029855.863   198031438.428         790.546          41.000    38029836.941   153130401.285         611.284          45.000  
C20  25620786.592   133414157.851       -3618.607          42.000                                                                  
C36  23838622.570   124133964.511        1404.211          44.000                                                                  
C37  25053189.038   130458527.886       -2397.631          44.000                                                                  
C10  39160193.959   203917407.469         729.816          38.000    39160179.365   157681885.797         564.390          42.000  
G08  24128004.872   126793523.389        3598.393          35.000    24128004.852    98800233.050        2803.953          37.000  
G29  25360071.520   133268080.178       -3602.348          35.000    25360064.002   103845204.596       -2807.433          38.000  
C30  25101495.494   130710076.785        2758.787          44.000                                                                  
C13  40794691.450                       -2426.493          33.000    40794694.310   164263327.750       -1876.300          37.000  
C08                                                                  41709780.179   167948011.686       -1821.527          40.000  
> 2025 11 03 07 44 12.9600000  0 26                     
G04  21382848.394   112367626.331        1078.414          44.000    21382837.587    87559146.281         840.416          47.000  
G16  20187169.262   106084291.379         156.438          46.000                                                                  
G28  23104600.152   121415491.984       -2712.212          41.000    23104589.908    94609421.994       -2113.569          43.000  
G31  21115032.643   110960247.942       -1708.252          47.000    21115019.969    86462474.940       -1331.046          45.000  
G03  24598077.010                       -2942.837          31.000    24598074.557   100724987.911       -2293.180          38.000  
G18  25145068.659                        1337.331          30.000    25145058.603   102964813.751        1040.994          34.000  
C16  36732838.207   191277529.603          11.976          48.000    36732823.280   147907859.740           9.274          49.000  
C19  23823831.576   124056941.680       -2182.593          46.000                                                                  
C27  23583277.184   122804313.252        1106.155          47.000                                                                  
C06  36290727.999   188975336.922           9.257          47.000    36290707.583   146127642.136           7.134          49.000  
C09  37371257.751   194601947.025         129.862          44.000    37371240.364   150478502.783         100.217          48.000  
C22  24622351.318   128215044.902         615.561          42.000                                                                  
G26  20880037.826   109725339.628       -1958.734          47.000    20880028.428    85500226.504       -1526.318          45.000  
G27  21869765.791   114926398.255        2952.757          43.000    21869757.332    89553018.801        2300.826          43.000  
G09  23855955.210   125363890.281        2737.701          36.000    23855948.253    97686134.809        2133.105          38.000  
C28  24761846.587   128941425.580       -1084.896          44.000                                                                  
C07  38029849.803   198031406.811         790.505          41.000    38029830.857   153130376.831         611.362          45.000  
C20  25620814.385   133414302.599       -3618.591          42.000                                                                  
C36  23838611.810   124133908.335        1404.340          44.000                                                                  
C37  25053207.469   130458623.800       -2397.714          44.000                                                                  
C10  39160188.339   203917378.229         730.486          38.000    39160173.745   157681863.196         564.796          42.000  
G08  24127977.481   126793379.457        3598.293          35.000    24127977.462    98800120.871        2804.334          37.000  
G29  25360098.944   133268224.292       -3602.663          35.000    25360091.459   103845316.898       -2807.559          37.000  
C30  25101474.312   130709966.415        2759.116          44.000                                                                  
C13  40794710.082   212428760.180       -2426.233          33.000    40794712.945   164263402.787       -1876.005          37.000  
C08                                                                  41709798.277   167948084.550       -1821.582          40.000  
> 2025 11 03 07 44 13.0000000  0 26                     
G04  21382840.187   112367583.188        1078.531          44.000    21382829.396    87559112.660         840.530          47.000  
G16  20187168.045   106084285.120         156.497          46.000                                                                  
G28  23104620.784   121415600.454       -2711.689          41.000    23104610.550    94609506.531       -2113.410          43.000  
G31  21115045.665   110960316.279       -1708.293          47.000    21115032.964    86462528.186       -1331.013          45.000  
G03  24598099.384                       -2942.232          31.000    24598096.953   100725079.637       -2293.126          38.000  
G18  25145058.496                        1336.477          30.000    25145048.414   102964772.038        1042.353          34.000  
C16  36732838.152   191277529.116          12.159          48.000    36732823.179   147907859.365           9.372          49.000  
C19  23823848.360   124057028.980       -2182.513          46.000                                                                  
C27  23583268.690   122804269.007        1106.191          47.000                                                                  
C06  36290727.941   188975336.548           9.384          47.000    36290707.531   146127641.850           7.197          49.000  
C09  37371256.752   194601941.825         130.028          44.000    37371239.375   150478498.762         100.438          48.000  
C22  24622346.611   128215020.259         615.957          42.000                                                                  
G26  20880052.734   109725417.979       -1958.704          47.000    20880043.325    85500287.549       -1526.117          45.000  
G27  21869743.305   114926280.132        2953.029          43.000    21869734.859    89552926.763        2300.933          43.000  
G09  23855934.365   125363780.775        2737.658          36.000    23855927.390    97686049.464        2133.496          38.000  
C28  24761854.937   128941468.974       -1084.847          44.000                                                                  
C07  38029843.732   198031375.174         790.824          41.000    38029824.773   153130352.373         611.448          45.000  
C20  25620842.191   133414447.328       -3618.298          42.000                                                                  
C36  23838601.023   124133852.153        1404.517          44.000                                                                  
C37  25053225.910   130458719.700       -2397.556          44.000                                                                  
C10  39160182.711   203917349.025         730.263          38.000    39160168.127   157681840.587         565.168          42.000  
G08  24127950.092   126793235.522        3598.318          35.000    24127950.059    98800008.718        2804.025          37.000  
G29  25360126.383   133268368.414       -3602.988          35.000    25360118.871   103845429.160       -2806.878          37.000  
C30  25101453.095   130709856.035        2759.450          44.000                                                                  
C13  40794728.732   212428857.209       -2425.769          33.000    40794731.568   164263477.817       -1875.758          37.000  
C08                                                                  41709816.373   167948157.401       -1821.356          40.000  
> 2025 11 03 07 44 13.0400000  0 26                     
G04  21382831.964   112367540.057        1078.381          44.000    21382821.179    87559079.044         840.503          47.000  
G16  20187166.876   106084278.864         156.445          46.000                                                                  
G28  23104641.437   121415708.946       -2711.933          41.000    23104631.180    94609591.061       -2113.208          43.000  
G31  21115058.670   110960384.617       -1708.382          47.000    21115045.999    86462581.440       -1331.169          45.000  
G03  24598121.787                       -2942.467          31.000    24598119.345   100725171.344       -2292.782          38.000  
G18  25145048.314                        1336.316          29.000    25145038.208   102964730.346        1042.655          34.000  
C16  36732838.085   191277528.627          12.280          48.000    36732823.091   147907858.987           9.445          49.000  
C19  23823865.134   124057116.277       -2182.434          46.000                                                                  
C27  23583260.162   122804224.758        1106.239          47.000                                                                  
C06  36290727.847   188975336.172           9.431          47.000    36290707.451   146127641.558           7.296          49.000  
C09  37371255.727   194601936.629         130.020          44.000    37371238.377   150478494.744         100.490          48.000  
C22  24622341.888   128214995.637         615.728          42.000                                                                  
G26  20880067.643   109725496.330       -1958.722          47.000    20880058.225    85500348.597       -1526.123          45.000  
G27  21869720.848   114926162.021        2952.919          43.000    21869712.378    89552834.736        2300.791          43.000  
G09  23855913.551   125363671.266        2737.689          36.000    23855906.547    97685964.144        2133.234          38.000  
C28  24761863.259   128941512.362       -1084.746          44.000                                                                  
C07  38029837.655   198031343.565         790.442          41.000    38029818.694   153130327.921         611.403          45.000  
C20  25620869.962   133414592.063       -3618.278          42.000                                                                  
C36  23838590.233   124133795.974        1404.553          44.000                                                                  
C37  25053244.300   130458815.605       -2397.573          44.000                                                                  
C10  39160177.115   203917319.800         730.462          38.000    39160162.494   157681817.976         565.403          42.000  
G08  24127922.695   126793091.576        3598.327          35.000    24127922.673    98799896.565        2803.846          37.000  
G29  25360153.801   133268512.504       -3602.544          35.000    25360146.287   103845541.458       -2807.138          37.000  
C30  25101431.890   130709745.664        2759.392          44.000                                                                  
C13  40794747.383   212428954.253       -2425.858          33.000    40794750.206   164263552.850       -1875.739          37.000  
C08                                                                  41709834.455   167948230.246       -1821.185          40.000  
> 2025 11 03 07 44 13.0800000  0 26                     
G04  21382823.755   112367496.911        1078.518          44.000    21382812.981    87559045.420         840.577          47.000  
G16  20187165.666   106084272.600         156.551          46.000                                                                  
G28  23104662.076   121415817.439       -2712.223          41.000    23104651.817    94609675.585       -2113.049          43.000  
G31  21115071.675   110960452.949       -1708.329          47.000    21115058.990    86462634.687       -1331.172          45.000  
G03  24598144.154                       -2941.970          32.000    24598141.730   100725263.030       -2292.279          38.000  
G18  25145038.160                        1336.549          29.000    25145028.026   102964688.685        1042.056          34.000  
C16  36732838.015   191277528.133          12.389          48.000    36732823.006   147907858.607           9.498          49.000  
C19  23823881.905   124057203.565       -2182.208          46.000                                                                  
C27  23583251.685   122804180.503        1106.374          47.000                                                                  
C06  36290727.738   188975335.798           9.410          47.000    36290707.397   146127641.268           7.302          49.000  
C09  37371254.719   194601931.431         130.009          44.000    37371237.386   150478490.717         100.671          48.000  
C22  24622337.159   128214970.998         615.896          42.000                                                                  
G26  20880082.540   109725574.670       -1958.545          47.000    20880073.144    85500409.651       -1526.270          45.000  
G27  21869698.375   114926043.903        2952.924          43.000    21869689.897    89552742.692        2300.991          43.000  
G09  23855892.700   125363561.748        2737.896          36.000    23855885.698    97685878.793        2133.606          38.000  
C28  24761871.584   128941555.745       -1084.607          44.000                                                                  
C07  38029831.580   198031311.936         790.646          41.000    38029812.623   153130303.462         611.478          45.000  
C20  25620897.749   133414736.811       -3618.509          42.000                                                                  
C36  23838579.440   124133739.784        1404.730          44.000                                                                  
C37  25053262.723   130458911.504       -2397.512          44.000                                                                  
C10  39160171.518   203917290.554         730.918          38.000    39160156.870   157681795.392         564.972          42.000  
G08  24127895.279   126792947.615        3598.660          35.000    24127895.290    98799784.390        2804.211          37.000  
G29  25360181.213   133268656.601       -3602.433          35.000    25360173.718   103845653.742       -2807.054          37.000  
C30  25101410.687   130709635.293        2759.353          44.000                                                                  
C13  40794766.008   212429051.287       -2425.748          33.000    40794768.827   164263627.896       -1875.947          37.000  
C08                                                                  41709852.544   167948303.091       -1821.057          40.000  
> 2025 11 03 07 44 13.1200000  0 26                     
G04  21382815.522   112367453.761        1078.712          44.000    21382804.774    87559011.810         840.370          47.000  
G16  20187164.475   106084266.333         156.630          46.000                                                                  
G28  23104682.723   121415925.938       -2712.496          41.000    23104672.464    94609760.134       -2113.494          43.000  
G31  21115084.673   110960521.269       -1708.079          47.000    21115071.997    86462687.939       -1331.251          45.000  
G03  24598166.548                       -2941.884          32.000    24598164.116   100725354.729       -2292.320          38.000  
G18  25145027.988                        1336.732          29.000    25145017.873   102964647.040        1041.553          34.000  
C16  36732837.944   191277527.637          12.445          48.000    36732822.941   147907858.226           9.552          49.000  
C19  23823898.682   124057290.851       -2182.068          46.000                                                                  
C27  23583243.151   122804136.250        1106.366          47.000                                                                  
C06  36290727.666   188975335.414           9.545          47.000    36290707.312   146127640.974           7.349          49.000  
C09  37371253.709   194601926.225         130.120          44.000    37371236.385   150478486.692         100.685          48.000  
C22  24622332.426   128214946.352         616.092          42.000                                                                  
G26  20880097.457   109725653.014       -1958.551          47.000    20880088.047    85500470.694       -1526.160          45.000  
G27  21869675.899   114925925.774        2953.151          43.000    21869667.397    89552650.659        2300.882          43.000  
G09  23855871.860   125363452.216        2738.232          36.000    23855864.874    97685793.465        2133.331          39.000  
C28  24761879.900   128941599.127       -1084.552          44.000                                                                  
C07  38029825.526   198031280.305         790.770          41.000    38029806.540   153130278.996         611.613          45.000  
C20  25620925.545   133414881.550       -3618.496          42.000                                                                  
C36  23838568.629   124133683.591        1404.840          44.000                                                                  
C37  25053281.137   130459007.392       -2397.297          44.000                                                                  
C10  39160165.906   203917261.341         730.644          38.000    39160151.266   157681772.795         564.907          42.000  
G08  24127867.875   126792803.635        3599.136          35.000    24127867.887    98799672.222        2804.218          37.000  
G29  25360208.639   133268800.724       -3602.875          35.000    25360201.132   103845766.014       -2806.814          37.000  
C30  25101389.513   130709524.919        2759.330          44.000                                                                  
C13  40794784.639   212429148.344       -2426.108          33.000    40794787.481   164263702.942       -1876.046          37.000  
C08                                                                  41709870.622   167948375.924       -1820.801          40.000  
> 2025 11 03 07 44 13.1600000  0 26                     
G04  21382807.346   112367410.608        1078.845          44.000    21382796.560    87558978.187         840.463          47.000  
G16  20187163.300   106084260.061         156.759          46.000                                                                  
G28  23104703.388   121416034.440       -2712.611          41.000    23104693.099    94609844.680       -2113.672          43.000  
G31  21115097.678   110960589.597       -1708.116          47.000    21115084.983    86462741.183       -1331.199          45.000  
G03  24598188.938                       -2942.206          32.000    24598186.513   100725446.416       -2292.147          38.000  
G18  25145017.800                        1336.735          29.000    25145007.711   102964605.390        1041.242          34.000  
C16  36732837.850   191277527.144          12.393          48.000    36732822.853   147907857.845           9.548          49.000  
C19  23823915.443   124057378.139       -2182.092          46.000                                                                  
C27  23583234.634   122804092.000        1106.267          47.000                                                                  
C06  36290727.581   188975335.038           9.458          47.000    36290707.239   146127640.682           7.317          49.000  
C09  37371252.709   194601921.023         130.092          44.000    37371235.408   150478482.672         100.571          48.000  
C22  24622327.672   128214921.702         616.253          42.000                                                                  
G26  20880112.387   109725731.360       -1958.600          47.000    20880102.973    85500531.741       -1526.160          45.000  
G27  21869653.415   114925807.653        2953.119          43.000    21869644.915    89552558.618        2300.972          43.000  
G09  23855851.028   125363342.725        2737.640          36.000    23855844.053    97685708.131        2133.282          39.000  
C28  24761888.221   128941642.509       -1084.509          44.000                                                                  
C07  38029819.460   198031248.659         791.075          41.000    38029800.455   153130254.540         611.530          45.000  
C20  25620953.342   133415026.268       -3618.149          42.000                                                                  
C36  23838557.849   124133627.391        1404.987          44.000                                                                  
C37  25053299.556   130459103.286       -2397.331          44.000                                                                  
C10  39160160.323   203917232.124         730.493          38.000    39160145.627   157681750.180         565.251          42.000  
G08  24127840.478   126792659.666        3599.416          35.000    24127840.487    98799560.037        2804.462          37.000  
G29  25360236.044   133268944.818       -3602.580          35.000    25360228.563   103845878.312       -2807.179          38.000  
C30  25101368.321   130709414.544        2759.369          44.000                                                                  
C13  40794803.282   212429245.382       -2426.006          33.000    40794806.108   164263777.975       -1875.933          37.000  
C08                                                                  41709888.700   167948448.759       -1820.746          40.000  
> 2025 11 03 07 44 13.2000000  0 26                     
G04  21382799.147   112367367.461        1078.756          44.000    21382788.362    87558944.563         840.535          47.000  
G16  20187162.124   106084253.796         156.677          46.000                                                                  
G28  23104724.008   121416142.928       -2712.327          41.000    23104713.761    94609929.205       -2113.328          43.000  
G31  21115110.700   110960657.926       -1708.176          47.000    21115097.988    86462794.413       -1330.892          45.000  
G03  24598211.298                       -2942.404          32.000    24598208.919   100725538.128       -2292.505          38.000  
G18  25145007.634                        1336.095          29.000    25144997.547   102964563.725        1041.443          34.000  
C16  36732837.778   191277526.652          12.360          48.000    36732822.760   147907857.461           9.592          49.000  
C19  23823932.200   124057465.431       -2182.208          46.000                                                                  
C27  23583226.110   122804047.753        1106.168          47.000                                                                  
C06  36290727.475   188975334.660           9.479          47.000    36290707.170   146127640.387           7.369          49.000  
C09  37371251.712   194601915.813         130.205          44.000    37371234.428   150478478.646         100.609          48.000  
C22  24622322.928   128214897.065         616.082          42.000                                                                  
G26  20880127.296   109725809.702       -1958.563          47.000    20880117.890    85500592.781       -1526.019          45.000  
G27  21869630.941   114925689.543        2952.882          43.000    21869622.417    89552466.570        2301.119          43.000  
G09  23855830.193   125363233.204        2737.756          36.000    23855823.206    97685622.792        2133.380          39.000  
C28  24761896.546   128941685.897       -1084.644          44.000                                                                  
C07  38029813.401   198031217.031         790.882          41.000    38029794.390   153130230.078         611.542          45.000  
C20  25620981.158   133415170.991       -3618.032          42.000                                                                  
C36  23838547.068   124133571.202        1404.840          44.000                                                                  
C37  25053317.965   130459199.187       -2397.468          44.000                                                                  
C10  39160154.731   203917202.893         730.663          38.000    39160139.993   157681727.582         565.086          42.000  
G08  24127813.078   126792515.723        3599.045          35.000    24127813.090    98799447.862        2804.483          37.000  
G29  25360263.453   133269088.908       -3602.352          35.000    25360255.981   103845990.577       -2806.799          38.000  
C30  25101347.153   130709304.167        2759.406          44.000                                                                  
C13  40794821.919   212429342.406       -2425.758          33.000    40794824.747   164263853.004       -1875.758          37.000  
C08                                                                  41709906.799   167948521.588       -1820.660          40.000  
> 2025 11 03 07 44 13.2400000  0 26                     
G04  21382790.948   112367324.305        1078.887          44.000    21382780.150    87558910.942         840.511          47.000  
G16  20187160.922   106084247.529         156.677          46.000                                                                  
G28  23104744.631   121416251.388       -2711.694          41.000    23104734.393    94610013.735       -2113.261          43.000  
G31  21115123.688   110960726.254       -1708.189          47.000    21115111.000    86462847.657       -1330.984          45.000  
G03  24598233.730                       -2943.297          32.000    24598231.297   100725629.833       -2292.622          38.000  
G18  25144997.476                        1336.111          29.000    25144987.353   102964522.027        1042.161          34.000  
C16  36732837.688   191277526.159          12.346          48.000    36732822.707   147907857.079           9.563          49.000  
C19  23823948.947   124057552.727       -2182.324          46.000                                                                  
C27  23583217.607   122804003.500        1106.231          47.000                                                                  
C06  36290727.388   188975334.274           9.596          47.000    36290707.079   146127640.087           7.471          49.000  
C09  37371250.713   194601910.609         130.164          44.000    37371233.428   150478474.619         100.647          48.000  
C22  24622318.174   128214872.425         616.036          42.000                                                                  
G26  20880142.193   109725888.039       -1958.453          47.000    20880132.807    85500653.830       -1526.135          45.000  
G27  21869608.493   114925571.419        2953.002          43.000    21869599.940    89552374.532        2301.009          43.000  
G09  23855809.360   125363123.665        2738.220          36.000    23855802.351    97685537.451        2133.405          39.000  
C28  24761904.878   128941729.281       -1084.616          44.000                                                                  
C07  38029807.329   198031185.388         791.019          41.000    38029788.299   153130205.610         611.686          45.000  
C20  25621008.966   133415315.714       -3618.032          42.000                                                                  
C36  23838536.276   124133515.013        1404.761          44.000                                                                  
C37  25053336.401   130459295.076       -2397.338          44.000                                                                  
C10  39160149.099   203917173.670         730.552          38.000    39160134.390   157681704.988         564.906          43.000  
G08  24127785.689   126792371.764        3598.911          35.000    24127785.678    98799335.681        2804.526          37.000  
G29  25360290.853   133269232.979       -3601.937          35.000    25360283.388   103846102.843       -2806.558          38.000  
C30  25101325.956   130709193.787        2759.489          44.000                                                                  
C13  40794840.542   212429439.419       -2425.409          33.000    40794843.381   164263928.032       -1875.725          37.000  
C08                                                                  41709924.891   167948594.413       -1820.612          40.000  
> 2025 11 03 07 44 13.2800000  0 26                     
G04  21382782.732   112367281.157        1078.816          44.000    21382771.932    87558877.324         840.472          47.000  
G16  20187159.768   106084241.262         156.664          46.000                                                                  
G28  23104765.260   121416359.852       -2711.514          41.000    23104755.039    94610098.279       -2113.480          43.000  
G31  21115136.691   110960794.573       -1708.071          47.000    21115123.989    86462900.892       -1330.923          45.000  
G03  24598256.103                       -2941.442          32.000    24598253.692   100725721.551       -2292.898          38.000  
G18  25144987.286                        1337.397          29.000    25144977.187   102964480.358        1041.937          34.000  
C16  36732837.614   191277525.658          12.470          48.000    36732822.611   147907856.698           9.535          49.000  
C19  23823965.703   124057640.014       -2182.251          46.000                                                                  
C27  23583209.149   122803959.237        1106.477          47.000                                                                  
C06  36290727.326   188975333.888           9.664          47.000    36290706.988   146127639.787           7.513          49.000  
C09  37371249.723   194601905.392         130.363          44.000    37371232.427   150478470.589         100.716          48.000  
C22  24622313.436   128214847.787         615.952          42.000                                                                  
G26  20880157.085   109725966.371       -1958.295          47.000    20880147.713    85500714.867       -1525.989          45.000  
G27  21869586.031   114925453.303        2952.922          43.000    21869577.471    89552282.487        2301.067          43.000  
G09  23855788.520   125363014.142        2738.141          36.000    23855781.518    97685452.112        2133.423          39.000  
C28  24761913.191   128941772.651       -1084.377          44.000                                                                  
C07  38029801.250   198031153.740         791.142          41.000    38029782.227   153130181.142         611.702          45.000  
C20  25621036.761   133415460.434       -3618.015          42.000                                                                  
C36  23838525.502   124133458.811        1404.932          44.000                                                                  
C37  25053354.821   130459390.970       -2397.373          44.000                                                                  
C10  39160143.503   203917144.426         730.828          38.000    39160128.783   157681682.377         565.115          43.000  
G08  24127758.298   126792227.820        3598.707          35.000    24127758.289    98799223.515        2804.250          37.000  
G29  25360318.276   133269377.073       -3602.160          35.000    25360310.808   103846215.124       -2806.750          38.000  
C30  25101304.764   130709083.389        2759.828          44.000                                                                  
C13  40794859.184   212429536.454       -2425.640          33.000    40794862.008   164264003.063       -1875.713          37.000  
C08                                                                  41709943.001   167948667.271       -1821.210          40.000  
> 2025 11 03 07 44 13.3200000  0 26                     
G04  21382774.531   112367238.021        1078.489          44.000    21382763.718    87558843.713         840.303          47.000  
G16  20187158.592   106084234.998         156.557          46.000                                                                  
G28  23104785.918   121416468.356       -2712.202          41.000    23104775.695    94610182.814       -2113.480          43.000  
G31  21115149.714   110960862.905       -1708.241          47.000    21115136.985    86462954.134       -1331.029          45.000  
G03  24598278.485                       -2941.749          32.000    24598276.087   100725813.257       -2292.894          38.000  
G18  25144977.090                        1338.527          29.000    25144967.003   102964438.669        1042.158          34.000  
C16  36732837.508   191277525.156          12.502          48.000    36732822.514   147907856.313           9.595          49.000  
C19  23823982.466   124057727.309       -2182.385          46.000                                                                  
C27  23583200.633   122803914.993        1106.217          47.000                                                                  
C06  36290727.245   188975333.503           9.624          47.000    36290706.878   146127639.492           7.416          49.000  
C09  37371248.742   194601900.184         130.286          44.000    37371231.403   150478466.563         100.676          48.000  
C22  24622308.726   128214823.140         616.099          42.000                                                                  
G26  20880171.982   109726044.712       -1958.465          47.000    20880162.610    85500775.915       -1526.184          45.000  
G27  21869563.557   114925335.188        2952.836          43.000    21869554.978    89552190.438        2301.157          43.000  
G09  23855767.680   125362904.640        2737.646          36.000    23855760.675    97685366.775        2133.447          39.000  
C28  24761921.499   128941816.038       -1084.551          44.000                                                                  
C07  38029795.174   198031122.106         790.925          41.000    38029776.152   153130156.679         611.626          45.000  
C20  25621064.551   133415605.156       -3617.997          42.000                                                                  
C36  23838514.700   124133402.619        1404.803          44.000                                                                  
C37  25053373.231   130459486.864       -2397.381          44.000                                                                  
C10  39160137.916   203917115.175         731.170          38.000    39160123.139   157681659.772         565.117          43.000  
G08  24127730.886   126792083.855        3598.935          35.000    24127730.880    98799111.338        2804.303          37.000  
G29  25360345.698   133269521.182       -3602.658          35.000    25360338.236   103846327.416       -2807.139          38.000  
C30  25101283.556   130708973.005        2759.713          44.000                                                                  
C13  40794877.834   212429633.491       -2425.965          33.000    40794880.646   164264078.103       -1875.986          37.000  
C08                                                                  41709961.072   167948740.111       -1821.210          40.000  
> 2025 11 03 07 44 13.3600000  0 26                     
G04  21382766.327   112367194.886        1078.378          44.000    21382755.524    87558810.106         840.135          47.000  
G16  20187157.423   106084228.746         156.309          46.000                                                                  
G28  23104806.549   121416576.851       -2712.367          41.000    23104796.364    94610267.369       -2113.808          43.000  
G31  21115162.739   110960931.249       -1708.552          47.000    21115149.984    86463007.400       -1331.513          45.000  
G03  24598300.874                       -2942.023          32.000    24598298.497   100725904.991       -2293.276          38.000  
G18  25144966.944                        1336.245          29.000    25144956.831   102964397.024        1041.453          34.000  
C16  36732837.405   191277524.674          12.195          48.000    36732822.424   147907855.936           9.470          49.000  
C19  23823999.231   124057814.614       -2182.648          46.000                                                                  
C27  23583192.114   122803870.748        1106.107          47.000                                                                  
C06  36290727.174   188975333.137           9.268          47.000    36290706.823   146127639.210           7.113          49.000  
C09  37371247.747   194601894.993         129.908          44.000    37371230.408   150478462.546         100.524          48.000  
C22  24622303.969   128214798.530         615.531          42.000                                                                  
G26  20880186.909   109726123.067       -1958.801          47.000    20880177.522    85500836.972       -1526.398          45.000  
G27  21869541.074   114925217.074        2952.789          43.000    21869532.519    89552098.414        2300.763          43.000  
G09  23855746.834   125362795.133        2737.549          36.000    23855739.840    97685281.440        2133.392          39.000  
C28  24761929.826   128941859.438       -1084.896          44.000                                                                  
C07  38029789.083   198031090.483         790.592          41.000    38029770.087   153130132.224         611.438          45.000  
C20  25621092.310   133415749.892       -3618.237          42.000                                                                  
C36  23838503.899   124133346.439        1404.559          44.000                                                                  
C37  25053391.646   130459582.773       -2397.595          44.000                                                                  
C10  39160132.299   203917085.951         730.802          38.000    39160117.541   157681637.179         564.896          43.000  
G08  24127703.518   126791939.896        3598.957          35.000    24127703.494    98798999.184        2803.977          38.000  
G29  25360373.117   133269665.314       -3603.276          35.000    25360365.670   103846439.717       -2807.471          38.000  
C30  25101262.347   130708862.652        2759.052          44.000                                                                  
C13  40794896.473   212429730.545       -2426.344          33.000    40794899.297   164264153.140       -1876.008          37.000  
C08                                                                  41709979.195   167948812.952       -1821.112          40.000  
> 2025 11 03 07 44 13.4000000  0 26                     
G04  21382758.102   112367151.744        1078.446          44.000    21382747.321    87558776.489         840.249          47.000  
G16  20187156.222   106084222.485         156.393          46.000                                                                  
G28  23104827.187   121416685.333       -2712.183          41.000    23104817.025    94610351.893       -2113.364          43.000  
G31  21115175.743   110960999.589       -1708.603          47.000    21115162.990    86463060.639       -1331.276          45.000  
G03  24598323.266                       -2943.038          32.000    24598320.896   100725996.687       -2292.820          38.000  
G18  25144956.778                        1336.226          29.000    25144946.667   102964355.352        1041.630          34.000  
C16  36732837.308   191277524.186          12.123          48.000    36732822.338   147907855.560           9.374          49.000  
C19  23824015.998   124057901.898       -2182.318          46.000                                                                  
C27  23583183.625   122803826.496        1106.200          47.000                                                                  
C06  36290727.094   188975332.750           9.496          47.000    36290706.748   146127638.920           7.145          49.000  
C09  37371246.742   194601889.793         129.895          44.000    37371229.427   150478458.517         100.642          48.000  
C22  24622299.246   128214773.883         615.875          42.000                                                                  
G26  20880201.837   109726201.415       -1958.813          47.000    20880192.429    85500898.019       -1526.282          45.000  
G27  21869518.574   114925098.950        2952.968          43.000    21869510.037    89552006.376        2300.839          43.000  
G09  23855725.984   125362685.614        2737.793          36.000    23855719.001    97685196.102        2133.423          39.000  
C28  24761938.165   128941902.829       -1084.899          44.000                                                                  
C07  38029783.023   198031058.857         790.490          41.000    38029764.014   153130107.766         611.409          45.000  
C20  25621120.113   133415894.631       -3618.379          42.000                                                                  
C36  23838493.130   124133290.244        1404.724          44.000                                                                  
C37  25053410.068   130459678.667       -2397.442          44.000                                                                  
C10  39160126.675   203917056.725         730.732          38.000    39160111.948   157681614.569         565.110          43.000  
G08  24127676.109   126791795.947        3598.883          35.000    24127676.115    98798886.989        2804.483          38.000  
G29  25360400.543   133269809.387       -3602.391          35.000    25360393.086   103846552.002       -2807.334          38.000  
C30  25101241.162   130708752.275        2759.174          44.000                                                                  
C13  40794915.100   212429827.589       -2426.208          33.000    40794917.910   164264228.164       -1875.735          37.000  
C08                                                                  41709997.295   167948885.793       -1821.027          40.000  
> 2025 11 03 07 44 13.4400000  0 26                     
G04  21382749.895   112367108.585        1078.818          44.000    21382739.099    87558742.852         840.698          47.000  
G16  20187155.032   106084216.198         156.929          46.000                                                                  
G28  23104847.832   121416793.794       -2711.710          41.000    23104837.663    94610436.403       -2112.912          43.000  
G31  21115188.739   110961067.897       -1708.028          47.000    21115175.995    86463113.870       -1330.954          45.000  
G03  24598345.698                       -2942.097          32.000    24598343.284   100726088.372       -2292.365          38.000  
G18  25144946.584                        1336.995          29.000    25144936.496   102964313.669        1041.984          34.000  
C16  36732837.195   191277523.673          12.592          48.000    36732822.247   147907855.162           9.735          49.000  
C19  23824032.750   124057989.174       -2181.989          46.000                                                                  
C27  23583175.145   122803782.232        1106.521          47.000                                                                  
C06  36290727.013   188975332.353           9.832          47.000    36290706.683   146127638.610           7.537          49.000  
C09  37371245.742   194601884.564         130.442          44.000    37371228.417   150478454.468         101.076          48.000  
C22  24622294.493   128214749.230         616.214          42.000                                                                  
G26  20880216.748   109726279.744       -1958.417          47.000    20880207.328    85500959.054       -1525.983          45.000  
G27  21869496.083   114924980.816        2953.225          43.000    21869487.542    89551914.319        2301.234          43.000  
G09  23855705.136   125362576.083        2738.171          36.000    23855698.160    97685110.744        2133.838          39.000  
C28  24761946.493   128941946.200       -1084.508          44.000                                                                  
C07  38029776.925   198031027.200         791.066          41.000    38029757.899   153130083.294         611.680          45.000  
C20  25621147.901   133416039.342       -3617.978          42.000                                                                  
C36  23838482.357   124133234.038        1405.060          44.000                                                                  
C37  25053428.465   130459774.547       -2397.126          44.000                                                                  
C10  39160121.076   203917027.494         730.715          38.000    39160106.325   157681591.956         565.236          43.000  
G08  24127648.715   126791651.984        3599.088          35.000    24127648.717    98798774.800        2804.649          38.000  
G29  25360427.958   133269953.451       -3601.677          35.000    25360420.481   103846664.263       -2806.746          38.000  
C30  25101219.976   130708641.877        2759.679          44.000                                                                  
C13  40794933.732   212429924.582       -2425.200          33.000    40794936.537   164264303.185       -1875.588          37.000  
C08                                                                  41710015.367   167948958.615       -1820.648          40.000  
> 2025 11 03 07 44 13.4800000  0 26                     
G04  21382741.663   112367065.430        1078.898          44.000    21382730.877    87558709.223         840.813          47.000  
G16  20187153.842   106084209.915         157.112          46.000                                                                  
G28  23104868.471   121416902.273       -2711.845          41.000    23104858.305    94610520.920       -2112.881          43.000  
G31  21115201.728   110961136.196       -1707.565          47.000    21115189.012    86463167.099       -1330.761          45.000  
G03  24598368.103                       -2941.490          32.000    24598365.693   100726180.077       -2292.523          38.000  
G18  25144936.418                        1336.769          29.000    25144926.329   102964272.005        1041.729          34.000  
C16  36732837.083   191277523.146          13.086          48.000    36732822.152   147907854.754          10.094          49.000  
C19  23824049.509   124058076.451       -2181.866          46.000                                                                  
C27  23583166.663   122803737.966        1106.686          47.000                                                                  
C06  36290726.927   188975331.950          10.077          47.000    36290706.610   146127638.296           7.798          49.000  
C09  37371244.729   194601879.331         130.794          44.000    37371227.415   150478450.427         101.131          48.000  
C22  24622289.770   128214724.577         616.346          42.000                                                                  
G26  20880231.639   109726358.059       -1957.965          47.000    20880222.234    85501020.089       -1525.854          45.000  
G27  21869473.592   114924862.682        2953.345          43.000    21869465.064    89551822.267        2301.349          43.000  
G09  23855684.274   125362466.548        2738.281          36.000    23855677.321    97685025.398        2133.807          39.000  
C28  24761954.824   128941989.572       -1084.299          44.000                                                                  
C07  38029770.846   198030995.549         791.249          41.000    38029751.814   153130058.803         612.155          45.000  
C20  25621175.702   133416184.048       -3617.684          42.000                                                                  
C36  23838471.558   124133177.828        1405.237          44.000                                                                  
C37  25053446.879   130459870.427       -2396.981          44.000                                                                  
C10  39160115.485   203916998.243         731.075          38.000    39160100.738   157681569.350         565.235          43.000  
G08  24127621.316   126791507.991        3599.713          35.000    24127621.324    98798662.612        2804.661          38.000  
G29  25360455.362   133270097.531       -3601.709          35.000    25360447.880   103846776.517       -2806.346          38.000  
C30  25101198.755   130708531.479        2759.955          44.000                                                                  
C13  40794952.344   212430021.567       -2424.538          33.000    40794955.139   164264378.196       -1875.320          37.000  
C08                                                                  41710033.450   167949031.438       -1820.532          40.000  
> 2025 11 03 07 44 13.5200000  0 26                     
G04  21382733.457   112367022.272        1078.975          44.000    21382722.664    87558675.605         840.624          47.000  
G16  20187152.649   106084203.647         156.884          46.000                                                                  
G28  23104889.112   121417010.759       -2712.090          41.000    23104878.975    94610605.451       -2113.119          43.000  
G31  21115214.739   110961204.510       -1707.634          47.000    21115202.001    86463220.332       -1330.748          45.000  
G03  24598390.479                       -2941.882          32.000    24598388.095   100726271.770       -2292.422          38.000  
G18  25144926.236                        1336.941          29.000    25144916.153   102964230.318        1042.075          34.000  
C16  36732836.948   191277522.641          12.877          48.000    36732822.071   147907854.356          10.066          49.000  
C19  23824066.237   124058163.732       -2181.946          46.000                                                                  
C27  23583158.143   122803693.707        1106.593          47.000                                                                  
C06  36290726.834   188975331.553          10.050          47.000    36290706.529   146127637.987           7.809          49.000  
C09  37371243.738   194601874.110         130.724          44.000    37371226.435   150478446.397         100.906          48.000  
C22  24622285.008   128214699.937         616.127          42.000                                                                  
G26  20880246.565   109726436.395       -1958.203          47.000    20880237.151    85501081.127       -1525.873          45.000  
G27  21869451.120   114924744.550        2953.338          43.000    21869442.610    89551730.224        2301.188          43.000  
G09  23855663.442   125362357.022        2738.220          36.000    23855656.483    97684940.059        2133.569          38.000  
C28  24761963.151   128942032.937       -1084.106          44.000                                                                  
C07  38029764.776   198030963.899         791.282          41.000    38029745.721   153130034.330         612.042          45.000  
C20  25621203.477   133416328.775       -3617.951          42.000                                                                  
C36  23838460.781   124133121.633        1405.060          44.000                                                                  
C37  25053465.301   130459966.314       -2397.094          44.000                                                                  
C10  39160109.849   203916968.999         731.138          38.000    39160095.165   157681546.730         565.422          43.000  
G08  24127593.920   126791363.999        3599.898          35.000    24127593.947    98798550.431        2804.543          38.000  
G29  25360482.806   133270241.635       -3602.217          35.000    25360475.296   103846888.781       -2806.311          38.000  
C30  25101177.566   130708421.080        2760.060          44.000                                                                  
C13  40794970.943   212430118.598       -2425.143          33.000    40794973.792   164264453.196       -1875.030          37.000  
C08                                                                  41710051.515   167949104.247       -1820.245          40.000  
> 2025 11 03 07 44 13.5600000  0 26                     
G04  21382725.287   112366979.119        1078.860          44.000    21382714.457    87558641.978         840.656          47.000  
G16  20187151.475   106084197.381         156.716          46.000                                                                  
G28  23104909.774   121417119.228       -2711.845          41.000    23104899.629    94610689.977       -2113.225          43.000  
G31  21115227.751   110961272.836       -1707.911          47.000    21115215.006    86463273.571       -1330.925          45.000  
G03  24598412.898                       -2941.935          32.000    24598410.503   100726363.484       -2292.733          38.000  
G18  25144916.035                        1336.786          29.000    25144905.966   102964188.636        1042.264          34.000  
C16  36732836.836   191277522.139          12.675          48.000    36732821.963   147907853.968           9.858          49.000  
C19  23824082.999   124058251.016       -2182.056          46.000                                                                  
C27  23583149.623   122803649.454        1106.382          47.000                                                                  
C06  36290726.734   188975331.162           9.912          47.000    36290706.448   146127637.680           7.743          49.000  
C09  37371242.724   194601868.895         130.520          44.000    37371225.442   150478442.369         100.754          48.000  
C22  24622280.252   128214675.300         615.985          42.000                                                                  
G26  20880261.493   109726514.731       -1958.331          47.000    20880252.079    85501142.170       -1525.964          45.000  
G27  21869428.636   114924626.427        2953.177          43.000    21869420.150    89551638.178        2301.143          43.000  
G09  23855642.596   125362247.503        2738.086          36.000    23855635.631    97684854.717        2133.508          38.000  
C28  24761971.477   128942076.314       -1084.247          44.000                                                                  
C07  38029758.693   198030932.234         791.563          41.000    38029739.650   153130009.857         611.907          45.000  
C20  25621231.267   133416473.502       -3618.122          42.000                                                                  
C36  23838449.994   124133065.428        1405.139          44.000                                                                  
C37  25053483.683   130460062.196       -2397.030          44.000                                                                  
C10  39160104.242   203916939.762         731.015          38.000    39160089.542   157681524.123         565.267          43.000  
G08  24127566.496   126791220.017        3599.816          35.000    24127566.559    98798438.254        2804.460          38.000  
G29  25360510.238   133270385.733       -3602.440          35.000    25360502.703   103847001.059       -2806.701          38.000  
C30  25101156.364   130708310.691        2759.924          44.000                                                                  
C13  40794989.578   212430215.667       -2426.229          33.000    40794992.405   164264528.209       -1875.149          37.000  
C08                                                                  41710069.612   167949177.073       -1820.477          40.000  
> 2025 11 03 07 44 13.6000000  0 26                     
G04  21382717.080   112366935.969        1078.746          44.000    21382706.246    87558608.351         840.653          47.000  
G16  20187150.281   106084191.109         156.730          46.000                                                                  
G28  23104930.405   121417227.704       -2711.859          41.000    23104920.285    94610774.516       -2113.504          43.000  
G31  21115240.775   110961341.157       -1708.039          47.000    21115227.998    86463326.807       -1330.908          45.000  
G03  24598435.316                       -2942.165          31.000    24598432.902   100726455.156       -2292.140          38.000  
G18  25144905.827                        1337.157          28.000    25144895.779   102964146.981        1041.541          34.000  
C16  36732836.756   191277521.629          12.689          48.000    36732821.895   147907853.581           9.694          49.000  
C19  23824099.743   124058338.301       -2182.135          46.000                                                                  
C27  23583141.110   122803605.193        1106.463          47.000                                                                  
C06  36290726.651   188975330.772           9.805          47.000    36290706.355   146127637.375           7.653          49.000  
C09  37371241.703   194601863.678         130.424          44.000    37371224.450   150478438.331         100.826          48.000  
C22  24622275.542   128214650.649         616.139          42.000                                                                  
G26  20880276.401   109726593.061       -1958.307          47.000    20880266.979    85501203.206       -1525.903          45.000  
G27  21869406.135   114924508.293        2953.271          43.000    21869397.677    89551546.132        2301.137          43.000  
G09  23855621.730   125362137.945        2738.629          36.000    23855614.774    97684769.365        2133.637          38.000  
C28  24761979.781   128942119.696       -1084.447          44.000                                                                  
C07  38029752.607   198030900.591         791.301          41.000    38029733.561   153129985.393         611.687          45.000  
C20  25621259.064   133416618.209       -3617.836          42.000                                                                  
C36  23838439.203   124133009.219        1405.188          44.000                                                                  
C37  25053502.100   130460158.076       -2397.001          44.000                                                                  
C10  39160098.634   203916910.514         731.141          38.000    39160083.896   157681501.511         565.295          43.000  
G08  24127539.088   126791076.072        3598.942          35.000    24127539.165    98798326.066        2804.525          38.000  
G29  25360537.645   133270529.797       -3601.882          35.000    25360530.130   103847113.348       -2807.116          38.000  
C30  25101135.135   130708200.308        2759.721          44.000                                                                  
C13  40795008.201   212430312.672       -2425.538          33.000    40795011.030   164264603.251       -1875.804          37.000  
C08                                                                  41710087.724   167949249.919       -1820.911          40.000  
> 2025 11 03 07 44 13.6400000  0 26                     
G04  21382708.906   112366892.826        1078.571          44.000    21382698.069    87558574.731         840.519          47.000  
G16  20187149.077   106084184.837         156.755          46.000                                                                  
G28  23104951.048   121417336.181       -2711.915          41.000    23104940.927    94610859.036       -2113.252          43.000  
G31  21115253.799   110961409.483       -1708.194          47.000    21115240.992    86463380.045       -1330.961          45.000  
G03  24598457.715                       -2943.014          31.000    24598455.294   100726546.853       -2292.288          38.000  
G18  25144895.617                        1337.502          28.000    25144885.622   102964105.296        1041.874          33.000  
C16  36732836.667   191277521.123          12.651          48.000    36732821.785   147907853.191           9.652          49.000  
C19  23824116.527   124058425.579       -2182.050          46.000                                                                  
C27  23583132.621   122803560.935        1106.451          47.000                                                                  
C06  36290726.569   188975330.378           9.801          47.000    36290706.272   146127637.076           7.516          49.000  
C09  37371240.687   194601858.456         130.458          44.000    37371223.452   150478434.289         100.987          48.000  
C22  24622270.837   128214625.993         616.333          42.000                                                                  
G26  20880291.311   109726671.393       -1958.295          47.000    20880281.906    85501264.246       -1525.940          45.000  
G27  21869383.673   114924390.168        2953.173          43.000    21869375.167    89551454.076        2301.292          43.000  
G09  23855600.875   125362028.423        2738.245          36.000    23855593.923    97684684.028        2133.429          38.000  
C28  24761988.117   128942163.075       -1084.522          44.000                                                                  
C07  38029746.522   198030868.953         791.024          41.000    38029727.473   153129960.931         611.546          45.000  
C20  25621286.839   133416762.901       -3617.401          42.000                                                                  
C36  23838428.400   124132953.011        1405.194          44.000                                                                  
C37  25053520.527   130460253.957       -2397.030          44.000                                                                  
C10  39160093.027   203916881.275         731.014          38.000    39160078.283   157681478.900         565.316          42.000  
G08  24127511.679   126790932.107        3598.900          35.000    24127511.788    98798213.870        2804.833          38.000  
G29  25360565.058   133270673.857       -3601.538          35.000    25360557.561   103847225.613       -2806.803          38.000  
C30  25101113.949   130708089.916        2759.749          44.000                                                                  
C13  40795026.849   212430409.695       -2425.607          33.000    40795029.662   164264678.280       -1875.873          37.000  
C08                                                                  41710105.832   167949322.741       -1820.679          40.000  
> 2025 11 03 07 44 13.6800000  0 26                     
G04  21382700.679   112366849.672        1078.712          44.000    21382689.856    87558541.103         840.566          47.000  
G16  20187147.889   106084178.559         156.880          46.000                                                                  
G28  23104971.691   121417444.656       -2711.884          41.000    23104961.571    94610943.558       -2113.109          43.000  
G31  21115266.787   110961477.806       -1708.186          47.000    21115253.983    86463433.286       -1331.037          45.000  
G03  24598480.053                       -2941.369          31.000    24598477.693   100726638.562       -2292.557          38.000  
G18  25144885.428                        1337.043          28.000    25144875.449   102964063.638        1041.508          33.000  
C16  36732836.580   191277520.607          12.803          48.000    36732821.719   147907852.798           9.743          49.000  
C19  23824133.291   124058512.861       -2182.043          46.000                                                                  
C27  23583124.116   122803516.674        1106.494          47.000                                                                  
C06  36290726.503   188975329.980           9.882          47.000    36290706.193   146127636.774           7.501          49.000  
C09  37371239.679   194601853.233         130.502          44.000    37371222.444   150478430.253         100.940          48.000  
C22  24622266.131   128214601.343         616.301          42.000                                                                  
G26  20880306.209   109726749.718       -1958.173          47.000    20880296.799    85501325.277       -1525.836          45.000  
G27  21869361.197   114924272.028        2953.384          43.000    21869352.675    89551362.021        2301.361          43.000  
G09  23855580.063   125361918.934        2737.427          36.000    23855573.083    97684598.688        2133.411          38.000  
C28  24761996.438   128942206.455       -1084.529          44.000                                                                  
C07  38029740.425   198030837.300         791.165          41.000    38029721.407   153129936.452         611.832          45.000  
C20  25621314.629   133416907.620       -3617.674          42.000                                                                  
C36  23838417.604   124132896.805        1405.170          44.000                                                                  
C37  25053538.950   130460349.830       -2396.895          44.000                                                                  
C10  39160087.389   203916852.019         731.247          38.000    39160072.662   157681456.282         565.406          42.000  
G08  24127484.289   126790788.154        3598.784          35.000    24127484.388    98798101.687        2804.679          38.000  
G29  25360592.471   133270817.943       -3601.889          35.000    25360584.996   103847337.887       -2806.824          38.000  
C30  25101092.770   130707979.518        2759.872          44.000                                                                  
C13  40795045.482   212430506.687       -2425.053          33.000    40795048.303   164264753.297       -1875.715          37.000  
C08                                                                  41710123.914   167949395.546       -1820.209          40.000  
> 2025 11 03 07 44 13.7200000  0 26                     
G04  21382692.464   112366806.530        1078.573          44.000    21382681.642    87558507.483         840.482          47.000  
G16  20187146.713   106084172.291         156.741          46.000                                                                  
G28  23104992.354   121417553.138       -2712.021          41.000    23104982.197    94611028.083       -2113.110          43.000  
G31  21115279.780   110961546.121       -1708.028          47.000    21115266.972    86463486.517       -1330.866          45.000  
G03  24598502.462                       -2942.027          31.000    24598500.092   100726730.253       -2292.373          38.000  
G18  25144875.241                        1336.956          28.000    25144865.269   102964021.923        1042.492          33.000  
C16  36732836.469   191277520.101          12.688          48.000    36732821.642   147907852.398           9.885          49.000  
C19  23824150.077   124058600.149       -2182.166          46.000                                                                  
C27  23583115.610   122803472.427        1106.210          47.000                                                                  
C06  36290726.430   188975329.582           9.918          47.000    36290706.128   146127636.470           7.531          49.000  
C09  37371238.669   194601848.011         130.514          44.000    37371221.471   150478426.223         100.784          48.000  
C22  24622261.372   128214576.699         616.154          42.000                                                                  
G26  20880321.119   109726828.047       -1958.197          47.000    20880311.712    85501386.321       -1526.068          45.000  
G27  21869338.716   114924153.913        2953.025          43.000    21869330.192    89551269.988        2301.006          43.000  
G09  23855559.218   125361809.398        2737.903          36.000    23855552.248    97684513.344        2133.533          38.000  
C28  24762004.770   128942249.845       -1084.709          44.000                                                                  
C07  38029734.307   198030805.643         791.264          41.000    38029715.335   153129911.977         611.880          45.000  
C20  25621342.413   133417052.356       -3618.156          42.000                                                                  
C36  23838406.816   124132840.606        1404.987          44.000                                                                  
C37  25053557.372   130460445.709       -2396.950          44.000                                                                  
C10  39160081.780   203916822.774         731.136          38.000    39160067.030   157681433.667         565.366          43.000  
G08  24127456.893   126790644.194        3598.986          35.000    24127457.003    98797989.525        2804.160          38.000  
G29  25360619.881   133270962.042       -3602.412          35.000    25360612.419   103847450.147       -2806.595          38.000  
C30  25101071.567   130707869.125        2759.816          44.000                                                                  
C13  40795064.086   212430603.712       -2425.419          33.000    40795066.923   164264828.320       -1875.668          37.000  
C08                                                                  41710141.995   167949468.362       -1820.270          40.000  
> 2025 11 03 07 44 13.7600000  0 26                     
G04  21382684.273   112366763.404        1078.223          44.000    21382673.432    87558473.869         840.321          47.000  
G16  20187145.520   106084166.040         156.376          46.000                                                                  
G28  23105012.987   121417661.629       -2712.238          41.000    23105002.851    94611112.616       -2113.272          43.000  
G31  21115292.796   110961614.451       -1708.201          47.000    21115279.989    86463539.764       -1331.091          45.000  
G03  24598524.856                       -2942.109          31.000    24598522.469   100726821.944       -2292.236          38.000  
G18  25144865.049                        1336.376          28.000    25144855.095   102963980.287        1041.636          33.000  
C16  36732836.367   191277519.603          12.467          48.000    36732821.574   147907852.016           9.660          49.000  
C19  23824166.829   124058687.453       -2182.520          46.000                                                                  
C27  23583107.093   122803428.186        1105.977          47.000                                                                  
C06  36290726.337   188975329.203           9.587          47.000    36290706.018   146127636.166           7.544          49.000  
C09  37371237.652   194601842.809         130.150          44.000    37371220.470   150478422.197         100.619          48.000  
C22  24622256.617   128214552.073         615.744          42.000                                                                  
G26  20880336.033   109726906.396       -1958.588          47.000    20880326.621    85501447.375       -1526.337          45.000  
G27  21869316.257   114924035.818        2952.505          43.000    21869307.730    89551177.961        2300.714          43.000  
G09  23855538.358   125361699.887        2737.769          36.000    23855531.412    97684428.016        2133.295          38.000  
C28  24762013.148   128942293.231       -1084.717          44.000                                                                  
C07  38029728.236   198030774.020         790.697          41.000    38029709.250   153129887.510         611.746          45.000  
C20  25621370.224   133417197.102       -3618.599          42.000                                                                  
C36  23838396.019   124132784.417        1404.724          44.000                                                                  
C37  25053575.778   130460541.604       -2397.281          44.000                                                                  
C10  39160076.147   203916793.556         730.583          38.000    39160061.430   157681411.067         565.100          42.000  
G08  24127429.498   126790500.239        3598.909          35.000    24127429.604    98797877.335        2804.437          38.000  
G29  25360647.309   133271106.138       -3602.561          35.000    25360639.864   103847562.451       -2807.256          38.000  
C30  25101050.360   130707758.758        2759.334          44.000                                                                  
C13  40795082.715   212430700.775       -2426.362          33.000    40795085.595   164264903.356       -1875.830          37.000  
C08                                                                  41710160.084   167949541.206       -1820.843          40.000  
> 2025 11 03 07 44 13.8000000  0 26                     
G04  21382676.049   112366720.264        1078.259          44.000    21382665.218    87558440.252         840.330          47.000  
G16  20187144.325   106084159.785         156.280          46.000                                                                  
G28  23105033.635   121417770.111       -2712.167          41.000    23105023.493    94611197.149       -2113.327          43.000  
G31  21115305.810   110961682.782       -1708.311          47.000    21115292.980    86463593.012       -1331.205          45.000  
G03  24598547.244                       -2941.368          31.000    24598544.876   100726913.654       -2292.533          38.000  
G18  25144854.876                        1336.530          28.000    25144844.910   102963938.629        1041.345          33.000  
C16  36732836.253   191277519.104          12.411          48.000    36732821.490   147907851.629           9.627          49.000  
C19  23824183.588   124058774.749       -2182.513          46.000                                                                  
C27  23583098.615   122803383.944        1105.911          47.000                                                                  
C06  36290726.252   188975328.821           9.470          47.000    36290705.943   146127635.873           7.367          49.000  
C09  37371236.646   194601837.601         130.113          44.000    37371219.469   150478418.168         100.618          48.000  
C22  24622251.866   128214527.445         615.593          42.000                                                                  
G26  20880350.935   109726984.739       -1958.679          47.000    20880341.523    85501508.421       -1526.288          45.000  
G27  21869293.802   114923917.692        2952.808          43.000    21869285.253    89551085.918        2300.826          43.000  
G09  23855517.531   125361590.368        2737.890          36.000    23855510.585    97684342.683        2133.270          38.000  
C28  24762021.480   128942336.621       -1084.793          44.000                                                                  
C07  38029722.161   198030742.383         790.743          41.000    38029703.159   153129863.047         611.583          45.000  
C20  25621398.009   133417341.823       -3618.363          42.000                                                                  
C36  23838385.252   124132728.221        1404.773          44.000                                                                  
C37  25053594.198   130460637.495       -2397.343          44.000                                                                  
C10  39160070.552   203916764.320         730.615          38.000    39160055.816   157681388.469         564.952          42.000  
G08  24127402.108   126790356.278        3598.961          35.000    24127402.197    98797765.152        2804.464          38.000  
G29  25360674.728   133271250.241       -3602.704          35.000    25360667.280   103847674.747       -2807.479          38.000  
C30  25101029.182   130707648.378        2759.330          44.000                                                                  
C13  40795101.345   212430797.804       -2426.155          33.000    40795104.236   164264978.384       -1875.778          37.000  
C08                                                                  41710178.194   167949614.060       -1821.344          40.000  
> 2025 11 03 07 44 13.8400000  0 26                     
G04  21382667.841   112366677.122        1078.392          44.000    21382657.018    87558406.633         840.394          47.000  
G16  20187143.108   106084153.522         156.393          46.000                                                                  
G28  23105054.282   121417878.592       -2712.079          41.000    23105044.147    94611281.682       -2113.364          43.000  
G31  21115318.800   110961751.112       -1708.337          47.000    21115305.967    86463646.255       -1331.185          45.000  
G03  24598569.651                       -2942.305          31.000    24598567.273   100727005.365       -2292.732          38.000  
G18  25144844.700                        1336.343          28.000    25144834.724   102963896.936        1041.862          33.000  
C16  36732836.137   191277518.599          12.507          48.000    36732821.404   147907851.234           9.753          49.000  
C19  23824200.358   124058862.043       -2182.428          46.000                                                                  
C27  23583090.110   122803339.694        1106.072          47.000                                                                  
C06  36290726.157   188975328.432           9.579          47.000    36290705.851   146127635.573           7.391          49.000  
C09  37371235.651   194601832.382         130.297          44.000    37371218.463   150478414.134         100.743          48.000  
C22  24622247.164   128214502.818         615.546          42.000                                                                  
G26  20880365.833   109727063.081       -1958.667          47.000    20880356.429    85501569.463       -1526.154          45.000  
G27  21869271.313   114923799.571        2952.901          44.000    21869262.760    89550993.861        2301.173          43.000  
G09  23855496.703   125361480.863        2737.640          36.000    23855489.741    97684257.346        2133.362          38.000  
C28  24762029.812   128942380.014       -1084.900          44.000                                                                  
C07  38029716.095   198030710.738         790.954          41.000    38029697.092   153129838.581         611.560          45.000  
C20  25621425.788   133417486.536       -3618.063          42.000                                                                  
C36  23838374.461   124132672.028        1404.736          44.000                                                                  
C37  25053612.615   130460733.383       -2397.325          44.000                                                                  
C10  39160064.945   203916735.096         730.514          38.000    39160050.183   157681365.864         564.978          42.000  
G08  24127374.702   126790212.269        3599.841          35.000    24127374.800    98797652.993        2804.050          38.000  
G29  25360702.146   133271394.328       -3602.392          35.000    25360694.682   103847787.019       -2807.083          38.000  
C30  25101007.995   130707537.987        2759.563          45.000                                                                  
C13  40795119.972   212430894.784       -2425.013          33.000    40795122.861   164265053.402       -1875.551          37.000  
C08                                                                  41710196.280   167949686.899       -1821.289          40.000  
> 2025 11 03 07 44 13.8800000  0 26                     
G04  21382659.596   112366633.984        1078.364          44.000    21382648.808    87558373.020         840.321          47.000  
G16  20187141.907   106084147.256         156.556          46.000                                                                  
G28  23105074.913   121417987.076       -2712.092          41.000    23105064.807    94611366.218       -2113.450          43.000  
G31  21115331.792   110961819.444       -1708.372          47.000    21115318.995    86463699.497       -1331.156          45.000  
G03  24598592.059                       -2942.397          31.000    24598589.695   100727097.079       -2292.924          38.000  
G18  25144834.549                        1336.434          28.000    25144824.559   102963855.318        1040.947          33.000  
C16  36732836.031   191277518.094          12.586          48.000    36732821.312   147907850.847           9.685          49.000  
C19  23824217.134   124058949.331       -2182.294          46.000                                                                  
C27  23583081.630   122803295.444        1106.208          47.000                                                                  
C06  36290726.091   188975328.032           9.865          47.000    36290705.751   146127635.268           7.533          49.000  
C09  37371234.619   194601827.169         130.295          44.000    37371217.460   150478410.099         100.819          48.000  
C22  24622242.439   128214478.188         615.626          42.000                                                                  
G26  20880380.739   109727141.421       -1958.594          47.000    20880371.326    85501630.510       -1526.166          45.000  
G27  21869248.839   114923681.452        2952.898          43.000    21869240.300    89550901.818        2301.109          43.000  
G09  23855475.848   125361371.342        2737.823          36.000    23855468.899    97684171.988        2133.777          38.000  
C28  24762038.149   128942423.414       -1085.024          44.000                                                                  
C07  38029710.020   198030679.091         791.117          41.000    38029691.028   153129814.118         611.524          45.000  
C20  25621453.576   133417631.235       -3617.589          42.000                                                                  
C36  23838363.679   124132615.829        1404.822          44.000                                                                  
C37  25053631.021   130460829.274       -2397.309          43.000                                                                  
C10  39160059.340   203916705.854         730.844          38.000    39160044.591   157681343.261         565.020          42.000  
G08  24127347.299   126790068.335        3599.000          35.000    24127347.414    98797540.832        2803.914          38.000  
G29  25360729.575   133271538.413       -3602.101          35.000    25360722.122   103847899.310       -2807.220          38.000  
C30  25100986.779   130707427.592        2759.802          45.000                                                                  
C13  40795138.611   212430991.789       -2424.995          33.000    40795141.479   164265128.424       -1875.458          37.000  
C08                                                                  41710214.389   167949759.741       -1821.259          40.000  
> 2025 11 03 07 44 13.9200000  0 26                     
G04  21382651.409   112366590.842        1078.458          44.000    21382640.582    87558339.404         840.350          47.000  
G16  20187140.699   106084140.985         156.736          46.000                                                                  
G28  23105095.557   121418095.551       -2711.911          41.000    23105085.456    94611450.748       -2113.349          43.000  
G31  21115344.785   110961887.764       -1708.149          47.000    21115332.001    86463752.729       -1330.934          45.000  
G03  24598614.478                       -2942.595          31.000    24598612.088   100727188.765       -2292.436          38.000  
G18  25144824.377                        1336.732          28.000    25144814.408   102963813.660        1041.208          33.000  
C16  36732835.911   191277517.587          12.664          48.000    36732821.228   147907850.451           9.803          49.000  
C19  23824233.916   124059036.620       -2182.220          46.000                                                                  
C27  23583073.164   122803251.186        1106.411          47.000                                                                  
C06  36290726.021   188975327.639           9.885          47.000    36290705.655   146127634.959           7.664          49.000  
C09  37371233.622   194601821.945         130.526          44.000    37371216.472   150478406.061         100.920          48.000  
C22  24622237.717   128214453.559         615.643          42.000                                                                  
G26  20880395.652   109727219.764       -1958.600          47.000    20880386.236    85501691.541       -1525.873          45.000  
G27  21869226.390   114923563.337        2952.888          43.000    21869217.835    89550809.768        2301.214          43.000  
G09  23855455.002   125361261.810        2738.190          36.000    23855448.065    97684086.645        2133.728          38.000  
C28  24762046.491   128942466.805       -1084.898          44.000                                                                  
C07  38029703.922   198030647.439         791.323          41.000    38029684.949   153129789.639         611.827          45.000  
C20  25621481.377   133417775.943       -3617.514          42.000                                                                  
C36  23838352.869   124132559.627        1404.944          44.000                                                                  
C37  25053649.435   130460925.161       -2397.241          43.000                                                                  
C10  39160053.734   203916676.609         731.100          38.000    39160038.953   157681320.641         565.340          42.000  
G08  24127319.940   126789924.395        3598.583          35.000    24127320.010    98797428.636        2804.457          38.000  
G29  25360756.982   133271682.488       -3601.833          35.000    25360749.530   103848011.578       -2806.867          38.000  
C30  25100965.592   130707317.190        2760.014          45.000                                                                  
C13  40795157.291   212431088.847       -2425.882          33.000    40795160.131   164265203.440       -1875.399          37.000  
C08                                                                  41710232.449   167949832.559       -1820.776          40.000  
> 2025 11 03 07 44 13.9600000  0 26                     
G04  21382643.182   112366547.688        1078.749          44.000    21382632.364    87558305.791         840.313          47.000  
G16  20187139.517   106084134.715         156.784          46.000                                                                  
G28  23105116.210   121418204.025       -2711.838          41.000    23105106.103    94611535.280       -2113.350          43.000  
G31  21115357.772   110961956.072       -1707.829          47.000    21115344.984    86463805.966       -1330.899          45.000  
G03  24598636.907                       -2942.217          31.000    24598634.481   100727280.450       -2292.170          38.000  
G18  25144814.180                        1336.681          28.000    25144804.225   102963771.970        1041.968          33.000  
C16  36732835.813   191277517.071          12.829          48.000    36732821.145   147907850.060           9.753          49.000  
C19  23824250.654   124059123.906       -2182.147          46.000                                                                  
C27  23583064.658   122803206.934        1106.373          47.000                                                                  
C06  36290725.939   188975327.237          10.009          47.000    36290705.550   146127634.647           7.789          49.000  
C09  37371232.607   194601816.729         130.457          44.000    37371215.459   150478402.017         101.057          48.000  
C22  24622232.997   128214428.929         615.689          42.000                                                                  
G26  20880410.561   109727298.097       -1958.453          47.000    20880401.149    85501752.578       -1525.848          45.000  
G27  21869203.905   114923445.211        2953.058          43.000    21869195.341    89550717.739        2300.920          43.000  
G09  23855434.159   125361152.292        2738.171          36.000    23855427.228    97684001.309        2133.533          39.000  
C28  24762054.820   128942510.201       -1084.924          44.000                                                                  
C07  38029697.844   198030615.795         791.187          41.000    38029678.857   153129765.161         611.976          45.000  
C20  25621509.179   133417920.662       -3617.761          42.000                                                                  
C36  23838342.075   124132503.432        1404.865          44.000                                                                  
C37  25053667.878   130461021.047       -2397.199          43.000                                                                  
C10  39160048.111   203916647.364         731.143          38.000    39160033.334   157681298.020         565.499          42.000  
G08  24127292.545   126789780.416        3599.124          35.000    24127292.600    98797316.430        2805.001          38.000  
G29  25360784.407   133271826.562       -3601.808          35.000    25360776.954   103848123.842       -2806.589          37.000  
C30  25100944.371   130707206.799        2759.911          45.000                                                                  
C13  40795175.925   212431185.881       -2426.003          33.000    40795178.754   164265278.469       -1875.634          37.000  
C08                                                                  41710250.540   167949905.359       -1820.129          40.000  
> 2025 11 03 07 44 14.0000000  0 26                     
G04  21382634.991   112366504.554        1078.502          44.000    21382624.156    87558272.169         840.466          47.000  
G16  20187138.337   106084128.453         156.633          46.000                                                                  
G28  23105136.846   121418312.511       -2712.083          41.000    23105126.748    94611619.810       -2113.313          43.000  
G31  21115370.794   110962024.397       -1707.969          47.000    21115357.999    86463859.215       -1331.095          45.000  
G03  24598659.299                       -2942.252          31.000    24598656.874   100727372.143       -2292.192          38.000  
G18  25144804.012                        1336.587          28.000    25144794.056   102963730.272        1042.415          33.000  
C16  36732835.708   191277516.568          12.685          48.000    36732821.089   147907849.674           9.670          49.000  
C19  23824267.429   124059211.187       -2182.007          46.000                                                                  
C27  23583056.171   122803162.684        1106.311          47.000                                                                  
C06  36290725.855   188975326.835          10.046          47.000    36290705.449   146127634.340           7.736          49.000  
C09  37371231.625   194601811.506         130.552          44.000    37371214.477   150478397.980         100.983          48.000  
C22  24622228.275   128214404.285         615.968          42.000                                                                  
G26  20880425.468   109727376.426       -1958.282          47.000    20880416.040    85501813.612       -1525.867          45.000  
G27  21869181.431   114923327.091        2953.056          43.000    21869172.852    89550625.705        2300.841          43.000  
G09  23855413.311   125361042.761        2738.354          36.000    23855406.373    97683915.964        2133.588          39.000  
C28  24762063.141   128942553.596       -1084.903          44.000                                                                  
C07  38029691.777   198030584.136         791.329          41.000    38029672.807   153129740.691         611.859          45.000  
C20  25621536.967   133418065.387       -3618.048          42.000                                                                  
C36  23838331.315   124132447.230        1404.993          44.000                                                                  
C37  25053686.285   130461116.946       -2397.414          43.000                                                                  
C10  39160042.480   203916618.114         731.220          38.000    39160027.722   157681275.411         565.343          42.000  
G08  24127265.149   126789636.455        3599.133          35.000    24127265.216    98797204.255        2804.656          38.000  
G29  25360811.831   133271970.641       -3601.844          35.000    25360804.361   103848236.096       -2806.284          37.000  
C30  25100923.173   130707096.419        2759.617          45.000                                                                  
C13  40795194.544   212431282.875       -2425.251          33.000    40795197.376   164265353.503       -1875.866          37.000  
C08                                                                  41710268.607   167949978.181       -1820.306          40.000  
> 2025 11 03 07 44 14.0400000  0 26                     
G04  21382626.777   112366461.439        1078.029          44.000    21382615.928    87558238.557         840.342          47.000  
G16  20187137.166   106084122.195         156.453          46.000                                                                  
G28  23105157.484   121418421.020       -2712.649          41.000    23105147.398    94611704.354       -2113.587          43.000  
G31  21115383.823   110962092.734       -1708.310          47.000    21115370.986    86463912.460       -1331.160          45.000  
G03  24598681.707                       -2941.588          31.000    24598679.281   100727463.844       -2292.397          38.000  
G18  25144793.800                        1336.810          28.000    25144783.872   102963688.584        1042.552          33.000  
C16  36732835.591   191277516.069          12.523          48.000    36732821.018   147907849.284           9.706          49.000  
C19  23824284.186   124059298.474       -2182.117          46.000                                                                  
C27  23583047.670   122803118.444        1106.064          47.000                                                                  
C06  36290725.787   188975326.447           9.811          47.000    36290705.357   146127634.042           7.528          49.000  
C09  37371230.615   194601806.279         130.639          44.000    37371213.457   150478393.945         100.897          48.000  
C22  24622223.528   128214379.638         616.170          42.000                                                                  
G26  20880440.369   109727454.762       -1958.343          47.000    20880430.953    85501874.652       -1526.001          45.000  
G27  21869158.945   114923208.970        2953.060          43.000    21869150.370    89550533.663        2300.951          43.000  
G09  23855392.457   125360933.225        2738.507          36.000    23855385.542    97683830.622        2133.612          39.000  
C28  24762071.464   128942596.984       -1084.780          44.000                                                                  
C07  38029685.703   198030552.495         791.076          41.000    38029666.726   153129716.215         611.877          45.000  
C20  25621564.774   133418210.117       -3618.259          42.000                                                                  
C36  23838320.526   124132391.019        1405.200          44.000                                                                  
C37  25053704.701   130461212.836       -2397.344          41.000                                                                  
C10  39160036.856   203916588.880         730.963          38.000    39160022.135   157681252.803         565.264          42.000  
G08  24127237.732   126789492.483        3599.302          35.000    24127237.823    98797092.091        2804.321          38.000  
G29  25360839.254   133272114.730       -3602.096          35.000    25360831.773   103848348.378       -2806.772          37.000  
C30  25100901.945   130706986.035        2759.542          45.000                                                                  
C13  40795213.166   212431379.850       -2424.567          33.000    40795216.005   164265428.520       -1875.630          37.000  
C08                                                                  41710286.678   167950051.009       -1820.612          40.000  
> 2025 11 03 07 44 14.0800000  0 26                     
G04  21382618.555   112366418.280        1078.584          44.000    21382607.734    87558204.950         840.171          47.000  
G16  20187135.984   106084115.936         156.429          46.000                                                                  
G28  23105178.132   121418529.507       -2712.507          41.000    23105168.036    94611788.890       -2113.542          42.000  
G31  21115396.816   110962161.072       -1708.500          47.000    21115384.011    86463965.708       -1331.230          45.000  
G03  24598704.111                       -2941.945          31.000    24598701.686   100727555.566       -2292.821          38.000  
G18  25144783.593                        1336.512          28.000    25144773.691   102963646.929        1041.904          33.000  
C16  36732835.487   191277515.564          12.552          48.000    36732820.950   147907848.881           9.960          49.000  
C19  23824300.928   124059385.775       -2182.446          46.000                                                                  
C27  23583039.189   122803074.202        1105.985          46.000                                                                  
C06  36290725.686   188975326.059           9.685          47.000    36290705.267   146127633.741           7.467          49.000  
C09  37371229.619   194601801.056         130.622          44.000    37371212.426   150478389.911         100.834          48.000  
C22  24622218.797   128214355.021         615.670          42.000                                                                  
G26  20880455.289   109727533.102       -1958.496          47.000    20880445.860    85501935.697       -1526.129          45.000  
G27  21869136.454   114923090.848        2953.044          43.000    21869127.884    89550441.615        2301.134          43.000  
G09  23855371.624   125360823.714        2738.055          36.000    23855364.703    97683745.283        2133.533          38.000  
C28  24762079.810   128942640.385       -1084.919          44.000                                                                  
C07  38029679.624   198030520.847         791.090          41.000    38029660.630   153129691.752         611.618          45.000  
C20  25621592.572   133418354.832       -3618.090          42.000                                                                  
C36  23838309.749   124132334.816        1405.158          44.000                                                                  
C37  25053723.134   130461308.744       -2397.607          41.000                                                                  
C10  39160031.265   203916559.642         730.896          38.000    39160016.522   157681230.196         565.143          42.000  
G08  24127210.320   126789348.479        3599.920          35.000    24127210.451    98796979.941        2803.842          38.000  
G29  25360866.677   133272258.835       -3602.563          35.000    25360859.194   103848460.661       -2806.843          37.000  
C30  25100880.757   130706875.650        2759.515          45.000                                                                  
C13  40795231.798   212431476.871       -2425.021          33.000    40795234.654   164265503.544       -1875.546          37.000  
C08                                                                  41710304.758   167950123.844       -1820.880          40.000  
> 2025 11 03 07 44 14.1200000  0 26                     
G04  21382610.359   112366375.130        1078.734          44.000    21382599.516    87558171.341         840.159          47.000  
G16  20187134.787   106084109.678         156.393          46.000                                                                  
G28  23105198.783   121418637.983       -2712.119          41.000    23105188.673    94611873.422       -2113.436          42.000  
G31  21115409.813   110962229.413       -1708.614          47.000    21115397.010    86464018.953       -1331.199          45.000  
G03  24598726.497                       -2942.758          31.000    24598724.091   100727647.282       -2292.987          38.000  
G18  25144773.416                        1336.348          28.000    25144763.528   102963605.288        1041.247          33.000  
C16  36732835.357   191277515.045          12.828          48.000    36732820.876   147907848.482           9.994          49.000  
C19  23824317.690   124059473.075       -2182.568          46.000                                                                  
C27  23583030.677   122803029.950        1106.146          46.000                                                                  
C06  36290725.622   188975325.665           9.751          47.000    36290705.163   146127633.433           7.583          49.000  
C09  37371228.623   194601795.841         130.441          44.000    37371211.468   150478385.883         100.696          48.000  
C22  24622214.083   128214330.401         615.490          42.000                                                                  
G26  20880470.194   109727611.443       -1958.600          47.000    20880460.753    85501996.741       -1526.160          45.000  
G27  21869113.985   114922972.727        2953.044          43.000    21869105.413    89550349.571        2301.121          43.000  
G09  23855350.778   125360714.223        2737.457          36.000    23855343.864    97683659.952        2133.362          39.000  
C28  24762088.160   128942683.789       -1085.094          44.000                                                                  
C07  38029673.528   198030489.207         790.958          41.000    38029654.547   153129667.292         611.458          45.000  
C20  25621620.363   133418499.544       -3617.911          42.000                                                                  
C36  23838298.973   124132278.614        1405.072          44.000                                                                  
C37  25053741.576   130461404.646       -2397.673          41.000                                                                  
C10  39160025.668   203916530.383         731.260          38.000    39160010.903   157681207.602         564.860          42.000  
G08  24127182.933   126789204.525        3599.324          35.000    24127183.061    98796867.733        2804.648          38.000  
G29  25360894.110   133272402.920       -3602.386          35.000    25360886.618   103848572.960       -2807.344          37.000  
C30  25100859.574   130706765.254        2759.731          45.000                                                                  
C13  40795250.423   212431573.890       -2425.402          33.000    40795253.272   164265578.538       -1875.034          37.000  
C08                                                                  41710322.815   167950196.672       -1820.862          40.000  
> 2025 11 03 07 44 14.1600000  0 26                     
G04  21382602.153   112366331.989        1078.633          44.000    21382591.302    87558137.734         840.116          47.000  
G16  20187133.584   106084103.425         156.276          46.000                                                                  
G28  23105219.416   121418746.440       -2711.541          41.000    23105209.324    94611957.943       -2113.155          42.000  
G31  21115422.841   110962297.731       -1708.217          47.000    21115410.006    86464072.180       -1330.830          45.000  
G03  24598748.881                       -2941.694          31.000    24598746.488   100727738.972       -2292.586          38.000  
G18  25144763.215                        1336.306          28.000    25144753.359   102963563.604        1041.669          34.000  
C16  36732835.262   191277514.525          12.965          48.000    36732820.786   147907848.084           9.989          49.000  
C19  23824334.449   124059560.378       -2182.642          46.000                                                                  
C27  23583022.181   122802985.700        1106.188          46.000                                                                  
C06  36290725.538   188975325.268           9.858          47.000    36290705.056   146127633.121           7.706          49.000  
C09  37371227.629   194601790.625         130.415          44.000    37371210.462   150478381.843         100.866          48.000  
C22  24622209.332   128214305.769         615.630          42.000                                                                  
G26  20880485.095   109727689.775       -1958.447          47.000    20880475.663    85502057.786       -1526.166          45.000  
G27  21869091.504   114922854.605        2953.017          43.000    21869082.935    89550257.528        2301.105          43.000  
G09  23855329.949   125360604.711        2737.549          36.000    23855323.007    97683574.613        2133.423          39.000  
C28  24762096.527   128942727.191       -1085.156          44.000                                                                  
C07  38029667.464   198030457.559         791.081          41.000    38029648.454   153129642.831         611.424          45.000  
C20  25621648.172   133418644.259       -3617.836          42.000                                                                  
C36  23838288.184   124132222.414        1405.042          44.000                                                                  
C37  25053759.986   130461500.537       -2397.441          41.000                                                                  
C10  39160020.049   203916501.150         731.051          38.000    39160005.270   157681184.986         565.117          42.000  
G08  24127155.534   126789060.566        3599.092          35.000    24127155.663    98796755.547        2804.728          38.000  
G29  25360921.524   133272546.999       -3602.220          35.000    25360914.052   103848685.229       -2806.893          37.000  
C30  25100838.358   130706654.865        2759.721          44.000                                                                  
C13  40795269.079   212431670.956       -2426.402          33.000    40795271.889   164265653.558       -1875.280          37.000  
C08                                                                  41710340.879   167950269.485       -1820.496          40.000  
> 2025 11 03 07 44 14.2000000  0 26                     
G04  21382593.964   112366288.848        1078.558          44.000    21382583.094    87558104.114         840.331          47.000  
G16  20187132.382   106084097.157         156.532          46.000                                                                  
G28  23105240.044   121418854.922       -2711.777          41.000    23105229.969    94612042.479       -2113.301          41.000  
G31  21115435.838   110962366.048       -1707.983          47.000    21115423.000    86464125.409       -1330.679          45.000  
G03  24598771.295                       -2941.102          31.000    24598768.880   100727830.635       -2291.805          38.000  
G18  25144753.055                        1336.277          28.000    25144743.180   102963521.922        1042.003          34.000  
C16  36732835.161   191277514.006          13.045          48.000    36732820.677   147907847.682          10.038          49.000  
C19  23824351.188   124059647.666       -2182.397          46.000                                                                  
C27  23583013.687   122802941.446        1106.312          46.000                                                                  
C06  36290725.416   188975324.865          10.023          47.000    36290704.933   146127632.805           7.867          49.000  
C09  37371226.612   194601785.411         130.339          44.000    37371209.441   150478377.798         101.071          48.000  
C22  24622204.598   128214281.124         615.984          42.000                                                                  
G26  20880500.000   109727768.109       -1958.368          47.000    20880490.539    85502118.826       -1526.056          45.000  
G27  21869069.022   114922736.496        2952.783          43.000    21869060.485    89550165.473        2301.292          43.000  
G09  23855309.095   125360495.169        2738.245          36.000    23855302.158    97683489.271        2133.514          39.000  
C28  24762104.855   128942770.568       -1084.695          44.000                                                                  
C07  38029661.395   198030425.911         791.150          41.000    38029642.363   153129618.356         611.683          45.000  
C20  25621675.982   133418788.966       -3617.700          42.000                                                                  
C36  23838277.355   124132166.210        1405.078          44.000                                                                  
C37  25053778.424   130461596.402       -2396.882          41.000                                                                  
C10  39160014.435   203916471.897         731.215          38.000    39159999.642   157681162.369         565.326          42.000  
G08  24127128.109   126788916.581        3599.417          35.000    24127128.271    98796643.351        2804.873          38.000  
G29  25360948.938   133272691.053       -3601.672          35.000    25360941.474   103848797.494       -2806.688          37.000  
C30  25100817.141   130706544.474        2759.733          44.000                                                                  
C13  40795287.705   212431767.979       -2426.056          33.000    40795290.517   164265728.570       -1875.255          37.000  
C08                                                                  41710358.953   167950342.297       -1820.319          40.000  
> 2025 11 03 07 44 14.2400000  0 26                     
G04  21382585.734   112366245.714        1078.368          44.000    21382574.870    87558070.496         840.432          47.000  
G16  20187131.207   106084090.900         156.456          46.000                                                                  
G28  23105260.681   121418963.423       -2712.307          41.000    23105250.638    94612127.013       -2113.407          41.000  
G31  21115448.845   110962434.382       -1708.174          47.000    21115436.001    86464178.662       -1331.071          45.000  
G03  24598793.702                       -2942.326          31.000    24598791.301   100727922.353       -2292.445          38.000  
G18  25144742.899                        1336.753          28.000    25144733.015   102963480.249        1042.019          34.000  
C16  36732835.037   191277513.500          12.788          48.000    36732820.588   147907847.298           9.734          49.000  
C19  23824367.938   124059734.955       -2182.263          46.000                                                                  
C27  23583005.193   122802897.202        1106.157          45.000                                                                  
C06  36290725.320   188975324.470           9.950          47.000    36290704.807   146127632.493           7.827          49.000  
C09  37371225.622   194601780.183         130.552          44.000    37371208.450   150478373.759         101.028          48.000  
C22  24622199.857   128214256.484         616.019          42.000                                                                  
G26  20880514.935   109727846.453       -1958.539          47.000    20880505.455    85502179.870       -1526.074          45.000  
G27  21869046.529   114922618.377        2952.860          43.000    21869038.023    89550073.445        2300.882          43.000  
G09  23855288.252   125360385.653        2738.086          36.000    23855281.315    97683403.931        2133.557          39.000  
C28  24762113.180   128942813.957       -1084.698          44.000                                                                  
C07  38029655.327   198030394.276         790.955          41.000    38029636.265   153129593.877         611.876          45.000  
C20  25621703.756   133418933.692       -3618.028          42.000                                                                  
C36  23838266.586   124132110.003        1405.115          44.000                                                                  
C37  25053796.825   130461692.304       -2397.244          41.000                                                                  
C10  39160008.811   203916442.650         731.202          39.000    39159994.016   157681139.759         565.313          42.000  
G08  24127100.726   126788772.609        3599.352          35.000    24127100.876    98796531.162        2804.815          38.000  
G29  25360976.356   133272835.147       -3602.104          35.000    25360968.888   103848909.760       -2806.713          37.000  
C30  25100795.954   130706434.098        2759.453          44.000                                                                  
C13  40795306.353   212431865.013       -2426.052          33.000    40795309.168   164265803.609       -1875.706          37.000  
C08                                                                  41710377.036   167950415.114       -1820.337          40.000  
> 2025 11 03 07 44 14.2800000  0 26                     
G04  21382577.553   112366202.602        1077.924          44.000    21382566.662    87558036.890         840.234          47.000  
G16  20187129.983   106084084.635         156.550          46.000                                                                  
G28  23105281.327   121419071.921       -2712.465          41.000    23105271.281    94612211.546       -2113.413          41.000  
G31  21115461.846   110962502.712       -1708.248          47.000    21115449.021    86464231.914       -1331.278          45.000  
G03  24598816.086                       -2943.346          31.000    24598813.688   100728014.054       -2292.513          38.000  
G18  25144732.695                        1337.062          28.000    25144722.829   102963438.583        1041.805          34.000  
C16  36732834.915   191277512.992          12.661          48.000    36732820.503   147907846.910           9.629          49.000  
C19  23824384.702   124059822.244       -2182.214          46.000                                                                  
C27  23582996.700   122802852.958        1106.083          45.000                                                                  
C06  36290725.230   188975324.071           9.960          47.000    36290704.697   146127632.191           7.618          49.000  
C09  37371224.614   194601774.959         130.634          44.000    37371207.453   150478369.724         100.916          48.000  
C22  24622195.146   128214231.845         615.999          43.000                                                                  
G26  20880529.823   109727924.797       -1958.618          47.000    20880520.362    85502240.915       -1526.135          45.000  
G27  21869024.082   114922500.274        2952.628          43.000    21869015.556    89549981.422        2300.569          43.000  
G09  23855267.406   125360276.124        2738.202          36.000    23855260.475    97683318.595        2133.441          39.000  
C28  24762121.509   128942857.357       -1084.911          44.000                                                                  
C07  38029649.250   198030362.635         790.943          41.000    38029630.181   153129569.403         611.886          45.000  
C20  25621731.553   133419078.413       -3618.088          42.000                                                                  
C36  23838255.779   124132053.807        1404.926          44.000                                                                  
C37  25053815.232   130461788.191       -2397.178          41.000                                                                  
C10  39160003.203   203916413.428         730.713          39.000    39159988.423   157681117.156         565.157          42.000  
G08  24127073.365   126788628.651        3599.132          35.000    24127073.495    98796418.982        2804.572          38.000  
G29  25361003.755   133272979.230       -3602.126          35.000    25360996.328   103849022.050       -2807.132          37.000  
C30  25100774.793   130706323.703        2759.672          44.000                                                                  
C13  40795324.989   212431962.031       -2425.757          33.000    40795327.800   164265878.632       -1875.652          37.000  
C08                                                                  41710395.107   167950487.955       -1820.850          40.000  
> 2025 11 03 07 44 14.3200000  0 26                     
G04  21382569.346   112366159.483        1077.827          44.000    21382558.455    87558003.279         840.217          47.000  
G16  20187128.795   106084078.377         156.481          46.000                                                                  
G28  23105301.979   121419180.399       -2712.208          40.000    23105291.943    94612296.077       -2113.350          41.000  
G31  21115474.871   110962571.049       -1708.407          47.000    21115462.022    86464285.157       -1331.229          45.000  
G03  24598838.478                       -2941.837          31.000    24598836.093   100728105.764       -2292.673          38.000  
G18  25144722.507                        1337.386          28.000    25144712.666   102963396.937        1041.282          34.000  
C16  36732834.809   191277512.490          12.508          48.000    36732820.418   147907846.520           9.650          48.000  
C19  23824401.440   124059909.541       -2182.367          46.000                                                                  
C27  23582988.207   122802808.724        1105.868          45.000                                                                  
C06  36290725.113   188975323.679           9.840          47.000    36290704.584   146127631.892           7.487          49.000  
C09  37371223.605   194601769.733         130.675          44.000    37371206.464   150478365.689         100.847          48.000  
C22  24622190.401   128214207.224         615.646          43.000                                                                  
G26  20880544.743   109728003.146       -1958.765          47.000    20880535.270    85502301.974       -1526.404          45.000  
G27  21869001.596   114922382.151        2952.867          43.000    21868993.078    89549889.390        2300.613          43.000  
G09  23855246.571   125360166.612        2737.982          36.000    23855239.638    97683233.252        2133.527          39.000  
C28  24762129.848   128942900.764       -1085.108          44.000                                                                  
C07  38029643.159   198030330.995         790.938          41.000    38029624.099   153129544.931         611.840          45.000  
C20  25621759.342   133419223.127       -3617.990          42.000                                                                  
C36  23838244.990   124131997.606        1404.907          44.000                                                                  
C37  25053833.638   130461884.067       -2396.932          41.000                                                                  
C10  39159997.573   203916384.205         730.501          39.000    39159982.801   157681094.551         565.121          42.000  
G08  24127045.993   126788484.679        3599.246          35.000    24127046.101    98796306.810        2804.317          37.000  
G29  25361031.171   133273123.345       -3602.665          35.000    25361023.759   103849134.328       -2807.153          37.000  
C30  25100753.594   130706213.298        2760.003          45.000                                                                  
C13  40795343.595   212432059.001       -2424.517          33.000    40795346.413   164265953.645       -1875.579          37.000  
C08                                                                  41710413.184   167950560.780       -1820.801          40.000  
> 2025 11 03 07 44 14.3600000  0 26                     
G04  21382561.141   112366116.337        1078.292          44.000    21382550.273    87557969.673         840.135          47.000  
G16  20187127.607   106084072.125         156.331          46.000                                                                  
G28  23105322.619   121419288.894       -2712.345          40.000    23105312.577    94612380.624       -2113.636          41.000  
G31  21115487.885   110962639.401       -1708.752          47.000    21115475.043    86464338.406       -1331.264          45.000  
G03  24598860.833                       -2941.348          31.000    24598858.502   100728197.476       -2292.762          38.000  
G18  25144712.334                        1337.155          28.000    25144702.495   102963355.266        1041.507          34.000  
C16  36732834.674   191277511.984          12.514          48.000    36732820.334   147907846.131           9.659          48.000  
C19  23824418.194   124059996.847       -2182.617          46.000                                                                  
C27  23582979.698   122802764.494        1105.690          45.000                                                                  
C06  36290725.019   188975323.285           9.788          47.000    36290704.478   146127631.594           7.388          49.000  
C09  37371222.597   194601764.510         130.601          44.000    37371205.451   150478361.653         100.836          48.000  
C22  24622185.643   128214182.602         615.509          43.000                                                                  
G26  20880559.651   109728081.495       -1958.820          47.000    20880550.174    85502363.028       -1526.440          45.000  
G27  21868979.114   114922264.038        2952.821          43.000    21868970.598    89549797.349        2300.844          43.000  
G09  23855225.723   125360057.108        2737.622          36.000    23855218.791    97683147.934        2133.075          39.000  
C28  24762138.187   128942944.163       -1085.068          44.000                                                                  
C07  38029637.079   198030299.342         791.184          41.000    38029618.030   153129520.467         611.638          45.000  
C20  25621787.133   133419367.842       -3617.913          42.000                                                                  
C36  23838234.193   124131941.416        1404.700          44.000                                                                  
C37  25053852.026   130461979.959       -2397.147          41.000                                                                  
C10  39159991.980   203916354.975         730.560          39.000    39159977.168   157681071.936         565.210          42.000  
G08  24127018.582   126788340.718        3599.113          35.000    24127018.733    98796194.666        2803.647          37.000  
G29  25361058.592   133273267.445       -3602.688          35.000    25361051.177   103849246.612       -2807.245          37.000  
C30  25100732.380   130706102.907        2759.917          45.000                                                                  
C13  40795362.210   212432156.044       -2425.491          33.000    40795365.026   164266028.669       -1875.608          37.000  
C08                                                                  41710431.249   167950633.608       -1820.788          40.000  
> 2025 11 03 07 44 14.4000000  0 26                     
G04  21382552.942   112366073.230        1077.866          44.000    21382542.066    87557936.073         839.974          47.000  
G16  20187126.446   106084065.877         156.177          46.000                                                                  
G28  23105343.271   121419397.390       -2712.425          40.000    23105333.233    94612465.174       -2113.808          41.000  
G31  21115500.900   110962707.752       -1708.918          47.000    21115488.069    86464391.663       -1331.405          45.000  
G03  24598883.242                       -2942.110          31.000    24598880.890   100728289.169       -2292.489          38.000  
G18  25144702.154                        1336.940          28.000    25144692.319   102963313.593        1041.772          34.000  
C16  36732834.553   191277511.490          12.322          48.000    36732820.271   147907845.743           9.641          48.000  
C19  23824434.965   124060084.154       -2182.758          46.000                                                                  
C27  23582971.194   122802720.256        1105.815          45.000                                                                  
C06  36290724.903   188975322.905           9.520          47.000    36290704.397   146127631.298           7.308          48.000  
C09  37371221.604   194601759.293         130.420          44.000    37371204.430   150478357.625         100.683          48.000  
C22  24622180.925   128214157.985         615.355          42.000                                                                  
G26  20880574.585   109728159.853       -1958.997          47.000    20880565.096    85502424.080       -1526.416          45.000  
G27  21868956.647   114922145.939        2952.505          43.000    21868948.106    89549705.320        2300.757          43.000  
G09  23855204.882   125359947.634        2736.920          36.000    23855197.930    97683062.607        2133.026          39.000  
C28  24762146.523   128942987.578       -1085.327          44.000                                                                  
C07  38029631.046   198030267.706         790.980          41.000    38029611.980   153129496.008         611.458          45.000  
C20  25621814.897   133419512.563       -3618.004          42.000                                                                  
C36  23838223.393   124131885.225        1404.688          44.000                                                                  
C37  25053870.431   130462075.865       -2397.549          41.000                                                                  
C10  39159986.371   203916325.723         730.938          39.000    39159971.533   157681049.332         565.117          42.000  
G08  24126991.173   126788196.756        3599.011          35.000    24126991.339    98796082.478        2804.074          37.000  
G29  25361086.003   133273411.544       -3602.711          35.000    25361078.606   103849358.910       -2807.549          34.000  
C30  25100711.153   130705992.526        2759.683          45.000                                                                  
C13  40795380.845   212432253.095       -2426.277          33.000    40795383.669   164266103.709       -1875.895          37.000  
C08                                                                  41710449.355   167950706.441       -1820.862          40.000  
> 2025 11 03 07 44 14.4400000  0 26                     
G04  21382544.729   112366030.101        1078.033          44.000    21382533.860    87557902.478         839.850          47.000  
G16  20187125.269   106084059.635         155.998          46.000                                                                  
G28  23105363.904   121419505.894       -2712.617          40.000    23105353.889    94612549.717       -2113.737          41.000  
G31  21115513.878   110962776.107       -1708.994          47.000    21115501.076    86464444.923       -1331.511          45.000  
G03  24598905.616                       -2941.739          31.000    24598903.271   100728380.873       -2292.583          38.000  
G18  25144691.960                        1336.919          28.000    25144682.128   102963271.917        1041.908          34.000  
C16  36732834.469   191277510.995          12.266          47.000    36732820.177   147907845.364           9.487          48.000  
C19  23824451.727   124060171.471       -2182.971          46.000                                                                  
C27  23582962.719   122802676.022        1105.816          45.000                                                                  
C06  36290724.824   188975322.521           9.443          47.000    36290704.317   146127631.005           7.235          48.000  
C09  37371220.582   194601754.087         130.155          44.000    37371203.426   150478353.597         100.636          48.000  
C22  24622176.189   128214133.381         615.071          42.000                                                                  
G26  20880589.481   109728238.208       -1959.015          46.000    20880580.007    85502485.136       -1526.489          45.000  
G27  21868934.201   114922027.843        2952.319          43.000    21868925.637    89549613.288        2300.749          43.000  
G09  23855184.054   125359838.145        2736.975          36.000    23855177.080    97682977.274        2133.154          39.000  
C28  24762154.852   128943030.984       -1085.314          44.000                                                                  
C07  38029624.947   198030236.077         790.763          41.000    38029605.904   153129471.545         611.449          45.000  
C20  25621842.673   133419657.297       -3618.269          42.000                                                                  
C36  23838212.594   124131829.044        1404.517          44.000                                                                  
C37  25053888.856   130462171.780       -2397.874          42.000                                                                  
C10  39159980.738   203916296.487         730.922          38.000    39159965.937   157681026.728         565.056          42.000  
G08  24126963.776   126788052.808        3598.746          35.000    24126963.938    98795970.312        2804.116          37.000  
G29  25361113.399   133273555.664       -3602.965          35.000    25361106.025   103849471.178       -2807.092          34.000  
C30  25100689.952   130705882.150        2759.434          45.000                                                                  
C13  40795399.493   212432350.147       -2426.632          33.000    40795402.301   164266178.732       -1875.735          37.000  
C08                                                                  41710467.440   167950779.278       -1820.984          40.000  
> 2025 11 03 07 44 14.4800000  0 26                     
G04  21382536.537   112365987.004        1077.551          44.000    21382525.676    87557868.901         839.447          47.000  
G16  20187124.100   106084053.408         155.626          46.000                                                                  
G28  23105384.561   121419614.415       -2713.044          40.000    23105374.538    94612634.276       -2113.998          41.000  
G31  21115526.867   110962844.460       -1708.997          47.000    21115514.074    86464498.199       -1331.877          45.000  
G03  24598928.041                       -2942.673          31.000    24598925.678   100728472.600       -2293.102          38.000  
G18  25144681.799                        1337.126          28.000    25144671.966   102963230.268        1041.436          34.000  
C16  36732834.362   191277510.515          11.985          47.000    36732820.100   147907844.997           9.177          48.000  
C19  23824468.489   124060258.805       -2183.417          46.000                                                                  
C27  23582954.220   122802631.814        1105.310          45.000                                                                  
C06  36290724.731   188975322.151           9.202          47.000    36290704.220   146127630.716           7.156          48.000  
C09  37371219.575   194601748.894         129.796          44.000    37371202.412   150478349.575         100.478          48.000  
C22  24622171.461   128214108.778         614.953          42.000                                                                  
G26  20880604.407   109728316.580       -1959.332          46.000    20880594.921    85502546.202       -1526.691          45.000  
G27  21868911.713   114921909.750        2952.192          43.000    21868903.183    89549521.267        2300.535          43.000  
G09  23855163.204   125359728.640        2737.286          36.000    23855156.248    97682891.953        2132.983          39.000  
C28  24762163.172   128943074.417       -1085.768          43.000                                                                  
C07  38029618.879   198030204.466         790.319          41.000    38029599.839   153129447.095         611.212          45.000  
C20  25621870.469   133419802.046       -3618.683          42.000                                                                  
C36  23838201.815   124131772.876        1404.157          44.000                                                                  
C37  25053907.267   130462267.709       -2398.316          42.000                                                                  
C10  39159975.142   203916267.291         730.180          39.000    39159960.334   157681004.133         564.886          42.000  
G08  24126936.394   126787908.862        3598.488          35.000    24126936.534    98795858.148        2804.042          37.000  
G29  25361140.809   133273699.762       -3602.727          35.000    25361133.447   103849583.476       -2807.363          35.000  
C30  25100668.747   130705771.786        2759.091          45.000                                                                  
C13  40795418.137   212432447.186       -2426.432          33.000    40795420.935   164266253.774       -1875.979          37.000  
C08                                                                  41710485.534   167950852.132       -1821.380          40.000  
> 2025 11 03 07 44 14.5200000  0 26                     
G04  21382528.343   112365943.930        1076.921          44.000    21382517.495    87557835.328         839.194          47.000  
G16  20187122.940   106084047.209         154.952          46.000                                                                  
G28  23105405.212   121419722.964       -2713.724          40.000    23105395.220    94612718.866       -2114.667          41.000  
G31  21115539.864   110962912.839       -1709.436          47.000    21115527.096    86464551.484       -1332.177          45.000  
G03  24598950.455                       -2944.526          31.000    24598948.079   100728564.359       -2293.869          38.000  
G18  25144671.650                        1336.378          28.000    25144661.811   102963188.645        1040.724          34.000  
C16  36732834.244   191277510.060          11.410          47.000    36732820.028   147907844.639           8.882          48.000  
C19  23824485.275   124060346.155       -2183.844          46.000                                                                  
C27  23582945.732   122802587.636        1104.517          45.000                                                                  
C06  36290724.655   188975321.804           8.683          47.000    36290704.118   146127630.450           6.715          48.000  
C09  37371218.566   194601743.722         129.257          45.000    37371201.409   150478345.575         100.049          48.000  
C22  24622166.731   128214084.223         614.051          42.000                                                                  
G26  20880619.330   109728394.975       -1959.857          46.000    20880609.847    85502607.288       -1527.130          45.000  
G27  21868889.262   114921791.689        2951.595          43.000    21868880.706    89549429.285        2299.732          43.000  
G09  23855142.367   125359619.191        2736.438          36.000    23855135.424    97682806.646        2132.678          39.000  
C28  24762171.530   128943117.868       -1086.285          43.000                                                                  
C07  38029612.802   198030172.862         789.980          41.000    38029593.748   153129422.664         610.796          45.000  
C20  25621898.256   133419946.828       -3619.433          42.000                                                                  
C36  23838191.045   124131716.724        1403.729          44.000                                                                  
C37  25053925.702   130462363.652       -2398.739          42.000                                                                  
C10  39159969.552   203916238.135         729.147          39.000    39159954.719   157680981.553         564.551          42.000  
G08  24126908.989   126787764.936        3598.154          35.000    24126909.152    98795746.006        2803.664          37.000  
G29  25361168.249   133273843.901       -3603.376          35.000    25361160.889   103849695.776       -2807.597          35.000  
C30  25100647.557   130705661.449        2758.450          45.000                                                                  
C13  40795436.771   212432544.245       -2426.641          33.000    40795439.570   164266328.821       -1876.229          37.000  
C08                                                                  41710503.633   167950924.999       -1821.808          40.000  
> 2025 11 03 07 44 14.5600000  0 26                     
G04  21382520.145   112365900.859        1076.573          44.000    21382509.287    87557801.757         839.088          47.000  
G16  20187121.745   106084041.003         154.830          46.000                                                                  
G28  23105425.871   121419831.505       -2713.872          40.000    23105415.876    94612803.439       -2114.623          41.000  
G31  21115552.900   110962981.228       -1709.802          47.000    21115540.111    86464604.778       -1332.443          45.000  
G03  24598972.873                       -2944.167          31.000    24598970.474   100728656.096       -2293.787          38.000  
G18  25144661.498                        1334.712          28.000    25144651.663   102963147.033        1040.278          34.000  
C16  36732834.153   191277509.603          11.230          47.000    36732819.923   147907844.280           8.792          48.000  
C19  23824502.051   124060433.501       -2183.917          46.000                                                                  
C27  23582937.236   122802543.461        1104.140          45.000                                                                  
C06  36290724.575   188975321.460           8.467          46.000    36290704.041   146127630.185           6.501          48.000  
C09  37371217.561   194601738.541         129.236          45.000    37371200.438   150478341.574          99.881          48.000  
C22  24622162.037   128214059.656         613.894          42.000                                                                  
G26  20880634.250   109728473.374       -1960.101          46.000    20880624.775    85502668.382       -1527.460          45.000  
G27  21868866.796   114921673.627        2951.377          44.000    21868858.253    89549337.300        2299.405          43.000  
G09  23855121.534   125359509.717        2736.505          37.000    23855114.595    97682721.364        2132.074          39.000  
C28  24762179.901   128943161.329       -1086.708          42.000                                                                  
C07  38029606.715   198030141.268         789.738          41.000    38029587.683   153129398.231         610.652          45.000  
C20  25621926.072   133420091.598       -3619.531          42.000                                                                  
C36  23838180.265   124131660.573        1403.589          44.000                                                                  
C37  25053944.165   130462459.596       -2398.900          42.000                                                                  
C10  39159963.951   203916208.945         729.261          39.000    39159949.131   157680958.985         564.201          42.000  
G08  24126881.604   126787621.043        3597.390          35.000    24126881.757    98795633.865        2803.525          37.000  
G29  25361195.671   133273988.044       -3603.675          35.000    25361188.326   103849808.106       -2808.137          35.000  
C30  25100626.384   130705551.116        2758.131          45.000                                                                  
C13  40795455.416   212432641.270       -2425.999          33.000    40795458.221   164266403.895       -1876.859          37.000  
C08                                                                  41710521.742   167950997.847       -1821.503          40.000  
> 2025 11 03 07 44 14.6000000  0 26                     
G04  21382511.939   112365857.779        1076.642          44.000    21382501.113    87557768.187         839.064          47.000  
G16  20187120.576   106084034.801         154.805          46.000                                                                  
G28  23105446.543   121419940.057       -2714.034          39.000    23105436.550    94612888.012       -2114.525          41.000  
G31  21115565.924   110963049.621       -1710.011          47.000    21115553.119    86464658.070       -1332.507          45.000  
G03  24598995.231                       -2944.475          31.000    24598992.880   100728747.816       -2293.387          38.000  
G18  25144651.325                        1334.794          28.000    25144641.509   102963105.444        1039.653          34.000  
C16  36732834.057   191277509.153          11.073          46.000    36732819.829   147907843.930           8.654          48.000  
C19  23824518.848   124060520.851       -2183.936          46.000                                                                  
C27  23582928.773   122802499.277        1104.230          45.000                                                                  
C06  36290724.504   188975321.114           8.420          46.000    36290703.963   146127629.926           6.337          48.000  
C09  37371216.573   194601733.360         129.285          45.000    37371199.454   150478337.574          99.854          48.000  
C22  24622157.349   128214035.085         613.961          42.000                                                                  
G26  20880649.160   109728551.781       -1960.345          46.000    20880639.694    85502729.471       -1527.460          45.000  
G27  21868844.319   114921555.552        2951.559          44.000    21868835.802    89549245.303        2299.559          43.000  
G09  23855100.706   125359400.256        2736.389          37.000    23855093.773    97682636.076        2131.915          39.000  
C28  24762188.263   128943204.767       -1086.386          41.000                                                                  
C07  38029600.629   198030109.666         789.762          41.000    38029581.616   153129373.797         610.677          45.000  
C20  25621953.865   133420236.361       -3619.366          42.000                                                                  
C36  23838169.487   124131604.432        1403.406          44.000                                                                  
C37  25053962.619   130462555.555       -2399.134          41.000                                                                  
C10  39159958.321   203916179.737         729.752          39.000    39159943.542   157680936.415         564.045          42.000  
G08  24126854.241   126787477.180        3596.446          35.000    24126854.334    98795521.707        2803.713          37.000  
G29  25361223.112   133274132.198       -3604.083          35.000    25361215.747   103849920.416       -2808.033          35.000  
C30  25100605.212   130705440.780        2758.079          45.000                                                                  
C13  40795474.062   212432738.352       -2426.680          33.000    40795476.900   164266478.959       -1876.899          37.000  
C08                                                                  41710539.849   167951070.706       -1821.552          40.000  
> 2025 11 03 07 44 14.6400000  0 26                     
G04  21382503.745   112365814.685        1077.034          44.000    21382492.899    87557734.607         839.270          47.000  
G16  20187119.396   106084028.587         155.063          46.000                                                                  
G28  23105467.192   121420048.614       -2714.122          39.000    23105457.197    94612972.586       -2114.481          41.000  
G31  21115578.937   110963118.008       -1709.927          47.000    21115566.118    86464711.359       -1332.412          44.000  
G03  24599017.646                       -2943.593          31.000    24599015.275   100728839.542       -2293.181          38.000  
G18  25144641.172                        1334.521          28.000    25144631.349   102963063.832        1039.828          34.000  
C16  36732833.968   191277508.694          11.211          46.000    36732819.750   147907843.576           8.700          47.000  
C19  23824535.635   124060608.188       -2183.655          46.000                                                                  
C27  23582920.294   122802455.084        1104.565          45.000                                                                  
C06  36290724.427   188975320.770           8.455          46.000    36290703.900   146127629.657           6.511          48.000  
C09  37371215.557   194601728.168         129.586          45.000    37371198.447   150478333.575          99.846          48.000  
C22  24622152.611   128214010.506         614.216          42.000                                                                  
G26  20880664.075   109728630.176       -1960.138          46.000    20880654.604    85502790.560       -1527.393          44.000  
G27  21868821.864   114921437.479        2951.642          44.000    21868813.348    89549153.300        2299.818          43.000  
G09  23855079.881   125359290.783        2736.615          37.000    23855072.913    97682550.771        2132.312          39.000  
C28  24762196.598   128943248.205       -1086.096          41.000                                                                  
C07  38029594.554   198030078.056         789.941          41.000    38029575.519   153129349.356         610.863          45.000  
C20  25621981.663   133420381.112       -3619.000          42.000                                                                  
C36  23838158.694   124131548.280        1403.583          44.000                                                                  
C37  25053981.018   130462651.487       -2398.706          41.000                                                                  
C10  39159952.714   203916150.522         730.159          39.000    39159937.943   157680913.840         564.097          42.000  
G08  24126826.829   126787333.249        3597.399          35.000    24126826.942    98795409.554        2803.756          37.000  
G29  25361250.514   133274276.348       -3604.111          35.000    25361243.168   103850032.709       -2807.645          35.000  
C30  25100584.030   130705330.424        2758.540          45.000                                                                  
C13  40795492.705   212432835.448       -2427.419          33.000    40795495.543   164266554.026       -1876.854          37.000  
C08                                                                  41710557.962   167951143.546       -1821.198          40.000  
> 2025 11 03 07 44 14.6800000  0 26                     
G04  21382495.568   112365771.615        1076.813          44.000    21382484.701    87557701.050         838.973          47.000  
G16  20187118.241   106084022.400         154.728          46.000                                                                  
G28  23105487.857   121420157.167       -2714.006          39.000    23105477.850    94613057.185       -2114.891          41.000  
G31  21115591.941   110963186.410       -1710.136          47.000    21115579.111    86464764.655       -1332.458          45.000  
G03  24599040.021                       -2942.514          31.000    24599037.668   100728931.278       -2293.307          38.000  
G18  25144631.022                        1334.144          28.000    25144621.180   102963022.203        1040.276          34.000  
C16  36732833.867   191277508.252          10.988          46.000    36732819.670   147907843.234           8.509          47.000  
C19  23824552.394   124060695.554       -2184.058          46.000                                                                  
C27  23582911.810   122802410.911        1104.368          44.000                                                                  
C06  36290724.360   188975320.433           8.350          46.000    36290703.857   146127629.396           6.454          48.000  
C09  37371214.556   194601723.013         129.052          44.000    37371197.438   150478329.582          99.748          47.000  
C22  24622147.891   128213985.937         614.211          42.000                                                                  
G26  20880679.025   109728708.588       -1960.321          46.000    20880669.507    85502851.667       -1527.655          44.000  
G27  21868799.412   114921319.427        2951.318          44.000    21868790.885    89549061.311        2299.719          43.000  
G09  23855059.036   125359181.328        2736.456          37.000    23855052.077    97682465.469        2132.483          39.000  
C28  24762204.941   128943291.656       -1086.162          41.000                                                                  
C07  38029588.490   198030046.469         789.673          41.000    38029569.450   153129324.926         610.749          45.000  
C20  25622009.484   133420525.887       -3619.285          42.000                                                                  
C36  23838147.913   124131492.136        1403.540          44.000                                                                  
C37  25053999.428   130462747.444       -2398.900          40.000                                                                  
C10  39159947.135   203916121.344         729.626          39.000    39159932.324   157680891.267         564.153          42.000  
G08  24126799.418   126787189.248        3599.126          35.000    24126799.572    98795297.433        2803.240          37.000  
G29  25361277.940   133274420.500       -3604.041          35.000    25361270.591   103850145.038       -2808.084          35.000  
C30  25100562.816   130705220.096        2758.266          45.000                                                                  
C13  40795511.346   212432932.526       -2427.396          33.000    40795514.165   164266629.098       -1876.933          37.000  
C08                                                                  41710576.035   167951216.416       -1821.564          39.000  
> 2025 11 03 07 44 14.7200000  0 26                     
G04  21382487.355   112365728.539        1076.810          44.000    21382476.503    87557667.491         838.920          47.000  
G16  20187117.058   106084016.200         154.843          46.000                                                                  
G28  23105508.516   121420265.697       -2713.520          39.000    23105498.491    94613141.767       -2114.737          41.000  
G31  21115604.943   110963254.805       -1710.047          47.000    21115592.124    86464817.946       -1332.381          45.000  
G03  24599062.511                       -2943.678          31.000    24599060.070   100729023.022       -2293.509          38.000  
G18  25144620.885                        1334.849          28.000    25144611.025   102962980.589        1040.335          34.000  
C16  36732833.773   191277507.805          11.030          46.000    36732819.566   147907842.885           8.590          47.000  
C19  23824569.185   124060782.897       -2183.795          46.000                                                                  
C27  23582903.333   122802366.720        1104.627          44.000                                                                  
C06  36290724.275   188975320.087           8.511          45.000    36290703.799   146127629.138           6.427          48.000  
C09  37371213.552   194601717.848         129.024          44.000    37371196.459   150478325.583          99.842          47.000  
C22  24622143.163   128213961.354         614.502          43.000                                                                  
G26  20880693.964   109728786.976       -1959.912          46.000    20880684.411    85502912.754       -1527.387          44.000  
G27  21868776.919   114921201.370        2951.332          44.000    21868768.418    89548969.311        2299.899          43.000  
G09  23855038.207   125359071.855        2736.755          39.000    23855031.251    97682380.156        2132.758          39.000  
C28  24762213.299   128943335.100       -1086.062          40.000                                                                  
C07  38029582.433   198030014.873         789.759          41.000    38029563.409   153129300.486         610.883          45.000  
C20  25622037.275   133420670.656       -3619.307          42.000                                                                  
C36  23838137.118   124131435.978        1403.827          44.000                                                                  
C37  25054017.839   130462843.398       -2398.961          40.000                                                                  
C10  39159941.541   203916092.155         729.607          39.000    39159926.765   157680868.702         564.065          42.000  
G08  24126772.027   126787045.363        3597.995          35.000    24126772.184    98795185.323        2802.786          37.000  
G29  25361305.349   133274564.625       -3603.458          35.000    25361298.021   103850257.361       -2808.112          35.000  
C30  25100541.626   130705109.759        2758.344          45.000                                                                  
C13  40795530.001   212433029.564       -2426.567          33.000    40795532.801   164266704.143       -1876.408          37.000  
C08                                                                  41710594.098   167951289.279       -1821.594          39.000  
> 2025 11 03 07 44 14.7600000  0 26                     
G04  21382479.148   112365685.443        1077.192          44.000    21382468.294    87557633.923         839.037          47.000  
G16  20187115.867   106084010.000         154.912          45.000                                                                  
G28  23105529.156   121420374.214       -2713.012          37.000    23105519.138    94613226.329       -2114.200          40.000  
G31  21115617.954   110963323.176       -1709.565          47.000    21115605.146    86464871.216       -1331.939          44.000  
G03  24599084.928                       -2942.759          31.000    24599082.483   100729114.753       -2293.352          38.000  
G18  25144610.709                        1334.992          27.000    25144600.841   102962938.929        1041.185          34.000  
C16  36732833.673   191277507.338          11.448          46.000    36732819.470   147907842.522           8.884          47.000  
C19  23824585.952   124060870.236       -2183.594          46.000                                                                  
C27  23582894.852   122802322.523        1104.910          43.000                                                                  
C06  36290724.183   188975319.732           8.782          45.000    36290703.720   146127628.856           6.838          48.000  
C09  37371212.542   194601712.667         129.298          44.000    37371195.470   150478321.570         100.156          47.000  
C22  24622138.447   128213936.760         614.840          43.000                                                                  
G26  20880708.862   109728865.361       -1959.625          46.000    20880699.313    85502973.828       -1526.996          44.000  
G27  21868754.443   114921083.293        2951.730          44.000    21868745.963    89548877.295        2300.264          43.000  
G09  23855017.349   125358962.374        2736.975          39.000    23855010.426    97682294.844        2132.910          39.000  
C28  24762221.632   128943378.544       -1086.046          40.000                                                                  
C07  38029576.380   198029983.266         790.031          41.000    38029557.349   153129276.042         611.045          45.000  
C20  25622065.087   133420815.418       -3619.199          42.000                                                                  
C36  23838126.312   124131379.815        1404.077          44.000                                                                  
C37  25054036.284   130462939.334       -2398.639          40.000                                                                  
C10  39159935.936   203916062.955         729.787          39.000    39159921.155   157680846.124         564.300          42.000  
G08  24126744.657   126786901.480        3597.302          35.000    24126744.791    98795073.154        2803.663          37.000  
G29  25361332.729   133274708.743       -3603.024          35.000    25361325.449   103850369.671       -2807.882          35.000  
C30  25100520.446   130704999.401        2758.737          45.000                                                                  
C13  40795548.640   212433126.646       -2426.821          33.000    40795551.411   164266779.187       -1876.182          37.000  
C08                                                                  41710612.196   167951362.134       -1821.497          39.000  
> 2025 11 03 07 44 14.8000000  0 26                     
G04  21382470.928   112365642.347        1077.371          44.000    21382460.102    87557600.338         839.426          47.000  
G16  20187114.655   106084003.782         155.311          45.000                                                                  
G28  23105549.806   121420482.720       -2712.589          37.000    23105539.774    94613310.884       -2113.824          40.000  
G31  21115630.972   110963391.546       -1709.278          47.000    21115618.131    86464924.487       -1331.733          44.000  
G03  24599107.339                       -2942.698          31.000    24599104.879   100729206.470       -2293.069          38.000  
G18  25144600.575                        1336.254          27.000    25144590.664   102962897.267        1041.628          30.000  
C16  36732833.545   191277506.863          11.798          46.000    36732819.367   147907842.154           9.152          47.000  
C19  23824602.759   124060957.570       -2183.386          46.000                                                                  
C27  23582886.394   122802278.322        1105.082          42.000                                                                  
C06  36290724.098   188975319.374           8.959          45.000    36290703.629   146127628.570           7.117          48.000  
C09  37371211.520   194601707.482         129.519          43.000    37371194.490   150478317.558         100.297          47.000  
C22  24622133.713   128213912.163         615.007          43.000                                                                  
G26  20880723.798   109728943.745       -1959.503          46.000    20880714.221    85503034.895       -1526.672          44.000  
G27  21868731.965   114920965.208        2952.102          43.000    21868723.497    89548785.280        2300.427          43.000  
G09  23854996.527   125358852.871        2737.494          39.000    23854989.577    97682209.540        2132.672          39.000  
C28  24762229.955   128943421.992       -1086.183          38.000                                                                  
C07  38029570.301   198029951.660         790.225          41.000    38029551.260   153129251.599         611.087          45.000  
C20  25622092.883   133420960.171       -3618.965          42.000                                                                  
C36  23838115.521   124131323.639        1404.419          44.000                                                                  
C37  25054054.709   130463035.235       -2397.803          40.000                                                                  
C10  39159930.325   203916033.742         730.197          39.000    39159915.568   157680823.541         564.501          42.000  
G08  24126717.277   126786757.516        3598.271          35.000    24126717.388    98794960.998        2803.906          37.000  
G29  25361360.125   133274852.865       -3602.921          35.000    25361352.878   103850481.973       -2807.568          35.000  
C30  25100499.238   130704889.047        2758.872          46.000                                                                  
C13  40795567.246   212433223.645       -2425.490          33.000    40795570.050   164266854.216       -1875.771          37.000  
C08                                                                  41710630.267   167951434.971       -1821.094          39.000  
> 2025 11 03 07 44 14.8400000  0 26                     
G04  21382462.722   112365599.256        1077.354          44.000    21382451.903    87557566.755         839.580          46.000  
G16  20187113.479   106083997.569         155.382          45.000                                                                  
G28  23105570.462   121420591.227       -2712.521          37.000    23105560.441    94613395.454       -2114.087          40.000  
G31  21115643.984   110963459.919       -1709.222          47.000    21115631.147    86464977.769       -1331.893          44.000  
G03  24599129.754                       -2943.271          32.000    24599127.273   100729298.196       -2293.126          38.000  
G18  25144590.388                        1336.932          27.000    25144580.532   102962855.694        1040.244          30.000  
C16  36732833.420   191277506.384          12.024          46.000    36732819.296   147907841.787           9.218          47.000  
C19  23824619.490   124061044.913       -2183.472          46.000                                                                  
C27  23582877.926   122802234.119        1105.135          42.000                                                                  
C06  36290724.007   188975319.016           9.011          45.000    36290703.559   146127628.296           6.996          48.000  
C09  37371210.518   194601702.294         129.660          43.000    37371193.490   150478313.542         100.420          47.000  
C22  24622128.981   128213887.577         614.856          44.000                                                                  
G26  20880738.738   109729022.136       -1959.637          46.000    20880729.143    85503095.971       -1526.727          44.000  
G27  21868709.497   114920847.129        2952.099          43.000    21868701.035    89548693.278        2300.225          43.000  
G09  23854975.700   125358743.391        2737.237          39.000    23854968.750    97682124.246        2132.367          39.000  
C28  24762238.293   128943465.429       -1085.991          38.000                                                                  
C07  38029564.228   198029920.042         790.440          41.000    38029545.201   153129227.147         611.254          45.000  
C20  25622120.695   133421104.920       -3618.778          42.000                                                                  
C36  23838104.748   124131267.473        1404.346          44.000                                                                  
C37  25054073.117   130463131.151       -2397.709          39.000                                                                  
C10  39159924.712   203916004.542         730.170          39.000    39159909.975   157680800.960         564.575          42.000  
G08  24126689.883   126786613.554        3598.876          35.000    24126689.994    98794848.830        2804.172          37.000  
G29  25361387.549   133274996.985       -3602.892          35.000    25361380.296   103850594.264       -2807.309          35.000  
C30  25100478.031   130704778.692        2758.921          46.000                                                                  
C13  40795585.886   212433320.698       -2425.877          33.000    40795588.689   164266929.281       -1876.210          37.000  
C08                                                                  41710648.336   167951507.802       -1820.837          39.000  
> 2025 11 03 07 44 14.8800000  0 26                     
G04  21382454.554   112365556.192        1076.827          44.000    21382443.712    87557533.192         839.301          46.000  
G16  20187112.301   106083991.371         155.093          45.000                                                                  
G28  23105591.116   121420699.769       -2713.261          34.000    23105581.117    94613480.023       -2114.205          40.000  
G31  21115657.001   110963528.300       -1709.393          46.000    21115644.180    86465031.057       -1332.116          44.000  
G03  24599152.166                       -2943.455          32.000    24599149.675   100729389.936       -2293.403          38.000  
G18  25144580.213                        1336.572          27.000    25144570.379   102962814.051        1040.884          30.000  
C16  36732833.295   191277505.920          11.814          46.000    36732819.222   147907841.422           9.165          47.000  
C19  23824636.235   124061132.252       -2183.478          45.000                                                                  
C27  23582869.417   122802189.924        1104.999          41.000                                                                  
C06  36290723.929   188975318.673           8.749          45.000    36290703.498   146127628.029           6.772          48.000  
C09  37371209.511   194601697.112         129.671          42.000    37371192.517   150478309.534         100.298          46.000  
C22  24622124.247   128213862.991         614.715          44.000                                                                  
G26  20880753.679   109729100.532       -1959.827          46.000    20880744.060    85503157.064       -1527.130          44.000  
G27  21868687.050   114920729.054        2951.979          43.000    21868678.581    89548601.283        2299.927          43.000  
G09  23854954.845   125358633.917        2736.981          39.000    23854947.925    97682038.935        2132.544          39.000  
C28  24762246.639   128943508.852       -1085.633          38.000                                                                  
C07  38029558.151   198029888.432         790.392          41.000    38029539.134   153129202.711         611.025          45.000  
C20  25622148.513   133421249.672       -3618.745          42.000                                                                  
C36  23838093.951   124131211.309        1404.205          44.000                                                                  
C37  25054091.538   130463227.074       -2397.847          38.000                                                                  
C10  39159919.100   203915975.334         730.261          39.000    39159904.371   157680778.365         564.816          41.000  
G08  24126662.481   126786469.635        3598.311          35.000    24126662.607    98794736.656        2804.423          37.000  
G29  25361414.950   133275141.121       -3603.124          35.000    25361407.700   103850706.567       -2807.403          35.000  
C30  25100456.828   130704668.350        2758.669          46.000                                                                  
C13  40795604.518   212433417.753       -2426.201          33.000    40795607.333   164267004.330       -1876.241          37.000  
C08                                                                  41710666.449   167951580.662       -1821.301          39.000  
> 2025 11 03 07 44 14.9200000  0 26                     
G04  21382446.415   112365513.127        1076.569          43.000    21382435.534    87557499.639         838.909          46.000  
G16  20187111.119   106083985.174         154.919          44.000                                                                  
G28  23105611.785   121420808.288       -2713.196          34.000    23105601.764    94613564.596       -2114.311          40.000  
G31  21115670.039   110963596.693       -1709.710          46.000    21115657.203    86465084.357       -1332.474          44.000  
G03  24599174.556                       -2943.130          32.000    24599172.079   100729481.667       -2293.467          38.000  
G18  25144570.027                        1336.722          27.000    25144560.207   102962772.388        1041.510          30.000  
C16  36732833.167   191277505.463          11.537          46.000    36732819.151   147907841.063           9.017          47.000  
C19  23824652.984   124061219.593       -2183.551          45.000                                                                  
C27  23582860.930   122802145.727        1104.956          41.000                                                                  
C06  36290723.845   188975318.325           8.687          45.000    36290703.427   146127627.766           6.592          48.000  
C09  37371208.510   194601691.934         129.552          42.000    37371191.559   150478305.541          99.938          46.000  
C22  24622119.520   128213838.426         614.259          44.000                                                                  
G26  20880768.601   109729178.934       -1960.059          45.000    20880758.993    85503218.159       -1527.393          44.000  
G27  21868664.597   114920610.989        2951.730          42.000    21868656.130    89548509.292        2299.727          43.000  
G09  23854934.036   125358524.468        2736.407          39.000    23854927.068    97681953.629        2132.581          39.000  
C28  24762255.003   128943552.287       -1085.747          38.000                                                                  
C07  38029552.079   198029856.820         790.306          41.000    38029533.067   153129178.281         610.749          45.000  
C20  25622176.293   133421394.429       -3618.857          42.000                                                                  
C36  23838083.145   124131155.153        1403.973          44.000                                                                  
C37  25054109.957   130463323.030       -2398.589          37.000                                                                  
C10  39159913.505   203915946.120         730.313          39.000    39159898.767   157680755.791         564.521          41.000  
G08  24126635.099   126786325.753        3597.454          35.000    24126635.224    98794624.518        2803.894          35.000  
G29  25361442.374   133275285.279       -3603.728          36.000    25361435.140   103850818.890       -2807.894          35.000  
C30  25100435.590   130704558.007        2758.534          46.000                                                                  
C13  40795623.170   212433514.834       -2426.827          33.000    40795625.937   164267079.363       -1875.978          37.000  
C08                                                                  41710684.522   167951653.518       -1821.545          39.000  
> 2025 11 03 07 44 14.9600000  0 26                     
G04  21382438.204   112365470.052        1076.650          43.000    21382427.336    87557466.078         838.883          45.000  
G16  20187109.936   106083978.983         154.728          44.000                                                                  
G28  23105632.452   121420916.826       -2713.429          34.000    23105622.441    94613649.170       -2114.371          38.000  
G31  21115683.056   110963665.080       -1709.780          45.000    21115670.215    86465137.639       -1332.312          44.000  
G03  24599196.937                       -2942.817          32.000    24599194.479   100729573.426       -2294.000          38.000  
G18  25144559.922                        1335.610          27.000    25144550.017   102962730.683        1042.490          30.000  
C16  36732833.063   191277505.006          11.378          46.000    36732819.058   147907840.715           8.745          47.000  
C19  23824669.722   124061306.940       -2183.704          45.000                                                                  
C27  23582852.439   122802101.533        1104.857          40.000                                                                  
C06  36290723.783   188975317.987           8.479          45.000    36290703.341   146127627.501           6.534          48.000  
C09  37371207.507   194601686.762         129.353          42.000    37371190.566   150478301.545          99.796          46.000  
C22  24622114.811   128213813.853         614.167          44.000                                                                  
G26  20880783.497   109729257.324       -1959.937          45.000    20880773.901    85503279.253       -1527.472          44.000  
G27  21868642.141   114920492.929        2951.480          42.000    21868633.673    89548417.304        2299.613          43.000  
G09  23854913.216   125358415.011        2736.267          39.000    23854906.258    97681868.346        2132.172          39.000  
C28  24762263.362   128943595.729       -1085.911          38.000                                                                  
C07  38029546.015   198029825.217         790.137          41.000    38029526.987   153129153.864         610.413          45.000  
C20  25622204.103   133421539.190       -3619.062          42.000                                                                  
C36  23838072.355   124131098.998        1403.839          44.000                                                                  
C37  25054128.397   130463419.009       -2399.426          36.000                                                                  
C10  39159907.890   203915916.936         729.902          39.000    39159893.182   157680733.232         564.084          41.000  
G08  24126607.704   126786181.838        3597.549          35.000    24126607.839    98794512.386        2803.455          35.000  
G29  25361469.814   133275429.446       -3604.150          36.000    25361462.609   103850931.249       -2808.756          35.000  
C30  25100414.397   130704447.669        2758.383          46.000                                                                  
C13  40795641.809   212433611.902       -2426.888          33.000    40795644.573   164267154.430       -1876.439          37.000  
C08                                                                  41710702.592   167951726.382       -1821.667          39.000  
> 2025 11 03 07 44 15.0000000  0 26                     
G04  21382430.001   112365427.006        1076.252          43.000    21382419.141    87557432.539         838.497          45.000  
G16  20187108.757   106083972.804         154.438          44.000                                                                  
G28  23105653.120   121421025.373       -2713.649          34.000    23105643.103    94613733.762       -2114.731          38.000  
G31  21115696.074   110963733.482       -1710.065          45.000    21115683.227    86465190.944       -1332.608          44.000  
G03  24599219.357                       -2943.395          32.000    24599216.888   100729665.182       -2294.122          38.000  
G18  25144549.758                        1335.833          27.000    25144539.868                        1039.534          30.000  
C16  36732832.960   191277504.569          10.948          46.000    36732818.995   147907840.376           8.433          47.000  
C19  23824686.460   124061394.304       -2184.088          45.000                                                                  
C27  23582843.955   122802057.350        1104.642          40.000                                                                  
C06  36290723.719   188975317.653           8.322          45.000    36290703.283   146127627.244           6.375          47.000  
C09  37371206.518   194601681.605         128.965          42.000    37371189.543   150478297.562          99.528          46.000  
C22  24622110.085   128213789.300         613.793          44.000                                                                  
G26  20880798.414   109729335.731       -1960.187          45.000    20880788.838    85503340.351       -1527.533          44.000  
G27  21868619.673   114920374.888        2951.058          42.000    21868611.223    89548325.316        2299.549          43.000  
G09  23854892.387   125358305.563        2736.090          39.000    23854885.442    97681783.064        2131.921          39.000  
C28  24762271.723   128943639.180       -1086.232          38.000                                                                  
C07  38029539.943   198029793.629         789.749          41.000    38029520.953   153129129.441         610.375          45.000  
C20  25622231.904   133421683.967       -3619.432          42.000                                                                  
C36  23838061.561   124131042.864        1403.357          44.000                                                                  
C37  25054146.829   130463514.936       -2398.818          36.000                                                                  
C10  39159902.291   203915887.769         729.319          39.000    39159887.562   157680710.668         563.938          41.000  
G08  24126580.311   126786037.890        3598.218          35.000    24126580.469    98794400.274        2802.908          35.000  
G29  25361497.220   133275573.608       -3604.245          36.000    25361490.036   103851043.578       -2808.662          35.000  
C30  25100393.192   130704337.343        2758.106          46.000                                                                  
C13  40795660.465   212433708.967       -2426.794          33.000    40795663.242   164267229.513       -1877.032          37.000  
C08                                                                  41710720.674   167951799.252       -1821.814          39.000  
> 2025 11 03 07 44 15.0400000  0 26                     
G04  21382421.813   112365383.940        1076.448          42.000    21382410.958    87557398.994         838.450          45.000  
G16  20187107.590   106083966.619         154.437          44.000                                                                  
G28  23105673.764   121421133.911       -2713.730          31.000    23105663.758    94613818.346       -2114.721          38.000  
G31  21115709.081   110963801.883       -1710.142          45.000    21115696.250    86465244.245       -1332.682          43.000  
G03  24599241.793                       -2943.892          32.000    24599239.293   100729756.925       -2293.857          38.000  
G18  25144539.549                        1335.420          27.000    25144529.737                        1037.939          30.000  
C16  36732832.849   191277504.124          10.926          46.000    36732818.918   147907840.038           8.290          47.000  
C19  23824703.248   124061481.676       -2184.381          45.000                                                                  
C27  23582835.461   122802013.187        1104.144          40.000                                                                  
C06  36290723.637   188975317.319           8.274          45.000    36290703.203   146127626.987           6.298          47.000  
C09  37371205.531   194601676.437         128.966          42.000    37371188.566   150478293.573          99.531          46.000  
C22  24622105.351   128213764.741         613.812          43.000                                                                  
G26  20880813.339   109729414.144       -1960.406          45.000    20880803.764    85503401.440       -1527.344          44.000  
G27  21868597.232   114920256.857        2950.671          42.000    21868588.748    89548233.324        2299.621          43.000  
G09  23854871.556   125358196.110        2736.127          38.000    23854864.625    97681697.782        2131.866          39.000  
C28  24762280.072   128943682.672       -1087.098          38.000                                                                  
C07  38029533.877   198029762.056         789.334          41.000    38029514.864   153129105.009         610.587          45.000  
C20  25622259.707   133421828.750       -3619.658          42.000                                                                  
C36  23838050.779   124130986.726        1403.278          45.000                                                                  
C37  25054165.267   130463610.870       -2398.549          36.000                                                                  
C10  39159896.691   203915858.593         729.182          39.000    39159881.938   157680688.115         563.721          41.000  
G08  24126552.893   126785893.961        3598.269          35.000    24126553.071    98794288.152        2802.736          35.000  
G29  25361524.638   133275717.759       -3604.030          38.000    25361517.466   103851155.893       -2808.282          35.000  
C30  25100372.011   130704227.009        2758.181          46.000                                                                  
C13  40795679.084   212433806.015       -2426.428          33.000    40795681.912   164267304.564       -1876.607          37.000  
C08                                                                  41710738.755   167951872.113       -1821.710          39.000  
> 2025 11 03 07 44 15.0800000  0 26                     
G04  21382413.599   112365340.881        1076.447          42.000    21382402.758    87557365.439         838.629          45.000  
G16  20187106.402   106083960.433         154.501          44.000                                                                  
G28  23105694.413   121421242.467       -2714.014          31.000    23105684.404    94613902.924       -2114.589          38.000  
G31  21115722.096   110963870.285       -1710.184          45.000    21115709.267    86465297.533       -1332.452          43.000  
G03  24599264.216                       -2944.428          32.000    24599261.705   100729848.660       -2293.542          38.000  
G18  25144529.388                        1335.288          27.000    25144519.595                        1039.701          30.000  
C16  36732832.745   191277503.669          11.138          47.000    36732818.841   147907839.679           8.646          47.000  
C19  23824720.002   124061569.048       -2184.491          45.000                                                                  
C27  23582826.966   122801969.025        1103.881          39.000                                                                  
C06  36290723.573   188975316.974           8.446          45.000    36290703.105   146127626.723           6.439          47.000  
C09  37371204.555   194601671.280         128.859          42.000    37371187.603   150478289.575          99.774          46.000  
C22  24622100.618   128213740.180         613.900          44.000                                                                  
G26  20880828.266   109729492.560       -1960.516          45.000    20880818.696    85503462.528       -1527.258          44.000  
G27  21868574.750   114920138.822        2950.605          42.000    21868566.293    89548141.342        2299.548          43.000  
G09  23854850.736   125358086.655        2736.236          38.000    23854843.793    97681612.497        2132.001          39.000  
C28  24762288.455   128943726.141       -1087.088          39.000                                                                  
C07  38029527.836   198029730.474         789.356          41.000    38029508.798   153129080.582         610.599          44.000  
C20  25622287.532   133421973.531       -3619.706          43.000                                                                  
C36  23838039.991   124130930.589        1403.259          45.000                                                                  
C37  25054183.701   130463706.781       -2398.040          37.000                                                                  
C10  39159891.070   203915829.411         729.310          39.000    39159876.304   157680665.556         563.772          41.000  
G08  24126525.490   126785750.067        3597.635          35.000    24126525.677    98794176.021        2802.873          35.000  
G29  25361552.040   133275861.887       -3603.464          38.000    25361544.889   103851268.233       -2808.453          35.000  
C30  25100350.852   130704116.675        2758.224          46.000                                                                  
C13  40795697.718   212433903.097       -2426.756          33.000    40795700.554   164267379.611       -1876.306          37.000  
C08                                                                  41710756.845   167951944.978       -1821.729          39.000  
> 2025 11 03 07 44 15.1200000  0 26                     
G04  21382405.408   112365297.822        1076.460          42.000    21382394.552    87557331.877         838.898          45.000  
G16  20187105.220   106083954.248         154.570          44.000                                                                  
G28  23105715.048   121421351.048       -2714.577          31.000    23105705.070    94613987.504       -2114.532          38.000  
G31  21115735.121   110963938.681       -1710.077          45.000    21115722.258    86465350.820       -1332.272          43.000  
G03  24599286.581                       -2943.962          32.000    24599284.116   100729940.397       -2293.468          38.000  
G18  25144519.244                        1335.492          27.000    25144509.454                        1039.981          30.000  
C16  36732832.647   191277503.219          11.192          47.000    36732818.805   147907839.335           8.586          47.000  
C19  23824736.784   124061656.424       -2184.558          45.000                                                                  
C27  23582818.512   122801924.855        1103.988          39.000                                                                  
C06  36290723.487   188975316.638           8.406          45.000    36290703.040   146127626.461           6.478          47.000  
C09  37371203.580   194601666.122         128.840          42.000    37371186.611   150478285.575          99.947          46.000  
C22  24622095.911   128213715.625         613.879          44.000                                                                  
G26  20880843.155   109729570.964       -1960.309          45.000    20880833.613    85503523.619       -1527.240          44.000  
G27  21868552.291   114920020.770        2950.945          42.000    21868543.841    89548049.348        2299.695          43.000  
G09  23854829.902   125357977.196        2736.365          38.000    23854822.950    97681527.205        2132.178          39.000  
C28  24762296.817   128943769.620       -1087.155          39.000                                                                  
C07  38029521.762   198029698.900         789.247          40.000    38029502.734   153129056.151         610.700          44.000  
C20  25622315.344   133422118.299       -3619.448          43.000                                                                  
C36  23838029.217   124130874.444        1403.436          45.000                                                                  
C37  25054202.138   130463802.725       -2398.390          37.000                                                                  
C10  39159885.461   203915800.218         729.618          39.000    39159870.706   157680643.004         563.695          41.000  
G08  24126498.074   126785606.158        3597.602          35.000    24126498.273    98794063.864        2803.445          35.000  
G29  25361579.474   133276006.024       -3603.292          38.000    25361572.326   103851380.530       -2807.826          35.000  
C30  25100329.671   130704006.342        2758.245          46.000                                                                  
C13  40795716.356   212434000.149       -2426.538          33.000    40795719.193   164267454.681       -1876.598          37.000  
C08                                                                  41710774.934   167952017.843       -1821.686          39.000  
> 2025 11 03 07 44 15.1600000  0 26                     
G04  21382397.212   112365254.756        1076.544          42.000    21382386.362    87557298.320         838.942          45.000  
G16  20187104.060   106083948.059         154.657          44.000                                                                  
G28  23105735.655   121421459.583       -2713.973          31.000    23105725.739    94614072.091       -2114.620          38.000  
G31  21115748.134   110964007.085       -1710.162          45.000    21115735.285    86465404.116       -1332.368          43.000  
G03  24599308.969                       -2943.167          32.000    24599306.522   100730032.147       -2293.661          38.000  
G18  25144509.091                        1335.029          27.000    25144499.269                        1040.260          30.000  
C16  36732832.574   191277502.760          11.379          47.000    36732818.710   147907838.979           8.783          47.000  
C19  23824753.565   124061743.791       -2184.338          45.000                                                                  
C27  23582810.037   122801880.699        1103.835          39.000                                                                  
C06  36290723.402   188975316.298           8.423          44.000    36290702.963   146127626.196           6.572          47.000  
C09  37371202.577   194601660.951         129.132          42.000    37371185.620   150478281.580          99.929          45.000  
C22  24622091.192   128213691.072         613.814          44.000                                                                  
G26  20880858.085   109729649.371       -1960.205          45.000    20880848.526    85503584.727       -1527.576          44.000  
G27  21868529.826   114919902.720        2951.100          42.000    21868521.390    89547957.371        2299.539          43.000  
G09  23854809.072   125357867.743        2736.346          38.000    23854802.123    97681441.924        2132.092          39.000  
C28  24762305.187   128943813.081       -1086.790          38.000                                                                  
C07  38029515.708   198029667.318         789.421          40.000    38029496.667   153129031.725         610.687          43.000  
C20  25622343.152   133422263.058       -3619.125          43.000                                                                  
C36  23838018.434   124130818.298        1403.595          45.000                                                                  
C37  25054220.569   130463898.684       -2398.860          37.000                                                                  
C10  39159879.854   203915771.036         729.555          39.000    39159865.089   157680620.444         563.893          41.000  
G08  24126470.695   126785462.258        3597.408          35.000    24126470.868    98793951.720        2803.690          35.000  
G29  25361606.893   133276150.179       -3603.615          38.000    25361599.768   103851492.870       -2808.229          35.000  
C30  25100308.482   130703896.017        2758.152          46.000                                                                  
C13  40795735.002   212434097.208       -2426.520          33.000    40795737.857   164267529.764       -1877.005          37.000  
C08                                                                  41710793.006   167952090.700       -1821.564          39.000  
> 2025 11 03 07 44 15.2000000  0 26                     
G04  21382389.027   112365211.724        1076.051          42.000    21382378.166    87557264.772         838.765          44.000  
G16  20187102.884   106083941.871         154.707          44.000                                                                  
G28  23105756.325   121421568.133       -2713.722          31.000    23105746.415    94614156.681       -2114.725          38.000  
G31  21115761.141   110964075.487       -1710.123          45.000    21115748.318    86465457.425       -1332.625          43.000  
G03  24599331.344                       -2943.066          32.000    24599328.929   100730123.903       -2293.859          38.000  
G18  25144498.932                        1334.946          26.000    25144489.088                        1040.345          30.000  
C16  36732832.456   191277502.298          11.539          47.000    36732818.672   147907838.630           8.745          47.000  
C19  23824770.356   124061831.156       -2184.174          45.000                                                                  
C27  23582801.544   122801836.519        1104.299          39.000                                                                  
C06  36290723.325   188975315.967           8.319          44.000    36290702.896   146127625.942           6.437          47.000  
C09  37371201.593   194601655.775         129.373          42.000    37371184.634   150478277.591          99.807          45.000  
C22  24622086.498   128213666.516         613.787          44.000                                                                  
G26  20880873.012   109729727.784       -1960.284          45.000    20880863.462    85503645.821       -1527.466          43.000  
G27  21868507.351   114919784.680        2950.997          41.000    21868498.928    89547865.393        2299.458          43.000  
G09  23854788.250   125357758.306        2735.986          38.000    23854781.292    97681356.660        2131.683          39.000  
C28  24762313.570   128943856.543       -1086.608          38.000                                                                  
C07  38029509.622   198029635.731         789.571          40.000    38029490.615   153129007.309         610.454          43.000  
C20  25622370.954   133422407.840       -3619.403          43.000                                                                  
C36  23838007.657   124130762.149        1403.711          45.000                                                                  
C37  25054239.014   130463994.636       -2398.925          37.000                                                                  
C10  39159874.240   203915741.862         729.432          39.000    39159859.458   157680597.857         564.427          41.000  
G08  24126443.311   126785318.333        3597.693          35.000    24126443.485    98793839.582        2803.624          35.000  
G29  25361634.320   133276294.360       -3604.233          38.000    25361627.196   103851605.183       -2807.991          35.000  
C30  25100287.304   130703785.679        2758.329          46.000                                                                  
C13  40795753.635   212434194.279       -2426.722          33.000    40795756.501   164267604.839       -1877.043          37.000  
C08                                                                  41710811.104   167952163.580       -1821.912          39.000  
