     3.04           OBSERVATION DATA    M: Mixed            RINEX VERSION / TYPE
RTKCONV 2.4.3 b34                       20251103 075636 UTC PGM / RUN BY / DATE 
format: u-blox UBX                                          COMMENT             
log: D:\GPdata\11_3\mixfingure_11_3_1.ubx                   COMMENT             
                                                            MARKER NAME         
                                                            MARKER NUMBER       
                                                            MARKER TYPE         
                                                            OBSERVER / AGENCY   
                                                            REC # / TYPE / VERS 
                                                            ANT # / TYPE        
        0.0000        0.0000        0.0000                  APPROX POSITION XYZ 
        0.0000        0.0000        0.0000                  ANTENNA: DELTA H/E/N
G    8 C1C L1C D1C S1C C2L L2L D2L S2L                      SYS / # / OBS TYPES 
C    8 C2I L2I D2I S2I C7I L7I D7I S7I                      SYS / # / OBS TYPES 
  2025    11    03    07    45   19.4400000     GPS         TIME OF FIRST OBS   
  2025    11    03    07    45   46.2400000     GPS         TIME OF LAST OBS    
G L1C                                                       SYS / PHASE SHIFT   
G L2L  0.00000                                              SYS / PHASE SHIFT   
C L2I                                                       SYS / PHASE SHIFT   
C L7I                                                       SYS / PHASE SHIFT   
  0                                                         GLONASS SLOT / FRQ #
 C1C    0.000 C1P    0.000 C2C    0.000 C2P    0.000        GLONASS COD/PHS/BIS 
                                                            END OF HEADER       
> 2025 11 03 07 45 19.4400000  0 26                     
G04  21369505.064   112297506.5621       1030.104          44.000    21369494.223    87504507.6031        802.606          47.000  
G16  20185432.018   106075162.4521        117.238          46.000                                                                  
G28  23139063.638   121596595.6251      -2736.833          42.000    23139052.928    94750541.5881      -2132.720          44.000  
G31  21136828.520   111074786.5861      -1738.230          47.000    21136816.380    86551725.8371      -1354.359          45.000  
G03  24635406.480                       -2960.173          32.000    24635403.035   100877840.7501      -2306.080          37.000  
G18  25128335.487   132050291.8541       1307.510          37.000    25128327.462   102896300.9161       1018.487          38.000  
C16  36732718.103   191276904.9031          5.791          48.000    36732704.192   147907376.7011          4.477          48.000  
C19  23851921.810   124203213.7461      -2218.707          46.000                                                                  
C27  23569388.227   122731987.2801       1068.853          47.000                                                                  
C06  36290643.689   188974903.4331          2.882          47.000    36290623.100   146127306.9521          2.230          49.000  
C09  37369621.243   194593422.6591        125.841          44.000    37369603.385   150471911.2881         97.127          48.000  
C22  24614763.095   128175529.3701        572.309          42.000                                                                  
G26  20904974.739   109856384.2121      -1984.424          47.000    20904965.320    85602339.1631      -1546.350          45.000  
G27  21832617.930   114731186.9731       2918.889          44.000    21832609.748    89400906.4121       2274.521          43.000  
G09  23821504.849   125182858.6241       2707.428          36.000    23821498.566    97545071.5391       2110.059          37.000  
C28  24775959.901   129014921.2271      -1127.170          44.000                                                                  
C07  38019834.488   197979252.5021        777.626          41.000    38019814.879   153090048.0171        601.213          45.000  
C20  25667066.142   133655141.6691      -3627.783          43.000                                                                  
C36  23820764.011   124040967.4181       1390.778          44.000                                                                  
C37  25083886.070   130618369.5881      -2409.030          43.000                                                                  
C10  39150932.006   203869179.1741        718.865          37.000    39150917.309   157644592.8521        555.957          42.000  
G08  24082528.793   126554552.4351       3585.281          36.000    24082528.764    98614023.7131       2793.512          39.000  
G29  25405819.228   133508492.7601      -3626.661          36.000    25405811.879   104032539.0791      -2825.881          36.000  
C30  25066308.082   130526848.2181       2748.693          44.000                                                                  
C13  40825701.524   212590138.6501      -2429.120          33.000    40825705.758   164388189.6051      -1878.676          38.000  
C08                                                                  41739862.167   168069148.8241      -1821.375          38.000  
> 2025 11 03 07 45 19.4800000  0 26                     
G04  21369497.224   112297465.360        1030.060          44.000    21369486.392    87504475.498         802.554          47.000  
G16  20185431.139   106075157.754         117.313          46.000                                                                  
G28  23139084.463   121596705.110       -2737.162          42.000    23139073.755    94750626.885       -2132.563          44.000  
G31  21136841.753   111074856.118       -1738.301          47.000    21136829.598    86551780.016       -1354.447          45.000  
G03  24635429.016                       -2959.654          33.000    24635425.556   100877932.998       -2306.152          37.000  
G18  25128325.526   132050239.568        1307.259          37.000    25128317.507   102896260.160        1018.676          38.000  
C16  36732718.057   191276904.663           5.896          48.000    36732704.163   147907376.512           4.640          48.000  
C19  23851938.831   124203302.511       -2219.043          46.000                                                                  
C27  23569379.984   122731944.533        1068.717          47.000                                                                  
C06  36290643.655   188974903.316           2.865          47.000    36290623.099   146127306.860           2.240          49.000  
C09  37369620.271   194593417.629         125.800          44.000    37369602.398   150471907.396          97.201          48.000  
C22  24614758.719   128175506.491         572.080          42.000                                                                  
G26  20904989.846   109856463.589       -1984.454          47.000    20904980.413    85602401.014       -1546.344          45.000  
G27  21832595.724   114731070.218        2918.805          44.000    21832587.526    89400815.439        2274.290          43.000  
G09  23821484.241   125182750.318        2707.513          36.000    23821477.972    97544987.157        2109.735          37.000  
C28  24775968.578   129014966.314       -1127.219          44.000                                                                  
C07  38019828.517   197979221.398         777.618          41.000    38019808.910   153090023.964         601.257          45.000  
C20  25667094.018   133655286.775       -3627.744          43.000                                                                  
C36  23820753.316   124040911.801        1390.479          44.000                                                                  
C37  25083904.567   130618465.948       -2409.024          43.000                                                                  
C10  39150926.485   203869150.436         718.508          37.000    39150911.799   157644570.632         555.664          42.000  
G08  24082501.499   126554409.007        3585.531          36.000    24082501.487    98613911.962        2793.602          39.000  
G29  25405846.820   133508637.810       -3626.418          36.000    25405839.473   104032652.114       -2825.875          36.000  
C30  25066286.959   130526738.258        2748.853          44.000                                                                  
C13  40825720.195   212590235.855       -2429.795          33.000    40825724.412   164388264.754       -1878.739          38.000  
C08                                                                  41739880.284   168069221.696       -1821.674          38.000  
> 2025 11 03 07 45 19.5200000  0 26                     
G04  21369489.361   112297424.161        1029.938          44.000    21369478.574    87504443.389         802.610          47.000  
G16  20185430.262   106075153.064         117.233          46.000                                                                  
G28  23139105.303   121596814.589       -2737.140          42.000    23139094.603    94750712.193       -2132.688          44.000  
G31  21136854.975   111074925.644       -1738.280          47.000    21136842.817    86551834.209       -1354.751          45.000  
G03  24635451.569                       -2959.340          33.000    24635448.096   100878025.253       -2306.331          37.000  
G18  25128315.585   132050187.282        1307.089          37.000    25128307.531   102896219.405        1018.829          38.000  
C16  36732717.973   191276904.435           5.751          48.000    36732704.142   147907376.329           4.609          48.000  
C19  23851955.884   124203391.271       -2219.086          46.000                                                                  
C27  23569371.770   122731901.780        1068.736          47.000                                                                  
C06  36290643.638   188974903.193           2.971          47.000    36290623.095   146127306.768           2.260          49.000  
C09  37369619.284   194593412.600         125.740          44.000    37369601.448   150471903.505          97.233          48.000  
C22  24614754.339   128175483.616         571.868          42.000                                                                  
G26  20905004.965   109856542.969       -1984.503          47.000    20904995.532    85602462.865       -1546.326          45.000  
G27  21832573.482   114730953.454        2918.947          44.000    21832565.312    89400724.458        2274.364          43.000  
G09  23821463.624   125182642.006        2707.690          36.000    23821457.371    97544902.767        2109.735          37.000  
C28  24775977.247   129015011.400       -1127.212          44.000                                                                  
C07  38019822.554   197979190.308         777.296          41.000    38019802.965   153089999.920         601.117          45.000  
C20  25667121.891   133655431.884       -3627.737          43.000                                                                  
C36  23820742.616   124040856.175        1390.521          44.000                                                                  
C37  25083923.077   130618562.309       -2409.031          43.000                                                                  
C10  39150920.964   203869121.705         718.239          37.000    39150906.285   157644548.409         555.493          42.000  
G08  24082474.196   126554265.580        3585.583          36.000    24082474.193    98613800.215        2793.611          39.000  
G29  25405874.370   133508782.855       -3626.184          36.000    25405867.065   104032765.145       -2825.837          36.000  
C30  25066265.812   130526628.309        2748.727          44.000                                                                  
C13  40825738.871   212590333.042       -2429.787          33.000    40825743.089   164388339.907       -1878.833          38.000  
C08                                                                  41739898.380   168069294.558       -1821.680          38.000  
> 2025 11 03 07 45 19.5600000  0 26                     
G04  21369481.535   112297382.959        1029.985          44.000    21369470.741    87504411.285         802.578          47.000  
G16  20185429.374   106075148.369         117.283          46.000                                                                  
G28  23139126.143   121596924.061       -2736.920          42.000    23139115.448    94750797.498       -2132.693          44.000  
G31  21136868.198   111074995.181       -1738.389          47.000    21136856.046    86551888.389       -1354.687          45.000  
G03  24635474.111                       -2959.647          33.000    24635470.620   100878117.505       -2306.368          37.000  
G18  25128305.609   132050134.967        1307.561          37.000    25128297.594   102896178.663        1018.631          38.000  
C16  36732717.882   191276904.207           5.682          48.000    36732704.085   147907376.149           4.516          48.000  
C19  23851972.932   124203480.021       -2218.890          46.000                                                                  
C27  23569363.585   122731859.025        1068.792          47.000                                                                  
C06  36290643.601   188974903.080           2.859          47.000    36290623.096   146127306.677           2.240          49.000  
C09  37369618.330   194593407.573         125.651          44.000    37369600.482   150471899.616          97.207          48.000  
C22  24614749.941   128175460.744         571.706          42.000                                                                  
G26  20905020.055   109856622.348       -1984.485          47.000    20905010.658    85602524.725       -1546.478          45.000  
G27  21832551.274   114730836.692        2919.021          44.000    21832543.072    89400633.475        2274.465          43.000  
G09  23821443.029   125182533.716        2707.422          36.000    23821436.768    97544818.366        2110.004          37.000  
C28  24775985.910   129015056.488       -1127.242          44.000                                                                  
C07  38019816.580   197979159.201         777.521          41.000    38019796.982   153089975.871         601.151          45.000  
C20  25667149.746   133655576.994       -3627.788          43.000                                                                  
C36  23820731.955   124040800.543        1390.649          44.000                                                                  
C37  25083941.592   130618658.670       -2409.056          43.000                                                                  
C10  39150915.430   203869092.960         718.419          37.000    39150900.770   157644526.182         555.508          42.000  
G08  24082446.923   126554122.204        3584.724          36.000    24082446.898    98613688.446        2794.020          39.000  
G29  25405901.988   133508927.921       -3626.485          36.000    25405894.654   104032878.172       -2825.710          36.000  
C30  25066244.656   130526518.358        2748.687          44.000                                                                  
C13  40825757.543   212590430.248       -2430.162          33.000    40825761.747   164388415.053       -1878.762          38.000  
C08                                                                  41739916.476   168069367.430       -1821.863          38.000  
> 2025 11 03 07 45 19.6000000  0 26                     
G04  21369473.699   112297341.754        1030.054          44.000    21369462.896    87504379.182         802.534          47.000  
G16  20185428.480   106075143.681         117.209          46.000                                                                  
G28  23139146.953   121597033.536       -2736.851          42.000    23139136.297    94750882.808       -2132.767          44.000  
G31  21136881.437   111075064.718       -1738.471          47.000    21136869.264    86551942.570       -1354.636          45.000  
G03  24635496.661                       -2960.182          33.000    24635493.144   100878209.766       -2306.569          37.000  
G18  25128295.653   132050082.659        1307.717          37.000    25128287.622   102896137.910        1018.751          38.000  
C16  36732717.839   191276903.970           5.796          48.000    36732704.052   147907375.964           4.555          48.000  
C19  23851989.944   124203568.779       -2218.939          46.000                                                                  
C27  23569355.370   122731816.271        1068.798          47.000                                                                  
C06  36290643.601   188974902.961           2.905          47.000    36290623.096   146127306.587           2.213          49.000  
C09  37369617.374   194593402.534         125.872          44.000    37369599.502   150471895.728          97.188          48.000  
C22  24614745.537   128175437.855         571.978          42.000                                                                  
G26  20905035.169   109856701.722       -1984.381          47.000    20905025.757    85602586.574       -1546.344          45.000  
G27  21832529.068   114730719.937        2918.935          44.000    21832520.855    89400542.487        2274.587          43.000  
G09  23821422.429   125182425.418        2707.397          36.000    23821416.157    97544733.985        2109.680          37.000  
C28  24775994.560   129015101.566       -1127.071          44.000                                                                  
C07  38019810.612   197979128.095         777.615          41.000    38019791.019   153089951.819         601.226          45.000  
C20  25667177.636   133655722.103       -3627.761          43.000                                                                  
C36  23820721.300   124040744.916        1390.680          44.000                                                                  
C37  25083960.111   130618755.040       -2409.197          43.000                                                                  
C10  39150909.913   203869064.194         718.901          37.000    39150895.253   157644503.950         555.684          42.000  
G08  24082419.675   126553978.804        3584.821          36.000    24082419.592    98613576.705        2793.705          39.000  
G29  25405929.586   133509072.979       -3626.502          36.000    25405922.251   104032991.207       -2825.890          36.000  
C30  25066223.546   130526408.399        2748.791          44.000                                                                  
C13  40825776.207   212590527.423       -2429.639          33.000    40825780.412   164388490.197       -1878.623          38.000  
C08                                                                  41739934.579   168069440.288       -1821.619          38.000  
> 2025 11 03 07 45 19.6400000  0 26                     
G04  21369465.862   112297300.553        1030.033          44.000    21369455.047    87504347.081         802.469          47.000  
G16  20185427.571   106075138.985         117.284          46.000                                                                  
G28  23139167.794   121597143.015       -2736.927          42.000    23139157.155    94750968.125       -2132.941          44.000  
G31  21136894.678   111075134.251       -1738.442          47.000    21136882.490    86551996.744       -1354.456          45.000  
G03  24635519.192                       -2960.488          33.000    24635515.661   100878302.001       -2306.099          37.000  
G18  25128285.686   132050030.369        1307.467          37.000    25128277.664   102896097.157        1018.759          38.000  
C16  36732717.783   191276903.731           5.934          48.000    36732704.013   147907375.785           4.491          48.000  
C19  23852006.981   124203657.534       -2218.939          46.000                                                                  
C27  23569347.178   122731773.519        1068.773          47.000                                                                  
C06  36290643.584   188974902.838           3.007          47.000    36290623.086   146127306.501           2.142          49.000  
C09  37369616.414   194593397.511         125.690          44.000    37369598.534   150471891.835          97.260          48.000  
C22  24614741.162   128175414.973         572.035          42.000                                                                  
G26  20905050.276   109856781.099       -1984.393          47.000    20905040.856    85602648.416       -1546.106          45.000  
G27  21832506.837   114730603.175        2919.041          44.000    21832498.646    89400451.496        2274.744          43.000  
G09  23821401.808   125182317.117        2707.465          36.000    23821395.556    97544649.598        2109.650          37.000  
C28  24776003.209   129015146.649       -1127.061          44.000                                                                  
C07  38019804.650   197979096.993         777.575          41.000    38019785.048   153089927.767         601.276          45.000  
C20  25667205.477   133655867.215       -3627.805          43.000                                                                  
C36  23820710.604   124040689.284        1390.771          44.000                                                                  
C37  25083978.603   130618851.389       -2408.884          43.000                                                                  
C10  39150904.366   203869035.450         718.760          37.000    39150889.698   157644481.717         555.779          42.000  
G08  24082392.379   126553835.355        3585.618          36.000    24082392.308    98613464.944        2793.896          39.000  
G29  25405957.202   133509218.042       -3626.550          36.000    25405949.870   104033104.231       -2825.679          36.000  
C30  25066202.455   130526298.441        2748.876          44.000                                                                  
C13  40825794.860   212590624.593       -2429.283          33.000    40825799.061   164388565.340       -1878.542          38.000  
C08                                                                  41739952.660   168069513.144       -1821.454          38.000  
> 2025 11 03 07 45 19.6800000  0 26                     
G04  21369458.029   112297259.355        1029.966          44.000    21369447.195    87504314.978         802.494          47.000  
G16  20185426.679   106075134.291         117.315          46.000                                                                  
G28  23139188.628   121597252.490       -2736.889          42.000    23139177.982    94751053.427       -2132.765          44.000  
G31  21136907.893   111075203.780       -1738.339          47.000    21136895.737    86552050.930       -1354.586          45.000  
G03  24635541.734                       -2959.698          33.000    24635538.188   100878394.269       -2306.464          37.000  
G18  25128275.732   132049978.070        1307.454          37.000    25128267.713   102896056.381        1019.183          38.000  
C16  36732717.701   191276903.495           5.928          48.000    36732703.956   147907375.607           4.427          48.000  
C19  23852024.026   124203746.287       -2218.848          46.000                                                                  
C27  23569338.934   122731730.768        1068.761          47.000                                                                  
C06  36290643.552   188974902.721           2.950          47.000    36290623.057   146127306.409           2.205          49.000  
C09  37369615.445   194593392.475         125.807          44.000    37369597.591   150471887.946          97.246          48.000  
C22  24614736.765   128175392.091         572.053          42.000                                                                  
G26  20905065.404   109856860.477       -1984.448          47.000    20905055.975    85602710.272       -1546.295          45.000  
G27  21832484.619   114730486.414        2919.010          44.000    21832476.420    89400360.521        2274.522          43.000  
G09  23821381.200   125182208.807        2707.672          36.000    23821374.982    97544565.218        2109.546          37.000  
C28  24776011.853   129015191.746       -1127.305          44.000                                                                  
C07  38019798.662   197979065.897         777.462          41.000    38019779.105   153089903.717         601.256          45.000  
C20  25667233.365   133656012.321       -3627.703          43.000                                                                  
C36  23820699.923   124040633.661        1390.656          44.000                                                                  
C37  25083997.094   130618947.753       -2409.024          43.000                                                                  
C10  39150898.840   203869006.702         718.679          37.000    39150884.202   157644459.483         555.821          42.000  
G08  24082365.092   126553691.916        3585.961          36.000    24082365.009    98613353.199        2793.734          39.000  
G29  25405984.820   133509363.106       -3626.607          36.000    25405977.478   104033217.276       -2825.990          36.000  
C30  25066181.367   130526188.484        2748.866          44.000                                                                  
C13  40825813.515   212590721.782       -2429.509          33.000    40825817.740   164388640.486       -1878.647          38.000  
C08                                                                  41739970.751   168069585.995       -1821.216          38.000  
> 2025 11 03 07 45 19.7200000  0 26                     
G04  21369450.212   112297218.159        1029.880          44.000    21369439.351    87504282.869         802.592          47.000  
G16  20185425.775   106075129.605         117.178          46.000                                                                  
G28  23139209.471   121597361.961       -2736.802          42.000    23139198.812    94751138.724       -2132.548          44.000  
G31  21136921.099   111075273.310       -1738.286          47.000    21136908.946    86552105.111       -1354.601          45.000  
G03  24635564.275                       -2959.484          33.000    24635560.722   100878486.510       -2306.276          37.000  
G18  25128265.790   132049925.799        1306.850          37.000    25128257.769   102896015.650        1018.573          38.000  
C16  36732717.644   191276903.259           5.906          48.000    36732703.921   147907375.433           4.352          48.000  
C19  23852041.088   124203835.037       -2218.787          46.000                                                                  
C27  23569330.753   122731688.018        1068.724          47.000                                                                  
C06  36290643.545   188974902.608           2.831          47.000    36290623.043   146127306.313           2.310          49.000  
C09  37369614.465   194593387.449         125.709          44.000    37369596.640   150471884.061          97.123          48.000  
C22  24614732.361   128175369.208         572.056          42.000                                                                  
G26  20905080.517   109856939.858       -1984.546          47.000    20905071.083    85602772.132       -1546.472          45.000  
G27  21832462.411   114730369.653        2918.996          44.000    21832454.210    89400269.538        2274.552          43.000  
G09  23821360.606   125182100.516        2707.416          36.000    23821354.352    97544480.819        2109.833          37.000  
C28  24776020.510   129015236.843       -1127.458          44.000                                                                  
C07  38019792.671   197979034.804         777.364          41.000    38019773.124   153089879.661         601.312          45.000  
C20  25667261.230   133656157.438       -3627.850          43.000                                                                  
C36  23820689.260   124040578.032        1390.686          44.000                                                                  
C37  25084015.587   130619044.110       -2409.006          43.000                                                                  
C10  39150893.312   203868977.951         718.757          37.000    39150878.684   157644437.244         555.958          42.000  
G08  24082337.817   126553548.530        3585.121          36.000    24082337.716    98613241.456        2793.598          39.000  
G29  25406012.407   133509508.180       -3626.795          36.000    25406005.072   104033330.311       -2825.980          36.000  
C30  25066160.251   130526078.526        2748.837          44.000                                                                  
C13  40825832.180   212590818.970       -2429.733          33.000    40825836.407   164388715.643       -1878.905          38.000  
C08                                                                  41739988.832   168069658.856       -1821.332          38.000  
> 2025 11 03 07 45 19.7600000  0 26                     
G04  21369442.356   112297176.957        1029.943          44.000    21369431.524    87504250.767         802.537          47.000  
G16  20185424.877   106075124.912         117.222          46.000                                                                  
G28  23139230.317   121597471.433       -2736.760          42.000    23139219.636    94751224.023       -2132.506          44.000  
G31  21136934.333   111075342.835       -1738.154          47.000    21136922.181    86552159.290       -1354.545          45.000  
G03  24635586.806                       -2959.242          33.000    24635583.254   100878578.761       -2306.305          37.000  
G18  25128255.831   132049873.488        1307.279          37.000    25128247.837   102895974.911        1018.373          38.000  
C16  36732717.590   191276903.025           5.853          48.000    36732703.841   147907375.241           4.630          48.000  
C19  23852058.122   124203923.795       -2218.915          46.000                                                                  
C27  23569322.559   122731645.263        1068.798          47.000                                                                  
C06  36290643.550   188974902.485           2.958          47.000    36290623.017   146127306.219           2.367          49.000  
C09  37369613.499   194593382.411         125.857          44.000    37369595.681   150471880.167          97.260          48.000  
C22  24614727.946   128175346.324         572.102          42.000                                                                  
G26  20905095.606   109857019.238       -1984.552          47.000    20905086.191    85602833.982       -1546.326          45.000  
G27  21832440.215   114730252.894        2918.928          44.000    21832431.983    89400178.558        2274.508          43.000  
G09  23821339.987   125181992.214        2707.440          36.000    23821333.743    97544396.424        2109.924          37.000  
C28  24776029.179   129015281.928       -1127.322          44.000                                                                  
C07  38019786.710   197979003.696         777.572          41.000    38019767.135   153089855.611         601.248          45.000  
C20  25667289.108   133656302.542       -3627.716          43.000                                                                  
C36  23820678.596   124040522.403        1390.692          44.000                                                                  
C37  25084034.100   130619140.478       -2409.168          43.000                                                                  
C10  39150887.765   203868949.197         718.836          37.000    39150873.146   157644415.026         555.655          42.000  
G08  24082310.554   126553405.133        3584.871          36.000    24082310.410    98613129.714        2793.510          39.000  
G29  25406039.999   133509653.236       -3626.547          36.000    25406032.675   104033443.335       -2825.767          36.000  
C30  25066139.147   130525968.563        2748.989          44.000                                                                  
C13  40825850.869   212590916.160       -2429.792          33.000    40825855.061   164388790.789       -1878.820          38.000  
C08                                                                  41740006.945   168069731.715       -1821.393          37.000  
> 2025 11 03 07 45 19.8000000  0 26                     
G04  21369434.505   112297135.763        1029.858          44.000    21369423.677    87504218.662         802.571          47.000  
G16  20185423.980   106075120.222         117.210          46.000                                                                  
G28  23139251.161   121597580.912       -2736.904          42.000    23139240.476    94751309.330       -2132.607          44.000  
G31  21136947.562   111075412.365       -1738.201          47.000    21136935.425    86552213.471       -1354.545          45.000  
G03  24635609.328                       -2959.891          32.000    24635605.789   100878670.999       -2306.041          37.000  
G18  25128245.870   132049821.178        1307.606          37.000    25128237.877   102895934.166        1018.421          38.000  
C16  36732717.538   191276902.791           5.836          48.000    36732703.793   147907375.051           4.742          48.000  
C19  23852075.155   124204012.557       -2219.055          46.000                                                                  
C27  23569314.386   122731602.508        1068.835          47.000                                                                  
C06  36290643.529   188974902.362           3.030          47.000    36290622.982   146127306.125           2.369          49.000  
C09  37369612.514   194593377.377         125.861          44.000    37369594.712   150471876.270          97.381          48.000  
C22  24614723.524   128175323.442         572.068          42.000                                                                  
G26  20905110.706   109857098.609       -1984.351          47.000    20905101.311    85602895.830       -1546.252          45.000  
G27  21832417.983   114730136.129        2919.014          44.000    21832409.760    89400087.570        2274.659          43.000  
G09  23821319.379   125181883.936        2707.037          36.000    23821313.135    97544312.036        2109.778          37.000  
C28  24776037.820   129015327.015       -1127.260          44.000                                                                  
C07  38019780.758   197978972.584         777.752          41.000    38019761.155   153089831.564         601.173          45.000  
C20  25667316.968   133656447.648       -3627.647          43.000                                                                  
C36  23820667.921   124040466.766        1390.869          44.000                                                                  
C37  25084052.601   130619236.834       -2409.049          43.000                                                                  
C10  39150882.260   203868920.442         718.842          38.000    39150867.622   157644392.799         555.663          42.000  
G08  24082283.253   126553261.712        3585.184          36.000    24082283.110    98613017.946        2793.941          39.000  
G29  25406067.590   133509798.294       -3626.439          36.000    25406060.275   104033556.382       -2826.058          36.000  
C30  25066118.047   130525858.608        2748.909          44.000                                                                  
C13  40825869.525   212591013.333       -2429.559          33.000    40825873.747   164388865.933       -1878.686          38.000  
C08                                                                  41740025.058   168069804.572       -1821.454          37.000  
> 2025 11 03 07 45 19.8400000  0 26                     
G04  21369426.652   112297094.556        1030.052          44.000    21369415.809    87504186.562         802.478          47.000  
G16  20185423.078   106075115.527         117.303          46.000                                                                  
G28  23139271.986   121597690.383       -2736.848          42.000    23139261.311    94751394.631       -2132.557          44.000  
G31  21136960.788   111075481.890       -1738.134          47.000    21136948.650    86552267.644       -1354.442          45.000  
G03  24635631.855                       -2958.714          32.000    24635628.285   100878763.240       -2305.970          37.000  
G18  25128235.907   132049768.893        1307.335          37.000    25128227.927   102895893.400        1018.837          38.000  
C16  36732717.492   191276902.543           6.071          48.000    36732703.725   147907374.862           4.789          48.000  
C19  23852092.223   124204101.312       -2218.982          46.000                                                                  
C27  23569306.186   122731559.751        1068.928          47.000                                                                  
C06  36290643.528   188974902.231           3.198          47.000    36290622.971   146127306.023           2.478          49.000  
C09  37369611.534   194593372.339         125.918          44.000    37369593.745   150471872.372          97.441          48.000  
C22  24614719.111   128175300.559         572.048          42.000                                                                  
G26  20905125.799   109857177.978       -1984.259          47.000    20905116.409    85602957.678       -1546.234          45.000  
G27  21832395.778   114730019.361        2919.160          44.000    21832387.551    89399996.595        2274.493          43.000  
G09  23821298.761   125181775.620        2707.550          36.000    23821292.538    97544227.657        2109.564          37.000  
C28  24776046.486   129015372.095       -1127.093          44.000                                                                  
C07  38019774.768   197978941.479         777.718          41.000    38019755.189   153089807.513         601.212          45.000  
C20  25667344.781   133656592.742       -3627.454          43.000                                                                  
C36  23820657.227   124040411.133        1390.814          44.000                                                                  
C37  25084071.125   130619333.179       -2408.731          43.000                                                                  
C10  39150876.736   203868891.699         718.662          38.000    39150862.104   157644370.557         555.895          42.000  
G08  24082255.955   126553118.277        3585.629          36.000    24082255.819    98612906.192        2793.968          39.000  
G29  25406095.186   133509943.338       -3626.249          36.000    25406087.891   104033669.425       -2826.250          36.000  
C30  25066096.959   130525748.642        2749.051          44.000                                                                  
C13  40825888.192   212591110.493       -2429.042          33.000    40825892.416   164388941.081       -1878.622          38.000  
C08                                                                  41740043.173   168069877.424       -1821.387          37.000  
> 2025 11 03 07 45 19.8800000  0 26                     
G04  21369418.804   112297053.352        1030.079          44.000    21369407.967    87504154.458         802.498          47.000  
G16  20185422.135   106075110.829         117.421          46.000                                                                  
G28  23139292.809   121597799.868       -2737.066          42.000    23139282.147    94751479.940       -2132.694          44.000  
G31  21136974.019   111075551.419       -1738.177          47.000    21136961.881    86552321.815       -1354.333          45.000  
G03  24635654.374                       -2959.391          32.000    24635650.821   100878855.471       -2305.843          37.000  
G18  25128225.932   132049716.594        1307.354          37.000    25128217.976   102895852.652        1018.722          38.000  
C16  36732717.443   191276902.296           6.197          48.000    36732703.690   147907374.679           4.673          48.000  
C19  23852109.289   124204190.062       -2218.842          46.000                                                                  
C27  23569297.994   122731516.995        1068.927          47.000                                                                  
C06  36290643.522   188974902.106           3.192          47.000    36290622.954   146127305.934           2.323          49.000  
C09  37369610.564   194593367.300         125.979          44.000    37369592.775   150471868.473          97.495          48.000  
C22  24614714.712   128175277.671         572.117          42.000                                                                  
G26  20905140.899   109857257.353       -1984.326          47.000    20905131.520    85603019.528       -1546.228          45.000  
G27  21832373.564   114729902.602        2919.045          44.000    21832365.336    89399905.616        2274.441          43.000  
G09  23821278.148   125181667.288        2708.178          36.000    23821271.924    97544143.271        2109.637          37.000  
C28  24776055.133   129015417.179       -1127.084          44.000                                                                  
C07  38019768.798   197978910.368         777.799          41.000    38019749.225   153089783.458         601.287          45.000  
C20  25667372.638   133656737.844       -3627.507          43.000                                                                  
C36  23820646.529   124040355.501        1390.814          44.000                                                                  
C37  25084089.644   130619429.529       -2408.680          43.000                                                                  
C10  39150871.201   203868862.947         718.728          38.000    39150856.562   157644348.318         555.967          42.000  
G08  24082228.673   126552974.870        3585.341          36.000    24082228.531    98612794.450        2793.722          39.000  
G29  25406122.797   133510088.384       -3626.139          36.000    25406115.498   104033782.437       -2825.632          36.000  
C30  25066075.835   130525638.687        2748.932          44.000                                                                  
C13  40825906.840   212591207.670       -2429.311          33.000    40825911.067   164389016.210       -1878.285          38.000  
C08                                                                  41740061.278   168069950.295       -1821.722          37.000  
> 2025 11 03 07 45 19.9200000  0 26                     
G04  21369410.967   112297012.154        1029.972          44.000    21369400.139    87504122.347         802.637          47.000  
G16  20185421.275   106075106.140         117.309          46.000                                                                  
G28  23139313.623   121597909.334       -2736.815          42.000    23139302.969    94751565.245       -2132.706          44.000  
G31  21136987.268   111075620.958       -1738.400          47.000    21136975.126    86552376.000       -1354.494          45.000  
G03  24635676.864                       -2959.626          32.000    24635673.338   100878947.722       -2306.109          37.000  
G18  25128215.991   132049664.295        1307.303          37.000    25128208.030   102895811.898        1018.744          38.000  
C16  36732717.372   191276902.058           6.059          48.000    36732703.611   147907374.487           4.765          48.000  
C19  23852126.341   124204278.822       -2218.945          46.000                                                                  
C27  23569289.759   122731474.249        1068.711          47.000                                                                  
C06  36290643.484   188974901.989           3.002          47.000    36290622.927   146127305.835           2.390          49.000  
C09  37369609.606   194593362.269         125.837          44.000    37369591.790   150471864.574          97.472          48.000  
C22  24614710.305   128175254.795         571.947          42.000                                                                  
G26  20905156.006   109857336.733       -1984.485          47.000    20905146.642    85603081.384       -1546.350          45.000  
G27  21832351.350   114729785.840        2919.074          44.000    21832343.110    89399814.629        2274.565          43.000  
G09  23821257.541   125181558.987        2707.849          36.000    23821251.310    97544058.875        2109.863          37.000  
C28  24776063.790   129015462.281       -1127.406          44.000                                                                  
C07  38019762.807   197978879.255         777.841          41.000    38019743.239   153089759.405         601.312          45.000  
C20  25667400.495   133656882.947       -3627.541          43.000                                                                  
C36  23820635.840   124040299.877        1390.674          44.000                                                                  
C37  25084108.155   130619525.890       -2408.920          43.000                                                                  
C10  39150865.685   203868834.197         718.756          38.000    39150851.021   157644326.083         555.899          42.000  
G08  24082201.412   126552831.448        3585.417          36.000    24082201.232    98612682.704        2793.646          39.000  
G29  25406150.417   133510233.436       -3626.267          36.000    25406143.084   104033895.459       -2825.532          36.000  
C30  25066054.717   130525528.736        2748.743          44.000                                                                  
C13  40825925.467   212591304.857       -2429.607          33.000    40825929.738   164389091.354       -1878.434          38.000  
C08                                                                  41740079.382   168070023.163       -1821.753          37.000  
> 2025 11 03 07 45 19.9600000  0 26                     
G04  21369403.149   112296970.972        1029.637          44.000    21369392.285    87504090.250         802.456          47.000  
G16  20185420.413   106075101.456         117.140          46.000                                                                  
G28  23139334.442   121598018.810       -2736.860          42.000    23139323.801    94751650.543       -2132.562          44.000  
G31  21137000.510   111075690.492       -1738.414          47.000    21136988.363    86552430.175       -1354.446          45.000  
G03  24635699.410                       -2960.601          32.000    24635695.877   100879039.979       -2306.393          37.000  
G18  25128206.028   132049611.997        1307.291          37.000    25128198.065   102895771.134        1018.916          38.000  
C16  36732717.292   191276901.823           5.914          48.000    36732703.560   147907374.304           4.652          48.000  
C19  23852143.403   124204367.573       -2218.829          46.000                                                                  
C27  23569281.537   122731431.504        1068.601          47.000                                                                  
C06  36290643.466   188974901.867           2.964          47.000    36290622.904   146127305.738           2.401          49.000  
C09  37369608.621   194593357.239         125.754          44.000    37369590.813   150471860.687          97.247          48.000  
C22  24614705.921   128175231.923         571.746          42.000                                                                  
G26  20905171.099   109857416.113       -1984.552          47.000    20905161.715    85603143.240       -1546.436          45.000  
G27  21832329.156   114729669.084        2918.949          44.000    21832320.874    89399723.639        2274.708          43.000  
G09  23821236.949   125181450.703        2707.318          36.000    23821230.695    97543974.474        2109.998          37.000  
C28  24776072.452   129015507.373       -1127.420          44.000                                                                  
C07  38019756.845   197978848.162         777.488          41.000    38019737.298   153089735.355         601.275          45.000  
C20  25667428.342   133657028.054       -3627.655          43.000                                                                  
C36  23820625.160   124040244.250        1390.643          44.000                                                                  
C37  25084126.695   130619622.247       -2408.956          43.000                                                                  
C10  39150860.178   203868805.436         718.902          38.000    39150845.511   157644303.862         555.612          42.000  
G08  24082174.108   126552688.028        3585.469          36.000    24082173.929    98612570.943        2793.859          39.000  
G29  25406178.003   133510378.520       -3626.914          36.000    25406170.699   104034008.500       -2825.873          36.000  
C30  25066033.577   130525418.781        2748.774          44.000                                                                  
C13  40825944.130   212591402.047       -2429.707          33.000    40825948.362   164389166.503       -1878.617          38.000  
C08                                                                  41740097.476   168070096.018       -1821.497          37.000  
> 2025 11 03 07 45 20.0000000  0 26                     
G04  21369395.284   112296929.775        1029.690          44.000    21369384.444    87504058.154         802.369          47.000  
G16  20185419.494   106075096.760         117.253          46.000                                                                  
G28  23139355.270   121598128.280       -2736.779          42.000    23139344.654    94751735.848       -2132.638          44.000  
G31  21137013.731   111075760.024       -1738.361          47.000    21137001.607    86552484.358       -1354.504          45.000  
G03  24635721.965                       -2960.421          32.000    24635718.409   100879132.253       -2306.863          37.000  
G18  25128196.078   132049559.716        1307.003          37.000    25128188.121   102895730.382        1018.824          38.000  
C16  36732717.219   191276901.579           5.994          48.000    36732703.487   147907374.119           4.633          48.000  
C19  23852160.449   124204456.333       -2218.964          46.000                                                                  
C27  23569273.321   122731388.756        1068.608          47.000                                                                  
C06  36290643.464   188974901.744           2.965          47.000    36290622.909   146127305.646           2.295          49.000  
C09  37369607.639   194593352.194         125.968          44.000    37369589.848   150471856.793          97.252          48.000  
C22  24614701.543   128175209.043         571.840          42.000                                                                  
G26  20905186.203   109857495.491       -1984.515          47.000    20905176.819    85603205.098       -1546.503          45.000  
G27  21832306.941   114729552.322        2918.991          44.000    21832298.666    89399632.660        2274.553          43.000  
G09  23821216.352   125181342.417        2707.074          36.000    23821210.092    97543890.088        2109.741          37.000  
C28  24776081.122   129015552.462       -1127.315          44.000                                                                  
C07  38019750.870   197978817.059         777.471          41.000    38019731.323   153089711.297         601.393          45.000  
C20  25667456.213   133657173.160       -3627.684          43.000                                                                  
C36  23820614.485   124040188.614        1390.833          44.000                                                                  
C37  25084145.195   130619718.608       -2409.051          43.000                                                                  
C10  39150854.634   203868776.686         718.768          38.000    39150839.985   157644281.627         555.742          42.000  
G08  24082146.830   126552544.636        3584.964          36.000    24082146.635    98612459.185        2793.980          39.000  
G29  25406205.591   133510523.584       -3626.938          36.000    25406198.309   104034121.539       -2826.029          36.000  
C30  25066012.467   130525308.817        2748.971          44.000                                                                  
C13  40825962.824   212591499.238       -2429.747          33.000    40825967.052   164389241.665       -1878.981          38.000  
C08                                                                  41740115.549   168070168.851       -1820.984          37.000  
> 2025 11 03 07 45 20.0400000  0 26                     
G04  21369387.448   112296888.580        1029.750          44.000    21369376.618    87504026.056         802.355          47.000  
G16  20185418.628   106075092.073         117.191          46.000                                                                  
G28  23139376.101   121598237.751       -2736.755          42.000    23139365.486    94751821.158       -2132.794          44.000  
G31  21137026.965   111075829.553       -1738.302          47.000    21137014.855    86552538.554       -1354.823          45.000  
G03  24635744.480                       -2959.054          32.000    24635740.935   100879224.472       -2306.086          37.000  
G18  25128186.150   132049507.404        1307.465          37.000    25128178.165   102895689.632        1018.775          38.000  
C16  36732717.154   191276901.337           6.014          48.000    36732703.397   147907373.940           4.504          48.000  
C19  23852177.494   124204545.094       -2219.073          46.000                                                                  
C27  23569265.095   122731346.010        1068.577          47.000                                                                  
C06  36290643.450   188974901.619           3.035          47.000    36290622.894   146127305.549           2.349          49.000  
C09  37369606.659   194593347.158         125.926          44.000    37369588.896   150471852.898          97.285          48.000  
C22  24614697.158   128175186.170         571.832          42.000                                                                  
G26  20905201.302   109857574.871       -1984.534          47.000    20905191.920    85603266.948       -1546.393          45.000  
G27  21832284.698   114729435.571        2918.794          44.000    21832276.457    89399541.684        2274.418          43.000  
G09  23821195.746   125181234.118        2707.202          36.000    23821189.488    97543805.708        2109.521          37.000  
C28  24776089.763   129015597.552       -1127.290          44.000                                                                  
C07  38019744.919   197978785.955         777.537          41.000    38019725.360   153089687.245         601.323          45.000  
C20  25667484.094   133657318.270       -3627.779          43.000                                                                  
C36  23820603.807   124040132.979        1390.887          44.000                                                                  
C37  25084163.702   130619814.964       -2409.004          43.000                                                                  
C10  39150849.147   203868747.928         718.844          38.000    39150834.461   157644259.396         555.764          42.000  
G08  24082119.535   126552401.201        3585.442          36.000    24082119.330    98612347.432        2793.877          39.000  
G29  25406233.218   133510668.636       -3626.561          36.000    25406225.892   104034234.556       -2825.660          36.000  
C30  25065991.346   130525198.851        2749.104          44.000                                                                  
C13  40825981.501   212591596.380       -2428.892          33.000    40825985.736   164389316.799       -1878.656          38.000  
C08                                                                  41740133.648   168070241.709       -1821.271          37.000  
> 2025 11 03 07 45 20.0800000  0 26                     
G04  21369379.595   112296847.380        1029.869          44.000    21369368.782    87503993.956         802.389          47.000  
G16  20185417.753   106075087.387         117.129          46.000                                                                  
G28  23139396.934   121598347.228       -2736.893          42.000    23139386.317    94751906.464       -2132.755          44.000  
G31  21137040.190   111075899.082       -1738.285          47.000    21137028.071    86552592.725       -1354.528          45.000  
G03  24635767.027                       -2958.860          32.000    24635763.458   100879316.723       -2306.232          37.000  
G18  25128176.186   132049455.103        1307.546          37.000    25128168.197   102895648.898        1018.460          38.000  
C16  36732717.085   191276901.096           6.015          48.000    36732703.330   147907373.759           4.448          48.000  
C19  23852194.537   124204633.852       -2219.049          46.000                                                                  
C27  23569256.913   122731303.258        1068.695          47.000                                                                  
C06  36290643.442   188974901.497           3.000          47.000    36290622.872   146127305.453           2.365          49.000  
C09  37369605.677   194593342.117         125.990          44.000    37369587.913   150471849.006          97.260          48.000  
C22  24614692.786   128175163.290         571.917          42.000                                                                  
G26  20905216.400   109857654.250       -1984.527          47.000    20905207.024    85603328.800       -1546.344          45.000  
G27  21832262.493   114729318.816        2918.792          44.000    21832254.237    89399450.715        2274.228          43.000  
G09  23821175.134   125181125.818        2707.379          36.000    23821168.881    97543721.323        2109.485          37.000  
C28  24776098.452   129015642.642       -1127.258          44.000                                                                  
C07  38019738.943   197978754.844         777.701          41.000    38019719.422   153089663.198         601.203          45.000  
C20  25667511.960   133657463.373       -3627.688          43.000                                                                  
C36  23820593.126   124040077.343        1390.906          44.000                                                                  
C37  25084182.228   130619911.310       -2408.775          43.000                                                                  
C10  39150843.623   203868719.168         718.949          38.000    39150828.960   157644237.170         555.634          42.000  
G08  24082092.199   126552257.773        3585.602          36.000    24082092.025    98612235.696        2793.507          39.000  
G29  25406260.817   133510813.684       -3626.261          36.000    25406253.491   104034347.601       -2826.004          36.000  
C30  25065970.242   130525088.883        2749.204          44.000                                                                  
C13  40826000.164   212591693.591       -2429.794          33.000    40826004.405   164389391.949       -1878.713          38.000  
C08                                                                  41740151.744   168070314.587       -1821.851          37.000  
> 2025 11 03 07 45 20.1200000  0 26                     
G04  21369371.754   112296806.180        1029.949          44.000    21369360.946    87503961.858         802.390          47.000  
G16  20185416.881   106075082.699         117.130          46.000                                                                  
G28  23139417.757   121598456.704       -2736.929          42.000    23139407.158    94751991.770       -2132.717          44.000  
G31  21137053.439   111075968.622       -1738.452          47.000    21137041.319    86552646.910       -1354.589          45.000  
G03  24635789.539                       -2959.166          32.000    24635785.981   100879408.963       -2306.081          37.000  
G18  25128166.241   132049402.796        1307.677          37.000    25128158.252   102895608.147        1018.596          38.000  
C16  36732717.045   191276900.860           5.911          48.000    36732703.273   147907373.571           4.562          48.000  
C19  23852211.586   124204722.612       -2219.055          46.000                                                                  
C27  23569248.687   122731260.509        1068.701          47.000                                                                  
C06  36290643.411   188974901.375           3.014          47.000    36290622.852   146127305.358           2.351          49.000  
C09  37369604.698   194593337.087         125.842          44.000    37369586.940   150471845.106          97.382          48.000  
C22  24614688.409   128175140.410         571.947          42.000                                                                  
G26  20905231.505   109857733.625       -1984.454          47.000    20905222.111    85603390.649       -1546.246          45.000  
G27  21832240.266   114729202.057        2918.901          44.000    21832231.992    89399359.728        2274.455          43.000  
G09  23821154.514   125181017.504        2707.709          36.000    23821148.265    97543636.919        2109.906          37.000  
C28  24776107.125   129015687.730       -1127.229          44.000                                                                  
C07  38019732.970   197978723.736         777.731          41.000    38019713.450   153089639.145         601.242          45.000  
C20  25667539.821   133657608.477       -3627.624          43.000                                                                  
C36  23820582.427   124040021.717        1390.723          44.000                                                                  
C37  25084200.742   130620007.660       -2408.728          43.000                                                                  
C10  39150838.096   203868690.431         718.630          38.000    39150823.458   157644214.938         555.707          42.000  
G08  24082064.886   126552114.360        3585.456          36.000    24082064.736    98612123.938        2793.711          39.000  
G29  25406288.401   133510958.748       -3626.386          36.000    25406281.103   104034460.630       -2825.830          36.000  
C30  25065949.095   130524978.928        2748.979          44.000                                                                  
C13  40826018.812   212591790.758       -2429.540          33.000    40826023.072   164389467.080       -1878.412          38.000  
C08                                                                  41740169.862   168070387.443       -1821.649          37.000  
> 2025 11 03 07 45 20.1600000  0 26                     
G04  21369363.903   112296764.989        1029.830          44.000    21369353.118    87503929.759         802.432          47.000  
G16  20185415.991   106075078.009         117.186          46.000                                                                  
G28  23139438.564   121598566.178       -2736.993          42.000    23139427.981    94752077.076       -2132.673          44.000  
G31  21137066.644   111076038.156       -1738.442          47.000    21137054.534    86552701.082       -1354.403          45.000  
G03  24635812.075                       -2959.736          32.000    24635808.513   100879501.212       -2306.224          37.000  
G18  25128156.305   132049350.498        1307.603          37.000    25128148.301   102895567.398        1018.676          38.000  
C16  36732717.004   191276900.618           5.986          48.000    36732703.195   147907373.376           4.764          48.000  
C19  23852228.651   124204811.361       -2218.805          46.000                                                                  
C27  23569240.488   122731217.758        1068.744          47.000                                                                  
C06  36290643.381   188974901.245           3.140          47.000    36290622.821   146127305.264           2.338          49.000  
C09  37369603.735   194593332.045         125.966          44.000    37369585.958   150471841.210          97.400          48.000  
C22  24614684.020   128175117.536         571.881          42.000                                                                  
G26  20905246.609   109857813.005       -1984.460          47.000    20905237.215    85603452.499       -1546.234          45.000  
G27  21832218.040   114729085.299        2918.946          44.000    21832209.761    89399268.747        2274.500          43.000  
G09  23821133.929   125180909.212        2707.446          36.000    23821127.636    97543552.532        2109.778          37.000  
C28  24776115.796   129015732.816       -1127.219          44.000                                                                  
C07  38019726.987   197978692.625         777.824          41.000    38019707.468   153089615.094         601.269          45.000  
C20  25667567.699   133657753.569       -3627.371          43.000                                                                  
C36  23820571.734   124039966.087        1390.704          44.000                                                                  
C37  25084219.234   130620104.025       -2408.995          43.000                                                                  
C10  39150832.567   203868661.678         718.666          38.000    39150817.926   157644192.693         555.972          42.000  
G08  24082037.596   126551970.963        3585.036          36.000    24082037.428    98612012.175        2793.887          39.000  
G29  25406316.011   133511103.808       -3626.489          36.000    25406308.703   104034573.655       -2825.665          36.000  
C30  25065927.991   130524868.971        2748.909          44.000                                                                  
C13  40826037.466   212591887.930       -2429.407          33.000    40826041.742   164389542.216       -1878.403          38.000  
C08                                                                  41740187.941   168070460.281       -1821.130          37.000  
> 2025 11 03 07 45 20.2000000  0 26                     
G04  21369356.055   112296723.800        1029.750          44.000    21369345.277    87503897.646         802.673          47.000  
G16  20185415.113   106075073.320         117.199          46.000                                                                  
G28  23139459.394   121598675.649       -2736.892          42.000    23139448.790    94752162.374       -2132.511          44.000  
G31  21137079.852   111076107.678       -1738.212          47.000    21137067.776    86552755.262       -1354.435          45.000  
G03  24635834.607                       -2959.875          32.000    24635831.045   100879593.464       -2306.277          37.000  
G18  25128146.337   132049298.185        1307.775          37.000    25128138.345   102895526.648        1018.741          38.000  
C16  36732716.939   191276900.370           6.134          48.000    36732703.140   147907373.181           4.870          48.000  
C19  23852245.696   124204900.117       -2218.842          46.000                                                                  
C27  23569232.295   122731175.004        1068.817          47.000                                                                  
C06  36290643.376   188974901.111           3.311          47.000    36290622.793   146127305.166           2.393          49.000  
C09  37369602.771   194593326.999         126.131          44.000    37369584.990   150471837.311          97.417          48.000  
C22  24614679.633   128175094.650         572.039          42.000                                                                  
G26  20905261.703   109857892.374       -1984.296          47.000    20905252.324    85603514.352       -1546.289          45.000  
G27  21832195.809   114728968.537        2918.995          44.000    21832187.531    89399177.773        2274.416          43.000  
G09  23821113.320   125180800.916        2707.367          36.000    23821107.018    97543468.134        2109.900          37.000  
C28  24776124.462   129015777.905       -1127.232          44.000                                                                  
C07  38019721.012   197978661.524         777.614          41.000    38019701.494   153089591.036         601.375          45.000  
C20  25667595.560   133657898.668       -3627.395          43.000                                                                  
C36  23820561.050   124039910.451        1390.827          44.000                                                                  
C37  25084237.730   130620200.375       -2408.850          43.000                                                                  
C10  39150827.080   203868632.912         718.941          38.000    39150812.410   157644170.452         556.063          42.000  
G08  24082010.290   126551827.534        3585.409          36.000    24082010.159    98611900.433        2793.592          39.000  
G29  25406343.644   133511248.867       -3626.526          36.000    25406336.309   104034686.690       -2825.837          36.000  
C30  25065906.899   130524759.002        2749.073          44.000                                                                  
C13  40826056.134   212591985.104       -2429.448          33.000    40826060.428   164389617.367       -1878.631          38.000  
C08                                                                  41740206.055   168070533.138       -1821.228          37.000  
> 2025 11 03 07 45 20.2400000  0 26                     
G04  21369348.226   112296682.600        1029.884          44.000    21369337.431    87503865.547         802.575          47.000  
G16  20185414.215   106075068.622         117.385          46.000                                                                  
G28  23139480.219   121598785.104       -2736.524          42.000    23139469.615    94752247.668       -2132.357          44.000  
G31  21137093.087   111076177.202       -1738.124          47.000    21137081.008    86552809.438       -1354.412          45.000  
G03  24635857.133                       -2960.049          32.000    24635853.583   100879685.697       -2306.003          37.000  
G18  25128136.381   132049245.909        1307.229          37.000    25128128.396   102895485.890        1018.914          38.000  
C16  36732716.882   191276900.114           6.339          48.000    36732703.073   147907372.992           4.819          48.000  
C19  23852262.743   124204988.868       -2218.774          46.000                                                                  
C27  23569224.093   122731132.252        1068.823          47.000                                                                  
C06  36290643.356   188974900.981           3.324          47.000    36290622.767   146127305.058           2.607          49.000  
C09  37369601.811   194593321.950         126.242          44.000    37369584.028   150471833.414          97.416          48.000  
C22  24614675.219   128175071.767         572.059          42.000                                                                  
G26  20905276.802   109857971.745       -1984.277          47.000    20905267.428    85603576.208       -1546.399          45.000  
G27  21832173.597   114728851.771        2919.111          44.000    21832165.306    89399086.792        2274.474          43.000  
G09  23821092.694   125180692.592        2707.843          36.000    23821086.402    97543383.752        2109.625          37.000  
C28  24776133.126   129015823.007       -1127.515          44.000                                                                  
C07  38019715.015   197978630.414         777.698          41.000    38019695.523   153089566.971         601.568          45.000  
C20  25667623.434   133658043.775       -3627.581          43.000                                                                  
C36  23820550.394   124039854.817        1390.845          44.000                                                                  
C37  25084256.260   130620296.732       -2408.931          43.000                                                                  
C10  39150821.554   203868604.161         718.836          38.000    39150806.902   157644148.210         556.097          42.000  
G08  24081982.995   126551684.105        3585.581          36.000    24081982.874    98611788.670        2793.891          39.000  
G29  25406371.212   133511393.895       -3625.915          36.000    25406363.939   104034799.730       -2825.948          36.000  
C30  25065885.767   130524649.037        2749.090          44.000                                                                  
C13  40826074.802   212592082.263       -2429.184          33.000    40826079.071   164389692.501       -1878.453          38.000  
C08                                                                  41740224.145   168070605.990       -1821.234          37.000  
> 2025 11 03 07 45 20.2800000  0 26                     
G04  21369340.378   112296641.405        1029.882          44.000    21369329.603    87503833.458         802.302          47.000  
G16  20185413.355   106075063.932         117.341          46.000                                                                  
G28  23139501.048   121598894.571       -2736.596          42.000    23139490.454    94752332.972       -2132.521          44.000  
G31  21137106.328   111076246.733       -1738.203          47.000    21137094.253    86552863.619       -1354.502          45.000  
G03  24635879.640                       -2959.521          33.000    24635876.100   100879777.925       -2305.776          37.000  
G18  25128126.450   132049193.612        1307.288          37.000    25128118.439   102895445.128        1019.071          38.000  
C16  36732716.817   191276899.867           6.286          48.000    36732703.030   147907372.806           4.704          48.000  
C19  23852279.782   124205077.629       -2218.945          46.000                                                                  
C27  23569215.872   122731089.496        1068.866          47.000                                                                  
C06  36290643.342   188974900.852           3.285          47.000    36290622.726   146127304.956           2.600          49.000  
C09  37369600.847   194593316.901         126.276          44.000    37369583.039   150471829.513          97.466          48.000  
C22  24614670.816   128175048.896         571.856          42.000                                                                  
G26  20905291.908   109858051.124       -1984.436          47.000    20905282.551    85603638.058       -1546.344          45.000  
G27  21832151.397   114728735.011        2919.048          44.000    21832143.089    89398995.806        2274.604          43.000  
G09  23821072.091   125180584.280        2707.867          36.000    23821065.799    97543299.376        2109.369          37.000  
C28  24776141.797   129015868.097       -1127.416          44.000                                                                  
C07  38019709.048   197978599.305         777.709          41.000    38019689.544   153089542.916         601.433          45.000  
C20  25667651.311   133658188.867       -3627.402          43.000                                                                  
C36  23820539.723   124039799.175        1390.985          44.000                                                                  
C37  25084274.801   130620393.075       -2408.696          43.000                                                                  
C10  39150816.054   203868575.410         718.736          38.000    39150801.362   157644125.972         555.996          42.000  
G08  24081955.711   126551540.678        3585.609          36.000    24081955.586    98611676.908        2794.043          39.000  
G29  25406398.800   133511538.972       -3626.527          36.000    25406391.547   104034912.793       -2826.438          36.000  
C30  25065864.663   130524539.073        2749.088          44.000                                                                  
C13  40826093.461   212592179.445       -2429.450          33.000    40826097.742   164389767.625       -1878.204          38.000  
C08                                                                  41740242.242   168070678.835       -1821.075          37.000  
> 2025 11 03 07 45 20.3200000  0 26                     
G04  21369332.532   112296600.219        1029.666          44.000    21369321.766    87503801.360         802.365          47.000  
G16  20185412.470   106075059.245         117.203          46.000                                                                  
G28  23139521.883   121599004.062       -2737.106          42.000    23139511.300    94752418.280       -2132.683          44.000  
G31  21137119.593   111076316.272       -1738.376          47.000    21137107.503    86552917.798       -1354.507          45.000  
G03  24635902.160                       -2959.245          32.000    24635898.636   100879870.178       -2306.108          37.000  
G18  25128116.508   132049141.323        1307.222          37.000    25128108.500   102895404.393        1018.664          38.000  
C16  36732716.723   191276899.627           6.106          48.000    36732702.946   147907372.612           4.772          48.000  
C19  23852296.852   124205166.386       -2218.939          46.000                                                                  
C27  23569207.639   122731046.747        1068.773          47.000                                                                  
C06  36290643.305   188974900.728           3.159          47.000    36290622.706   146127304.858           2.504          49.000  
C09  37369599.890   194593311.868         125.951          44.000    37369582.079   150471825.614          97.465          48.000  
C22  24614666.440   128175026.029         571.712          42.000                                                                  
G26  20905307.020   109858130.508       -1984.601          47.000    20905297.674    85603699.914       -1546.387          45.000  
G27  21832129.188   114728618.261        2918.839          44.000    21832120.858    89398904.815        2274.750          43.000  
G09  23821051.482   125180475.989        2707.434          36.000    23821045.192    97543214.983        2109.619          37.000  
C28  24776150.439   129015913.198       -1127.564          44.000                                                                  
C07  38019703.078   197978568.192         777.739          41.000    38019683.553   153089518.868         601.257          45.000  
C20  25667679.192   133658333.968       -3627.486          43.000                                                                  
C36  23820529.037   124039743.540        1390.912          44.000                                                                  
C37  25084293.282   130620489.432       -2408.822          43.000                                                                  
C10  39150810.540   203868546.658         718.754          38.000    39150795.862   157644103.746         555.722          42.000  
G08  24081928.408   126551397.248        3585.747          36.000    24081928.291    98611565.147        2794.044          39.000  
G29  25406426.399   133511684.030       -3626.461          36.000    25406419.145   104035025.807       -2825.822          36.000  
C30  25065843.557   130524429.108        2749.134          44.000                                                                  
C13  40826112.118   212592276.597       -2429.060          33.000    40826116.413   164389842.763       -1878.333          38.000  
C08                                                                  41740260.331   168070751.689       -1821.143          37.000  
> 2025 11 03 07 45 20.3600000  0 26                     
G04  21369324.699   112296559.023        1029.751          44.000    21369313.922    87503769.260         802.391          47.000  
G16  20185411.576   106075054.562         117.061          46.000                                                                  
G28  23139542.701   121599113.541       -2737.147          42.000    23139532.134    94752503.582       -2132.644          44.000  
G31  21137132.818   111076385.798       -1738.279          47.000    21137120.742    86552971.987       -1354.697          45.000  
G03  24635924.657                       -2959.152          33.000    24635921.165   100879962.417       -2305.976          37.000  
G18  25128106.539   132049089.031        1307.266          37.000    25128098.539   102895363.621        1019.089          38.000  
C16  36732716.681   191276899.383           6.063          48.000    36732702.901   147907372.426           4.672          48.000  
C19  23852313.911   124205255.146       -2219.000          46.000                                                                  
C27  23569199.428   122731004.004        1068.583          47.000                                                                  
C06  36290643.298   188974900.593           3.279          47.000    36290622.682   146127304.755           2.544          49.000  
C09  37369598.925   194593306.835         125.781          44.000    37369581.074   150471821.716          97.446          48.000  
C22  24614662.058   128175003.143         572.000          42.000                                                                  
G26  20905322.103   109858209.889       -1984.589          47.000    20905312.769    85603761.761       -1546.240          45.000  
G27  21832106.968   114728501.501        2918.868          44.000    21832098.629    89398813.838        2274.554          43.000  
G09  23821030.888   125180367.712        2706.982          36.000    23821024.571    97543130.578        2109.955          37.000  
C28  24776159.103   129015958.284       -1127.337          44.000                                                                  
C07  38019697.105   197978537.090         777.588          41.000    38019677.599   153089494.813         601.291          45.000  
C20  25667707.063   133658479.061       -3627.379          43.000                                                                  
C36  23820518.339   124039687.904        1390.894          44.000                                                                  
C37  25084311.816   130620585.779       -2408.739          43.000                                                                  
C10  39150805.001   203868517.894         718.959          38.000    39150790.366   157644081.505         555.863          42.000  
G08  24081901.115   126551253.829        3585.620          36.000    24081901.019    98611453.400        2793.808          39.000  
G29  25406453.994   133511829.092       -3626.544          36.000    25406446.750   104035138.818       -2825.405          36.000  
C30  25065822.450   130524319.148        2749.030          44.000                                                                  
C13  40826130.772   212592373.745       -2428.723          33.000    40826135.078   164389917.901       -1878.382          38.000  
C08                                                                  41740278.421   168070824.538       -1821.191          37.000  
> 2025 11 03 07 45 20.4000000  0 26                     
G04  21369316.871   112296517.830        1029.731          44.000    21369306.076    87503737.156         802.511          47.000  
G16  20185410.660   106075049.870         117.180          46.000                                                                  
G28  23139563.512   121599223.006       -2736.846          42.000    23139552.966    94752588.883       -2132.562          44.000  
G31  21137146.029   111076455.327       -1738.231          47.000    21137133.983    86553026.166       -1354.576          45.000  
G03  24635947.185                       -2959.803          33.000    24635943.693   100880054.669       -2306.167          37.000  
G18  25128096.549   132049036.713        1307.709          37.000    25128088.591   102895322.869        1018.879          38.000  
C16  36732716.614   191276899.133           6.142          48.000    36732702.841   147907372.237           4.666          48.000  
C19  23852330.979   124205343.898       -2218.890          46.000                                                                  
C27  23569191.196   122730961.252        1068.707          47.000                                                                  
C06  36290643.266   188974900.464           3.250          47.000    36290622.670   146127304.654           2.523          49.000  
C09  37369597.972   194593301.790         125.921          44.000    37369580.110   150471817.809          97.613          48.000  
C22  24614657.689   128174980.263         572.013          42.000                                                                  
G26  20905337.213   109858289.255       -1984.253          47.000    20905327.872    85603823.601       -1546.015          45.000  
G27  21832084.757   114728384.736        2919.049          44.000    21832076.423    89398722.859        2274.477          43.000  
G09  23821010.271   125180259.410        2707.263          36.000    23821003.959    97543046.182        2109.985          37.000  
C28  24776167.775   129016003.362       -1127.079          44.000                                                                  
C07  38019691.129   197978505.974         777.778          41.000    38019671.640   153089470.751         601.448          45.000  
C20  25667734.934   133658624.155       -3627.329          43.000                                                                  
C36  23820507.697   124039632.270        1390.857          44.000                                                                  
C37  25084330.312   130620682.131       -2408.760          43.000                                                                  
C10  39150799.471   203868489.137         718.909          38.000    39150784.837   157644059.268         555.856          42.000  
G08  24081873.811   126551110.394        3585.863          36.000    24081873.732    98611341.649        2793.746          39.000  
G29  25406481.573   133511974.124       -3625.997          36.000    25406474.337   104035251.849       -2825.649          36.000  
C30  25065801.331   130524209.181        2749.116          44.000                                                                  
C13  40826149.412   212592470.949       -2429.684          33.000    40826153.759   164389993.045       -1878.487          38.000  
C08                                                                  41740296.525   168070897.383       -1821.149          37.000  
> 2025 11 03 07 45 20.4400000  0 26                     
G04  21369308.991   112296476.620        1030.062          44.000    21369298.241    87503705.049         802.633          47.000  
G16  20185409.765   106075045.175         117.298          46.000                                                                  
G28  23139584.352   121599332.463       -2736.523          42.000    23139573.781    94752674.175       -2132.358          44.000  
G31  21137159.226   111076524.849       -1738.113          47.000    21137147.198    86553080.330       -1354.252          45.000  
G03  24635969.721                       -2959.983          32.000    24635966.200   100880146.906       -2306.035          37.000  
G18  25128086.593   132048984.399        1307.887          37.000    25128078.653   102895282.116        1018.829          38.000  
C16  36732716.573   191276898.878           6.270          48.000    36732702.736   147907372.038           4.836          48.000  
C19  23852348.026   124205432.652       -2218.878          46.000                                                                  
C27  23569183.004   122730918.494        1068.898          47.000                                                                  
C06  36290643.267   188974900.326           3.381          47.000    36290622.633   146127304.541           2.728          49.000  
C09  37369596.977   194593296.739         126.180          44.000    37369579.115   150471813.901          97.705          48.000  
C22  24614653.274   128174957.373         572.200          42.000                                                                  
G26  20905352.300   109858368.618       -1984.076          47.000    20905342.985    85603885.442       -1545.978          45.000  
G27  21832062.537   114728267.966        2919.237          44.000    21832054.210    89398631.873        2274.573          43.000  
G09  23820989.641   125180151.084        2707.910          36.000    23820983.334    97542961.769        2110.278          37.000  
C28  24776176.408   129016048.444       -1127.036          44.000                                                                  
C07  38019685.155   197978474.846         778.091          41.000    38019665.684   153089446.687         601.598          45.000  
C20  25667762.795   133658769.249       -3627.337          43.000                                                                  
C36  23820497.014   124039576.626        1391.034          44.000                                                                  
C37  25084348.810   130620778.478       -2408.675          43.000                                                                  
C10  39150793.962   203868460.366         719.099          38.000    39150779.293   157644037.030         555.875          42.000  
G08  24081846.519   126550966.972        3585.728          36.000    24081846.438    98611229.872        2794.176          39.000  
G29  25406509.173   133512119.175       -3626.138          36.000    25406501.933   104035364.883       -2825.904          36.000  
C30  25065780.243   130524099.207        2749.295          44.000                                                                  
C13  40826168.078   212592568.119       -2429.564          33.000    40826172.419   164390068.178       -1878.380          38.000  
C08                                                                  41740314.619   168070970.230       -1821.173          37.000  
> 2025 11 03 07 45 20.4800000  0 26                     
G04  21369301.142   112296435.420        1030.083          44.000    21369290.386    87503672.944         802.655          47.000  
G16  20185408.842   106075040.470         117.546          46.000                                                                  
G28  23139605.159   121599441.920       -2736.358          42.000    23139594.601    94752759.470       -2132.334          44.000  
G31  21137172.444   111076594.360       -1737.840          47.000    21137160.441    86553134.499       -1354.167          45.000  
G03  24635992.245                       -2959.502          32.000    24635988.719   100880239.142       -2305.911          37.000  
G18  25128076.627   132048932.084        1307.894          37.000    25128068.698   102895241.354        1018.925          38.000  
C16  36732716.529   191276898.615           6.510          48.000    36732702.675   147907371.841           4.904          48.000  
C19  23852365.089   124205521.396       -2218.640          46.000                                                                  
C27  23569174.799   122730875.730        1069.088          47.000                                                                  
C06  36290643.254   188974900.180           3.595          47.000    36290622.614   146127304.433           2.720          49.000  
C09  37369596.010   194593291.668         126.668          44.000    37369578.160   150471809.995          97.702          48.000  
C22  24614648.861   128174934.487         572.248          42.000                                                                  
G26  20905367.374   109858447.978       -1983.966          47.000    20905358.087    85603947.287       -1546.045          45.000  
G27  21832040.298   114728151.190        2919.425          44.000    21832031.975    89398540.877        2274.828          43.000  
G09  23820969.021   125180042.767        2708.081          36.000    23820962.744    97542877.381        2109.918          37.000  
C28  24776185.065   129016093.530       -1127.079          44.000                                                                  
C07  38019679.165   197978443.721         778.168          41.000    38019659.729   153089422.612         601.821          45.000  
C20  25667790.639   133658914.337       -3627.257          43.000                                                                  
C36  23820486.321   124039520.972        1391.272          44.000                                                                  
C37  25084367.324   130620874.820       -2408.609          43.000                                                                  
C10  39150788.437   203868431.579         719.547          38.000    39150773.772   157644014.787         555.974          42.000  
G08  24081819.234   126550823.552        3585.644          36.000    24081819.140    98611118.109        2794.179          39.000  
G29  25406536.770   133512264.225       -3626.165          36.000    25406529.534   104035477.900       -2825.661          36.000  
C30  25065759.166   130523989.223        2749.549          44.000                                                                  
C13  40826186.731   212592665.286       -2429.314          33.000    40826191.055   164390143.306       -1878.308          38.000  
C08                                                                  41740332.704   168071043.071       -1821.075          37.000  
> 2025 11 03 07 45 20.5200000  0 26                     
G04  21369293.299   112296394.217        1030.067          44.000    21369282.538    87503640.842         802.611          47.000  
G16  20185407.957   106075035.776         117.438          46.000                                                                  
G28  23139625.992   121599551.376       -2736.273          42.000    23139615.421    94752844.758       -2132.198          44.000  
G31  21137185.672   111076663.876       -1737.825          47.000    21137173.660    86553188.671       -1354.209          45.000  
G03  24636014.791                       -2959.313          32.000    24636011.224   100880331.355       -2305.418          37.000  
G18  25128066.661   132048879.802        1307.272          37.000    25128058.766   102895200.600        1018.882          38.000  
C16  36732716.474   191276898.356           6.541          48.000    36732702.623   147907371.632           5.136          48.000  
C19  23852382.105   124205610.150       -2218.744          46.000                                                                  
C27  23569166.556   122730832.965        1069.167          47.000                                                                  
C06  36290643.246   188974900.032           3.717          47.000    36290622.590   146127304.328           2.657          49.000  
C09  37369595.031   194593286.599         126.810          44.000    37369577.220   150471806.086          97.713          48.000  
C22  24614644.455   128174911.602         572.215          42.000                                                                  
G26  20905382.489   109858527.338       -1983.942          47.000    20905373.183    85604009.135       -1546.173          45.000  
G27  21832018.057   114728034.415        2919.426          44.000    21832009.752    89398449.880        2274.962          43.000  
G09  23820948.402   125179934.445        2708.160          36.000    23820942.129    97542792.996        2109.631          37.000  
C28  24776193.740   129016138.613       -1127.068          44.000                                                                  
C07  38019673.187   197978412.601         778.102          41.000    38019653.738   153089398.539         601.899          45.000  
C20  25667818.511   133659059.430       -3627.303          43.000                                                                  
C36  23820475.621   124039465.321        1391.339          44.000                                                                  
C37  25084385.829   130620971.150       -2408.353          43.000                                                                  
C10  39150782.931   203868402.823         719.160          38.000    39150768.221   157643992.540         556.071          42.000  
G08  24081791.942   126550680.109        3586.028          36.000    24081791.825    98611006.339        2794.197          39.000  
G29  25406564.362   133512409.279       -3626.388          35.000    25406557.132   104035590.912       -2825.337          36.000  
C30  25065738.030   130523879.250        2749.463          44.000                                                                  
C13  40826205.393   212592762.414       -2428.474          33.000    40826209.730   164390218.449       -1878.523          38.000  
C08                                                                  41740350.795   168071115.918       -1821.118          37.000  
> 2025 11 03 07 45 20.5600000  0 26                     
G04  21369285.475   112296353.016        1030.024          44.000    21369274.704    87503608.738         802.570          47.000  
G16  20185407.071   106075031.076         117.437          46.000                                                                  
G28  23139646.840   121599660.853       -2736.687          42.000    23139636.229    94752930.052       -2132.294          44.000  
G31  21137198.914   111076733.401       -1738.008          47.000    21137186.895    86553242.841       -1354.245          45.000  
G03  24636037.334                       -2959.000          32.000    24636033.751   100880423.602       -2305.845          37.000  
G18  25128056.704   132048827.500        1307.406          37.000    25128048.806   102895159.855        1018.599          38.000  
C16  36732716.413   191276898.095           6.575          48.000    36732702.566   147907371.434           5.042          48.000  
C19  23852399.140   124205698.894       -2218.652          46.000                                                                  
C27  23569158.366   122730790.207        1069.049          47.000                                                                  
C06  36290643.211   188974899.890           3.656          47.000    36290622.590   146127304.216           2.728          49.000  
C09  37369594.072   194593281.554         126.410          44.000    37369576.257   150471802.177          97.717          48.000  
C22  24614640.067   128174888.709         572.303          42.000                                                                  
G26  20905397.607   109858606.708       -1984.167          47.000    20905388.274    85604070.977       -1546.130          45.000  
G27  21831995.865   114727917.658        2919.128          44.000    21831987.548    89398358.895        2274.737          43.000  
G09  23820927.807   125179826.146        2707.709          36.000    23820921.520    97542708.606        2109.601          37.000  
C28  24776202.373   129016183.707       -1127.280          44.000                                                                  
C07  38019667.220   197978381.475         778.145          41.000    38019647.749   153089374.481         601.632          45.000  
C20  25667846.388   133659204.516       -3627.228          43.000                                                                  
C36  23820464.930   124039409.680        1391.132          44.000                                                                  
C37  25084404.333   130621067.475       -2408.128          43.000                                                                  
C10  39150777.400   203868374.061         719.072          38.000    39150762.705   157643970.289         556.240          42.000  
G08  24081764.632   126550536.665        3586.208          36.000    24081764.540    98610894.573        2794.110          39.000  
G29  25406591.949   133512554.319       -3626.199          35.000    25406584.719   104035703.945       -2825.498          36.000  
C30  25065716.922   130523769.268        2749.522          44.000                                                                  
C13  40826224.047   212592859.553       -2428.250          33.000    40826228.380   164390293.569       -1878.220          38.000  
C08                                                                  41740368.877   168071188.768       -1821.265          37.000  
> 2025 11 03 07 45 20.6000000  0 26                     
G04  21369277.651   112296311.823        1029.838          44.000    21369266.861    87503576.629         802.648          47.000  
G16  20185406.146   106075026.373         117.536          46.000                                                                  
G28  23139667.687   121599770.324       -2736.797          42.000    23139657.063    94753015.355       -2132.531          44.000  
G31  21137212.147   111076802.926       -1738.085          47.000    21137200.124    86553297.016       -1354.358          45.000  
G03  24636059.867                       -2958.448          32.000    24636056.280   100880515.845       -2306.022          37.000  
G18  25128046.758   132048775.171        1307.965          37.000    25128038.856   102895119.091        1018.850          38.000  
C16  36732716.322   191276897.836           6.532          48.000    36732702.492   147907371.231           5.038          48.000  
C19  23852416.160   124205787.644       -2218.738          46.000                                                                  
C27  23569150.153   122730747.447        1069.049          47.000                                                                  
C06  36290643.198   188974899.749           3.594          47.000    36290622.567   146127304.102           2.820          49.000  
C09  37369593.096   194593276.503         126.311          45.000    37369575.277   150471798.266          97.753          48.000  
C22  24614635.664   128174865.839         571.928          42.000                                                                  
G26  20905412.736   109858686.073       -1984.186          47.000    20905403.387    85604132.817       -1546.015          45.000  
G27  21831973.655   114727800.893        2919.052          44.000    21831965.351    89398267.918        2274.497          43.000  
G09  23820907.194   125179717.830        2707.837          36.000    23820900.915    97542624.197        2110.022          37.000  
C28  24776211.026   129016228.784       -1127.065          44.000                                                                  
C07  38019661.255   197978350.360         777.962          41.000    38019641.764   153089350.418         601.552          45.000  
C20  25667874.238   133659349.595       -3627.038          43.000                                                                  
C36  23820454.237   124039354.036        1391.089          44.000                                                                  
C37  25084422.804   130621163.823       -2408.405          43.000                                                                  
C10  39150771.883   203868345.289         719.239          38.000    39150757.172   157643948.028         556.449          42.000  
G08  24081737.345   126550393.248        3585.774          36.000    24081737.249    98610782.810        2794.018          39.000  
G29  25406619.532   133512699.369       -3626.230          35.000    25406612.329   104035816.954       -2825.186          36.000  
C30  25065695.778   130523659.282        2749.635          44.000                                                                  
C13  40826242.707   212592956.733       -2428.993          33.000    40826247.045   164390368.688       -1877.989          38.000  
C08                                                                  41740386.970   168071261.598       -1820.996          37.000  
> 2025 11 03 07 45 20.6400000  0 26                     
G04  21369269.822   112296270.611        1030.129          44.000    21369259.033    87503544.520         802.698          47.000  
G16  20185405.276   106075021.675         117.479          46.000                                                                  
G28  23139688.528   121599879.781       -2736.590          42.000    23139677.903    94753100.638       -2132.256          44.000  
G31  21137225.379   111076872.439       -1737.944          47.000    21137213.361    86553351.186       -1354.328          45.000  
G03  24636082.400                       -2958.500          32.000    24636078.814   100880608.078       -2305.904          37.000  
G18  25128036.827   132048722.833        1308.419          37.000    25128028.908   102895078.322        1019.062          38.000  
C16  36732716.260   191276897.574           6.543          48.000    36732702.433   147907371.021           5.201          48.000  
C19  23852433.199   124205876.387       -2218.616          46.000                                                                  
C27  23569141.947   122730704.685        1069.055          47.000                                                                  
C06  36290643.192   188974899.601           3.644          47.000    36290622.526   146127303.985           2.914          49.000  
C09  37369592.120   194593271.440         126.480          45.000    37369574.292   150471794.356          97.753          48.000  
C22  24614631.274   128174842.965         571.832          42.000                                                                  
G26  20905427.838   109858765.438       -1984.192          47.000    20905418.500    85604194.659       -1546.045          45.000  
G27  21831951.446   114727684.114        2919.338          44.000    21831943.127    89398176.920        2274.739          43.000  
G09  23820886.576   125179609.500        2708.191          36.000    23820880.301    97542539.791        2110.205          37.000  
C28  24776219.683   129016273.859       -1126.912          44.000                                                                  
C07  38019655.287   197978319.229         778.177          41.000    38019635.786   153089326.350         601.635          45.000  
C20  25667902.099   133659494.670       -3626.890          43.000                                                                  
C36  23820443.534   124039298.379        1391.321          44.000                                                                  
C37  25084441.316   130621260.152       -2408.277          43.000                                                                  
C10  39150766.355   203868316.520         719.284          38.000    39150751.643   157643925.777         556.385          42.000  
G08  24081710.048   126550249.808        3585.939          36.000    24081709.963    98610671.051        2793.944          39.000  
G29  25406647.134   133512844.405       -3625.951          35.000    25406639.917   104035929.970       -2825.219          36.000  
C30  25065674.656   130523549.303        2749.553          44.000                                                                  
C13  40826261.383   212593053.904       -2429.222          33.000    40826265.710   164390443.788       -1877.559          38.000  
C08                                                                  41740405.061   168071334.428       -1820.764          37.000  
> 2025 11 03 07 45 20.6800000  0 26                     
G04  21369261.966   112296229.400        1030.242          44.000    21369251.192    87503512.414         802.670          47.000  
G16  20185404.362   106075016.968         117.591          46.000                                                                  
G28  23139709.351   121599989.209       -2735.887          42.000    23139698.733    94753185.927       -2132.200          44.000  
G31  21137238.586   111076941.951       -1737.846          47.000    21137226.572    86553405.349       -1354.169          45.000  
G03  24636104.912                       -2959.160          32.000    24636101.347   100880700.301       -2305.613          37.000  
G18  25128026.876   132048670.520        1308.144          37.000    25128018.956   102895037.541        1019.433          38.000  
C16  36732716.199   191276897.296           6.820          48.000    36732702.383   147907370.812           5.250          48.000  
C19  23852450.264   124205965.119       -2218.359          46.000                                                                  
C27  23569133.738   122730661.916        1069.178          47.000                                                                  
C06  36290643.193   188974899.445           3.806          47.000    36290622.489   146127303.867           2.954          49.000  
C09  37369591.133   194593266.382         126.459          45.000    37369573.318   150471790.435          97.937          48.000  
C22  24614626.888   128174820.055         572.391          42.000                                                                  
G26  20905442.937   109858844.790       -1983.911          47.000    20905433.597    85604256.498       -1546.039          45.000  
G27  21831929.193   114727567.332        2919.488          44.000    21831920.884    89398085.922        2274.887          43.000  
G09  23820865.957   125179501.191        2707.874          36.000    23820859.680    97542455.369        2110.565          37.000  
C28  24776228.311   129016318.930       -1126.794          44.000                                                                  
C07  38019649.292   197978288.103         778.181          41.000    38019629.805   153089302.278         601.747          45.000  
C20  25667929.967   133659639.740       -3626.716          43.000                                                                  
C36  23820432.843   124039242.727        1391.339          44.000                                                                  
C37  25084459.801   130621356.474       -2408.072          43.000                                                                  
C10  39150760.825   203868287.722         719.792          38.000    39150746.135   157643903.537         556.122          42.000  
G08  24081682.748   126550106.357        3586.259          36.000    24081682.655    98610559.273        2794.284          39.000  
G29  25406674.734   133512989.435       -3625.739          35.000    25406667.531   104036042.980       -2825.154          36.000  
C30  25065653.538   130523439.309        2749.779          44.000                                                                  
C13  40826280.052   212593151.034       -2428.584          33.000    40826284.349   164390518.917       -1877.866          38.000  
C08                                                                  41740423.155   168071407.263       -1820.813          37.000  
> 2025 11 03 07 45 20.7200000  0 26                     
G04  21369254.130   112296188.191        1030.254          44.000    21369243.356    87503480.300         802.767          47.000  
G16  20185403.445   106075012.256         117.746          46.000                                                                  
G28  23139730.197   121600098.643       -2735.726          42.000    23139719.533    94753271.212       -2132.108          44.000  
G31  21137251.806   111077011.458       -1737.697          47.000    21137239.793    86553459.514       -1354.170          45.000  
G03  24636127.444                       -2959.164          32.000    24636123.857   100880792.508       -2305.211          37.000  
G18  25128016.943   132048618.205        1307.979          37.000    25128008.992   102894996.765        1019.575          38.000  
C16  36732716.134   191276897.023           6.884          48.000    36732702.314   147907370.603           5.239          48.000  
C19  23852467.295   124206053.860       -2218.433          46.000                                                                  
C27  23569125.558   122730619.146        1069.264          47.000                                                                  
C06  36290643.160   188974899.281           4.050          47.000    36290622.464   146127303.746           3.021          49.000  
C09  37369590.158   194593261.300         126.893          45.000    37369572.352   150471786.513          98.068          48.000  
C22  24614622.503   128174797.152         572.624          42.000                                                                  
G26  20905458.031   109858924.134       -1983.649          47.000    20905448.712    85604318.327       -1545.819          45.000  
G27  21831906.949   114727450.553        2919.515          44.000    21831898.664    89397994.914        2275.150          43.000  
G09  23820845.333   125179392.859        2708.081          36.000    23820839.075    97542370.976        2110.150          37.000  
C28  24776236.971   129016364.004       -1126.787          44.000                                                                  
C07  38019643.321   197978256.962         778.463          41.000    38019623.813   153089278.197         601.959          45.000  
C20  25667957.834   133659784.821       -3626.886          43.000                                                                  
C36  23820422.148   124039187.058        1391.650          44.000                                                                  
C37  25084478.297   130621452.806       -2408.176          43.000                                                                  
C10  39150755.298   203868258.936         719.854          38.000    39150740.599   157643881.277         556.354          42.000  
G08  24081655.444   126549962.877        3586.874          36.000    24081655.362    98610447.488        2794.570          39.000  
G29  25406702.344   133513134.465       -3625.650          35.000    25406695.152   104036156.008       -2825.545          36.000  
C30  25065632.415   130523329.323        2749.701          44.000                                                                  
C13  40826298.696   212593248.163       -2428.263          33.000    40826303.035   164390594.042       -1877.992          38.000  
C08                                                                  41740441.236   168071480.081       -1820.514          37.000  
> 2025 11 03 07 45 20.7600000  0 26                     
G04  21369246.289   112296146.983        1030.245          44.000    21369235.522    87503448.189         802.786          47.000  
G16  20185402.564   106075007.551         117.695          46.000                                                                  
G28  23139751.023   121600208.107       -2736.278          42.000    23139740.353    94753356.490       -2131.941          44.000  
G31  21137265.036   111077080.970       -1737.733          47.000    21137253.028    86553513.681       -1354.200          45.000  
G03  24636149.963                       -2959.345          32.000    24636146.374   100880884.738       -2305.503          37.000  
G18  25128006.998   132048565.909        1307.499          37.000    25127999.046   102894955.997        1019.396          38.000  
C16  36732716.073   191276896.755           6.753          48.000    36732702.216   147907370.395           5.217          48.000  
C19  23852484.313   124206142.600       -2218.475          46.000                                                                  
C27  23569117.332   122730576.383        1069.134          47.000                                                                  
C06  36290643.110   188974899.125           4.001          47.000    36290622.457   146127303.622           3.083          49.000  
C09  37369589.201   194593256.227         126.949          45.000    37369571.388   150471782.591          98.083          48.000  
C22  24614618.108   128174774.248         572.694          42.000                                                                  
G26  20905473.139   109859003.490       -1983.765          47.000    20905463.794    85604380.157       -1545.740          45.000  
G27  21831884.724   114727333.770        2919.580          44.000    21831876.441    89397903.916        2275.060          43.000  
G09  23820824.731   125179284.566        2707.483          36.000    23820818.458    97542286.583        2109.924          37.000  
C28  24776245.624   129016409.085       -1126.948          44.000                                                                  
C07  38019637.340   197978225.820         778.591          41.000    38019617.815   153089254.125         601.868          45.000  
C20  25667985.678   133659929.900       -3626.977          43.000                                                                  
C36  23820411.488   124039131.390        1391.772          44.000                                                                  
C37  25084496.788   130621549.145       -2408.419          43.000                                                                  
C10  39150749.747   203868230.147         719.858          38.000    39150735.080   157643859.018         556.411          42.000  
G08  24081628.123   126549819.444        3586.327          36.000    24081628.064    98610335.699        2794.753          39.000  
G29  25406729.954   133513279.505       -3625.836          35.000    25406722.745   104036269.040       -2825.844          36.000  
C30  25065611.273   130523219.340        2749.615          44.000                                                                  
C13  40826317.371   212593345.347       -2429.143          33.000    40826321.699   164390669.162       -1877.992          38.000  
C08                                                                  41740459.321   168071552.908       -1820.618          37.000  
> 2025 11 03 07 45 20.8000000  0 26                     
G04  21369238.458   112296105.775        1030.153          44.000    21369227.675    87503416.078         802.798          47.000  
G16  20185401.662   106075002.852         117.520          46.000                                                                  
G28  23139771.862   121600317.580       -2736.737          42.000    23139761.188    94753441.776       -2132.062          44.000  
G31  21137278.291   111077150.488       -1737.897          47.000    21137266.242    86553567.846       -1354.179          45.000  
G03  24636172.529                       -2959.017          32.000    24636168.904   100880976.968       -2305.746          37.000  
G18  25127997.071   132048513.597        1307.581          37.000    25127989.089   102894915.251        1018.883          38.000  
C16  36732716.010   191276896.486           6.706          48.000    36732702.144   147907370.190           5.158          48.000  
C19  23852501.351   124206231.346       -2218.616          46.000                                                                  
C27  23569109.134   122730533.620        1069.078          47.000                                                                  
C06  36290643.065   188974898.980           3.732          47.000    36290622.437   146127303.511           2.881          49.000  
C09  37369588.225   194593251.162         126.769          45.000    37369570.412   150471778.682          97.848          48.000  
C22  24614613.737   128174751.371         572.266          42.000                                                                  
G26  20905488.254   109859082.853       -1984.015          47.000    20905478.901    85604441.998       -1545.947          45.000  
G27  21831862.510   114727216.999        2919.381          44.000    21831854.218    89397812.942        2274.567          43.000  
G09  23820804.131   125179176.255        2707.605          36.000    23820797.851    97542202.173        2110.162          37.000  
C28  24776254.290   129016454.177       -1127.220          44.000                                                                  
C07  38019631.333   197978194.692         778.380          41.000    38019611.849   153089230.063         601.635          45.000  
C20  25668013.556   133660074.983       -3627.123          43.000                                                                  
C36  23820400.800   124039075.742        1391.394          44.000                                                                  
C37  25084515.291   130621645.474       -2408.358          43.000                                                                  
C10  39150744.211   203868201.374         719.513          38.000    39150729.576   157643836.770         556.270          41.000  
G08  24081600.825   126549676.020        3585.640          36.000    24081600.776    98610223.942        2794.281          39.000  
G29  25406757.563   133513424.542       -3625.936          35.000    25406750.351   104036382.059       -2825.693          36.000  
C30  25065590.160   130523109.360        2749.467          44.000                                                                  
C13  40826336.022   212593442.501       -2429.114          33.000    40826340.356   164390744.283       -1878.042          38.000  
C08                                                                  41740477.436   168071625.748       -1820.825          37.000  
> 2025 11 03 07 45 20.8400000  0 26                     
G04  21369230.623   112296064.559        1030.315          44.000    21369219.831    87503383.978         802.618          47.000  
G16  20185400.757   106074998.148         117.565          46.000                                                                  
G28  23139792.693   121600427.024       -2736.377          42.000    23139782.026    94753527.061       -2132.125          44.000  
G31  21137291.513   111077220.003       -1737.879          47.000    21137279.461    86553622.010       -1354.134          45.000  
G03  24636195.041                       -2958.348          33.000    24636191.430   100881069.217       -2306.128          37.000  
G18  25127987.115   132048461.275        1307.914          37.000    25127979.128   102894874.491        1018.818          38.000  
C16  36732715.950   191276896.214           6.775          48.000    36732702.076   147907369.982           5.146          48.000  
C19  23852518.385   124206320.091       -2218.646          46.000                                                                  
C27  23569100.938   122730490.853        1069.134          47.000                                                                  
C06  36290643.039   188974898.831           3.693          47.000    36290622.439   146127303.393           2.898          49.000  
C09  37369587.255   194593246.100         126.615          45.000    37369569.443   150471774.762          97.915          48.000  
C22  24614609.339   128174728.498         571.918          42.000                                                                  
G26  20905503.341   109859162.205       -1983.893          47.000    20905493.998    85604503.835       -1545.929          45.000  
G27  21831840.297   114727100.228        2919.260          44.000    21831832.001    89397721.945        2274.723          43.000  
G09  23820783.499   125179067.921        2708.178          36.000    23820777.230    97542117.773        2110.101          37.000  
C28  24776262.935   129016499.250       -1126.996          44.000                                                                  
C07  38019625.324   197978163.560         778.324          41.000    38019605.865   153089205.995         601.599          45.000  
C20  25668041.410   133660220.065       -3627.131          43.000                                                                  
C36  23820390.096   124039020.088        1391.309          44.000                                                                  
C37  25084533.791   130621741.803       -2408.298          43.000                                                                  
C10  39150738.710   203868172.605         719.260          38.000    39150724.026   157643814.521         556.206          41.000  
G08  24081573.508   126549532.569        3585.988          36.000    24081573.473    98610112.176        2794.112          39.000  
G29  25406785.162   133513569.580       -3625.971          35.000    25406777.937   104036495.060       -2825.255          36.000  
C30  25065569.056   130522999.364        2749.689          44.000                                                                  
C13  40826354.709   212593539.612       -2428.114          33.000    40826359.013   164390819.406       -1878.099          38.000  
C08                                                                  41740495.518   168071698.581       -1820.825          37.000  
> 2025 11 03 07 45 20.8800000  0 26                     
G04  21369222.733   112296023.353        1030.192          44.000    21369211.989    87503351.868         802.668          47.000  
G16  20185399.868   106074993.441         117.652          46.000                                                                  
G28  23139813.515   121600536.466       -2736.122          42.000    23139802.859    94753612.357       -2132.342          44.000  
G31  21137304.741   111077289.511       -1737.807          47.000    21137292.686    86553676.176       -1354.176          45.000  
G03  24636217.561                       -2958.212          33.000    24636213.937   100881161.423       -2305.541          37.000  
G18  25127977.147   132048408.937        1308.341          37.000    25127969.180   102894833.711        1019.152          38.000  
C16  36732715.885   191276895.938           6.857          48.000    36732702.010   147907369.766           5.325          48.000  
C19  23852535.450   124206408.815       -2218.256          46.000                                                                  
C27  23569092.705   122730448.079        1069.307          47.000                                                                  
C06  36290643.016   188974898.669           3.900          47.000    36290622.404   146127303.264           3.116          49.000  
C09  37369586.281   194593241.022         126.802          45.000    37369568.458   150471770.833          98.100          48.000  
C22  24614604.958   128174705.604         572.118          42.000                                                                  
G26  20905518.404   109859241.554       -1983.759          47.000    20905509.101    85604565.668       -1545.868          45.000  
G27  21831818.088   114726983.445        2919.453          44.000    21831809.779    89397630.949        2274.810          43.000  
G09  23820762.864   125178959.591        2708.289          36.000    23820756.634    97542033.373        2110.095          37.000  
C28  24776271.609   129016544.320       -1126.829          44.000                                                                  
C07  38019619.321   197978132.425         778.350          41.000    38019599.859   153089181.914         601.884          45.000  
C20  25668069.295   133660365.125       -3626.731          43.000                                                                  
C36  23820379.427   124038964.424        1391.473          44.000                                                                  
C37  25084552.302   130621838.119       -2408.013          43.000                                                                  
C10  39150733.159   203868143.824         719.410          38.000    39150718.493   157643792.265         556.324          41.000  
G08  24081546.197   126549389.147        3585.645          36.000    24081546.182    98610000.407        2794.093          39.000  
G29  25406812.782   133513714.642       -3626.424          35.000    25406805.514   104036608.048       -2824.754          36.000  
C30  25065547.951   130522889.371        2749.812          44.000                                                                  
C13  40826373.375   212593636.750       -2428.161          33.000    40826377.682   164390894.526       -1878.073          38.000  
C08                                                                  41740513.597   168071771.408       -1820.728          37.000  
> 2025 11 03 07 45 20.9200000  0 26                     
G04  21369214.907   112295982.147        1030.150          44.000    21369204.140    87503319.748         802.871          46.000  
G16  20185398.974   106074988.725         117.851          46.000                                                                  
G28  23139834.334   121600645.910       -2736.043          42.000    23139823.703    94753697.645       -2132.341          44.000  
G31  21137317.958   111077359.014       -1737.643          47.000    21137305.919    86553730.328       -1353.937          45.000  
G03  24636240.095                       -2958.409          33.000    24636236.445   100881253.635       -2305.277          37.000  
G18  25127967.196   132048356.609        1308.390          37.000    25127959.209   102894792.929        1019.414          38.000  
C16  36732715.825   191276895.657           6.944          48.000    36732701.936   147907369.543           5.519          48.000  
C19  23852552.481   124206497.549       -2218.237          46.000                                                                  
C27  23569084.466   122730405.309        1069.281          47.000                                                                  
C06  36290643.009   188974898.501           4.132          47.000    36290622.369   146127303.139           3.136          49.000  
C09  37369585.311   194593235.944         126.936          45.000    37369567.487   150471766.908          98.109          48.000  
C22  24614600.582   128174682.705         572.333          42.000                                                                  
G26  20905533.482   109859320.902       -1983.685          47.000    20905524.195    85604627.494       -1545.734          45.000  
G27  21831795.857   114726866.664        2919.511          44.000    21831787.544    89397539.940        2275.109          43.000  
G09  23820742.245   125178851.247        2708.612          36.000    23820736.005    97541948.958        2110.303          37.000  
C28  24776280.277   129016589.392       -1126.824          44.000                                                                  
C07  38019613.349   197978101.283         778.455          41.000    38019593.895   153089157.825         602.170          45.000  
C20  25668097.163   133660510.178       -3626.433          43.000                                                                  
C36  23820368.735   124038908.753        1391.718          44.000                                                                  
C37  25084570.780   130621934.443       -2408.066          43.000                                                                  
C10  39150727.632   203868115.032         719.736          38.000    39150712.975   157643770.006         556.444          41.000  
G08  24081518.902   126549245.702        3585.928          36.000    24081518.886    98609888.625        2794.346          39.000  
G29  25406840.371   133513859.637       -3625.421          36.000    25406833.107   104036721.046       -2824.763          36.000  
C30  25065526.823   130522779.378        2749.820          44.000                                                                  
C13  40826392.025   212593733.878       -2428.144          33.000    40826396.332   164390969.633       -1877.809          38.000  
C08                                                                  41740531.650   168071844.221       -1820.422          37.000  
> 2025 11 03 07 45 20.9600000  0 26                     
G04  21369207.076   112295940.949        1029.988          44.000    21369196.294    87503287.632         802.911          46.000  
G16  20185398.090   106074984.015         117.786          46.000                                                                  
G28  23139855.197   121600755.360       -2736.177          42.000    23139844.532    94753782.928       -2132.158          44.000  
G31  21137331.198   111077428.520       -1737.643          47.000    21137319.138    86553784.491       -1353.980          45.000  
G03  24636262.637                       -2958.201          33.000    24636258.956   100881345.850       -2305.284          37.000  
G18  25127957.231   132048304.298        1307.962          37.000    25127949.244   102894752.154        1019.415          38.000  
C16  36732715.762   191276895.379           6.953          48.000    36732701.905   147907369.326           5.466          48.000  
C19  23852569.527   124206586.290       -2218.439          46.000                                                                  
C27  23569076.227   122730362.534        1069.336          47.000                                                                  
C06  36290642.989   188974898.334           4.194          47.000    36290622.332   146127303.010           3.198          49.000  
C09  37369584.330   194593230.874         126.856          45.000    37369566.525   150471762.987          98.056          48.000  
C22  24614596.168   128174659.800         572.592          42.000                                                                  
G26  20905548.586   109859400.258       -1983.856          47.000    20905539.282    85604689.326       -1545.764          45.000  
G27  21831773.639   114726749.884        2919.507          44.000    21831765.319    89397448.943        2275.035          43.000  
G09  23820721.622   125178742.958        2707.697          36.000    23820715.410    97541864.542        2110.382          37.000  
C28  24776288.929   129016634.463       -1126.807          44.000                                                                  
C07  38019607.377   197978070.149         778.392          41.000    38019587.897   153089133.740         602.191          45.000  
C20  25668125.030   133660655.244       -3626.502          43.000                                                                  
C36  23820358.042   124038853.091        1391.638          44.000                                                                  
C37  25084589.286   130622030.759       -2407.898          43.000                                                                  
C10  39150722.107   203868086.241         719.894          38.000    39150707.451   157643747.739         556.599          41.000  
G08  24081491.612   126549102.245        3586.299          36.000    24081491.588    98609776.833        2794.675          39.000  
G29  25406867.961   133514004.648       -3625.152          35.000    25406860.694   104036834.085       -2825.578          36.000  
C30  25065505.692   130522669.374        2750.050          44.000                                                                  
C13  40826410.679   212593830.982       -2427.746          33.000    40826415.019   164391044.735       -1877.585          38.000  
C08                                                                  41740549.734   168071917.031       -1820.209          37.000  
> 2025 11 03 07 45 21.0000000  0 26                     
G04  21369199.237   112295899.734        1030.226          44.000    21369188.470    87503255.526         802.722          46.000  
G16  20185397.211   106074979.308         117.704          46.000                                                                  
G28  23139876.035   121600864.815       -2736.363          42.000    23139865.356    94753868.201       -2131.904          44.000  
G31  21137344.430   111077498.025       -1737.648          47.000    21137332.356    86553838.653       -1354.025          45.000  
G03  24636285.149                       -2959.043          33.000    24636281.477   100881438.079       -2305.440          37.000  
G18  25127947.297   132048251.990        1307.653          37.000    25127939.310   102894711.401        1018.982          38.000  
C16  36732715.685   191276895.106           6.840          48.000    36732701.855   147907369.120           5.254          48.000  
C19  23852586.583   124206675.041       -2218.726          46.000                                                                  
C27  23569068.013   122730319.765        1069.256          47.000                                                                  
C06  36290642.947   188974898.176           4.054          47.000    36290622.316   146127302.890           3.062          49.000  
C09  37369583.361   194593225.809         126.694          45.000    37369565.539   150471759.059          98.126          48.000  
C22  24614591.786   128174636.902         572.548          42.000                                                                  
G26  20905563.685   109859479.613       -1983.905          47.000    20905554.382    85604751.162       -1545.874          45.000  
G27  21831751.415   114726633.103        2919.496          44.000    21831743.108    89397357.950        2274.888          43.000  
G09  23820701.004   125178634.626        2708.057          36.000    23820694.789    97541780.144        2110.101          37.000  
C28  24776297.565   129016679.534       -1126.767          44.000                                                                  
C07  38019601.402   197978039.014         778.412          41.000    38019581.898   153089109.665         601.967          45.000  
C20  25668152.911   133660800.317       -3626.688          43.000                                                                  
C36  23820347.332   124038797.429        1391.577          44.000                                                                  
C37  25084607.748   130622127.092       -2408.149          43.000                                                                  
C10  39150716.565   203868057.452         719.808          38.000    39150701.899   157643725.479         556.594          41.000  
G08  24081464.293   126548958.762        3586.889          36.000    24081464.276    98609665.044        2794.795          39.000  
G29  25406895.563   133514149.703       -3625.875          36.000    25406888.297   104036947.105       -2825.597          36.000  
C30  25065484.554   130522559.377        2749.991          44.000                                                                  
C13  40826429.333   212593928.180       -2429.382          33.000    40826433.672   164391119.852       -1877.811          38.000  
C08                                                                  41740567.833   168071989.870       -1820.721          37.000  
> 2025 11 03 07 45 21.0400000  0 26                     
G04  21369191.398   112295858.524        1030.260          44.000    21369180.625    87503223.427         802.494          46.000  
G16  20185396.315   106074974.603         117.636          46.000                                                                  
G28  23139896.879   121600974.263       -2736.319          42.000    23139886.186    94753953.488       -2132.050          44.000  
G31  21137357.666   111077567.536       -1737.736          47.000    21137345.582    86553892.818       -1354.117          45.000  
G03  24636307.678                       -2959.388          33.000    24636304.005   100881530.328       -2306.011          37.000  
G18  25127937.318   132048199.667        1307.833          37.000    25127929.348   102894670.625        1019.157          38.000  
C16  36732715.602   191276894.831           6.854          48.000    36732701.782   147907368.906           5.258          48.000  
C19  23852603.646   124206763.780       -2218.622          46.000                                                                  
C27  23569059.794   122730277.001        1069.114          47.000                                                                  
C06  36290642.923   188974898.018           3.964          47.000    36290622.288   146127302.769           3.016          49.000  
C09  37369582.378   194593220.730         126.851          45.000    37369564.568   150471755.137          98.067          48.000  
C22  24614587.386   128174614.006         572.479          42.000                                                                  
G26  20905578.812   109859558.967       -1983.923          47.000    20905569.470    85604812.995       -1545.868          45.000  
G27  21831729.194   114726516.320        2919.548          44.000    21831720.901    89397266.954        2274.864          43.000  
G09  23820680.394   125178526.303        2708.130          36.000    23820674.166    97541695.731        2110.260          37.000  
C28  24776306.205   129016724.612       -1126.886          44.000                                                                  
C07  38019595.432   197978007.887         778.242          41.000    38019575.905   153089085.588         601.886          45.000  
C20  25668180.757   133660945.400       -3627.011          43.000                                                                  
C36  23820336.653   124038741.765        1391.595          44.000                                                                  
C37  25084626.243   130622223.412       -2408.103          43.000                                                                  
C10  39150711.048   203868028.670         719.621          38.000    39150696.343   157643703.223         556.476          41.000  
G08  24081436.989   126548815.297        3586.914          36.000    24081436.996    98609553.263        2794.677          39.000  
G29  25406923.172   133514294.740       -3625.966          36.000    25406915.893   104037060.118       -2825.415          36.000  
C30  25065463.426   130522449.386        2749.873          44.000                                                                  
C13  40826448.016   212594025.359       -2429.799          33.000    40826452.340   164391194.977       -1878.075          38.000  
C08                                                                  41740585.927   168072062.716       -1821.063          37.000  
> 2025 11 03 07 45 21.0800000  0 26                     
G04  21369183.553   112295817.314        1030.226          44.000    21369172.755    87503191.316         802.600          46.000  
G16  20185395.459   106074969.909         117.356          46.000                                                                  
G28  23139917.709   121601083.722       -2736.505          42.000    23139907.007    94754038.774       -2132.150          44.000  
G31  21137370.931   111077637.054       -1737.920          47.000    21137358.799    86553946.982       -1354.134          45.000  
G03  24636330.189                       -2958.900          33.000    24636326.536   100881622.533       -2305.496          37.000  
G18  25127927.372   132048147.359        1307.668          37.000    25127919.418   102894629.869        1018.920          38.000  
C16  36732715.563   191276894.560           6.777          48.000    36732701.732   147907368.697           5.194          48.000  
C19  23852620.690   124206852.520       -2218.591          46.000                                                                  
C27  23569051.572   122730234.238        1069.028          47.000                                                                  
C06  36290642.897   188974897.865           3.842          47.000    36290622.286   146127302.651           2.927          49.000  
C09  37369581.415   194593215.656         126.842          45.000    37369563.581   150471751.216          98.010          48.000  
C22  24614582.995   128174591.126         572.104          42.000                                                                  
G26  20905593.926   109859638.326       -1984.021          47.000    20905584.575    85604874.829       -1545.886          45.000  
G27  21831706.988   114726399.552        2919.274          44.000    21831698.693    89397175.965        2274.714          43.000  
G09  23820659.784   125178417.988        2708.008          35.000    23820653.561    97541611.329        2110.138          37.000  
C28  24776314.839   129016769.695       -1127.042          44.000                                                                  
C07  38019589.441   197977976.749         778.311          41.000    38019569.926   153089061.521         601.681          45.000  
C20  25668208.611   133661090.473       -3626.948          43.000                                                                  
C36  23820325.961   124038686.111        1391.376          44.000                                                                  
C37  25084644.737   130622319.735       -2408.124          43.000                                                                  
C10  39150705.538   203867999.887         719.545          38.000    39150690.792   157643680.962         556.505          41.000  
G08  24081409.701   126548671.874        3586.043          36.000    24081409.710    98609441.494        2794.382          39.000  
G29  25406950.768   133514439.784       -3626.161          36.000    25406943.485   104037173.142       -2825.571          36.000  
C30  25065442.295   130522339.403        2749.635          44.000                                                                  
C13  40826466.654   212594122.476       -2428.762          33.000    40826471.010   164391270.081       -1877.833          38.000  
C08                                                                  41740603.995   168072135.536       -1820.758          37.000  
> 2025 11 03 07 45 21.1200000  0 26                     
G04  21369175.729   112295776.123        1029.884          44.000    21369164.968    87503159.220         802.377          46.000  
G16  20185394.574   106074965.209         117.347          46.000                                                                  
G28  23139938.550   121601193.176       -2736.466          42.000    23139927.826    94754124.055       -2132.074          44.000  
G31  21137384.149   111077706.566       -1737.906          47.000    21137372.050    86554001.156       -1354.313          45.000  
G03  24636352.709                       -2959.154          33.000    24636349.052   100881714.760       -2305.550          37.000  
G18  25127917.414   132048095.033        1307.930          37.000    25127909.448   102894589.094        1019.226          38.000  
C16  36732715.506   191276894.285           6.799          48.000    36732701.673   147907368.484           5.229          48.000  
C19  23852637.722   124206941.270       -2218.768          46.000                                                                  
C27  23569043.402   122730191.474        1069.023          47.000                                                                  
C06  36290642.876   188974897.715           3.707          47.000    36290622.326   146127302.529           2.930          49.000  
C09  37369580.447   194593210.581         126.840          45.000    37369562.603   150471747.297          97.960          48.000  
C22  24614578.582   128174568.250         571.853          42.000                                                                  
G26  20905609.044   109859717.686       -1984.082          47.000    20905599.654    85604936.670       -1546.021          45.000  
G27  21831684.779   114726282.790        2919.024          44.000    21831676.488    89397084.976        2274.598          43.000  
G09  23820639.170   125178309.672        2707.959          35.000    23820632.950    97541526.938        2109.863          37.000  
C28  24776323.518   129016814.782       -1127.215          44.000                                                                  
C07  38019583.478   197977945.605         778.475          41.000    38019563.954   153089037.448         601.728          45.000  
C20  25668236.473   133661235.550       -3626.990          43.000                                                                  
C36  23820315.304   124038630.453        1391.345          44.000                                                                  
C37  25084663.244   130622416.070       -2408.342          43.000                                                                  
C10  39150699.997   203867971.130         719.038          38.000    39150685.237   157643658.714         556.299          41.000  
G08  24081382.433   126548528.427        3585.947          36.000    24081382.441    98609329.732        2794.157          39.000  
G29  25406978.370   133514584.840       -3626.476          36.000    25406971.082   104037286.146       -2825.228          36.000  
C30  25065421.171   130522229.423        2749.472          44.000                                                                  
C13  40826485.296   212594219.599       -2428.270          33.000    40826489.671   164391345.207       -1878.143          38.000  
C08                                                                  41740622.103   168072208.375       -1820.935          37.000  
> 2025 11 03 07 45 21.1600000  0 26                     
G04  21369167.893   112295734.925        1029.813          44.000    21369157.101    87503127.115         802.459          46.000  
G16  20185393.694   106074960.512         117.361          46.000                                                                  
G28  23139959.371   121601302.635       -2736.496          42.000    23139948.666    94754209.358       -2132.435          44.000  
G31  21137397.390   111077776.089       -1738.069          47.000    21137385.245    86554055.318       -1354.200          45.000  
G03  24636375.264                       -2959.090          33.000    24636371.589   100881807.004       -2305.924          37.000  
G18  25127907.462   132048042.722        1307.805          37.000    25127899.489   102894548.331        1019.112          38.000  
C16  36732715.446   191276894.014           6.762          48.000    36732701.627   147907368.278           5.153          48.000  
C19  23852654.771   124207030.016       -2218.738          46.000                                                                  
C27  23569035.172   122730148.721        1068.845          47.000                                                                  
C06  36290642.863   188974897.564           3.674          47.000    36290622.314   146127302.412           2.893          49.000  
C09  37369579.490   194593205.518         126.609          45.000    37369561.655   150471743.380          97.898          48.000  
C22  24614574.183   128174545.374         571.782          42.000                                                                  
G26  20905624.151   109859797.038       -1983.899          47.000    20905614.754    85604998.509       -1546.088          45.000  
G27  21831662.554   114726166.029        2918.932          44.000    21831654.257    89396993.984        2274.623          43.000  
G09  23820618.563   125178201.360        2707.849          35.000    23820612.330    97541442.546        2109.729          37.000  
C28  24776332.162   129016859.866       -1127.241          44.000                                                                  
C07  38019577.501   197977914.477         778.324          41.000    38019557.990   153089013.380         601.673          45.000  
C20  25668264.329   133661380.625       -3626.977          43.000                                                                  
C36  23820304.615   124038574.800        1391.284          44.000                                                                  
C37  25084681.758   130622512.402       -2408.334          43.000                                                                  
C10  39150694.484   203867942.353         719.142          38.000    39150679.738   157643636.474         555.989          41.000  
G08  24081355.138   126548384.995        3585.711          36.000    24081355.130    98609217.951        2794.368          39.000  
G29  25407005.951   133514729.869       -3626.089          35.000    25406998.675   104037399.165       -2825.353          36.000  
C30  25065400.067   130522119.439        2749.467          44.000                                                                  
C13  40826503.951   212594316.757       -2428.633          33.000    40826508.322   164391420.305       -1877.693          38.000  
C08                                                                  41740640.165   168072281.211       -1821.021          37.000  
> 2025 11 03 07 45 21.2000000  0 26                     
G04  21369160.080   112295693.748        1029.425          44.000    21369149.257    87503095.019         802.369          46.000  
G16  20185392.815   106074955.820         117.262          46.000                                                                  
G28  23139980.206   121601412.093       -2736.482          42.000    23139969.484    94754294.659       -2132.639          44.000  
G31  21137410.639   111077845.614       -1738.179          47.000    21137398.479    86554109.491       -1354.336          45.000  
G03  24636397.790                       -2958.741          33.000    24636394.119   100881899.236       -2305.903          37.000  
G18  25127897.517   132047990.405        1307.892          37.000    25127889.537   102894507.583        1018.851          38.000  
C16  36732715.382   191276893.746           6.698          48.000    36732701.565   147907368.075           5.038          48.000  
C19  23852671.824   124207118.765       -2218.787          46.000                                                                  
C27  23569026.960   122730105.970        1068.704          47.000                                                                  
C06  36290642.869   188974897.413           3.679          47.000    36290622.289   146127302.297           2.836          49.000  
C09  37369578.510   194593200.460         126.435          45.000    37369560.691   150471739.465          97.810          48.000  
C22  24614569.816   128174522.488         571.919          42.000                                                                  
G26  20905639.267   109859876.401       -1984.033          47.000    20905629.858    85605060.353       -1546.167          45.000  
G27  21831640.311   114726049.254        2919.162          44.000    21831632.040    89396903.006        2274.468          43.000  
G09  23820597.981   125178093.059        2707.623          35.000    23820591.713    97541358.150        2109.705          37.000  
C28  24776340.821   129016904.961       -1127.397          44.000                                                                  
C07  38019571.527   197977883.356         778.092          41.000    38019552.023   153088989.308         601.731          45.000  
C20  25668292.187   133661525.703       -3626.982          43.000                                                                  
C36  23820293.929   124038519.145        1391.321          44.000                                                                  
C37  25084700.263   130622608.730       -2408.287          43.000                                                                  
C10  39150688.939   203867913.559         719.499          38.000    39150674.206   157643614.224         556.011          41.000  
G08  24081327.839   126548241.555        3585.702          36.000    24081327.827    98609106.185        2794.184          39.000  
G29  25407033.568   133514874.897       -3625.908          35.000    25407026.275   104037512.188       -2825.563          36.000  
C30  25065378.952   130522009.440        2749.748          44.000                                                                  
C13  40826522.621   212594413.903       -2428.652          33.000    40826526.992   164391495.419       -1877.764          38.000  
C08                                                                  41740658.266   168072354.035       -1820.764          37.000  
> 2025 11 03 07 45 21.2400000  0 26                     
G04  21369152.232   112295652.564        1029.369          44.000    21369141.436    87503062.921         802.347          46.000  
G16  20185391.902   106074951.128         117.251          46.000                                                                  
G28  23140001.062   121601521.565       -2736.750          42.000    23139990.293    94754379.951       -2132.499          44.000  
G31  21137423.890   111077915.137       -1738.172          47.000    21137411.716    86554163.680       -1354.653          45.000  
G03  24636420.332   129465258.994       -2958.848          33.000    24636416.636   100881991.462       -2305.860          37.000  
G18  25127887.562   132047938.109        1307.503          37.000    25127879.582   102894466.839        1018.666          37.000  
C16  36732715.332   191276893.486           6.518          48.000    36732701.493   147907367.869           5.068          48.000  
C19  23852688.860   124207207.525       -2219.000          46.000                                                                  
C27  23569018.744   122730063.222        1068.631          47.000                                                                  
C06  36290642.864   188974897.263           3.690          47.000    36290622.260   146127302.181           2.820          49.000  
C09  37369577.543   194593195.404         126.333          45.000    37369559.743   150471735.556          97.690          48.000  
C22  24614565.420   128174499.614         571.817          42.000                                                                  
G26  20905654.379   109859955.771       -1984.222          47.000    20905644.947    85605122.200       -1546.234          45.000  
G27  21831618.101   114725932.485        2919.210          44.000    21831609.825    89396812.030        2274.337          43.000  
G09  23820577.366   125177984.730        2708.032          35.000    23820571.088    97541273.744        2109.991          37.000  
C28  24776349.518   129016950.053       -1127.410          44.000                                                                  
C07  38019565.551   197977852.239         777.907          41.000    38019546.020   153088965.237         601.731          45.000  
C20  25668320.057   133661670.781       -3626.987          43.000                                                                  
C36  23820283.229   124038463.497        1391.211          44.000                                                                  
C37  25084718.764   130622705.071       -2408.445          43.000                                                                  
C10  39150683.418   203867884.785         719.395          38.000    39150668.679   157643591.973         556.087          41.000  
G08  24081300.560   126548098.130        3585.434          36.000    24081300.514    98608994.406        2794.242          39.000  
G29  25407061.164   133515019.958       -3626.430          35.000    25407053.889   104037625.218       -2825.749          36.000  
C30  25065357.815   130521899.468        2749.448          44.000                                                                  
C13  40826541.290   212594511.034       -2428.401          33.000    40826545.641   164391570.545       -1877.983          38.000  
C08                                                                  41740676.330   168072426.863       -1820.715          37.000  
> 2025 11 03 07 45 21.2800000  0 26                     
G04  21369144.393   112295611.363        1029.738          44.000    21369133.614    87503030.819         802.435          46.000  
G16  20185391.000   106074946.436         117.233          46.000                                                                  
G28  23140021.901   121601631.028       -2736.736          42.000    23140011.125    94754465.253       -2132.598          44.000  
G31  21137437.114   111077984.658       -1738.119          47.000    21137424.952    86554217.857       -1354.547          45.000  
G03  24636442.850   129465377.358       -2958.980          33.000    24636439.168   100882083.694       -2305.891          37.000  
G18  25127877.609   132047885.809        1307.408          37.000    25127869.631   102894426.086        1018.662          37.000  
C16  36732715.296   191276893.219           6.576          48.000    36732701.446   147907367.660           5.142          48.000  
C19  23852705.898   124207296.278       -2218.933          46.000                                                                  
C27  23569010.549   122730020.460        1068.891          47.000                                                                  
C06  36290642.847   188974897.107           3.817          47.000    36290622.234   146127302.066           2.809          49.000  
C09  37369576.576   194593190.331         126.620          45.000    37369558.764   150471731.640          97.753          48.000  
C22  24614560.996   128174476.732         571.898          42.000                                                                  
G26  20905669.497   109860035.142       -1984.326          47.000    20905660.043    85605184.039       -1546.094          45.000  
G27  21831595.867   114725815.711        2919.298          44.000    21831587.593    89396721.044        2274.475          43.000  
G09  23820556.744   125177876.435        2707.489          35.000    23820550.472    97541189.342        2110.114          37.000  
C28  24776358.172   129016995.137       -1127.282          44.000                                                                  
C07  38019559.585   197977821.110         778.048          41.000    38019540.009   153088941.176         601.562          45.000  
C20  25668347.920   133661815.863       -3627.063          43.000                                                                  
C36  23820272.548   124038407.838        1391.370          44.000                                                                  
C37  25084737.263   130622801.405       -2408.356          43.000                                                                  
C10  39150677.879   203867856.011         719.367          38.000    39150663.138   157643569.713         556.330          41.000  
G08  24081273.259   126547954.691        3585.648          36.000    24081273.226    98608882.644        2794.044          39.000  
G29  25407088.758   133515164.987       -3626.016          35.000    25407081.476   104037738.247       -2825.801          36.000  
C30  25065336.683   130521789.484        2749.478          44.000                                                                  
C13  40826559.942   212594608.179       -2428.451          33.000    40826564.297   164391645.680       -1878.302          38.000  
C08                                                                  41740694.429   168072499.708       -1821.002          37.000  
> 2025 11 03 07 45 21.3200000  0 26                     
G04  21369136.538   112295570.167        1029.833          44.000    21369125.770    87502998.725         802.350          46.000  
G16  20185390.106   106074941.746         117.234          46.000                                                                  
G28  23140042.723   121601740.471       -2736.312          42.000    23140031.973    94754550.538       -2132.303          44.000  
G31  21137450.321   111078054.174       -1738.013          47.000    21137438.154    86554272.021       -1354.250          45.000  
G03  24636465.368   129465495.718       -2958.924          33.000    24636461.695   100882175.919       -2305.758          37.000  
G18  25127867.654   132047833.509        1307.409          37.000    25127859.670   102894385.315        1019.028          37.000  
C16  36732715.268   191276892.952           6.604          48.000    36732701.382   147907367.453           5.135          48.000  
C19  23852722.970   124207385.029       -2218.848          46.000                                                                  
C27  23569002.327   122729977.711        1068.767          47.000                                                                  
C06  36290642.830   188974896.949           3.909          47.000    36290622.219   146127301.947           2.899          49.000  
C09  37369575.598   194593185.258         126.791          44.000    37369557.803   150471727.722          97.890          48.000  
C22  24614556.585   128174453.857         571.819          42.000                                                                  
G26  20905684.582   109860114.502       -1984.137          47.000    20905675.156    85605245.878       -1546.027          45.000  
G27  21831573.647   114725698.951        2919.063          44.000    21831565.370    89396630.041        2274.951          43.000  
G09  23820536.144   125177768.125        2707.556          35.000    23820529.872    97541104.959        2109.778          37.000  
C28  24776366.830   129017040.231       -1127.375          44.000                                                                  
C07  38019553.619   197977789.982         778.157          41.000    38019534.019   153088917.106         601.619          45.000  
C20  25668375.790   133661960.934       -3626.910          43.000                                                                  
C36  23820261.877   124038352.179        1391.443          44.000                                                                  
C37  25084755.766   130622897.735       -2408.280          43.000                                                                  
C10  39150672.387   203867827.239         719.365          38.000    39150657.602   157643547.458         556.349          41.000  
G08  24081245.979   126547811.243        3586.003          36.000    24081245.919    98608770.876        2794.048          39.000  
G29  25407116.343   133515310.041       -3626.208          35.000    25407109.089   104037851.271       -2825.720          36.000  
C30  25065315.531   130521679.499        2749.573          44.000                                                                  
C13  40826578.577   212594705.347       -2428.981          33.000    40826582.946   164391720.806       -1878.272          38.000  
C08                                                                  41740712.533   168072572.528       -1820.697          37.000  
> 2025 11 03 07 45 21.3600000  0 26                     
G04  21369128.699   112295528.972        1029.897          44.000    21369117.931    87502966.633         802.295          47.000  
G16  20185389.196   106074937.050         117.341          46.000                                                                  
G28  23140063.534   121601849.924       -2736.290          42.000    23140052.801    94754635.830       -2132.274          44.000  
G31  21137463.559   111078123.697       -1738.063          47.000    21137451.369    86554326.190       -1354.192          45.000  
G03  24636487.902                       -2959.344          33.000    24636484.224   100882268.158       -2305.866          37.000  
G18  25127857.705   132047781.205        1307.498          37.000    25127849.717   102894344.551        1019.132          37.000  
C16  36732715.226   191276892.669           6.897          48.000    36732701.328   147907367.243           5.164          48.000  
C19  23852740.014   124207473.789       -2218.982          46.000                                                                  
C27  23568994.130   122729934.962        1068.706          47.000                                                                  
C06  36290642.834   188974896.798           3.837          47.000    36290622.206   146127301.829           2.930          49.000  
C09  37369574.620   194593180.193         126.717          44.000    37369556.795   150471723.804          97.906          48.000  
C22  24614552.230   128174430.981         571.829          42.000                                                                  
G26  20905699.680   109860193.869       -1984.216          47.000    20905690.266    85605307.720       -1546.045          45.000  
G27  21831551.436   114725582.194        2918.906          44.000    21831543.154    89396539.054        2274.853          43.000  
G09  23820515.539   125177659.842        2707.098          35.000    23820509.265    97541020.564        2109.772          37.000  
C28  24776375.508   129017085.325       -1127.432          44.000                                                                  
C07  38019547.628   197977758.848         778.286          41.000    38019528.065   153088893.036         601.663          45.000  
C20  25668403.643   133662106.019       -3627.083          43.000                                                                  
C36  23820251.169   124038296.533        1391.217          44.000                                                                  
C37  25084774.245   130622994.063       -2408.253          43.000                                                                  
C10  39150666.851   203867798.453         719.529          38.000    39150652.098   157643525.213         556.202          41.000  
G08  24081218.659   126547667.802        3586.091          36.000    24081218.617    98608659.104        2794.108          39.000  
G29  25407143.947   133515455.080       -3626.094          36.000    25407136.667   104037964.284       -2825.544          36.000  
C30  25065294.423   130521569.516        2749.572          44.000                                                                  
C13  40826597.222   212594802.470       -2428.482          33.000    40826601.596   164391795.921       -1878.044          38.000  
C08                                                                  41740730.614   168072645.379       -1821.112          37.000  
> 2025 11 03 07 45 21.4000000  0 26                     
G04  21369120.867   112295487.813        1029.225          44.000    21369110.114    87502934.561         801.862          46.000  
G16  20185388.310   106074932.390         116.667          46.000                                                                  
G28  23140084.396   121601959.413       -2736.982          42.000    23140073.639    94754721.147       -2132.754          44.000  
G31  21137476.803   111078193.252       -1738.717          47.000    21137464.604    86554380.376       -1354.471          45.000  
G03  24636510.423   129465732.496       -2959.950          33.000    24636506.744   100882360.412       -2306.250          37.000  
G18  25127847.745   132047728.925        1307.082          37.000    25127839.787   102894303.813        1018.731          37.000  
C16  36732715.186   191276892.427           6.317          48.000    36732701.254   147907367.057           4.746          48.000  
C19  23852757.048   124207562.566       -2219.360          46.000                                                                  
C27  23568985.893   122729892.235        1068.244          47.000                                                                  
C06  36290642.813   188974896.678           3.188          47.000    36290622.200   146127301.732           2.524          49.000  
C09  37369573.642   194593175.161         126.016          44.000    37369555.813   150471719.906          97.566          48.000  
C22  24614547.847   128174408.132         571.322          42.000                                                                  
G26  20905714.787   109860273.259       -1984.692          47.000    20905705.372    85605369.592       -1546.631          45.000  
G27  21831529.229   114725465.457        2918.461          44.000    21831520.947    89396448.085        2274.435          43.000  
G09  23820494.947   125177551.568        2706.757          36.000    23820488.667    97540936.171        2109.723          37.000  
C28  24776384.172   129017130.447       -1127.979          44.000                                                                  
C07  38019541.671   197977727.745         777.782          41.000    38019522.095   153088868.979         601.476          45.000  
C20  25668431.508   133662251.129       -3627.631          43.000                                                                  
C36  23820240.485   124038240.917        1390.546          44.000                                                                  
C37  25084792.747   130623090.428       -2408.934          43.000                                                                  
C10  39150661.341   203867769.709         718.864          38.000    39150646.588   157643502.987         555.716          41.000  
G08  24081191.363   126547524.384        3585.610          36.000    24081191.335    98608547.354        2793.797          39.000  
G29  25407171.536   133515600.130       -3626.197          36.000    25407164.279   104038077.303       -2825.548          36.000  
C30  25065273.298   130521459.560        2749.060          44.000                                                                  
C13  40826615.887   212594899.669       -2429.642          33.000    40826620.275   164391871.062       -1878.417          38.000  
C08                                                                  41740748.705   168072718.233       -1821.399          37.000  
> 2025 11 03 07 45 21.4400000  0 26                     
G04  21369113.039   112295446.656        1028.896          44.000    21369102.283    87502902.490         801.660          46.000  
G16  20185387.423   106074927.731         116.374          46.000                                                                  
G28  23140105.228   121602068.908       -2737.412          42.000    23140094.481    94754806.476       -2133.211          44.000  
G31  21137490.068   111078262.812       -1739.057          47.000    21137477.855    86554434.586       -1355.076          45.000  
G03  24636532.982   129465850.925       -2960.735          33.000    24636529.280   100882452.659       -2306.263          37.000  
G18  25127837.809   132047676.631        1307.110          37.000    25127829.845   102894263.105        1017.976          37.000  
C16  36732715.132   191276892.202           5.728          48.000    36732701.233   147907366.878           4.460          48.000  
C19  23852774.075   124207651.357       -2219.806          46.000                                                                  
C27  23568977.664   122729849.513        1067.969          47.000                                                                  
C06  36290642.793   188974896.570           2.695          47.000    36290622.210   146127301.640           2.267          49.000  
C09  37369572.679   194593170.120         125.855          44.000    37369554.837   150471716.011          97.340          48.000  
C22  24614543.441   128174385.294         570.935          42.000                                                                  
G26  20905729.880   109860352.657       -1985.010          47.000    20905720.486    85605431.459       -1546.790          45.000  
G27  21831507.001   114725348.723        2918.217          44.000    21831498.748    89396357.125        2274.073          43.000  
G09  23820474.338   125177443.265        2707.172          36.000    23820468.061    97540851.810        2109.155          37.000  
C28  24776392.833   129017175.580       -1128.418          44.000                                                                  
C07  38019535.703   197977696.655         777.240          41.000    38019516.126   153088844.927         601.284          45.000  
C20  25668459.343   133662396.242       -3627.901          43.000                                                                  
C36  23820229.810   124038185.296        1390.356          44.000                                                                  
C37  25084811.251   130623186.792       -2409.208          43.000                                                                  
C10  39150655.861   203867740.983         718.269          38.000    39150641.067   157643480.756         555.615          41.000  
G08  24081164.086   126547380.993        3584.946          36.000    24081164.038    98608435.608        2793.513          39.000  
G29  25407199.172   133515745.226       -3627.097          36.000    25407191.901   104038190.364       -2826.343          36.000  
C30  25065252.172   130521349.603        2748.889          44.000                                                                  
C13  40826634.542   212594996.866       -2430.177          33.000    40826638.950   164391946.195       -1878.445          38.000  
C08                                                                  41740766.794   168072791.076       -1821.344          37.000  
> 2025 11 03 07 45 21.4800000  0 26                     
G04  21369105.196   112295405.497        1028.784          44.000    21369094.462    87502870.414         801.724          46.000  
G16  20185386.539   106074923.064         116.422          46.000                                                                  
G28  23140126.068   121602178.391       -2737.369          42.000    23140115.327    94754891.792       -2133.144          44.000  
G31  21137503.272   111078332.350       -1738.813          47.000    21137491.083    86554488.769       -1354.874          45.000  
G03  24636555.532   129465969.294       -2959.963          33.000    24636551.817   100882544.921       -2306.550          37.000  
G18  25127827.864   132047624.351        1306.981          37.000    25127819.885   102894222.353        1018.375          37.000  
C16  36732715.076   191276891.953           5.908          48.000    36732701.151   147907366.678           4.722          48.000  
C19  23852791.145   124207740.126       -2219.537          46.000                                                                  
C27  23568969.495   122729806.781        1068.094          47.000                                                                  
C06  36290642.771   188974896.432           3.026          47.000    36290622.168   146127301.540           2.316          49.000  
C09  37369571.709   194593165.069         126.027          44.000    37369553.859   150471712.103          97.483          48.000  
C22  24614539.056   128174362.445         570.966          42.000                                                                  
G26  20905744.971   109860432.035       -1984.729          47.000    20905735.584    85605493.319       -1546.674          45.000  
G27  21831484.776   114725231.978        2918.357          44.000    21831476.556    89396266.163        2273.894          43.000  
G09  23820453.703   125177334.978        2707.147          36.000    23820447.448    97540767.442        2109.064          37.000  
C28  24776401.515   129017220.684       -1128.056          44.000                                                                  
C07  38019529.736   197977665.548         777.375          41.000    38019510.170   153088820.876         601.180          45.000  
C20  25668487.210   133662541.330       -3627.568          43.000                                                                  
C36  23820219.106   124038129.663        1390.601          44.000                                                                  
C37  25084829.753   130623283.141       -2409.005          43.000                                                                  
C10  39150650.320   203867712.205         718.946          38.000    39150635.547   157643458.508         555.939          41.000  
G08  24081136.785   126547237.549        3585.443          36.000    24081136.750    98608323.850        2793.657          39.000  
G29  25407226.790   133515890.288       -3626.872          36.000    25407219.517   104038303.416       -2826.532          36.000  
C30  25065231.056   130521239.633        2749.067          44.000                                                                  
C13  40826653.188   212595094.013       -2429.255          33.000    40826657.640   164392021.325       -1878.321          38.000  
C08                                                                  41740784.866   168072863.912       -1821.094          37.000  
> 2025 11 03 07 45 21.5200000  0 26                     
G04  21369097.330   112295364.304        1029.412          44.000    21369086.620    87502838.321         802.123          46.000  
G16  20185385.646   106074918.382         116.818          46.000                                                                  
G28  23140146.872   121602287.854       -2736.912          42.000    23140136.157    94754977.089       -2132.706          44.000  
G31  21137516.472   111078401.878       -1738.467          47.000    21137504.317    86554542.957       -1354.814          45.000  
G03  24636578.055                       -2958.658          33.000    24636574.342   100882637.147       -2306.011          37.000  
G18  25127817.906   132047572.056        1307.236          37.000    25127809.910   102894181.606        1018.552          37.000  
C16  36732715.041   191276891.692           6.270          48.000    36732701.091   147907366.476           4.926          48.000  
C19  23852808.180   124207828.891       -2219.275          46.000                                                                  
C27  23568961.291   122729764.030        1068.539          47.000                                                                  
C06  36290642.753   188974896.278           3.551          47.000    36290622.155   146127301.426           2.638          49.000  
C09  37369570.734   194593160.013         126.255          44.000    37369552.860   150471708.188          97.735          48.000  
C22  24614534.655   128174339.580         571.299          42.000                                                                  
G26  20905760.073   109860511.414       -1984.546          47.000    20905750.692    85605555.163       -1546.265          45.000  
G27  21831462.559   114725115.227        2918.628          44.000    21831454.325    89396175.202        2273.842          43.000  
G09  23820433.081   125177226.674        2707.501          35.000    23820426.837    97540683.035        2109.827          37.000  
C28  24776410.166   129017265.779       -1127.648          44.000                                                                  
C07  38019523.759   197977634.411         778.109          41.000    38019504.212   153088796.819         601.265          45.000  
C20  25668515.074   133662686.409       -3627.188          43.000                                                                  
C36  23820208.399   124038074.009        1391.138          44.000                                                                  
C37  25084848.262   130623379.478       -2408.625          43.000                                                                  
C10  39150644.787   203867683.439         719.125          38.000    39150630.033   157643436.268         555.977          42.000  
G08  24081109.463   126547094.130        3585.357          36.000    24081109.460    98608212.096        2793.763          39.000  
G29  25407254.393   133516035.363       -3627.030          36.000    25407247.121   104038416.441       -2826.004          36.000  
C30  25065209.939   130521129.659        2749.248          44.000                                                                  
C13  40826671.825   212595191.154       -2428.596          33.000    40826676.295   164392096.452       -1878.228          38.000  
C08                                                                  41740802.959   168072936.756       -1821.124          37.000  
> 2025 11 03 07 45 21.5600000  0 26                     
G04  21369089.481   112295323.137        1029.292          44.000    21369078.802    87502806.230         802.263          46.000  
G16  20185384.750   106074913.692         117.190          46.000                                                                  
G28  23140167.698   121602397.324       -2736.758          42.000    23140156.986    94755062.371       -2132.185          44.000  
G31  21137529.704   111078471.406       -1738.253          47.000    21137517.539    86554597.127       -1354.447          45.000  
G03  24636600.560                       -2958.855          33.000    24636596.863   100882729.357       -2305.439          37.000  
G18  25127807.956   132047519.747        1307.553          37.000    25127799.930   102894140.850        1018.800          37.000  
C16  36732715.007   191276891.421           6.664          48.000    36732701.046   147907366.276           4.994          48.000  
C19  23852825.229   124207917.652       -2219.080          46.000                                                                  
C27  23568953.070   122729721.287        1068.605          47.000                                                                  
C06  36290642.738   188974896.125           3.810          47.000    36290622.105   146127301.303           2.955          49.000  
C09  37369569.761   194593154.947         126.526          44.000    37369551.896   150471704.266          98.001          48.000  
C22  24614530.263   128174316.693         571.897          42.000                                                                  
G26  20905775.187   109860590.780       -1984.222          47.000    20905765.783    85605617.005       -1546.015          45.000  
G27  21831440.320   114724998.460        2919.041          44.000    21831432.097    89396084.211        2274.391          43.000  
G09  23820412.470   125177118.357        2707.886          36.000    23820406.236    97540598.632        2110.114          37.000  
C28  24776418.832   129017310.878       -1127.487          44.000                                                                  
C07  38019517.807   197977603.282         778.323          41.000    38019498.238   153088772.751         601.549          45.000  
C20  25668542.932   133662831.493       -3627.078          43.000                                                                  
C36  23820197.701   124038018.358        1391.339          44.000                                                                  
C37  25084866.766   130623475.807       -2408.309          43.000                                                                  
C10  39150639.269   203867654.656         719.470          38.000    39150624.496   157643414.027         555.997          42.000  
G08  24081082.163   126546950.683        3585.950          36.000    24081082.136    98608100.317        2794.253          39.000  
G29  25407281.979   133516180.398       -3626.401          36.000    25407274.723   104038529.449       -2825.412          36.000  
C30  25065188.842   130521019.679        2749.431          44.000                                                                  
C13  40826690.471   212595288.270       -2427.845          33.000    40826694.954   164392171.568       -1877.997          38.000  
C08                                                                  41740821.034   168073009.587       -1820.935          37.000  
> 2025 11 03 07 45 21.6000000  0 26                     
G04  21369081.646   112295281.939        1029.750          44.000    21369070.955    87502774.138         802.334          46.000  
G16  20185383.856   106074909.007         117.229          46.000                                                                  
G28  23140188.538   121602506.789       -2736.629          42.000    23140177.813    94755147.662       -2132.166          44.000  
G31  21137542.929   111078540.936       -1738.220          47.000    21137530.782    86554651.308       -1354.436          45.000  
G03  24636623.093                       -2959.639          33.000    24636619.383   100882821.615       -2305.983          37.000  
G18  25127798.018   132047467.454        1307.429          37.000    25127789.965   102894100.082        1019.073          37.000  
C16  36732714.956   191276891.150           6.826          48.000    36732700.987   147907366.065           5.211          48.000  
C19  23852842.277   124208006.408       -2218.903          46.000                                                                  
C27  23568944.844   122729678.545        1068.610          47.000                                                                  
C06  36290642.713   188974895.974           3.845          47.000    36290622.089   146127301.181           3.079          49.000  
C09  37369568.798   194593149.887         126.537          44.000    37369550.922   150471700.354          97.923          48.000  
C22  24614525.880   128174293.824         571.845          42.000                                                                  
G26  20905790.306   109860670.152       -1984.204          47.000    20905780.854    85605678.849       -1545.959          45.000  
G27  21831418.082   114724881.703        2919.013          44.000    21831409.861    89395993.219        2274.730          43.000  
G09  23820391.850   125177010.066        2707.446          35.000    23820385.628    97540514.246        2109.851          37.000  
C28  24776427.482   129017355.981       -1127.536          44.000                                                                  
C07  38019511.809   197977572.158         778.252          41.000    38019492.280   153088748.678         601.817          45.000  
C20  25668570.797   133662976.564       -3626.810          43.000                                                                  
C36  23820186.986   124037962.703        1391.443          44.000                                                                  
C37  25084885.249   130623572.133       -2408.106          43.000                                                                  
C10  39150633.726   203867625.884         719.439          38.000    39150618.993   157643391.775         556.195          42.000  
G08  24081054.852   126546807.235        3586.167          36.000    24081054.842    98607988.545        2794.387          39.000  
G29  25407309.574   133516325.464       -3626.580          36.000    25407302.321   104038642.491       -2825.710          36.000  
C30  25065167.731   130520909.691        2749.629          44.000                                                                  
C13  40826709.146   212595385.420       -2428.308          33.000    40826713.624   164392246.679       -1877.781          38.000  
C08                                                                  41740839.120   168073082.419       -1820.782          37.000  
> 2025 11 03 07 45 21.6400000  0 26                     
G04  21369073.811   112295240.780        1029.309          44.000    21369063.121    87502742.063         802.021          46.000  
G16  20185382.976   106074904.335         116.966          46.000                                                                  
G28  23140209.367   121602616.266       -2736.799          42.000    23140198.650    94755232.978       -2132.673          44.000  
G31  21137556.176   111078610.473       -1738.346          47.000    21137544.021    86554705.494       -1354.556          45.000  
G03  24636645.621                       -2960.232          33.000    24636641.908   100882913.843       -2305.768          37.000  
G18  25127788.063   132047415.185        1306.958          37.000    25127780.008   102894059.338        1018.765          37.000  
C16  36732714.922   191276890.895           6.565          48.000    36732700.941   147907365.865           5.083          48.000  
C19  23852859.294   124208095.182       -2219.202          46.000                                                                  
C27  23568936.654   122729635.811        1068.406          47.000                                                                  
C06  36290642.695   188974895.842           3.501          47.000    36290622.067   146127301.078           2.777          49.000  
C09  37369567.808   194593144.836         126.348          44.000    37369549.922   150471696.455          97.606          48.000  
C22  24614521.477   128174270.975         571.420          42.000                                                                  
G26  20905805.404   109860749.536       -1984.521          47.000    20905795.952    85605740.710       -1546.344          45.000  
G27  21831395.860   114724764.951        2918.901          44.000    21831387.645    89395902.244        2274.582          43.000  
G09  23820371.240   125176901.791        2706.891          35.000    23820365.034    97540429.863        2109.662          37.000  
C28  24776436.138   129017401.082       -1127.533          44.000                                                                  
C07  38019505.827   197977541.053         777.829          41.000    38019486.275   153088724.616         601.667          45.000  
C20  25668598.643   133663121.662       -3627.198          43.000                                                                  
C36  23820176.272   124037907.070        1391.022          44.000                                                                  
C37  25084903.729   130623668.488       -2408.563          43.000                                                                  
C10  39150628.184   203867597.127         719.126          38.000    39150613.488   157643369.538         556.007          42.000  
G08  24081027.537   126546663.827        3585.612          36.000    24081027.514    98607876.786        2794.144          39.000  
G29  25407337.190   133516470.513       -3626.301          36.000    25407329.923   104038755.497       -2825.257          36.000  
C30  25065146.616   130520799.727        2749.300          44.000                                                                  
C13  40826727.812   212595482.600       -2429.011          33.000    40826732.276   164392321.811       -1878.105          38.000  
C08                                                                  41740857.221   168073155.246       -1820.587          37.000  
> 2025 11 03 07 45 21.6800000  0 26                     
G04  21369066.002   112295199.623        1028.975          44.000    21369055.300    87502709.997         801.697          46.000  
G16  20185382.095   106074899.678         116.511          46.000                                                                  
G28  23140230.207   121602725.753       -2737.117          42.000    23140219.505    94755318.304       -2133.100          44.000  
G31  21137569.430   111078680.027       -1738.712          47.000    21137557.261    86554759.695       -1354.883          45.000  
G03  24636668.158                       -2959.295          33.000    24636664.432   100883006.110       -2306.437          37.000  
G18  25127778.102   132047362.902        1306.996          37.000    25127770.071   102894018.601        1018.457          37.000  
C16  36732714.887   191276890.654           6.167          48.000    36732700.886   147907365.674           4.840          48.000  
C19  23852876.310   124208183.966       -2219.556          46.000                                                                  
C27  23568928.412   122729593.087        1068.117          47.000                                                                  
C06  36290642.676   188974895.716           3.181          47.000    36290622.070   146127300.983           2.440          49.000  
C09  37369566.825   194593139.797         126.030          44.000    37369548.919   150471692.551          97.493          48.000  
C22  24614517.092   128174248.132         571.095          42.000                                                                  
G26  20905820.523   109860828.933       -1984.888          47.000    20905811.067    85605802.577       -1546.649          45.000  
G27  21831373.669   114724648.215        2918.536          44.000    21831365.435    89395811.283        2274.204          43.000  
G09  23820350.635   125176793.508        2706.799          35.000    23820344.441    97540345.516        2108.899          37.000  
C28  24776444.802   129017446.210       -1128.003          44.000                                                                  
C07  38019499.851   197977509.953         777.537          41.000    38019480.329   153088700.573         601.239          45.000  
C20  25668626.520   133663266.775       -3627.697          43.000                                                                  
C36  23820165.608   124037851.445        1390.637          44.000                                                                  
C37  25084922.213   130623764.845       -2408.924          43.000                                                                  
C10  39150622.651   203867568.386         718.644          38.000    39150607.945   157643347.297         555.961          41.000  
G08  24081000.276   126546520.409        3585.424          36.000    24081000.212    98607765.051        2793.577          39.000  
G29  25407364.752   133516615.573       -3626.396          36.000    25407357.528   104038868.548       -2825.894          36.000  
C30  25065125.482   130520689.768        2749.011          44.000                                                                  
C13  40826746.475   212595579.785       -2429.520          33.000    40826750.963   164392396.954       -1878.512          38.000  
C08                                                                  41740875.323   168073228.114       -1821.344          37.000  
> 2025 11 03 07 45 21.7200000  0 26                     
G04  21369058.158   112295158.473        1028.712          44.000    21369047.464    87502677.925         801.615          46.000  
G16  20185381.225   106074895.015         116.422          46.000                                                                  
G28  23140251.053   121602835.247       -2737.401          42.000    23140240.334    94755403.624       -2133.195          44.000  
G31  21137582.690   111078749.582       -1738.927          47.000    21137570.501    86554813.897       -1355.090          45.000  
G03  24636690.707                       -2960.512          33.000    24636686.953   100883098.362       -2306.467          37.000  
G18  25127768.167   132047310.628        1306.872          37.000    25127760.129   102893977.868        1018.280          37.000  
C16  36732714.828   191276890.417           5.882          48.000    36732700.811   147907365.494           4.539          48.000  
C19  23852893.349   124208272.753       -2219.757          46.000                                                                  
C27  23568920.189   122729550.368        1067.921          47.000                                                                  
C06  36290642.646   188974895.585           3.141          47.000    36290622.063   146127300.884           2.386          49.000  
C09  37369565.873   194593134.751         126.032          44.000    37369547.940   150471688.656          97.312          48.000  
C22  24614512.714   128174225.294         570.895          42.000                                                                  
G26  20905835.609   109860908.331       -1985.095          47.000    20905826.160    85605864.447       -1546.826          45.000  
G27  21831351.444   114724531.481        2918.310          44.000    21831343.207    89395720.330        2273.796          43.000  
G09  23820330.031   125176685.233        2706.695          35.000    23820323.837    97540261.130        2109.253          37.000  
C28  24776453.489   129017491.339       -1128.280          44.000                                                                  
C07  38019493.868   197977478.861         777.253          41.000    38019474.367   153088676.531         601.005          45.000  
C20  25668654.402   133663411.879       -3627.784          43.000                                                                  
C36  23820154.924   124037795.821        1390.479          44.000                                                                  
C37  25084940.703   130623861.210       -2409.196          43.000                                                                  
C10  39150617.139   203867539.640         718.488          38.000    39150602.411   157643325.059         555.925          41.000  
G08  24080972.977   126546376.999        3585.260          36.000    24080972.902    98607653.288        2793.796          39.000  
G29  25407392.376   133516760.644       -3626.653          36.000    25407385.134   104038981.603       -2826.324          36.000  
C30  25065104.356   130520579.813        2748.779          44.000                                                                  
C13  40826765.141   212595676.955       -2429.474          33.000    40826769.609   164392472.087       -1878.475          38.000  
C08                                                                  41740893.410   168073300.966       -1821.484          37.000  
> 2025 11 03 07 45 21.7600000  0 26                     
G04  21369050.349   112295117.321        1028.613          44.000    21369039.645    87502645.860         801.494          46.000  
G16  20185380.333   106074890.358         116.319          46.000                                                                  
G28  23140271.877   121602944.749       -2737.614          42.000    23140261.169    94755488.938       -2133.048          44.000  
G31  21137595.902   111078819.135       -1738.986          47.000    21137583.734    86554868.093       -1355.053          45.000  
G03  24636713.240                       -2960.260          33.000    24636709.475   100883190.594       -2306.072          37.000  
G18  25127758.191   132047258.328        1307.331          37.000    25127750.178   102893937.131        1018.296          37.000  
C16  36732714.779   191276890.177           5.844          48.000    36732700.772   147907365.305           4.578          48.000  
C19  23852910.396   124208361.541       -2219.806          46.000                                                                  
C27  23568911.991   122729507.643        1067.966          47.000                                                                  
C06  36290642.643   188974895.454           3.177          47.000    36290622.034   146127300.790           2.275          49.000  
C09  37369564.884   194593129.709         125.970          44.000    37369546.976   150471684.761          97.249          48.000  
C22  24614508.329   128174202.453         570.820          42.000                                                                  
G26  20905850.710   109860987.725       -1985.046          47.000    20905841.244    85605926.312       -1546.820          45.000  
G27  21831329.223   114724414.750        2918.163          44.000    21831320.995    89395629.383        2273.531          43.000  
G09  23820309.417   125176576.935        2707.141          35.000    23820303.238    97540176.749        2109.399          37.000  
C28  24776462.168   129017536.463       -1128.272          44.000                                                                  
C07  38019487.855   197977447.758         777.367          41.000    38019468.362   153088652.476         601.167          45.000  
C20  25668682.249   133663556.985       -3627.762          43.000                                                                  
C36  23820144.247   124037740.197        1390.436          44.000                                                                  
C37  25084959.202   130623957.570       -2409.189          43.000                                                                  
C10  39150611.612   203867510.908         718.207          38.000    39150596.917   157643302.830         555.714          41.000  
G08  24080945.674   126546233.589        3585.141          36.000    24080945.617    98607541.547        2793.555          39.000  
G29  25407419.992   133516905.729       -3627.059          36.000    25407412.738   104039094.663       -2826.554          36.000  
C30  25065083.253   130520469.863        2748.650          44.000                                                                  
C13  40826783.794   212595774.105       -2429.114          33.000    40826788.295   164392547.249       -1879.001          38.000  
C08                                                                  41740911.474   168073373.817       -1821.442          37.000  
> 2025 11 03 07 45 21.8000000  0 26                     
G04  21369042.535   112295076.153        1028.966          44.000    21369031.796    87502613.786         801.636          46.000  
G16  20185379.466   106074885.699         116.347          46.000                                                                  
G28  23140292.706   121603054.241       -2737.517          42.000    23140282.019    94755574.245       -2132.849          44.000  
G31  21137609.128   111078888.691       -1739.015          47.000    21137596.959    86554922.282       -1354.907          45.000  
G03  24636735.749                       -2959.031          33.000    24636732.023   100883282.867       -2306.612          37.000  
G18  25127748.248   132047206.056        1307.081          37.000    25127740.216   102893896.379        1018.583          37.000  
C16  36732714.729   191276889.929           5.984          48.000    36732700.702   147907365.111           4.700          48.000  
C19  23852927.462   124208450.319       -2219.635          46.000                                                                  
C27  23568903.783   122729464.919        1067.998          47.000                                                                  
C06  36290642.637   188974895.322           3.230          47.000    36290622.008   146127300.691           2.330          49.000  
C09  37369563.906   194593124.660         126.068          44.000    37369545.997   150471680.859          97.375          48.000  
C22  24614503.950   128174179.617         570.777          42.000                                                                  
G26  20905865.812   109861067.115       -1984.906          47.000    20905856.331    85605988.178       -1546.765          45.000  
G27  21831306.994   114724298.018        2918.142          44.000    21831298.769    89395538.423        2273.677          43.000  
G09  23820288.811   125176468.656        2707.037          35.000    23820282.639    97540092.380        2109.229          37.000  
C28  24776470.825   129017581.591       -1128.316          44.000                                                                  
C07  38019481.869   197977416.649         777.608          41.000    38019462.358   153088628.412         601.425          45.000  
C20  25668710.142   133663702.086       -3627.626          43.000                                                                  
C36  23820133.569   124037684.562        1390.680          44.000                                                                  
C37  25084977.712   130624053.917       -2408.863          43.000                                                                  
C10  39150606.080   203867482.139         718.769          38.000    39150591.396   157643280.612         555.429          41.000  
G08  24080918.385   126546090.176        3585.237          36.000    24080918.319    98607429.815        2793.273          39.000  
G29  25407447.627   133517050.793       -3626.885          36.000    25407440.351   104039207.700       -2826.223          36.000  
C30  25065062.148   130520359.896        2748.943          44.000                                                                  
C13  40826802.480   212595871.299       -2429.726          33.000    40826806.951   164392622.382       -1878.646          38.000  
C08                                                                  41740929.573   168073446.654       -1821.179          37.000  
> 2025 11 03 07 45 21.8400000  0 26                     
G04  21369034.696   112295034.999        1028.896          44.000    21369023.959    87502581.708         801.830          46.000  
G16  20185378.600   106074881.029         116.610          46.000                                                                  
G28  23140313.540   121603163.719       -2737.130          42.000    23140302.857    94755659.552       -2132.712          44.000  
G31  21137622.376   111078958.230       -1738.723          47.000    21137610.182    86554976.472       -1354.813          45.000  
G03  24636758.290                       -2958.994          33.000    24636754.543   100883375.117       -2306.534          37.000  
G18  25127738.321   132047153.783        1306.851          37.000    25127730.264   102893855.636        1018.559          37.000  
C16  36732714.685   191276889.673           6.233          48.000    36732700.595   147907364.920           4.747          48.000  
C19  23852944.514   124208539.097       -2219.525          46.000                                                                  
C27  23568895.601   122729422.198        1067.973          47.000                                                                  
C06  36290642.638   188974895.194           3.198          47.000    36290621.966   146127300.580           2.603          49.000  
C09  37369562.950   194593119.613         126.102          44.000    37369545.057   150471676.948          97.626          48.000  
C22  24614499.557   128174156.755         571.262          42.000                                                                  
G26  20905880.913   109861146.496       -1984.625          47.000    20905871.433    85606050.043       -1546.692          45.000  
G27  21831284.772   114724181.286        2918.189          44.000    21831276.557    89395447.457        2273.974          43.000  
G09  23820268.193   125176360.366        2707.214          35.000    23820262.028    97540008.007        2109.222          37.000  
C28  24776479.479   129017626.709       -1128.141          44.000                                                                  
C07  38019475.874   197977385.536         777.809          41.000    38019456.373   153088604.350         601.523          45.000  
C20  25668738.025   133663847.183       -3627.474          43.000                                                                  
C36  23820122.891   124037628.926        1390.833          44.000                                                                  
C37  25084996.214   130624150.264       -2408.705          43.000                                                                  
C10  39150600.565   203867453.365         719.167          38.000    39150585.860   157643258.380         555.546          41.000  
G08  24080891.100   126545946.741        3585.694          36.000    24080891.036    98607318.047        2793.813          39.000  
G29  25407475.241   133517195.852       -3626.578          36.000    25407467.958   104039320.736       -2825.978          36.000  
C30  25065041.055   130520249.926        2749.183          44.000                                                                  
C13  40826821.157   212595968.475       -2429.649          33.000    40826825.587   164392697.512       -1878.370          38.000  
C08                                                                  41740947.659   168073519.479       -1820.709          37.000  
> 2025 11 03 07 45 21.8800000  0 26                     
G04  21369026.865   112294993.828        1029.167          44.000    21369016.114    87502549.639         801.766          46.000  
G16  20185377.708   106074876.363         116.677          46.000                                                                  
G28  23140334.382   121603273.194       -2736.914          42.000    23140323.687    94755744.870       -2132.883          44.000  
G31  21137635.584   111079027.772       -1738.595          47.000    21137623.405    86555030.661       -1354.749          45.000  
G03  24636780.825   129467153.051       -2959.234          33.000    24636777.072   100883467.352       -2306.143          37.000  
G18  25127728.374   132047101.495        1307.002          37.000    25127720.313   102893814.882        1018.821          37.000  
C16  36732714.648   191276889.419           6.346          48.000    36732700.521   147907364.725           4.825          48.000  
C19  23852961.557   124208627.876       -2219.495          46.000                                                                  
C27  23568887.396   122729379.478        1067.955          47.000                                                                  
C06  36290642.609   188974895.059           3.282          47.000    36290621.945   146127300.475           2.629          49.000  
C09  37369561.983   194593114.561         126.250          44.000    37369544.092   150471673.042          97.667          48.000  
C22  24614495.167   128174133.898         571.416          42.000                                                                  
G26  20905896.036   109861225.888       -1984.698          47.000    20905886.540    85606111.897       -1546.454          45.000  
G27  21831262.558   114724064.544        2918.422          44.000    21831254.329    89395356.481        2274.290          43.000  
G09  23820247.600   125176252.100        2706.818          36.000    23820241.442    97539923.637        2109.216          37.000  
C28  24776488.157   129017671.823       -1127.947          44.000                                                                  
C07  38019469.880   197977354.419         777.917          41.000    38019450.399   153088580.303         601.282          45.000  
C20  25668765.889   133663992.264       -3627.181          43.000                                                                  
C36  23820112.217   124037573.291        1390.912          44.000                                                                  
C37  25085014.698   130624246.615       -2408.758          43.000                                                                  
C10  39150595.049   203867424.624         718.758          38.000    39150580.363   157643236.150         555.654          41.000  
G08  24080863.805   126545803.323        3585.636          36.000    24080863.718    98607206.287        2794.000          39.000  
G29  25407502.833   133517340.918       -3626.616          36.000    25407495.554   104039433.761       -2825.671          36.000  
C30  25065019.949   130520139.959        2749.248          44.000                                                                  
C13  40826839.802   212596065.622       -2428.940          33.000    40826844.233   164392772.639       -1878.256          38.000  
C08                                                                  41740965.758   168073592.318       -1820.788          37.000  
> 2025 11 03 07 45 21.9200000  0 26                     
G04  21369019.039   112294952.682        1028.842          44.000    21369008.288    87502517.566         801.765          46.000  
G16  20185376.851   106074871.705         116.533          46.000                                                                  
G28  23140355.211   121603382.678       -2736.992          42.000    23140344.523    94755830.189       -2132.988          44.000  
G31  21137648.845   111079097.325       -1738.734          47.000    21137636.654    86555084.858       -1354.846          45.000  
G03  24636803.356                       -2960.353          33.000    24636799.589   100883559.606       -2306.293          37.000  
G18  25127718.421   132047049.236        1306.568          37.000    25127710.389   102893774.178        1017.986          37.000  
C16  36732714.565   191276889.168           6.341          48.000    36732700.446   147907364.536           4.750          48.000  
C19  23852978.594   124208716.665       -2219.672          46.000                                                                  
C27  23568879.200   122729336.763        1067.869          47.000                                                                  
C06  36290642.613   188974894.926           3.301          47.000    36290621.928   146127300.372           2.585          49.000  
C09  37369561.022   194593109.510         126.278          44.000    37369543.096   150471669.138          97.612          48.000  
C22  24614490.790   128174111.066         571.035          42.000                                                                  
G26  20905911.154   109861305.279       -1984.784          47.000    20905901.663    85606173.762       -1546.527          45.000  
G27  21831240.342   114723947.810        2918.405          44.000    21831232.120    89395265.508        2274.391          43.000  
G09  23820226.993   125176143.828        2706.708          36.000    23820220.829    97539839.249        2109.583          37.000  
C28  24776496.836   129017716.952       -1128.126          44.000                                                                  
C07  38019463.917   197977323.323         777.601          41.000    38019444.434   153088556.258         601.108          45.000  
C20  25668793.762   133664137.359       -3627.236          43.000                                                                  
C36  23820101.549   124037517.662        1390.790          44.000                                                                  
C37  25085033.217   130624342.987       -2409.167          43.000                                                                  
C10  39150589.507   203867395.859         718.915          38.000    39150574.816   157643213.905         555.979          41.000  
G08  24080836.503   126545659.905        3585.623          36.000    24080836.426    98607094.531        2794.090          39.000  
G29  25407530.437   133517486.004       -3627.023          36.000    25407523.163   104039546.810       -2826.027          36.000  
C30  25064998.833   130520029.991        2749.257          44.000                                                                  
C13  40826858.449   212596162.752       -2428.286          33.000    40826862.895   164392847.761       -1878.115          38.000  
C08                                                                  41740983.874   168073665.180       -1821.326          37.000  
> 2025 11 03 07 45 21.9600000  0 26                     
G04  21369011.233   112294911.534        1028.674          44.000    21369000.474    87502485.503         801.642          46.000  
G16  20185375.989   106074867.055         116.290          46.000                                                                  
G28  23140376.075   121603492.169       -2737.173          42.000    23140365.362    94755915.502       -2132.886          44.000  
G31  21137662.110   111079166.884       -1738.946          47.000    21137649.910    86555139.073       -1355.230          45.000  
G03  24636825.904                       -2960.307          33.000    24636822.108   100883651.846       -2306.083          37.000  
G18  25127708.477   132046996.953        1306.750          37.000    25127700.446   102893733.448        1018.033          37.000  
C16  36732714.511   191276888.928           6.096          48.000    36732700.403   147907364.349           4.673          48.000  
C19  23852995.643   124208805.461       -2219.855          46.000                                                                  
C27  23568871.016   122729294.041        1067.956          47.000                                                                  
C06  36290642.593   188974894.798           3.228          47.000    36290621.905   146127300.273           2.506          49.000  
C09  37369560.064   194593104.467         126.129          44.000    37369542.119   150471665.241          97.465          48.000  
C22  24614486.376   128174088.228         570.904          42.000                                                                  
G26  20905926.289   109861384.687       -1985.132          47.000    20905916.783    85606235.630       -1546.643          45.000  
G27  21831218.125   114723831.086        2918.182          44.000    21831209.899    89395174.545        2274.226          43.000  
G09  23820206.397   125176035.549        2706.805          36.000    23820200.228    97539754.876        2109.479          37.000  
C28  24776505.481   129017762.089       -1128.359          44.000                                                                  
C07  38019457.944   197977292.226         777.388          41.000    38019438.458   153088532.217         600.966          45.000  
C20  25668821.643   133664282.464       -3627.505          43.000                                                                  
C36  23820090.873   124037462.040        1390.607          44.000                                                                  
C37  25085051.698   130624439.353       -2409.256          43.000                                                                  
C10  39150583.990   203867367.114         718.676          38.000    39150569.295   157643191.662         556.101          41.000  
G08  24080809.204   126545516.505        3585.237          36.000    24080809.138    98606982.782        2793.845          39.000  
G29  25407558.073   133517631.086       -3627.150          36.000    25407550.779   104039659.876       -2826.478          36.000  
C30  25064977.721   130519920.038        2748.982          44.000                                                                  
C13  40826877.094   212596259.912       -2428.600          33.000    40826881.558   164392922.915       -1878.587          38.000  
C08                                                                  41741001.988   168073738.042       -1821.570          37.000  
> 2025 11 03 07 45 22.0000000  0 26                     
G04  21369003.393   112294870.395        1028.495          44.000    21368992.662    87502453.441         801.521          46.000  
G16  20185375.127   106074862.407         116.143          46.000                                                                  
G28  23140396.929   121603601.675       -2737.590          42.000    23140386.191    94756000.831       -2133.179          44.000  
G31  21137675.348   111079236.443       -1739.031          47.000    21137663.140    86555193.271       -1355.152          45.000  
G03  24636848.424                       -2959.810          33.000    24636844.645   100883744.116       -2306.503          37.000  
G18  25127698.517   132046944.685        1306.649          37.000    25127690.490   102893692.699        1018.406          37.000  
C16  36732714.455   191276888.690           5.944          48.000    36732700.330   147907364.161           4.655          48.000  
C19  23853012.709   124208894.252       -2219.843          46.000                                                                  
C27  23568862.803   122729251.325        1067.894          47.000                                                                  
C06  36290642.584   188974894.676           3.087          47.000    36290621.909   146127300.178           2.383          49.000  
C09  37369559.085   194593099.431         125.965          44.000    37369541.143   150471661.349          97.313          48.000  
C22  24614482.002   128174065.393         570.825          42.000                                                                  
G26  20905941.372   109861464.081       -1985.028          47.000    20905931.899    85606297.497       -1546.729          45.000  
G27  21831195.899   114723714.353        2918.208          44.000    21831187.681    89395083.599        2273.786          43.000  
G09  23820185.798   125175927.267        2706.958          36.000    23820179.619    97539670.510        2109.314          37.000  
C28  24776514.143   129017807.221       -1128.391          44.000                                                                  
C07  38019451.985   197977261.143         777.019          41.000    38019432.505   153088508.171         601.020          45.000  
C20  25668849.506   133664427.581       -3627.843          43.000                                                                  
C36  23820080.163   124037406.419        1390.479          44.000                                                                  
C37  25085070.199   130624535.698       -2408.900          43.000                                                                  
C10  39150578.476   203867338.367         718.633          38.000    39150563.794   157643169.432         555.883          41.000  
G08  24080781.927   126545373.075        3585.683          36.000    24080781.865    98606871.047        2793.490          39.000  
G29  25407585.675   133517776.158       -3627.010          35.000    25407578.376   104039772.927       -2826.483          36.000  
C30  25064956.601   130519810.085        2748.802          44.000                                                                  
C13  40826895.784   212596357.106       -2429.503          33.000    40826900.225   164392998.050       -1878.495          38.000  
C08                                                                  41741020.099   168073810.884       -1821.344          37.000  
> 2025 11 03 07 45 22.0400000  0 26                     
G04  21368995.541   112294829.235        1028.767          44.000    21368984.841    87502421.384         801.394          46.000  
G16  20185374.245   106074857.752         116.258          46.000                                                                  
G28  23140417.770   121603711.172       -2737.593          42.000    23140407.016    94756086.141       -2132.928          44.000  
G31  21137688.567   111079305.998       -1738.970          47.000    21137676.365    86555247.464       -1354.967          45.000  
G03  24636870.941                       -2959.717          33.000    24636867.172   100883836.375       -2306.597          37.000  
G18  25127688.549   132046892.391        1307.053          37.000    25127680.532   102893651.950        1018.636          37.000  
C16  36732714.429   191276888.452           5.871          48.000    36732700.263   147907363.965           4.786          48.000  
C19  23853029.760   124208983.045       -2219.873          46.000                                                                  
C27  23568854.624   122729208.598        1068.061          47.000                                                                  
C06  36290642.566   188974894.544           3.218          47.000    36290621.891   146127300.087           2.272          49.000  
C09  37369558.111   194593094.388         125.982          44.000    37369540.161   150471657.448          97.401          48.000  
C22  24614477.625   128174042.569         570.597          42.000                                                                  
G26  20905956.474   109861543.478       -1984.973          47.000    20905947.022    85606359.370       -1546.863          45.000  
G27  21831173.660   114723597.620        2918.243          44.000    21831165.480    89394992.646        2273.747          43.000  
G09  23820165.194   125175818.987        2706.970          36.000    23820159.019    97539586.155        2108.997          37.000  
C28  24776522.818   129017852.348       -1128.294          44.000                                                                  
C07  38019446.003   197977230.043         777.196          41.000    38019426.522   153088484.119         601.173          45.000  
C20  25668877.371   133664572.701       -3628.032          43.000                                                                  
C36  23820069.481   124037350.791        1390.558          44.000                                                                  
C37  25085088.692   130624632.057       -2408.929          43.000                                                                  
C10  39150572.948   203867309.629         718.452          38.000    39150558.293   157643147.213         555.571          41.000  
G08  24080754.650   126545229.680        3585.181          36.000    24080754.574    98606759.299        2793.540          39.000  
G29  25407613.279   133517921.241       -3627.111          35.000    25407605.986   104039885.982       -2826.482          36.000  
C30  25064935.521   130519700.131        2748.737          44.000                                                                  
C13  40826914.457   212596454.274       -2429.410          33.000    40826918.903   164393073.183       -1878.413          38.000  
C08                                                                  41741038.198   168073883.730       -1821.277          37.000  
> 2025 11 03 07 45 22.0800000  0 26                     
G04  21368987.721   112294788.088        1028.707          44.000    21368977.029    87502389.324         801.394          46.000  
G16  20185373.327   106074853.094         116.376          46.000                                                                  
G28  23140438.609   121603820.657       -2737.329          42.000    23140427.843    94756171.458       -2132.928          43.000  
G31  21137701.809   111079375.556       -1739.015          47.000    21137689.591    86555301.655       -1354.837          45.000  
G03  24636893.462                       -2960.434          33.000    24636889.700   100883928.628       -2306.491          37.000  
G18  25127678.593   132046840.100        1307.351          37.000    25127670.602   102893611.232        1018.203          37.000  
C16  36732714.401   191276888.204           6.046          48.000    36732700.174   147907363.778           4.699          48.000  
C19  23853046.807   124209071.825       -2219.629          46.000                                                                  
C27  23568846.414   122729165.874        1068.109          47.000                                                                  
C06  36290642.517   188974894.413           3.241          47.000    36290621.855   146127299.987           2.367          49.000  
C09  37369557.123   194593089.341         126.064          44.000    37369539.190   150471653.543          97.530          48.000  
C22  24614473.241   128174019.729         570.781          42.000                                                                  
G26  20905971.553   109861622.867       -1984.821          47.000    20905962.124    85606421.237       -1546.790          45.000  
G27  21831151.438   114723480.889        2918.238          44.000    21831143.260    89394901.701        2273.590          43.000  
G09  23820144.586   125175710.710        2706.891          36.000    23820138.401    97539501.784        2109.088          37.000  
C28  24776531.482   129017897.480       -1128.355          44.000                                                                  
C07  38019440.021   197977198.932         777.555          41.000    38019420.544   153088460.060         601.429          45.000  
C20  25668905.257   133664717.796       -3627.646          43.000                                                                  
C36  23820058.834   124037295.158        1390.729          44.000                                                                  
C37  25085107.191   130624728.415       -2408.929          43.000                                                                  
C10  39150567.428   203867280.872         718.757          38.000    39150552.746   157643124.986         555.525          41.000  
G08  24080727.384   126545086.272        3585.174          36.000    24080727.290    98606647.538        2793.861          39.000  
G29  25407640.873   133518066.311       -3626.957          35.000    25407633.604   104039999.022       -2826.204          36.000  
C30  25064914.401   130519590.182        2748.653          44.000                                                                  
C13  40826933.124   212596551.439       -2429.288          33.000    40826937.567   164393148.303       -1878.131          38.000  
C08                                                                  41741056.291   168073956.572       -1821.100          37.000  
> 2025 11 03 07 45 22.1200000  0 26                     
G04  21368979.874   112294746.943        1028.625          44.000    21368969.174    87502357.260         801.506          46.000  
G16  20185372.415   106074848.433         116.519          46.000                                                                  
G28  23140459.428   121603930.147       -2737.254          42.000    23140448.682    94756256.779       -2132.979          43.000  
G31  21137715.039   111079445.110       -1738.940          47.000    21137702.833    86555355.857       -1354.948          45.000  
G03  24636916.000                       -2960.269          33.000    24636912.237   100884020.870       -2306.229          37.000  
G18  25127668.651   132046787.860        1306.459          37.000    25127660.657   102893570.497        1018.315          37.000  
C16  36732714.389   191276887.957           6.104          48.000    36732700.106   147907363.591           4.661          48.000  
C19  23853063.852   124209160.608       -2219.568          46.000                                                                  
C27  23568838.214   122729123.157        1067.974          47.000                                                                  
C06  36290642.492   188974894.286           3.186          47.000    36290621.832   146127299.883           2.505          49.000  
C09  37369556.135   194593084.294         126.128          44.000    37369538.234   150471649.649          97.392          48.000  
C22  24614468.873   128173996.891         570.874          42.000                                                                  
G26  20905986.669   109861702.267       -1984.924          47.000    20905977.235    85606483.104       -1546.753          45.000  
G27  21831129.225   114723364.158        2918.226          44.000    21831121.031    89394810.737        2273.857          43.000  
G09  23820123.990   125175602.461        2706.232          36.000    23820117.817    97539417.434        2108.747          37.000  
C28  24776540.166   129017942.606       -1128.228          44.000                                                                  
C07  38019434.045   197977167.828         777.596          41.000    38019414.556   153088436.009         601.363          45.000  
C20  25668933.100   133664862.885       -3627.299          43.000                                                                  
C36  23820048.145   124037239.531        1390.686          44.000                                                                  
C37  25085125.695   130624824.774       -2408.983          43.000                                                                  
C10  39150561.917   203867252.110         719.002          38.000    39150547.211   157643102.743         555.774          41.000  
G08  24080700.068   126544942.837        3585.635          36.000    24080699.979    98606535.782        2793.900          39.000  
G29  25407668.495   133518211.384       -3626.826          36.000    25407661.200   104040112.057       -2825.959          36.000  
C30  25064893.303   130519480.223        2748.813          44.000                                                                  
C13  40826951.774   212596648.621       -2429.448          33.000    40826956.251   164393223.448       -1878.377          38.000  
C08                                                                  41741074.365   168074029.412       -1821.014          37.000  
> 2025 11 03 07 45 22.1600000  0 26                     
G04  21368972.053   112294705.793        1028.698          44.000    21368961.350    87502325.197         801.565          46.000  
G16  20185371.530   106074843.784         116.337          46.000                                                                  
G28  23140480.262   121604039.630       -2737.125          42.000    23140469.523    94756342.100       -2133.034          43.000  
G31  21137728.300   111079514.675       -1739.093          47.000    21137716.074    86555410.055       -1354.977          45.000  
G03  24636938.508                       -2959.156          33.000    24636934.770   100884113.116       -2306.142          37.000  
G18  25127658.703   132046735.590        1306.544          35.000    25127650.710   102893529.754        1018.557          37.000  
C16  36732714.358   191276887.703           6.277          48.000    36732700.033   147907363.401           4.681          48.000  
C19  23853080.904   124209249.408       -2219.873          46.000                                                                  
C27  23568829.998   122729080.447        1067.745          47.000                                                                  
C06  36290642.476   188974894.159           3.169          47.000    36290621.804   146127299.783           2.510          49.000  
C09  37369555.161   194593079.246         126.119          44.000    37369537.268   150471645.745          97.463          48.000  
C22  24614464.490   128173974.044         571.079          42.000                                                                  
G26  20906001.746   109861781.662       -1984.924          47.000    20905992.330    85606544.972       -1546.747          45.000  
G27  21831107.020   114723247.440        2918.018          44.000    21831098.819    89394719.785        2273.818          43.000  
G09  23820103.396   125175494.200        2706.226          36.000    23820097.229    97539333.065        2108.984          37.000  
C28  24776548.839   129017987.740       -1128.294          44.000                                                                  
C07  38019428.086   197977136.731         777.456          41.000    38019408.600   153088411.953         601.380          45.000  
C20  25668960.944   133665007.980       -3627.294          43.000                                                                  
C36  23820037.440   124037183.914        1390.479          44.000                                                                  
C37  25085144.218   130624921.124       -2408.847          43.000                                                                  
C10  39150556.396   203867223.368         718.749          38.000    39150541.713   157643080.520         555.625          41.000  
G08  24080672.784   126544799.440        3585.220          36.000    24080672.700    98606424.028        2793.962          39.000  
G29  25407696.098   133518356.444       -3626.573          36.000    25407688.804   104040225.083       -2825.696          36.000  
C30  25064872.193   130519370.247        2749.240          44.000                                                                  
C13  40826970.432   212596745.798       -2429.465          33.000    40826974.911   164393298.578       -1878.269          38.000  
C08                                                                  41741092.454   168074102.266       -1821.155          37.000  
> 2025 11 03 07 45 22.2000000  0 26                     
G04  21368964.231   112294664.655        1028.539          44.000    21368953.529    87502293.135         801.548          46.000  
G16  20185370.629   106074839.132         116.288          46.000                                                                  
G28  23140501.087   121604149.116       -2737.095          42.000    23140490.356    94756427.425       -2133.109          43.000  
G31  21137741.552   111079584.226       -1738.928          47.000    21137729.301    86555464.262       -1355.140          45.000  
G03  24636961.065                       -2959.227          33.000    24636957.295   100884205.385       -2306.525          37.000  
G18  25127648.752   132046683.318        1306.694          35.000    25127640.778   102893489.040        1018.015          35.000  
C16  36732714.288   191276887.459           6.175          48.000    36732699.982   147907363.211           4.688          48.000  
C19  23853097.986   124209338.200       -2219.873          46.000                                                                  
C27  23568821.808   122729037.730        1067.777          47.000                                                                  
C06  36290642.477   188974894.028           3.215          47.000    36290621.787   146127299.682           2.513          49.000  
C09  37369554.195   194593074.200         126.140          44.000    37369536.293   150471641.839          97.599          48.000  
C22  24614460.084   128173951.211         570.937          42.000                                                                  
G26  20906016.858   109861861.051       -1984.802          47.000    20906007.441    85606606.834       -1546.625          45.000  
G27  21831084.804   114723130.713        2918.064          44.000    21831076.611    89394628.829        2273.830          43.000  
G09  23820082.780   125175385.936        2706.396          36.000    23820076.606    97539248.692        2109.186          37.000  
C28  24776557.525   129018032.862       -1128.144          44.000                                                                  
C07  38019422.103   197977105.618         777.721          41.000    38019402.630   153088387.912         601.134          45.000  
C20  25668988.817   133665153.083       -3627.443          43.000                                                                  
C36  23820026.755   124037128.291        1390.485          44.000                                                                  
C37  25085162.710   130625017.494       -2409.128          43.000                                                                  
C10  39150550.908   203867194.610         718.876          38.000    39150536.191   157643058.290         555.698          41.000  
G08  24080645.516   126544656.019        3585.442          36.000    24080645.397    98606312.290        2793.612          39.000  
G29  25407723.712   133518501.516       -3626.662          36.000    25407716.428   104040338.133       -2826.025          36.000  
C30  25064851.059   130519260.289        2749.099          44.000                                                                  
C13  40826989.096   212596842.944       -2428.861          33.000    40826993.571   164393373.730       -1878.654          38.000  
C08                                                                  41741110.538   168074175.109       -1821.082          37.000  
> 2025 11 03 07 45 22.2400000  0 26                     
G04  21368956.405   112294623.505        1028.671          44.000    21368945.690    87502261.068         801.613          46.000  
G16  20185369.726   106074834.479         116.276          46.000                                                                  
G28  23140521.927   121604258.608       -2737.246          42.000    23140511.189    94756512.744       -2133.077          43.000  
G31  21137754.783   111079653.776       -1738.803          47.000    21137742.551    86555518.454       -1354.932          45.000  
G03  24636983.618                       -2959.854          33.000    24636979.837   100884297.628       -2306.300          37.000  
G18  25127638.809   132046631.009        1307.449          35.000    25127630.831   102893448.317        1017.919          35.000  
C16  36732714.254   191276887.211           6.195          48.000    36732699.918   147907363.019           4.762          48.000  
C19  23853115.061   124209426.987       -2219.769          46.000                                                                  
C27  23568813.626   122728995.017        1067.772          47.000                                                                  
C06  36290642.475   188974893.893           3.312          47.000    36290621.757   146127299.580           2.518          49.000  
C09  37369553.205   194593069.160         126.031          44.000    37369535.298   150471637.940          97.520          48.000  
C22  24614455.688   128173928.386         570.703          42.000                                                                  
G26  20906031.979   109861940.445       -1984.833          47.000    20906022.551    85606668.702       -1546.674          45.000  
G27  21831062.591   114723013.974        2918.312          44.000    21831054.381    89394537.855        2274.167          43.000  
G09  23820062.159   125175277.634        2707.239          36.000    23820056.008    97539164.309        2109.424          37.000  
C28  24776566.190   129018077.990       -1128.174          44.000                                                                  
C07  38019416.108   197977074.503         777.868          41.000    38019396.623   153088363.871         600.979          45.000  
C20  25669016.663   133665298.189       -3627.589          43.000                                                                  
C36  23820016.067   124037072.643        1391.016          44.000                                                                  
C37  25085181.214   130625113.848       -2409.021          43.000                                                                  
C10  39150545.367   203867165.875         718.499          38.000    39150530.684   157643036.057         555.799          41.000  
G08  24080618.252   126544512.598        3585.608          36.000    24080618.110    98606200.541        2793.596          39.000  
G29  25407751.328   133518646.622       -3627.343          36.000    25407744.027   104040451.185       -2826.281          36.000  
C30  25064829.946   130519150.323        2749.142          44.000                                                                  
C13  40827007.772   212596940.123       -2429.175          33.000    40827012.222   164393448.828       -1877.860          38.000  
C08                                                                  41741128.622   168074247.971       -1821.521          37.000  
> 2025 11 03 07 45 22.2800000  0 26                     
G04  21368948.581   112294582.356        1028.665          44.000    21368937.865    87502229.003         801.603          46.000  
G16  20185368.821   106074829.825         116.307          46.000                                                                  
G28  23140542.767   121604368.107       -2737.451          42.000    23140532.025    94756598.054       -2132.878          43.000  
G31  21137768.006   111079723.326       -1738.734          47.000    21137755.772    86555572.646       -1354.831          45.000  
G03  24637006.152                       -2959.523          33.000    24637002.346   100884389.870       -2306.181          37.000  
G18  25127628.853   132046578.742        1307.064          35.000    25127620.881   102893407.602        1017.794          35.000  
C16  36732714.211   191276886.963           6.186          48.000    36732699.887   147907362.823           4.849          48.000  
C19  23853132.150   124209515.772       -2219.666          46.000                                                                  
C27  23568805.420   122728952.304        1067.735          47.000                                                                  
C06  36290642.469   188974893.756           3.395          47.000    36290621.748   146127299.475           2.568          49.000  
C09  37369552.248   194593064.106         126.191          44.000    37369534.326   150471634.034          97.589          48.000  
C22  24614451.291   128173905.544         570.913          42.000                                                                  
G26  20906047.105   109862019.847       -1985.010          47.000    20906037.652    85606730.564       -1546.594          45.000  
G27  21831040.385   114722897.250        2918.197          44.000    21831032.172    89394446.891        2274.165          43.000  
G09  23820041.536   125175169.326        2707.739          36.000    23820035.413    97539079.948        2109.131          37.000  
C28  24776574.868   129018123.116       -1128.197          44.000                                                                  
C07  38019410.148   197977043.401         777.677          41.000    38019390.643   153088339.820         601.115          45.000  
C20  25669044.519   133665443.292       -3627.618          43.000                                                                  
C36  23820005.380   124037017.007        1391.010          44.000                                                                  
C37  25085199.721   130625210.200       -2408.898          43.000                                                                  
C10  39150539.839   203867137.117         718.633          38.000    39150525.142   157643013.808         556.127          41.000  
G08  24080590.981   126544369.186        3585.479          36.000    24080590.804    98606088.775        2793.906          39.000  
G29  25407778.969   133518791.692       -3627.104          36.000    25407771.631   104040564.210       -2825.865          36.000  
C30  25064808.817   130519040.364        2749.004          44.000                                                                  
C13  40827026.427   212597037.262       -2428.706          33.000    40827030.891   164393523.977       -1878.401          38.000  
C08                                                                  41741146.731   168074320.804       -1821.136          37.000  
> 2025 11 03 07 45 22.3200000  0 26                     
G04  21368940.753   112294541.207        1028.705          44.000    21368930.040    87502196.943         801.517          46.000  
G16  20185367.924   106074825.172         116.339          46.000                                                                  
G28  23140563.614   121604477.609       -2737.630          42.000    23140552.855    94756683.369       -2132.854          43.000  
G31  21137781.246   111079792.878       -1738.744          47.000    21137769.015    86555626.849       -1354.990          45.000  
G03  24637028.683   129468455.383       -2959.885          33.000    24637024.878   100884482.134       -2306.520          37.000  
G18  25127618.929   132046526.469        1306.839          35.000    25127610.933   102893366.897        1017.583          35.000  
C16  36732714.173   191276886.716           6.187          48.000    36732699.827   147907362.631           4.827          48.000  
C19  23853149.191   124209604.562       -2219.727          46.000                                                                  
C27  23568797.214   122728909.593        1067.723          47.000                                                                  
C06  36290642.408   188974893.625           3.344          47.000    36290621.720   146127299.372           2.566          49.000  
C09  37369551.283   194593059.059         126.203          44.000    37369533.371   150471630.130          97.581          48.000  
C22  24614446.882   128173882.716         570.746          42.000                                                                  
G26  20906062.201   109862099.244       -1985.022          47.000    20906052.728    85606792.424       -1546.515          45.000  
G27  21831018.178   114722780.521        2918.196          44.000    21831009.946    89394355.942        2273.840          43.000  
G09  23820020.934   125175061.039        2707.519          36.000    23820014.795    97538995.570        2109.235          37.000  
C28  24776583.510   129018168.252       -1128.367          44.000                                                                  
C07  38019404.185   197977012.316         777.257          41.000    38019384.714   153088315.762         601.354          45.000  
C20  25669072.400   133665588.393       -3627.591          43.000                                                                  
C36  23819994.703   124036961.391        1390.552          44.000                                                                  
C37  25085218.238   130625306.551       -2408.809          44.000                                                                  
C10  39150534.322   203867108.369         718.594          38.000    39150519.639   157642991.570         556.100          41.000  
G08  24080563.683   126544225.761        3585.632          36.000    24080563.534    98605977.046        2793.405          39.000  
G29  25407806.571   133518936.752       -3626.710          36.000    25407799.241   104040677.250       -2825.947          36.000  
C30  25064787.702   130518930.405        2748.960          44.000                                                                  
C13  40827045.103   212597134.452       -2429.454          33.000    40827049.540   164393599.125       -1878.739          38.000  
C08                                                                  41741164.825   168074393.658       -1821.320          37.000  
> 2025 11 03 07 45 22.3600000  0 26                     
G04  21368932.911   112294500.069        1028.528          44.000    21368922.196    87502164.886         801.434          46.000  
G16  20185367.019   106074820.522         116.276          46.000                                                                  
G28  23140584.442   121604587.104       -2737.528          42.000    23140573.696    94756768.691       -2132.992          43.000  
G31  21137794.498   111079862.439       -1738.924          47.000    21137782.257    86555681.061       -1355.235          45.000  
G03  24637051.181   129468573.748       -2959.413          33.000    24637047.403   100884574.394       -2306.651          37.000  
G18  25127608.983   132046474.191        1306.787          35.000    25127600.983   102893326.148        1018.281          35.000  
C16  36732714.145   191276886.463           6.257          48.000    36732699.768   147907362.438           4.826          48.000  
C19  23853166.236   124209693.357       -2219.867          46.000                                                                  
C27  23568789.007   122728866.877        1067.810          47.000                                                                  
C06  36290642.370   188974893.501           3.165          47.000    36290621.692   146127299.269           2.551          49.000  
C09  37369550.312   194593054.010         126.214          44.000    37369532.397   150471626.232          97.491          48.000  
C22  24614442.497   128173859.893         570.601          42.000                                                                  
G26  20906077.296   109862178.640       -1984.949          47.000    20906067.829    85606854.289       -1546.582          45.000  
G27  21830995.959   114722663.787        2918.307          44.000    21830987.745    89394264.991        2273.714          43.000  
G09  23820000.332   125174952.796        2706.464          36.000    23819994.187    97538911.188        2109.497          37.000  
C28  24776592.172   129018213.391       -1128.513          44.000                                                                  
C07  38019398.211   197976981.212         777.388          41.000    38019378.733   153088291.708         601.337          45.000  
C20  25669100.258   133665733.496       -3627.610          43.000                                                                  
C36  23819984.026   124036905.782        1390.228          44.000                                                                  
C37  25085236.789   130625402.903       -2408.807          44.000                                                                  
C10  39150528.791   203867079.611         718.809          38.000    39150514.093   157642969.324         556.137          41.000  
G08  24080536.397   126544082.355        3585.236          36.000    24080536.239    98605865.286        2793.705          39.000  
G29  25407834.174   133519081.820       -3626.625          36.000    25407826.864   104040790.319       -2826.435          36.000  
C30  25064766.585   130518820.443        2748.975          44.000                                                                  
C13  40827063.742   212597231.582       -2428.604          33.000    40827068.205   164393674.246       -1878.286          38.000  
C08                                                                  41741182.914   168074466.485       -1820.892          37.000  
> 2025 11 03 07 45 22.4000000  0 26                     
G04  21368925.064   112294458.922        1028.617          44.000    21368914.356    87502132.821         801.537          46.000  
G16  20185366.117   106074815.865         116.383          46.000                                                                  
G28  23140605.278   121604696.590       -2737.284          42.000    23140594.523    94756854.006       -2132.929          43.000  
G31  21137807.740   111079931.995       -1738.967          47.000    21137795.471    86555735.259       -1355.125          45.000  
G03  24637073.731   129468692.147       -2959.725          33.000    24637069.935   100884666.643       -2306.524          37.000  
G18  25127599.063   132046421.929        1306.630          35.000    25127591.017   102893285.384        1019.082          35.000  
C16  36732714.103   191276886.215           6.217          48.000    36732699.728   147907362.236           4.954          48.000  
C19  23853183.322   124209782.149       -2219.873          46.000                                                                  
C27  23568780.814   122728824.151        1068.062          47.000                                                                  
C06  36290642.323   188974893.362           3.341          47.000    36290621.697   146127299.164           2.572          49.000  
C09  37369549.362   194593048.954         126.335          44.000    37369531.421   150471622.323          97.635          48.000  
C22  24614438.101   128173837.046         570.952          42.000                                                                  
G26  20906092.377   109862258.028       -1984.790          47.000    20906082.939    85606916.161       -1546.771          45.000  
G27  21830973.748   114722547.054        2918.331          44.000    21830965.528    89394174.029        2273.836          43.000  
G09  23819979.724   125174844.535        2706.256          36.000    23819973.580    97538826.816        2109.387          37.000  
C28  24776600.856   129018258.531       -1128.569          44.000                                                                  
C07  38019392.247   197976950.099         777.678          41.000    38019372.767   153088267.654         601.367          45.000  
C20  25669128.130   133665878.594       -3627.482          43.000                                                                  
C36  23819973.351   124036850.148        1390.613          44.000                                                                  
C37  25085255.292   130625499.248       -2408.699          44.000                                                                  
C10  39150523.272   203867050.842         719.097          38.000    39150508.557   157642947.090         555.988          41.000  
G08  24080509.121   126543938.964        3584.784          36.000    24080508.955    98605753.535        2793.744          39.000  
G29  25407861.787   133519226.896       -3626.804          36.000    25407854.471   104040903.359       -2826.212          36.000  
C30  25064745.470   130518710.477        2749.079          44.000                                                                  
C13  40827082.423   212597328.765       -2429.278          33.000    40827086.890   164393749.387       -1878.400          38.000  
C08                                                                  41741201.028   168074539.330       -1820.953          37.000  
> 2025 11 03 07 45 22.4400000  0 26                     
G04  21368917.249   112294417.773        1028.696          44.000    21368906.523    87502100.763         801.458          46.000  
G16  20185365.216   106074811.221         116.164          46.000                                                                  
G28  23140626.078   121604806.070       -2737.062          42.000    23140615.328    94756939.321       -2132.899          43.000  
G31  21137820.960   111080001.550       -1738.944          47.000    21137808.687    86555789.456       -1355.019          45.000  
G03  24637096.271   129468810.510       -2959.362          33.000    24637092.465   100884758.887       -2306.305          37.000  
G18  25127589.115   132046369.653        1306.717          35.000    25127581.063   102893244.631        1019.194          35.000  
C16  36732714.076   191276885.960           6.314          48.000    36732699.668   147907362.050           4.769          48.000  
C19  23853200.394   124209870.941       -2219.885          46.000                                                                  
C27  23568772.592   122728781.439        1067.907          47.000                                                                  
C06  36290642.299   188974893.220           3.475          47.000    36290621.672   146127299.054           2.698          49.000  
C09  37369548.376   194593043.898         126.388          44.000    37369530.444   150471618.414          97.729          48.000  
C22  24614433.706   128173814.205         571.037          42.000                                                                  
G26  20906107.498   109862337.424       -1984.857          47.000    20906098.053    85606978.031       -1546.820          45.000  
G27  21830951.528   114722430.327        2918.190          44.000    21830943.326    89394083.068        2273.970          43.000  
G09  23819959.105   125174736.260        2706.519          36.000    23819952.975    97538742.444        2109.271          37.000  
C28  24776609.541   129018303.664       -1128.454          44.000                                                                  
C07  38019386.272   197976918.989         777.756          41.000    38019366.799   153088243.592         601.485          45.000  
C20  25669155.997   133666023.699       -3627.572          43.000                                                                  
C36  23819962.664   124036794.503        1391.010          44.000                                                                  
C37  25085273.795   130625595.598       -2408.735          44.000                                                                  
C10  39150517.726   203867022.089         718.972          38.000    39150503.032   157642924.869         555.665          41.000  
G08  24080481.834   126543795.553        3584.922          36.000    24080481.646    98605641.771        2794.001          39.000  
G29  25407889.402   133519371.964       -3626.766          36.000    25407882.081   104041016.400       -2826.110          36.000  
C30  25064724.376   130518600.504        2749.237          44.000                                                                  
C13  40827101.086   212597425.946       -2429.479          33.000    40827105.553   164393824.516       -1878.314          38.000  
C08                                                                  41741219.080   168074612.180       -1821.167          37.000  
> 2025 11 03 07 45 22.4800000  0 26                     
G04  21368909.409   112294376.622        1028.767          44.000    21368898.687    87502068.699         801.545          46.000  
G16  20185364.331   106074806.571         116.133          46.000                                                                  
G28  23140646.923   121604915.566       -2737.263          42.000    23140636.145    94757024.642       -2133.030          43.000  
G31  21137834.200   111080071.113       -1739.047          47.000    21137821.946    86555843.657       -1355.040          45.000  
G03  24637118.807   129468928.930       -2960.074          33.000    24637114.992   100884851.111       -2305.860          37.000  
G18  25127579.151   132046317.356        1307.156          35.000    25127571.107   102893203.913        1018.420          35.000  
C16  36732714.050   191276885.710           6.271          48.000    36732699.579   147907361.861           4.672          48.000  
C19  23853217.440   124209959.735       -2219.897          46.000                                                                  
C27  23568764.365   122728738.734        1067.679          47.000                                                                  
C06  36290642.271   188974893.089           3.350          47.000    36290621.667   146127298.952           2.601          49.000  
C09  37369547.424   194593038.861         126.060          44.000    37369529.478   150471614.503          97.764          48.000  
C22  24614429.315   128173791.375         570.870          42.000                                                                  
G26  20906122.614   109862416.826       -1985.034          47.000    20906113.144    85607039.910       -1546.979          45.000  
G27  21830929.325   114722313.599        2918.139          44.000    21830921.124    89393992.103        2274.100          43.000  
G09  23819938.509   125174627.991        2706.586          36.000    23819932.359    97538658.083        2108.972          37.000  
C28  24776618.197   129018348.792       -1128.304          44.000                                                                  
C07  38019380.287   197976887.887         777.596          41.000    38019360.858   153088219.538         601.396          45.000  
C20  25669183.870   133666168.793       -3627.440          43.000                                                                  
C36  23819951.973   124036738.864        1391.095          44.000                                                                  
C37  25085292.315   130625691.955       -2408.879          44.000                                                                  
C10  39150512.205   203866993.329         719.008          38.000    39150497.519   157642902.664         555.232          41.000  
G08  24080454.528   126543652.118        3585.458          36.000    24080454.357    98605530.022        2793.785          39.000  
G29  25407917.027   133519517.028       -3626.698          36.000    25407909.679   104041129.455       -2826.291          36.000  
C30  25064703.257   130518490.543        2749.085          44.000                                                                  
C13  40827119.773   212597523.106       -2429.166          33.000    40827124.199   164393899.641       -1878.171          38.000  
C08                                                                  41741237.179   168074685.011       -1820.874          37.000  
> 2025 11 03 07 45 22.5200000  0 26                     
G04  21368901.583   112294335.491        1028.447          44.000    21368890.880    87502036.643         801.451          46.000  
G16  20185363.445   106074801.919         116.222          46.000                                                                  
G28  23140667.756   121605025.058       -2737.307          42.000    23140656.969    94757109.968       -2133.172          43.000  
G31  21137847.421   111080140.668       -1738.984          47.000    21137835.185    86555897.859       -1355.046          45.000  
G03  24637141.345   129469047.356       -2960.631          33.000    24637137.510   100884943.359       -2306.050          37.000  
G18  25127569.209   132046265.083        1306.981          35.000    25127561.163   102893163.197        1017.845          35.000  
C16  36732713.995   191276885.456           6.318          48.000    36732699.549   147907361.669           4.702          48.000  
C19  23853234.498   124210048.533       -2219.958          46.000                                                                  
C27  23568756.160   122728696.026        1067.637          47.000                                                                  
C06  36290642.244   188974892.970           3.041          47.000    36290621.673   146127298.856           2.438          49.000  
C09  37369546.431   194593033.825         125.886          44.000    37369528.500   150471610.603          97.594          48.000  
C22  24614424.938   128173768.559         570.490          42.000                                                                  
G26  20906137.728   109862496.230       -1985.132          47.000    20906128.254    85607101.781       -1546.875          45.000  
G27  21830907.135   114722196.884        2917.894          44.000    21830898.940    89393901.154        2273.895          43.000  
G09  23819917.903   125174519.697        2707.153          36.000    23819911.769    97538573.732        2108.649          37.000  
C28  24776626.860   129018393.929       -1128.364          44.000                                                                  
C07  38019374.305   197976856.783         777.533          41.000    38019354.864   153088195.491         601.188          45.000  
C20  25669211.727   133666313.907       -3627.739          43.000                                                                  
C36  23819941.309   124036683.240        1390.753          44.000                                                                  
C37  25085310.819   130625788.317       -2409.030          44.000                                                                  
C10  39150506.680   203866964.599         718.432          38.000    39150492.011   157642880.424         555.667          41.000  
G08  24080427.240   126543508.679        3585.893          36.000    24080427.059    98605418.295        2793.355          39.000  
G29  25407944.659   133519662.116       -3627.104          36.000    25407937.293   104041242.500       -2826.185          36.000  
C30  25064682.111   130518380.588        2748.946          44.000                                                                  
C13  40827138.443   212597620.275       -2429.134          33.000    40827142.831   164393974.764       -1878.039          38.000  
C08                                                                  41741255.282   168074757.846       -1820.795          37.000  
> 2025 11 03 07 45 22.5600000  0 26                     
G04  21368893.727   112294294.339        1028.618          44.000    21368883.057    87502004.577         801.586          46.000  
G16  20185362.588   106074797.267         116.272          46.000                                                                  
G28  23140688.574   121605134.544       -2737.226          41.000    23140677.807    94757195.278       -2132.883          43.000  
G31  21137860.670   111080210.217       -1738.824          47.000    21137848.426    86555952.054       -1354.946          45.000  
G03  24637163.871   129469165.737       -2960.111          33.000    24637160.053   100885035.619       -2306.385          37.000  
G18  25127559.271   132046212.801        1307.089          35.000    25127551.226   102893122.455        1018.085          35.000  
C16  36732713.938   191276885.203           6.328          48.000    36732699.498   147907361.464           4.952          48.000  
C19  23853251.542   124210137.313       -2219.653          46.000                                                                  
C27  23568747.992   122728653.306        1067.872          47.000                                                                  
C06  36290642.232   188974892.829           3.295          47.000    36290621.654   146127298.757           2.395          49.000  
C09  37369545.466   194593028.763         126.270          44.000    37369527.516   150471606.698          97.571          48.000  
C22  24614420.553   128173745.701         571.088          42.000                                                                  
G26  20906152.826   109862575.619       -1984.863          47.000    20906143.366    85607163.638       -1546.558          45.000  
G27  21830884.897   114722080.152        2918.112          44.000    21830876.726    89393810.196        2273.903          43.000  
G09  23819897.294   125174411.430        2706.897          36.000    23819891.148    97538489.360        2108.997          37.000  
C28  24776635.550   129018439.058       -1128.260          44.000                                                                  
C07  38019368.329   197976825.683         777.440          41.000    38019348.898   153088171.448         601.027          45.000  
C20  25669239.610   133666458.991       -3627.344          43.000                                                                  
C36  23819930.603   124036627.610        1390.710          44.000                                                                  
C37  25085329.324   130625884.657       -2408.737          44.000                                                                  
C10  39150501.158   203866935.835         718.761          38.000    39150486.471   157642858.162         556.286          41.000  
G08  24080399.946   126543365.260        3585.719          36.000    24080399.763    98605306.530        2793.744          39.000  
G29  25407972.274   133519807.199       -3627.172          35.000    25407964.897   104041355.527       -2825.780          36.000  
C30  25064661.009   130518270.622        2749.046          44.000                                                                  
C13  40827157.108   212597717.419       -2428.722          33.000    40827161.488   164394049.884       -1877.896          38.000  
C08                                                                  41741273.363   168074830.681       -1820.709          37.000  
> 2025 11 03 07 45 22.6000000  0 26                     
G04  21368885.905   112294253.204        1028.424          44.000    21368875.218    87501972.521         801.458          46.000  
G16  20185361.724   106074792.607         116.408          46.000                                                                  
G28  23140709.424   121605244.040       -2737.344          41.000    23140698.626    94757280.575       -2132.543          43.000  
G31  21137873.898   111080279.766       -1738.749          47.000    21137861.646    86556006.247       -1354.850          45.000  
G03  24637186.407   129469284.095       -2959.343          33.000    24637182.580   100885127.899       -2306.854          37.000  
G18  25127549.349   132046160.533        1306.771          35.000    25127541.274   102893081.727        1018.123          35.000  
C16  36732713.904   191276884.943           6.437          48.000    36732699.427   147907361.258           5.137          48.000  
C19  23853268.609   124210226.099       -2219.617          46.000                                                                  
C27  23568739.798   122728610.581        1068.062          47.000                                                                  
C06  36290642.224   188974892.683           3.536          47.000    36290621.634   146127298.649           2.550          49.000  
C09  37369544.491   194593023.691         126.675          44.000    37369526.592   150471602.795          97.546          48.000  
C22  24614416.154   128173722.861         571.056          42.000                                                                  
G26  20906167.925   109862655.006       -1984.705          47.000    20906158.484    85607225.500       -1546.527          45.000  
G27  21830862.670   114721963.416        2918.293          44.000    21830854.505    89393719.228        2274.093          43.000  
G09  23819876.678   125174303.131        2707.330          36.000    23819870.548    97538404.994        2109.100          37.000  
C28  24776644.208   129018484.193       -1128.329          44.000                                                                  
C07  38019362.356   197976794.569         777.694          41.000    38019342.933   153088147.394         601.156          45.000  
C20  25669267.487   133666604.080       -3627.226          43.000                                                                  
C36  23819919.926   124036571.976        1390.759          44.000                                                                  
C37  25085347.804   130625981.003       -2408.662          44.000                                                                  
C10  39150495.616   203866907.067         719.023          38.000    39150480.948   157642835.920         556.244          41.000  
G08  24080372.628   126543221.837        3585.682          36.000    24080372.474    98605194.787        2793.615          39.000  
G29  25407999.873   133519952.249       -3626.509          35.000    25407992.481   104041468.565       -2825.774          36.000  
C30  25064639.906   130518160.637        2749.438          44.000                                                                  
C13  40827175.754   212597814.532       -2427.982          33.000    40827180.155   164394125.010       -1878.033          38.000  
C08                                                                  41741291.466   168074903.523       -1820.868          36.000  
> 2025 11 03 07 45 22.6400000  0 26                     
G04  21368878.060   112294212.050        1028.610          44.000    21368867.393    87501940.461         801.465          46.000  
G16  20185360.835   106074787.949         116.425          46.000                                                                  
G28  23140730.244   121605353.520       -2737.106          40.000    23140719.483    94757365.881       -2132.540          43.000  
G31  21137887.139   111080349.322       -1738.854          47.000    21137874.886    86556060.449       -1354.974          45.000  
G03  24637208.955   129469402.474       -2959.342          33.000    24637205.111   100885220.151       -2306.610          37.000  
G18  25127539.401   132046108.272        1306.448          35.000    25127531.310   102893040.969        1018.688          34.000  
C16  36732713.862   191276884.684           6.467          48.000    36732699.376   147907361.063           4.991          48.000  
C19  23853285.672   124210314.888       -2219.666          46.000                                                                  
C27  23568731.605   122728567.864        1067.993          47.000                                                                  
C06  36290642.200   188974892.543           3.533          47.000    36290621.618   146127298.549           2.517          49.000  
C09  37369543.496   194593018.633         126.621          44.000    37369525.607   150471598.882          97.708          48.000  
C22  24614411.763   128173700.045         570.547          42.000                                                                  
G26  20906183.022   109862734.394       -1984.668          47.000    20906173.596    85607287.357       -1546.423          45.000  
G27  21830840.455   114721846.674        2918.484          44.000    21830832.310    89393628.279        2273.860          43.000  
G09  23819856.088   125174194.871        2706.757          36.000    23819849.954    97538320.601        2109.674          37.000  
C28  24776652.870   129018529.331       -1128.399          44.000                                                                  
C07  38019356.372   197976763.454         777.849          41.000    38019336.955   153088123.331         601.433          45.000  
C20  25669295.345   133666749.177       -3627.345          43.000                                                                  
C36  23819909.243   124036516.336        1390.912          44.000                                                                  
C37  25085366.279   130626077.351       -2408.671          44.000                                                                  
C10  39150490.094   203866878.300         719.157          38.000    39150475.421   157642813.695         555.869          41.000  
G08  24080345.341   126543078.421        3585.518          36.000    24080345.165    98605083.015        2794.078          39.000  
G29  25408027.490   133520097.323       -3626.654          35.000    25408020.095   104041581.605       -2825.896          36.000  
C30  25064618.798   130518050.670        2749.313          45.000                                                                  
C13  40827194.424   212597911.725       -2429.091          33.000    40827198.822   164394200.147       -1878.316          38.000  
C08                                                                  41741309.544   168074976.379       -1821.271          36.000  
> 2025 11 03 07 45 22.6800000  0 26                     
G04  21368870.245   112294170.918        1028.364          44.000    21368859.546    87501908.396         801.544          46.000  
G16  20185359.990   106074783.303         116.219          46.000                                                                  
G28  23140751.063   121605463.015       -2737.295          40.000    23140740.326    94757451.217       -2133.095          42.000  
G31  21137900.392   111080418.886       -1739.048          47.000    21137888.158    86556114.654       -1355.113          45.000  
G03  24637231.478   129469520.851       -2959.277          33.000    24637227.621   100885312.391       -2306.173          37.000  
G18  25127529.457   132046056.026        1306.064          35.000    25127521.357   102893000.229        1018.653          34.000  
C16  36732713.797   191276884.442           6.183          48.000    36732699.310   147907360.870           4.866          48.000  
C19  23853302.705   124210403.681       -2219.800          46.000                                                                  
C27  23568723.387   122728525.149        1067.869          47.000                                                                  
C06  36290642.134   188974892.409           3.391          47.000    36290621.588   146127298.436           2.722          49.000  
C09  37369542.520   194593013.591         126.231          44.000    37369524.655   150471594.972          97.757          48.000  
C22  24614407.380   128173677.231         570.343          42.000                                                                  
G26  20906198.111   109862813.787       -1984.759          47.000    20906188.710    85607349.227       -1546.655          45.000  
G27  21830818.238   114721729.952        2918.208          44.000    21830810.080    89393537.320        2273.861          43.000  
G09  23819835.461   125174086.592        2706.799          36.000    23819829.335    97538236.214        2109.784          37.000  
C28  24776661.546   129018574.472       -1128.531          44.000                                                                  
C07  38019350.400   197976732.333         777.984          41.000    38019330.977   153088099.276         601.450          45.000  
C20  25669323.236   133666894.262       -3627.214          43.000                                                                  
C36  23819898.551   124036460.710        1390.723          44.000                                                                  
C37  25085384.776   130626173.705       -2408.776          44.000                                                                  
C10  39150484.558   203866849.551         718.913          38.000    39150469.908   157642791.452         555.943          41.000  
G08  24080318.052   126542935.023        3585.031          36.000    24080317.874    98604971.254        2794.111          39.000  
G29  25408055.096   133520242.400       -3626.737          35.000    25408047.700   104041694.648       -2825.937          36.000  
C30  25064597.668   130517940.708        2749.103          44.000                                                                  
C13  40827213.103   212598008.866       -2428.739          33.000    40827217.479   164394275.275       -1878.229          38.000  
C08                                                                  41741327.620   168075049.224       -1821.210          36.000  
> 2025 11 03 07 45 22.7200000  0 26                     
G04  21368862.402   112294129.764        1028.635          44.000    21368851.730    87501876.342         801.405          46.000  
G16  20185359.111   106074778.646         116.320          46.000                                                                  
G28  23140771.891   121605572.492       -2737.071          40.000    23140761.157    94757536.536       -2133.149          42.000  
G31  21137913.617   111080488.434       -1738.869          47.000    21137901.367    86556168.852       -1355.014          45.000  
G03  24637254.022   129469639.285       -2960.433          33.000    24637250.149   100885404.602       -2305.439          37.000  
G18  25127519.502   132046003.740        1306.669          35.000    25127511.413   102892959.491        1018.507          34.000  
C16  36732713.771   191276884.189           6.209          48.000    36732699.220   147907360.666           4.978          48.000  
C19  23853319.757   124210492.469       -2219.745          46.000                                                                  
C27  23568715.194   122728482.427        1068.000          46.000                                                                  
C06  36290642.109   188974892.270           3.427          47.000    36290621.568   146127298.316           2.960          49.000  
C09  37369541.562   194593008.537         126.262          44.000    37369523.701   150471591.059          97.819          48.000  
C22  24614403.029   128173654.406         570.473          42.000                                                                  
G26  20906213.224   109862893.176       -1984.735          47.000    20906203.822    85607411.081       -1546.472          45.000  
G27  21830796.032   114721613.224        2918.165          44.000    21830787.861    89393446.359        2273.949          43.000  
G09  23819814.857   125173978.314        2706.818          36.000    23819808.741    97538151.835        2109.607          37.000  
C28  24776670.212   129018619.603       -1128.409          44.000                                                                  
C07  38019344.430   197976701.228         777.703          41.000    38019324.997   153088075.210         601.617          45.000  
C20  25669351.099   133667039.356       -3627.291          43.000                                                                  
C36  23819887.866   124036405.068        1390.936          44.000                                                                  
C37  25085403.276   130626270.050       -2408.727          44.000                                                                  
C10  39150479.046   203866820.797         718.826          38.000    39150464.397   157642769.216         555.876          41.000  
G08  24080290.741   126542791.590        3585.484          36.000    24080290.561    98604859.484        2794.236          39.000  
G29  25408082.711   133520387.463       -3626.604          35.000    25408075.294   104041807.698       -2826.190          36.000  
C30  25064576.558   130517830.747        2749.011          44.000                                                                  
C13  40827231.757   212598106.054       -2429.367          33.000    40827236.129   164394350.416       -1878.482          38.000  
C08                                                                  41741345.719   168075122.035       -1820.435          36.000  
> 2025 11 03 07 45 22.7600000  0 26                     
G04  21368854.576   112294088.618        1028.617          44.000    21368843.898    87501844.282         801.449          46.000  
G16  20185358.201   106074773.987         116.432          46.000                                                                  
G28  23140792.730   121605681.983       -2737.228          40.000    23140782.004    94757621.856       -2133.122          42.000  
G31  21137926.840   111080557.979       -1738.710          47.000    21137914.600    86556223.042       -1354.864          45.000  
G03  24637276.544   129469757.611       -2959.157          33.000    24637272.690   100885496.825       -2305.348          37.000  
G18  25127509.559   132045951.464        1306.882          35.000    25127501.480   102892918.739        1018.708          34.000  
C16  36732713.735   191276883.915           6.593          48.000    36732699.153   147907360.463           5.023          48.000  
C19  23853336.835   124210581.258       -2219.727          46.000                                                                  
C27  23568707.004   122728439.708        1067.975          46.000                                                                  
C06  36290642.103   188974892.115           3.707          47.000    36290621.547   146127298.199           3.007          49.000  
C09  37369540.613   194593003.473         126.495          44.000    37369522.743   150471587.138          97.969          48.000  
C22  24614398.654   128173631.550         571.080          42.000                                                                  
G26  20906228.334   109862972.568       -1984.778          47.000    20906218.930    85607472.939       -1546.454          45.000  
G27  21830773.811   114721496.489        2918.258          44.000    21830765.629    89393355.393        2274.083          43.000  
G09  23819794.254   125173870.031        2707.025          36.000    23819788.113    97538067.460        2109.460          37.000  
C28  24776678.869   129018664.727       -1128.194          44.000                                                                  
C07  38019338.465   197976670.115         777.704          41.000    38019319.006   153088051.153         601.494          45.000  
C20  25669378.956   133667184.444       -3627.194          43.000                                                                  
C36  23819877.203   124036349.428        1391.010          44.000                                                                  
C37  25085421.800   130626366.396       -2408.700          44.000                                                                  
C10  39150473.542   203866792.034         718.928          38.000    39150458.873   157642746.974         555.959          41.000  
G08  24080263.399   126542648.154        3585.858          36.000    24080263.257    98604747.722        2794.112          39.000  
G29  25408110.326   133520532.571       -3627.457          35.000    25408102.893   104041920.780       -2826.999          36.000  
C30  25064555.434   130517720.768        2749.291          44.000                                                                  
C13  40827250.423   212598203.227       -2429.417          33.000    40827254.775   164394425.543       -1878.303          38.000  
C08                                                                  41741363.801   168075194.889       -1821.002          36.000  
> 2025 11 03 07 45 22.8000000  0 26                     
G04  21368846.767   112294047.472        1028.627          44.000    21368836.077    87501812.220         801.493          46.000  
G16  20185357.322   106074769.334         116.375          46.000                                                                  
G28  23140813.555   121605791.459       -2737.029          40.000    23140802.823    94757707.166       -2132.935          42.000  
G31  21137940.080   111080627.530       -1738.730          47.000    21137927.833    86556277.230       -1354.744          45.000  
G03  24637299.075   129469876.015       -2959.766          33.000    24637295.234   100885589.080       -2305.882          37.000  
G18  25127499.595   132045899.175        1307.158          35.000    25127491.540   102892878.016        1018.299          35.000  
C16  36732713.694   191276883.655           6.580          48.000    36732699.068   147907360.267           4.910          48.000  
C19  23853353.928   124210670.045       -2219.702          46.000                                                                  
C27  23568698.825   122728396.992        1067.913          46.000                                                                  
C06  36290642.063   188974891.970           3.693          47.000    36290621.549   146127298.083           2.952          49.000  
C09  37369539.634   194592998.410         126.575          44.000    37369521.804   150471583.224          97.914          48.000  
C22  24614394.243   128173608.699         571.287          42.000                                                                  
G26  20906243.434   109863051.963       -1984.875          47.000    20906234.049    85607534.812       -1546.747          45.000  
G27  21830751.604   114721379.758        2918.264          44.000    21830743.423    89393264.439        2273.923          43.000  
G09  23819773.639   125173761.765        2706.781          36.000    23819767.509    97537983.105        2109.003          37.000  
C28  24776687.530   129018709.850       -1128.061          44.000                                                                  
C07  38019332.490   197976639.001         777.776          41.000    38019313.053   153088027.092         601.494          45.000  
C20  25669406.827   133667329.530       -3627.126          43.000                                                                  
C36  23819866.545   124036293.792        1390.961          44.000                                                                  
C37  25085440.292   130626462.741       -2408.689          44.000                                                                  
C10  39150468.003   203866763.270         719.092          38.000    39150453.322   157642724.725         556.137          41.000  
G08  24080236.116   126542504.751        3585.450          36.000    24080235.969    98604635.982        2793.691          39.000  
G29  25408137.933   133520677.640       -3627.156          35.000    25408130.517   104042033.815       -2826.389          36.000  
C30  25064534.324   130517610.789        2749.457          45.000                                                                  
C13  40827269.077   212598300.378       -2428.965          33.000    40827273.440   164394500.676       -1878.348          38.000  
C08                                                                  41741381.875   168075267.704       -1820.526          36.000  
