     3.04           OBSERVATION DATA    M: Mixed            RINEX VERSION / TYPE
RTKCONV 2.4.3 b34                       20251103 075645 UTC PGM / RUN BY / DATE 
format: u-blox UBX                                          COMMENT             
log: D:\GPdata\11_3\mixfingure_11_3_2.ubx                   COMMENT             
                                                            MARKER NAME         
                                                            MARKER NUMBER       
                                                            MARKER TYPE         
                                                            OBSERVER / AGENCY   
                                                            REC # / TYPE / VERS 
                                                            ANT # / TYPE        
        0.0000        0.0000        0.0000                  APPROX POSITION XYZ 
        0.0000        0.0000        0.0000                  ANTENNA: DELTA H/E/N
G    8 C1C L1C D1C S1C C2L L2L D2L S2L                      SYS / # / OBS TYPES 
C    8 C2I L2I D2I S2I C7I L7I D7I S7I                      SYS / # / OBS TYPES 
  2025    11    03    07    45   58.1200000     GPS         TIME OF FIRST OBS   
  2025    11    03    07    46   15.6800000     GPS         TIME OF LAST OBS    
G L1C                                                       SYS / PHASE SHIFT   
G L2L  0.00000                                              SYS / PHASE SHIFT   
C L2I                                                       SYS / PHASE SHIFT   
C L7I                                                       SYS / PHASE SHIFT   
  0                                                         GLONASS SLOT / FRQ #
 C1C    0.000 C1P    0.000 C2C    0.000 C2P    0.000        GLONASS COD/PHS/BIS 
                                                            END OF HEADER       
> 2025 11 03 07 45 58.1200000  0 26                     
G04  21361999.946   112258067.7711       1006.215          44.000    21361989.241    87473776.1371        783.929          47.000  
G16  20184624.388   106070920.0761         98.947          46.000                                                                  
G28  23159234.024   121702590.8671      -2746.742          40.000    23159223.343    94833135.1591      -2140.164          43.000  
G31  21149659.844   111142216.2841      -1751.292          46.000    21149647.560    86604268.5001      -1364.907          44.000  
G03  24657200.512   129574458.3251      -2965.358          35.000    24657196.181   100967081.6201      -2310.095          37.000  
G18  25118747.161   131999930.5701       1294.284          31.000    25118740.701   102857042.8741       1009.060          36.000  
C16  36732660.542   191276607.9971          6.522          48.000    36732646.928   147907147.1051          4.933          48.000  
C19  23868454.402   124289304.5231      -2235.425          46.000                                                                  
C27  23561502.029   122690924.5111       1051.379          47.000                                                                  
C06  36290608.124   188974719.8891          3.735          47.000    36290587.503   146127165.0461          2.760          49.000  
C09  37368669.049   194588464.5731        127.728          44.000    37368651.027   150468077.4371         98.668          48.000  
C22  24610580.418   128153751.9131        551.041          42.000                                                                  
G26  20919609.182   109933286.9471      -1994.934          47.000    20919599.756    85662263.3541      -1554.523          45.000  
G27  21811177.971   114618519.7321       2903.650          44.000    21811169.442    89313113.9241       2262.653          43.000  
G09  23801613.390   125078332.0441       2694.397          35.000    23801607.907    97463622.5041       2099.762          37.000  
C28  24784396.745   129058853.5531      -1147.486          43.000                                                                  
C07  38014060.135   197949184.3681        774.059          42.000    38014040.332   153066797.5141        598.701          45.000  
C20  25694005.634   133795422.4431      -3628.702          43.000                                                                  
C36  23810436.183   123987190.4071       1386.945          44.000                                                                  
C37  25101777.911   130711537.0901      -2411.152          42.000                                                                  
C10  39145591.960   203841371.9871        716.291          38.000    39145576.663   157623090.7211        553.768          42.000  
G08  24056141.049   126415882.6471       3581.771          37.000    24056140.041    98505970.3041       2790.637          40.000  
G29  25432533.882   133648865.1981      -3636.206          34.000    25432523.569   104141935.2041      -2832.658          33.000  
C30  25045884.673   130420499.9331       2747.067          44.000                                                                  
C13  40843729.762   212684012.9721      -2427.998          34.000    40843733.996   164460778.3201      -1876.525          37.000  
C08                                                                  41757333.466   168139501.9481      -1817.786          36.000  
> 2025 11 03 07 45 58.1600000  0 26                     
G04  21361992.296   112258027.529        1006.089          44.000    21361981.578    87473744.773         783.999          47.000  
G16  20184623.643   106070916.116          98.897          46.000                                                                  
G28  23159254.940   121702700.742       -2746.879          40.000    23159244.258    94833220.772       -2140.279          43.000  
G31  21149673.178   111142286.337       -1751.348          46.000    21149660.904    86604323.090       -1364.869          44.000  
G03  24657223.049   129574576.906       -2964.763          35.000    24657218.767   100967174.066       -2310.782          37.000  
G18  25118737.289   131999878.794        1294.253          31.000    25118730.864   102857002.540        1008.615          36.000  
C16  36732660.481   191276607.732           6.580          48.000    36732646.878   147907146.903           4.981          48.000  
C19  23868471.557   124289393.942       -2235.474          46.000                                                                  
C27  23561493.926   122690882.454        1051.391          47.000                                                                  
C06  36290608.094   188974719.753           3.514          47.000    36290587.484   146127164.936           2.719          49.000  
C09  37368668.047   194588459.473         127.573          44.000    37368650.054   150468073.484          98.743          48.000  
C22  24610576.198   128153729.860         551.291          42.000                                                                  
G26  20919624.361   109933366.745       -1994.989          47.000    20919614.961    85662325.540       -1554.639          45.000  
G27  21811155.872   114618403.593        2903.491          44.000    21811147.343    89313023.430        2262.416          43.000  
G09  23801592.895   125078224.301        2693.738          35.000    23801587.397    97463538.528        2099.555          37.000  
C28  24784405.567   129058899.448       -1147.435          43.000                                                                  
C07  38014054.176   197949153.385         774.409          41.000    38014034.382   153066773.565         598.745          45.000  
C20  25694033.534   133795567.578       -3628.519          43.000                                                                  
C36  23810425.510   123987134.933        1386.847          44.000                                                                  
C37  25101796.441   130711633.546       -2411.296          42.000                                                                  
C10  39145586.446   203841343.352         716.052          38.000    39145571.137   157623068.555         554.020          42.000  
G08  24056113.788   126415739.373        3581.787          37.000    24056112.783    98505858.655        2790.970          40.000  
G29  25432561.552   133649010.614       -3635.680          34.000    25432551.265   104142048.522       -2832.769          33.000  
C30  25045863.564   130420390.053        2747.004          44.000                                                                  
C13  40843748.401   212684110.030       -2427.098          34.000    40843752.658   164460853.402       -1876.985          37.000  
C08                                                                  41757351.508   168139574.683       -1818.048          36.000  
> 2025 11 03 07 45 58.2000000  0 26                     
G04  21361984.643   112257987.285        1006.071          44.000    21361973.931    87473713.415         783.959          47.000  
G16  20184622.903   106070912.153          98.979          46.000                                                                  
G28  23159275.833   121702810.610       -2746.778          40.000    23159265.178    94833306.395       -2140.502          43.000  
G31  21149686.503   111142356.387       -1751.285          46.000    21149674.224    86604377.675       -1364.773          44.000  
G03  24657245.578   129574695.484       -2964.428          35.000    24657241.326   100967266.465       -2310.405          37.000  
G18  25118727.435   131999827.026        1294.165          31.000    25118721.027   102856962.195        1008.534          36.000  
C16  36732660.398   191276607.473           6.513          48.000    36732646.810   147907146.701           5.029          48.000  
C19  23868488.730   124289483.372       -2235.687          46.000                                                                  
C27  23561485.847   122690840.402        1051.292          47.000                                                                  
C06  36290608.065   188974719.617           3.414          47.000    36290587.469   146127164.830           2.628          49.000  
C09  37368667.079   194588454.366         127.642          44.000    37368649.089   150468069.532          98.788          48.000  
C22  24610571.962   128153707.831         550.990          42.000                                                                  
G26  20919639.542   109933446.544       -1994.995          47.000    20919630.135    85662387.721       -1554.547          45.000  
G27  21811133.761   114618287.452        2903.490          44.000    21811125.250    89312932.942        2262.185          43.000  
G09  23801572.393   125078116.519        2694.263          35.000    23801566.892    97463454.569        2099.078          37.000  
C28  24784414.385   129058945.347       -1147.516          43.000                                                                  
C07  38014048.221   197949122.407         774.531          41.000    38014028.445   153066749.622         598.636          45.000  
C20  25694061.388   133795712.719       -3628.515          43.000                                                                  
C36  23810414.834   123987079.461        1386.761          44.000                                                                  
C37  25101814.968   130711730.005       -2411.444          42.000                                                                  
C10  39145580.935   203841314.720         715.886          38.000    39145565.631   157623046.409         553.829          42.000  
G08  24056086.540   126415596.117        3581.541          37.000    24056085.518    98505747.010        2791.083          40.000  
G29  25432589.218   133649156.037       -3635.539          34.000    25432578.927   104142161.873       -2833.478          33.000  
C30  25045842.461   130420280.172        2747.006          44.000                                                                  
C13  40843767.040   212684207.123       -2427.209          34.000    40843771.292   164460928.482       -1877.100          37.000  
C08                                                                  41757369.578   168139647.439       -1818.683          36.000  
> 2025 11 03 07 45 58.2400000  0 26                     
G04  21361976.968   112257947.041        1006.086          44.000    21361966.278    87473682.056         783.949          47.000  
G16  20184622.144   106070908.194          98.961          46.000                                                                  
G28  23159296.738   121702920.472       -2746.616          40.000    23159286.068    94833392.004       -2140.357          43.000  
G31  21149699.799   111142426.438       -1751.285          46.000    21149687.539    86604432.255       -1364.626          44.000  
G03  24657268.147   129574814.096       -2965.003          35.000    24657263.900   100967358.889       -2310.575          37.000  
G18  25118717.571   131999775.224        1294.677          31.000    25118711.177   102856921.832        1008.926          36.000  
C16  36732660.363   191276607.213           6.475          48.000    36732646.750   147907146.494           5.138          48.000  
C19  23868505.904   124289572.791       -2235.565          46.000                                                                  
C27  23561477.786   122690798.345        1051.373          47.000                                                                  
C06  36290608.065   188974719.468           3.585          47.000    36290587.426   146127164.716           2.753          49.000  
C09  37368666.089   194588449.260         127.662          44.000    37368648.099   150468065.584          98.735          48.000  
C22  24610567.727   128153685.800         550.808          42.000                                                                  
G26  20919654.691   109933526.333       -1994.812          47.000    20919645.311    85662449.902       -1554.517          45.000  
G27  21811111.684   114618171.318        2903.389          44.000    21811103.140    89312842.437        2262.425          43.000  
G09  23801551.862   125078008.756        2694.116          35.000    23801546.395    97463370.600        2099.066          37.000  
C28  24784423.194   129058991.235       -1147.296          43.000                                                                  
C07  38014042.276   197949091.435         774.428          41.000    38014022.522   153066725.682         598.536          45.000  
C20  25694089.261   133795857.866       -3628.618          43.000                                                                  
C36  23810404.212   123987023.979        1386.938          44.000                                                                  
C37  25101833.469   130711826.462       -2411.465          42.000                                                                  
C10  39145575.451   203841286.069         716.162          38.000    39145560.115   157623024.255         553.785          42.000  
G08  24056059.265   126415452.846        3581.674          37.000    24056058.247    98505635.366        2791.122          40.000  
G29  25432616.932   133649301.456       -3635.438          34.000    25432606.626   104142275.203       -2833.453          33.000  
C30  25045821.368   130420170.283        2747.162          44.000                                                                  
C13  40843785.687   212684304.191       -2426.853          34.000    40843789.934   164461003.581       -1877.511          37.000  
C08                                                                  41757387.662   168139720.175       -1818.665          36.000  
> 2025 11 03 07 45 58.2800000  0 26                     
G04  21361969.314   112257906.795        1006.099          44.000    21361958.611    87473650.689         784.100          47.000  
G16  20184621.357   106070904.222          99.179          46.000                                                                  
G28  23159317.655   121703030.338       -2746.605          40.000    23159306.998    94833477.615       -2140.307          43.000  
G31  21149713.106   111142496.485       -1751.205          46.000    21149700.851    86604486.837       -1364.562          44.000  
G03  24657290.746   129574932.697       -2965.131          35.000    24657286.479   100967451.295       -2310.288          37.000  
G18  25118707.748   131999723.481        1293.853          31.000    25118701.329   102856881.485        1008.838          36.000  
C16  36732660.321   191276606.943           6.646          48.000    36732646.650   147907146.289           5.129          48.000  
C19  23868523.096   124289662.211       -2235.516          45.000                                                                  
C27  23561469.707   122690756.284        1051.471          47.000                                                                  
C06  36290608.065   188974719.312           3.812          47.000    36290587.390   146127164.598           2.889          49.000  
C09  37368665.143   194588444.148         127.756          44.000    37368647.153   150468061.633          98.766          48.000  
C22  24610563.531   128153663.760         550.878          42.000                                                                  
G26  20919669.886   109933606.127       -1994.836          47.000    20919660.488    85662512.072       -1554.333          45.000  
G27  21811089.579   114618055.165        2903.680          44.000    21811081.026    89312751.937        2262.484          43.000  
G09  23801531.363   125077900.995        2694.116          35.000    23801525.886    97463286.629        2099.115          37.000  
C28  24784432.013   129059037.141       -1147.513          43.000                                                                  
C07  38014036.328   197949060.475         774.138          42.000    38014016.563   153066701.728         598.726          45.000  
C20  25694117.138   133796003.011       -3628.628          43.000                                                                  
C36  23810393.567   123986968.492        1387.116          44.000                                                                  
C37  25101851.986   130711922.898       -2411.101          42.000                                                                  
C10  39145569.956   203841257.406         716.472          38.000    39145554.621   157623002.103         553.797          42.000  
G08  24056031.986   126415309.567        3581.955          37.000    24056030.979    98505523.730        2791.013          40.000  
G29  25432644.652   133649446.892       -3635.738          33.000    25432634.269   104142388.513       -2832.984          33.000  
C30  25045800.269   130420060.395        2747.216          44.000                                                                  
C13  40843804.330   212684401.272       -2426.985          34.000    40843808.591   164461078.649       -1877.051          37.000  
C08                                                                  41757405.710   168139792.898       -1818.286          36.000  
> 2025 11 03 07 45 58.3200000  0 26                     
G04  21361961.659   112257866.544        1006.190          44.000    21361950.961    87473619.327         784.091          47.000  
G16  20184620.576   106070900.252          99.245          46.000                                                                  
G28  23159338.550   121703140.212       -2746.761          40.000    23159327.907    94833563.216       -2140.090          43.000  
G31  21149726.436   111142566.534       -1751.221          46.000    21149714.157    86604541.407       -1364.351          44.000  
G03  24657313.350   129575051.300       -2965.159          35.000    24657309.052   100967543.704       -2310.185          37.000  
G18  25118697.925   131999671.671        1294.553          31.000    25118691.473   102856841.134        1008.779          36.000  
C16  36732660.279   191276606.676           6.674          48.000    36732646.603   147907146.080           5.192          48.000  
C19  23868540.263   124289751.635       -2235.577          45.000                                                                  
C27  23561461.616   122690714.233        1051.323          47.000                                                                  
C06  36290608.031   188974719.159           3.856          47.000    36290587.333   146127164.478           2.990          49.000  
C09  37368664.151   194588439.043         127.711          45.000    37368646.181   150468057.685          98.720          48.000  
C22  24610559.306   128153641.709         551.126          42.000                                                                  
G26  20919685.071   109933685.917       -1994.794          47.000    20919675.674    85662574.241       -1554.230          45.000  
G27  21811067.462   114617939.011        2903.844          44.000    21811058.902    89312661.425        2262.667          43.000  
G09  23801510.834   125077793.226        2694.177          35.000    23801505.383    97463202.647        2099.408          37.000  
C28  24784440.832   129059083.027       -1147.277          43.000                                                                  
C07  38014030.400   197949029.501         774.202          42.000    38014010.616   153066677.764         598.974          45.000  
C20  25694145.022   133796148.144       -3628.426          43.000                                                                  
C36  23810382.900   123986912.999        1387.299          44.000                                                                  
C37  25101870.489   130712019.351       -2411.252          42.000                                                                  
C10  39145564.472   203841228.749         716.461          38.000    39145549.126   157622979.948         553.833          42.000  
G08  24056004.693   126415166.273        3582.337          37.000    24056003.711    98505412.097        2790.808          40.000  
G29  25432672.332   133649592.348       -3636.288          34.000    25432661.969   104142501.858       -2833.433          33.000  
C30  25045779.152   130419950.513        2747.075          44.000                                                                  
C13  40843822.986   212684498.365       -2427.326          34.000    40843827.226   164461153.694       -1876.373          37.000  
C08                                                                  41757423.728   168139865.609       -1817.902          36.000  
> 2025 11 03 07 45 58.3600000  0 26                     
G04  21361954.010   112257826.289        1006.313          44.000    21361943.314    87473587.966         784.042          47.000  
G16  20184619.830   106070896.293          99.063          46.000                                                                  
G28  23159359.457   121703250.074       -2746.617          40.000    23159348.796    94833648.818       -2140.024          43.000  
G31  21149739.768   111142636.583       -1751.208          46.000    21149727.488    86604595.987       -1364.385          45.000  
G03  24657335.890   129575169.892       -2964.930          35.000    24657331.601   100967636.095       -2309.805          37.000  
G18  25118688.075   131999619.841        1295.346          31.000    25118681.641   102856800.798        1008.516          36.000  
C16  36732660.212   191276606.402           6.796          48.000    36732646.536   147907145.867           5.306          48.000  
C19  23868557.443   124289841.049       -2235.431          45.000                                                                  
C27  23561453.518   122690672.180        1051.323          47.000                                                                  
C06  36290607.983   188974719.015           3.719          47.000    36290587.308   146127164.356           3.054          49.000  
C09  37368663.177   194588433.924         127.901          44.000    37368645.196   150468053.729          98.817          48.000  
C22  24610555.064   128153619.671         551.030          42.000                                                                  
G26  20919700.229   109933765.703       -1994.702          47.000    20919690.861    85662636.416       -1554.321          45.000  
G27  21811045.356   114617822.861        2903.821          44.000    21811036.787    89312570.921        2262.614          43.000  
G09  23801490.323   125077685.461        2694.135          36.000    23801484.864    97463118.658        2099.683          37.000  
C28  24784449.648   129059128.920       -1147.274          43.000                                                                  
C07  38014024.454   197948998.526         774.291          42.000    38014004.681   153066653.810         598.927          45.000  
C20  25694172.892   133796293.277       -3628.340          43.000                                                                  
C36  23810372.225   123986857.512        1387.262          44.000                                                                  
C37  25101889.001   130712115.786       -2411.035          42.000                                                                  
C10  39145558.960   203841200.087         716.526          38.000    39145543.623   157622957.799         553.743          42.000  
G08  24055977.444   126415023.004        3582.020          37.000    24055976.435    98505300.458        2790.818          40.000  
G29  25432700.024   133649737.797       -3636.436          33.000    25432689.644   104142615.159       -2832.892          33.000  
C30  25045758.046   130419840.626        2747.115          44.000                                                                  
C13  40843841.656   212684595.437       -2426.922          34.000    40843845.856   164461228.748       -1876.154          37.000  
C08                                                                  41757441.810   168139938.342       -1818.158          36.000  
> 2025 11 03 07 45 58.4000000  0 26                     
G04  21361946.391   112257786.039        1006.309          44.000    21361935.648    87473556.604         784.027          47.000  
G16  20184619.086   106070892.333          98.964          46.000                                                                  
G28  23159380.376   121703359.927       -2746.395          40.000    23159369.712    94833734.428       -2140.131          43.000  
G31  21149753.107   111142706.626       -1751.140          46.000    21149740.828    86604650.567       -1364.448          45.000  
G03  24657358.456   129575288.482       -2964.818          35.000    24657354.153   100967728.511       -2310.121          37.000  
G18  25118678.215   131999568.083        1294.407          31.000    25118671.774   102856760.424        1009.079          36.000  
C16  36732660.157   191276606.131           6.831          48.000    36732646.469   147907145.660           5.231          48.000  
C19  23868574.623   124289930.467       -2235.443          45.000                                                                  
C27  23561445.439   122690630.117        1051.478          47.000                                                                  
C06  36290607.964   188974718.863           3.751          47.000    36290587.282   146127164.239           2.977          49.000  
C09  37368662.187   194588428.800         128.076          45.000    37368644.226   150468049.778          98.784          48.000  
C22  24610550.831   128153597.637         550.893          42.000                                                                  
G26  20919715.402   109933845.490       -1994.666          47.000    20919706.047    85662698.589       -1554.321          45.000  
G27  21811023.264   114617706.723        2903.569          44.000    21811014.681    89312480.418        2262.518          43.000  
G09  23801469.816   125077577.686        2694.330          36.000    23801464.361    97463034.679        2099.579          37.000  
C28  24784458.451   129059174.816       -1147.369          42.000                                                                  
C07  38014018.527   197948967.558         774.202          41.000    38013998.725   153066629.864         598.719          45.000  
C20  25694200.771   133796438.407       -3628.235          43.000                                                                  
C36  23810361.545   123986802.026        1387.177          44.000                                                                  
C37  25101907.525   130712212.224       -2410.962          42.000                                                                  
C10  39145553.455   203841171.418         716.669          38.000    39145538.125   157622935.631         554.030          42.000  
G08  24055950.212   126414879.724        3581.984          37.000    24055949.151    98505188.807        2791.076          40.000  
G29  25432727.715   133649883.220       -3635.986          34.000    25432717.316   104142728.471       -2832.730          33.000  
C30  25045736.951   130419730.739        2747.150          44.000                                                                  
C13  40843860.297   212684692.496       -2426.530          34.000    40843864.485   164461303.802       -1876.149          38.000  
C08                                                                  41757459.870   168140011.099       -1818.756          36.000  
> 2025 11 03 07 45 58.4400000  0 26                     
G04  21361938.717   112257745.791        1006.234          44.000    21361927.973    87473525.240         784.026          47.000  
G16  20184618.293   106070888.365          99.071          46.000                                                                  
G28  23159401.279   121703469.791       -2746.522          40.000    23159390.636    94833820.039       -2140.230          43.000  
G31  21149766.440   111142776.665       -1751.022          46.000    21149754.149    86604705.153       -1364.574          45.000  
G03  24657381.031   129575407.066       -2964.711          35.000    24657376.730   100967820.940       -2310.514          37.000  
G18  25118668.390   131999516.298        1294.432          31.000    25118661.923   102856720.068        1009.119          36.000  
C16  36732660.097   191276605.854           6.939          48.000    36732646.396   147907145.453           5.183          48.000  
C19  23868591.775   124290019.881       -2235.376          45.000                                                                  
C27  23561437.357   122690588.054        1051.570          47.000                                                                  
C06  36290607.935   188974718.701           3.969          47.000    36290587.263   146127164.121           2.936          49.000  
C09  37368661.217   194588423.680         128.082          45.000    37368643.219   150468045.820          98.892          48.000  
C22  24610546.593   128153575.596         550.975          42.000                                                                  
G26  20919730.576   109933925.276       -1994.672          47.000    20919721.220    85662760.759       -1554.254          45.000  
G27  21811001.172   114617590.578        2903.552          44.000    21810992.588    89312389.903        2262.737          43.000  
G09  23801449.301   125077469.905        2694.464          36.000    23801443.860    97462950.706        2099.396          37.000  
C28  24784467.259   129059220.694       -1147.087          42.000                                                                  
C07  38014012.583   197948936.574         774.460          42.000    38013992.803   153066605.917         598.658          45.000  
C20  25694228.624   133796583.547       -3628.370          43.000                                                                  
C36  23810350.894   123986746.542        1387.091          44.000                                                                  
C37  25101926.056   130712308.665       -2410.951          42.000                                                                  
C10  39145547.966   203841142.780         716.250          38.000    39145532.649   157622913.466         554.123          42.000  
G08  24055922.936   126414736.449        3581.882          37.000    24055921.869    98505077.146        2791.432          40.000  
G29  25432755.381   133650028.610       -3635.133          34.000    25432744.991   104142841.796       -2832.936          33.000  
C30  25045715.845   130419620.844        2747.302          44.000                                                                  
C13  40843878.973   212684789.574       -2426.743          34.000    40843883.126   164461378.880       -1876.689          38.000  
C08                                                                  41757477.941   168140083.829       -1818.579          36.000  
> 2025 11 03 07 45 58.4800000  0 26                     
G04  21361931.058   112257705.546        1006.134          44.000    21361920.321    87473493.880         783.951          47.000  
G16  20184617.508   106070884.396          99.164          46.000                                                                  
G28  23159422.192   121703579.646       -2746.429          40.000    23159411.550    94833905.651       -2140.323          43.000  
G31  21149779.782   111142846.717       -1751.201          46.000    21149767.499    86604759.747       -1364.810          45.000  
G03  24657403.626   129575525.654       -2964.716          35.000    24657399.289   100967913.347       -2310.393          37.000  
G18  25118658.508   131999464.492        1294.901          31.000    25118652.077   102856679.705        1009.176          36.000  
C16  36732660.021   191276605.586           6.795          48.000    36732646.336   147907145.245           5.177          48.000  
C19  23868608.949   124290109.297       -2235.431          45.000                                                                  
C27  23561429.264   122690545.996        1051.495          47.000                                                                  
C06  36290607.886   188974718.555           3.777          47.000    36290587.265   146127164.006           2.886          49.000  
C09  37368660.233   194588418.568         127.880          45.000    37368642.207   150468041.863          98.914          48.000  
C22  24610542.380   128153553.546         551.149          42.000                                                                  
G26  20919745.767   109934005.071       -1994.836          47.000    20919736.395    85662822.936       -1554.376          45.000  
G27  21810979.074   114617474.437        2903.484          44.000    21810970.496    89312299.405        2262.538          43.000  
G09  23801428.805   125077362.145        2694.128          36.000    23801423.351    97462866.733        2099.359          37.000  
C28  24784476.057   129059266.596       -1147.381          42.000                                                                  
C07  38014006.640   197948905.589         774.596          42.000    38013986.859   153066581.964         598.715          45.000  
C20  25694256.507   133796728.679       -3628.319          43.000                                                                  
C36  23810340.221   123986691.064        1386.951          44.000                                                                  
C37  25101944.583   130712405.116       -2411.202          42.000                                                                  
C10  39145542.472   203841114.135         716.026          38.000    39145527.143   157622891.314         553.921          42.000  
G08  24055895.680   126414593.164        3581.999          37.000    24055894.590    98504965.495        2791.382          40.000  
G29  25432783.074   133650174.040       -3635.309          33.000    25432772.651   104142955.117       -2833.061          33.000  
C30  25045694.734   130419510.955        2747.252          44.000                                                                  
C13  40843897.642   212684886.677       -2427.374          34.000    40843901.787   164461453.964       -1877.101          38.000  
C08                                                                  41757495.998   168140156.537       -1818.005          36.000  
> 2025 11 03 07 45 58.5200000  0 26                     
G04  21361923.425   112257665.317        1005.767          44.000    21361912.673    87473462.516         783.995          47.000  
G16  20184616.743   106070880.433          99.114          46.000                                                                  
G28  23159443.095   121703689.516       -2746.653          40.000    23159432.452    94833991.262       -2140.354          43.000  
G31  21149793.126   111142916.762       -1751.179          46.000    21149780.816    86604814.327       -1364.662          45.000  
G03  24657426.188   129575644.257       -2964.970          35.000    24657421.855   100968005.744       -2310.098          37.000  
G18  25118648.694   131999412.731        1294.393          31.000    25118642.230   102856639.358        1008.871          36.000  
C16  36732659.948   191276605.317           6.724          48.000    36732646.292   147907145.037           5.177          48.000  
C19  23868626.109   124290198.716       -2235.492          45.000                                                                  
C27  23561421.175   122690503.939        1051.440          47.000                                                                  
C06  36290607.851   188974718.404           3.751          47.000    36290587.232   146127163.889           2.902          49.000  
C09  37368659.260   194588413.455         127.805          45.000    37368641.218   150468037.904          98.964          48.000  
C22  24610538.159   128153531.519         550.775          42.000                                                                  
G26  20919760.944   109934084.864       -1994.867          47.000    20919751.572    85662885.112       -1554.425          45.000  
G27  21810956.963   114617358.291        2903.546          44.000    21810948.398    89312208.907        2262.416          43.000  
G09  23801408.301   125077254.370        2694.250          36.000    23801402.836    97462782.748        2099.567          37.000  
C28  24784484.861   129059312.491       -1147.430          42.000                                                                  
C07  38014000.696   197948874.619         774.412          42.000    38013980.905   153066558.008         598.842          45.000  
C20  25694284.392   133796873.815       -3628.325          43.000                                                                  
C36  23810329.564   123986635.576        1387.085          44.000                                                                  
C37  25101963.102   130712501.559       -2411.198          42.000                                                                  
C10  39145536.955   203841085.493         715.955          38.000    39145521.630   157622869.161         553.831          42.000  
G08  24055868.423   126414449.900        3581.748          37.000    24055867.324    98504853.846        2791.331          40.000  
G29  25432810.730   133650319.455       -3635.353          33.000    25432800.310   104143068.450       -2833.328          33.000  
C30  25045673.630   130419401.061        2747.274          44.000                                                                  
C13  40843916.296   212684983.742       -2427.050          34.000    40843920.453   164461529.028       -1876.945          38.000  
C08                                                                  41757514.054   168140229.261       -1818.054          36.000  
> 2025 11 03 07 45 58.5600000  0 26                     
G04  21361915.757   112257625.071        1005.905          44.000    21361905.026    87473431.164         783.824          47.000  
G16  20184615.985   106070876.477          98.953          46.000                                                                  
G28  23159464.019   121703799.394       -2746.926          40.000    23159453.381    94834076.870       -2140.310          43.000  
G31  21149806.472   111142986.818       -1751.364          46.000    21149794.119    86604868.904       -1364.535          45.000  
G03  24657448.736   129575762.835       -2964.645          35.000    24657444.424   100968098.174       -2310.554          37.000  
G18  25118638.878   131999360.947        1294.503          31.000    25118632.389   102856599.032        1008.279          36.000  
C16  36732659.887   191276605.056           6.536          48.000    36732646.235   147907144.833           5.113          48.000  
C19  23868643.272   124290288.147       -2235.767          45.000                                                                  
C27  23561413.078   122690461.887        1051.329          47.000                                                                  
C06  36290607.828   188974718.251           3.737          47.000    36290587.199   146127163.775           2.834          49.000  
C09  37368658.259   194588408.347         127.686          45.000    37368640.257   150468033.955          98.776          48.000  
C22  24610533.898   128153509.487         550.720          42.000                                                                  
G26  20919776.107   109934164.657       -1994.897          47.000    20919766.748    85662947.296       -1554.590          45.000  
G27  21810934.850   114617242.151        2903.483          44.000    21810926.292    89312118.410        2262.347          43.000  
G09  23801387.783   125077146.626        2693.738          36.000    23801382.321    97462698.776        2099.347          37.000  
C28  24784493.706   129059358.396       -1147.569          42.000                                                                  
C07  38013994.746   197948843.653         774.218          42.000    38013974.966   153066534.062         598.663          45.000  
C20  25694312.251   133797018.964       -3628.585          43.000                                                                  
C36  23810318.922   123986580.089        1387.116          44.000                                                                  
C37  25101981.628   130712598.005       -2411.222          42.000                                                                  
C10  39145531.474   203841056.843         716.099          38.000    39145516.109   157622847.007         553.800          42.000  
G08  24055841.174   126414306.617        3581.957          37.000    24055840.059    98504742.204        2791.192          40.000  
G29  25432838.418   133650464.911       -3636.140          33.000    25432827.983   104143181.758       -2833.090          33.000  
C30  25045652.502   130419291.178        2747.093          44.000                                                                  
C13  40843934.935   212685080.841       -2427.323          34.000    40843939.081   164461604.111       -1877.175          38.000  
C08                                                                  41757532.088   168140301.987       -1818.152          36.000  
> 2025 11 03 07 45 58.6000000  0 26                     
G04  21361908.107   112257584.825        1006.042          44.000    21361897.367    87473399.815         783.706          47.000  
G16  20184615.234   106070872.527          98.786          46.000                                                                  
G28  23159484.915   121703909.273       -2747.028          40.000    23159474.299    94834162.484       -2140.378          43.000  
G31  21149819.799   111143056.875       -1751.449          46.000    21149807.456    86604923.493       -1364.600          45.000  
G03  24657471.322   129575881.455       -2965.251          35.000    24657467.001   100968190.586       -2310.510          37.000  
G18  25118628.985   131999309.167        1294.395          31.000    25118622.543   102856558.684        1008.409          36.000  
C16  36732659.851   191276604.792           6.511          48.000    36732646.177   147907144.630           5.063          48.000  
C19  23868660.472   124290377.578       -2235.840          45.000                                                                  
C27  23561405.000   122690419.843        1051.107          47.000                                                                  
C06  36290607.795   188974718.113           3.489          47.000    36290587.196   146127163.663           2.784          49.000  
C09  37368657.281   194588403.233         127.775          45.000    37368639.286   150468030.002          98.766          48.000  
C22  24610529.677   128153487.461         550.595          42.000                                                                  
G26  20919791.290   109934244.456       -1994.971          47.000    20919781.936    85663009.482       -1554.688          45.000  
G27  21810912.762   114617126.017        2903.353          44.000    21810904.195    89312027.919        2262.223          43.000  
G09  23801367.272   125077038.865        2693.781          36.000    23801361.835    97462614.809        2099.121          37.000  
C28  24784502.533   129059404.310       -1147.794          42.000                                                                  
C07  38013988.813   197948812.686         774.146          42.000    38013969.018   153066510.115         598.640          45.000  
C20  25694340.126   133797164.110       -3628.698          43.000                                                                  
C36  23810308.249   123986524.610        1386.987          44.000                                                                  
C37  25102000.145   130712694.454       -2411.259          42.000                                                                  
C10  39145525.965   203841028.170         716.592          38.000    39145510.628   157622824.856         553.723          42.000  
G08  24055813.890   126414163.336        3582.006          37.000    24055812.791    98504630.592        2790.589          40.000  
G29  25432866.091   133650610.350       -3636.114          33.000    25432855.685   104143295.074       -2832.910          33.000  
C30  25045631.410   130419181.302        2746.911          44.000                                                                  
C13  40843953.574   212685177.922       -2427.233          34.000    40843957.750   164461679.196       -1877.284          38.000  
C08                                                                  41757550.151   168140374.730       -1818.500          36.000  
> 2025 11 03 07 45 58.6400000  0 26                     
G04  21361900.420   112257544.578        1006.146          44.000    21361889.711    87473368.454         783.851          47.000  
G16  20184614.472   106070868.565          98.906          46.000                                                                  
G28  23159505.822   121704019.126       -2746.597          41.000    23159495.221    94834248.096       -2140.327          43.000  
G31  21149833.123   111143126.931       -1751.462          46.000    21149820.812    86604978.090       -1364.848          45.000  
G03  24657493.890   129576000.072       -2965.478          35.000    24657489.564   100968282.998       -2310.509          37.000  
G18  25118619.120   131999257.375        1294.673          31.000    25118612.692   102856518.324        1008.738          36.000  
C16  36732659.804   191276604.525           6.594          48.000    36732646.085   147907144.419           5.184          48.000  
C19  23868677.654   124290467.003       -2235.730          45.000                                                                  
C27  23561396.922   122690377.787        1051.287          47.000                                                                  
C06  36290607.807   188974717.962           3.616          47.000    36290587.169   146127163.544           2.886          49.000  
C09  37368656.321   194588398.113         127.921          45.000    37368638.301   150468026.046          98.845          48.000  
C22  24610525.447   128153465.419         550.836          42.000                                                                  
G26  20919806.469   109934324.245       -1994.824          47.000    20919797.118    85663071.655       -1554.474          45.000  
G27  21810890.654   114617009.870        2903.534          44.000    21810882.106    89311937.416        2262.377          43.000  
G09  23801346.785   125076931.104        2693.927          36.000    23801341.323    97462530.833        2099.298          37.000  
C28  24784511.350   129059450.197       -1147.435          42.000                                                                  
C07  38013982.861   197948781.711         774.280          42.000    38013963.057   153066486.162         598.736          45.000  
C20  25694367.996   133797309.235       -3628.372          43.000                                                                  
C36  23810297.594   123986469.128        1387.000          44.000                                                                  
C37  25102018.664   130712790.905       -2411.279          42.000                                                                  
C10  39145520.435   203840999.519         716.523          38.000    39145505.131   157622802.702         553.762          42.000  
G08  24055786.610   126414020.079        3581.597          37.000    24055785.522    98504518.947        2790.904          40.000  
G29  25432893.778   133650755.772       -3635.747          33.000    25432883.353   104143408.430       -2833.546          33.000  
C30  25045610.302   130419071.421        2746.910          44.000                                                                  
C13  40843972.229   212685274.977       -2426.512          34.000    40843976.390   164461754.255       -1876.816          38.000  
C08                                                                  41757568.225   168140447.470       -1818.536          36.000  
> 2025 11 03 07 45 58.6800000  0 26                     
G04  21361892.759   112257504.333        1006.121          44.000    21361882.034    87473337.097         783.890          47.000  
G16  20184613.731   106070864.590          99.249          46.000                                                                  
G28  23159526.728   121704128.988       -2746.543          41.000    23159516.118    94834333.710       -2140.352          43.000  
G31  21149846.451   111143196.973       -1751.213          46.000    21149834.140    86605032.666       -1364.605          45.000  
G03  24657516.452   129576118.625       -2964.373          35.000    24657512.131   100968375.416       -2310.558          37.000  
G18  25118609.277   131999205.578        1294.882          31.000    25118602.832   102856477.986        1008.424          36.000  
C16  36732659.776   191276604.244           6.879          48.000    36732646.024   147907144.199           5.437          48.000  
C19  23868694.835   124290556.414       -2235.413          45.000                                                                  
C27  23561388.851   122690335.726        1051.460          47.000                                                                  
C06  36290607.790   188974717.796           3.953          47.000    36290587.132   146127163.426           2.922          49.000  
C09  37368655.339   194588392.995         127.944          45.000    37368637.315   150468022.083          98.992          48.000  
C22  24610521.214   128153443.381         550.914          42.000                                                                  
G26  20919821.628   109934404.035       -1994.781          47.000    20919812.308    85663133.815       -1554.120          45.000  
G27  21810868.575   114616893.728        2903.534          44.000    21810859.999    89311846.901        2262.719          44.000  
G09  23801326.258   125076823.325        2694.324          36.000    23801320.808    97462446.859        2099.329          37.000  
C28  24784520.148   129059496.091       -1147.321          43.000                                                                  
C07  38013976.910   197948750.730         774.481          42.000    38013957.082   153066462.209         598.812          45.000  
C20  25694395.890   133797454.366       -3628.292          43.000                                                                  
C36  23810286.952   123986413.632        1387.268          44.000                                                                  
C37  25102037.192   130712887.344       -2411.111          42.000                                                                  
C10  39145514.938   203840970.862         716.464          38.000    39145499.619   157622780.538         553.984          42.000  
G08  24055759.330   126413876.785        3582.082          37.000    24055758.234    98504407.294        2791.210          40.000  
G29  25432921.477   133650901.194       -3635.483          33.000    25432911.049   104143521.732       -2832.948          33.000  
C30  25045589.222   130418961.529        2747.168          44.000                                                                  
C13  40843990.856   212685372.050       -2426.635          34.000    40843995.036   164461829.298       -1876.266          38.000  
C08                                                                  41757586.287   168140520.193       -1818.317          36.000  
> 2025 11 03 07 45 58.7200000  0 26                     
G04  21361885.104   112257464.083        1006.190          44.000    21361874.366    87473305.726         784.147          47.000  
G16  20184612.969   106070860.625          99.215          46.000                                                                  
G28  23159547.638   121704238.855       -2746.594          41.000    23159537.018    94834419.311       -2140.147          43.000  
G31  21149859.769   111143267.015       -1751.100          46.000    21149847.469    86605087.245       -1364.557          45.000  
G03  24657539.027   129576237.233       -2964.721          35.000    24657534.688   100968467.809       -2310.111          37.000  
G18  25118599.419   131999153.820        1294.165          31.000    25118592.976   102856437.602        1009.200          36.000  
C16  36732659.718   191276603.968           6.931          48.000    36732645.941   147907143.985           5.450          48.000  
C19  23868712.031   124290645.822       -2235.236          45.000                                                                  
C27  23561380.798   122690293.666        1051.527          47.000                                                                  
C06  36290607.762   188974717.638           3.982          47.000    36290587.078   146127163.299           3.079          49.000  
C09  37368654.358   194588387.882         127.885          45.000    37368636.357   150468018.128          98.924          48.000  
C22  24610516.984   128153421.334         551.078          42.000                                                                  
G26  20919836.840   109934483.828       -1994.818          47.000    20919827.473    85663196.000       -1554.419          45.000  
G27  21810846.431   114616777.580        2903.629          44.000    21810837.903    89311756.389        2262.848          44.000  
G09  23801305.735   125076715.532        2694.757          36.000    23801300.288    97462362.884        2099.420          37.000  
C28  24784528.990   129059541.971       -1147.053          43.000                                                                  
C07  38013970.963   197948719.738         774.741          42.000    38013951.131   153066438.255         598.848          45.000  
C20  25694423.765   133797599.497       -3628.243          43.000                                                                  
C36  23810276.282   123986358.140        1387.341          44.000                                                                  
C37  25102055.698   130712983.780       -2410.981          42.000                                                                  
C10  39145509.440   203840942.218         716.156          38.000    39145494.094   157622758.373         554.125          42.000  
G08  24055732.046   126413733.497        3582.182          37.000    24055730.977    98504295.630        2791.529          40.000  
G29  25432949.140   133651046.627       -3635.519          33.000    25432938.715   104143635.075       -2833.323          33.000  
C30  25045568.127   130418851.626        2747.501          44.000                                                                  
C13  40844009.517   212685469.133       -2427.051          34.000    40844013.688   164461904.346       -1876.123          38.000  
C08                                                                  41757604.352   168140592.894       -1817.725          36.000  
> 2025 11 03 07 45 58.7600000  0 26                     
G04  21361877.464   112257423.838        1006.141          44.000    21361866.715    87473274.364         784.126          47.000  
G16  20184612.227   106070856.669          98.989          46.000                                                                  
G28  23159568.541   121704348.716       -2746.563          41.000    23159557.917    94834504.913       -2140.068          43.000  
G31  21149873.117   111143337.061       -1751.084          46.000    21149860.822    86605141.825       -1364.505          45.000  
G03  24657561.563   129576355.795       -2964.193          35.000    24657557.250   100968560.213       -2310.145          37.000  
G18  25118589.554   131999101.968        1295.649          31.000    25118583.119   102856397.235        1009.210          36.000  
C16  36732659.655   191276603.691           6.973          48.000    36732645.861   147907143.777           5.314          48.000  
C19  23868729.177   124290735.240       -2235.339          45.000                                                                  
C27  23561372.720   122690251.608        1051.477          47.000                                                                  
C06  36290607.714   188974717.482           3.951          47.000    36290587.038   146127163.180           3.026          49.000  
C09  37368653.371   194588382.757         128.018          45.000    37368635.367   150468014.172          98.885          48.000  
C22  24610512.765   128153399.295         551.047          42.000                                                                  
G26  20919852.017   109934563.617       -1994.769          47.000    20919842.640    85663258.169       -1554.309          45.000  
G27  21810824.307   114616661.430        2903.709          44.000    21810815.790    89311665.897        2262.533          44.000  
G09  23801285.240   125076607.763        2694.458          36.000    23801279.775    97462278.906        2099.542          37.000  
C28  24784537.809   129059587.873       -1147.310          43.000                                                                  
C07  38013964.993   197948688.763         774.542          42.000    38013945.188   153066414.301         598.865          45.000  
C20  25694451.615   133797744.630       -3628.277          43.000                                                                  
C36  23810265.622   123986302.653        1387.225          44.000                                                                  
C37  25102074.199   130713080.229       -2411.195          42.000                                                                  
C10  39145503.937   203840913.576         715.995          38.000    39145488.603   157622736.212         554.105          42.000  
G08  24055704.770   126413590.222        3581.964          37.000    24055703.702    98504183.975        2791.532          40.000  
G29  25432976.806   133651192.061       -3635.672          33.000    25432966.385   104143748.373       -2832.824          33.000  
C30  25045547.028   130418741.721        2747.651          44.000                                                                  
C13  40844028.162   212685566.202       -2426.895          34.000    40844032.331   164461979.415       -1876.513          38.000  
C08                                                                  41757622.389   168140665.626       -1818.042          36.000  
> 2025 11 03 07 45 58.8000000  0 26                     
G04  21361869.811   112257383.602        1005.978          44.000    21361859.057    87473243.014         783.871          47.000  
G16  20184611.500   106070852.710          98.934          46.000                                                                  
G28  23159589.443   121704458.569       -2746.434          41.000    23159578.824    94834590.519       -2140.125          43.000  
G31  21149886.425   111143407.103       -1751.028          46.000    21149874.157    86605196.405       -1364.553          45.000  
G03  24657584.128   129576474.388       -2964.398          35.000    24657579.825   100968652.614       -2310.046          37.000  
G18  25118579.736   131999050.197        1294.962          31.000    25118573.277   102856356.886        1008.928          36.000  
C16  36732659.587   191276603.412           7.000          48.000    36732645.764   147907143.565           5.292          48.000  
C19  23868746.351   124290824.663       -2235.516          45.000                                                                  
C27  23561364.657   122690209.549        1051.489          47.000                                                                  
C06  36290607.694   188974717.321           4.016          47.000    36290587.004   146127163.056           3.071          49.000  
C09  37368652.375   194588377.628         128.195          45.000    37368634.395   150468010.205          99.064          48.000  
C22  24610508.535   128153377.256         550.971          42.000                                                                  
G26  20919867.193   109934643.397       -1994.574          47.000    20919857.831    85663320.340       -1554.285          45.000  
G27  21810802.187   114616545.279        2903.751          44.000    21810793.712    89311575.390        2262.602          43.000  
G09  23801264.739   125076499.995        2694.257          36.000    23801259.267    97462194.942        2099.310          37.000  
C28  24784546.623   129059633.766       -1147.269          43.000                                                                  
C07  38013959.031   197948657.787         774.435          42.000    38013939.241   153066390.340         599.016          45.000  
C20  25694479.500   133797889.763       -3628.330          43.000                                                                  
C36  23810254.962   123986247.165        1387.195          44.000                                                                  
C37  25102092.738   130713176.652       -2410.811          42.000                                                                  
C10  39145498.420   203840884.883         716.821          38.000    39145483.117   157622714.055         554.021          42.000  
G08  24055677.497   126413446.942        3581.954          37.000    24055676.433    98504072.331        2791.283          40.000  
G29  25433004.476   133651337.486       -3635.657          33.000    25432994.061   104143861.699       -2833.043          33.000  
C30  25045525.902   130418631.822        2747.596          44.000                                                                  
C13  40844046.798   212685663.312       -2427.580          34.000    40844051.010   164462054.491       -1876.812          38.000  
C08                                                                  41757640.437   168140738.359       -1818.250          36.000  
> 2025 11 03 07 45 58.8400000  0 26                     
G04  21361862.143   112257343.349        1006.160          44.000    21361851.386    87473211.655         783.861          47.000  
G16  20184610.750   106070848.736          99.184          46.000                                                                  
G28  23159610.363   121704568.428       -2746.448          41.000    23159599.732    94834676.130       -2140.218          43.000  
G31  21149899.728   111143477.138       -1750.887          46.000    21149887.488    86605250.975       -1364.368          45.000  
G03  24657606.678   129576592.969       -2964.406          35.000    24657602.409   100968745.015       -2310.025          37.000  
G18  25118569.872   131998998.406        1294.878          31.000    25118563.423   102856316.531        1008.880          36.000  
C16  36732659.521   191276603.127           7.087          48.000    36732645.688   147907143.351           5.321          48.000  
C19  23868763.527   124290914.076       -2235.431          45.000                                                                  
C27  23561356.566   122690167.493        1051.415          47.000                                                                  
C06  36290607.660   188974717.157           4.077          47.000    36290586.976   146127162.928           3.135          49.000  
C09  37368651.361   194588372.497         128.293          45.000    37368633.390   150468006.242          99.074          48.000  
C22  24610504.308   128153355.212         551.021          42.000                                                                  
G26  20919882.393   109934723.177       -1994.476          47.000    20919873.006    85663382.508       -1554.230          45.000  
G27  21810780.076   114616429.135        2903.656          44.000    21810771.615    89311484.880        2262.755          43.000  
G09  23801244.223   125076392.227        2694.220          36.000    23801238.761    97462110.956        2099.500          37.000  
C28  24784555.458   129059679.660       -1147.310          42.000                                                                  
C07  38013953.109   197948626.798         774.650          42.000    38013933.275   153066366.379         599.071          45.000  
C20  25694507.380   133798034.888       -3628.242          43.000                                                                  
C36  23810244.318   123986191.668        1387.372          44.000                                                                  
C37  25102111.252   130713273.081       -2410.694          42.000                                                                  
C10  39145492.919   203840856.220         716.769          38.000    39145477.604   157622691.889         554.135          42.000  
G08  24055650.222   126413303.642        3582.271          37.000    24055649.182    98503960.690        2791.129          40.000  
G29  25433032.136   133651482.865       -3634.840          33.000    25433021.736   104143975.001       -2832.718          33.000  
C30  25045504.788   130418521.921        2747.552          44.000                                                                  
C13  40844065.427   212685760.344       -2426.441          34.000    40844069.639   164462129.552       -1876.708          38.000  
C08                                                                  41757658.509   168140811.060       -1817.731          36.000  
> 2025 11 03 07 45 58.8800000  0 26                     
G04  21361854.490   112257303.097        1006.250          44.000    21361843.710    87473180.287         784.054          47.000  
G16  20184610.009   106070844.762          99.332          46.000                                                                  
G28  23159631.269   121704678.280       -2746.292          41.000    23159620.626    94834761.730       -2140.062          43.000  
G31  21149913.103   111143547.174       -1750.863          46.000    21149900.818    86605305.548       -1364.326          45.000  
G03  24657629.254   129576711.570       -2964.809          35.000    24657624.980   100968837.422       -2310.111          37.000  
G18  25118560.004   131998946.584        1295.370          31.000    25118553.559   102856276.188        1008.560          36.000  
C16  36732659.478   191276602.840           7.188          48.000    36732645.611   147907143.127           5.517          48.000  
C19  23868780.707   124291003.485       -2235.309          45.000                                                                  
C27  23561348.483   122690125.419        1051.711          47.000                                                                  
C06  36290607.621   188974716.984           4.292          47.000    36290586.950   146127162.795           3.282          49.000  
C09  37368650.374   194588367.362         128.397          45.000    37368632.374   150468002.268          99.296          48.000  
C22  24610500.077   128153333.164         551.113          42.000                                                                  
G26  20919897.562   109934802.956       -1994.452          47.000    20919888.151    85663444.672       -1554.120          45.000  
G27  21810757.972   114616312.976        2903.866          44.000    21810749.511    89311394.374        2262.730          43.000  
G09  23801223.713   125076284.453        2694.287          36.000    23801218.249    97462026.966        2099.683          37.000  
C28  24784564.258   129059725.551       -1147.271          42.000                                                                  
C07  38013947.153   197948595.803         774.849          42.000    38013927.337   153066342.414         599.163          45.000  
C20  25694535.252   133798180.005       -3628.021          43.000                                                                  
C36  23810233.660   123986136.164        1387.561          44.000                                                                  
C37  25102129.780   130713369.510       -2410.681          42.000                                                                  
C10  39145487.414   203840827.547         716.850          38.000    39145472.088   157622669.720         554.216          42.000  
G08  24055622.967   126413160.342        3582.500          38.000    24055621.909    98503849.040        2791.209          40.000  
G29  25433059.818   133651628.289       -3635.187          33.000    25433049.393   104144088.310       -2832.657          33.000  
C30  25045483.673   130418412.022        2747.485          44.000                                                                  
C13  40844084.063   212685857.404       -2426.361          34.000    40844088.283   164462204.571       -1875.854          38.000  
C08                                                                  41757676.574   168140883.796       -1818.182          36.000  
> 2025 11 03 07 45 58.9200000  0 26                     
G04  21361846.817   112257262.837        1006.421          44.000    21361836.067    87473148.915         784.214          47.000  
G16  20184609.246   106070840.783          99.486          46.000                                                                  
G28  23159652.157   121704788.132       -2746.301          41.000    23159641.552    94834847.320       -2139.846          43.000  
G31  21149926.444   111143617.214       -1750.935          46.000    21149914.129    86605360.121       -1364.345          45.000  
G03  24657651.856   129576830.149       -2964.702          35.000    24657647.553   100968929.843       -2310.431          37.000  
G18  25118550.130   131998894.809        1294.902          31.000    25118543.717   102856235.831        1008.753          36.000  
C16  36732659.412   191276602.548           7.299          48.000    36732645.530   147907142.900           5.667          48.000  
C19  23868797.880   124291092.894       -2235.254          45.000                                                                  
C27  23561340.430   122690083.347        1051.840          47.000                                                                  
C06  36290607.587   188974716.810           4.402          47.000    36290586.937   146127162.662           3.322          49.000  
C09  37368649.391   194588362.233         128.329          45.000    37368631.360   150467998.300          99.285          48.000  
C22  24610495.837   128153311.122         551.065          42.000                                                                  
G26  20919912.747   109934882.739       -1994.501          47.000    20919903.324    85663506.838       -1554.095          45.000  
G27  21810735.852   114616196.816        2903.985          44.000    21810727.400    89311303.869        2262.675          43.000  
G09  23801203.202   125076176.661        2694.763          36.000    23801197.721    97461942.969        2099.890          37.000  
C28  24784573.070   129059771.439       -1147.206          43.000                                                                  
C07  38013941.205   197948564.816         774.756          42.000    38013921.383   153066318.449         599.185          45.000  
C20  25694563.128   133798325.118       -3627.827          43.000                                                                  
C36  23810222.985   123986080.661        1387.598          44.000                                                                  
C37  25102148.295   130713465.950       -2410.927          42.000                                                                  
C10  39145481.890   203840798.872         716.931          38.000    39145466.578   157622647.560         554.069          42.000  
G08  24055595.693   126413017.065        3582.184          38.000    24055594.635    98503737.382        2791.396          40.000  
G29  25433087.501   133651773.714       -3635.539          33.000    25433077.051   104144201.601       -2832.302          33.000  
C30  25045462.562   130418302.130        2747.333          44.000                                                                  
C13  40844102.703   212685954.452       -2426.192          34.000    40844106.913   164462279.626       -1876.061          37.000  
C08                                                                  41757694.658   168140956.513       -1818.091          36.000  
> 2025 11 03 07 45 58.9600000  0 26                     
G04  21361839.163   112257222.585        1006.370          44.000    21361828.397    87473117.541         784.327          47.000  
G16  20184608.497   106070836.807          99.465          46.000                                                                  
G28  23159673.054   121704897.980       -2746.214          41.000    23159662.446    94834932.911       -2139.729          43.000  
G31  21149939.768   111143687.248       -1750.885          46.000    21149927.451    86605414.689       -1364.216          45.000  
G03  24657674.442   129576948.744       -2964.939          35.000    24657670.101   100969022.233       -2310.081          37.000  
G18  25118540.303   131998843.058        1293.998          31.000    25118533.886   102856195.476        1008.826          36.000  
C16  36732659.352   191276602.258           7.301          48.000    36732645.467   147907142.673           5.732          48.000  
C19  23868815.028   124291182.300       -2235.150          45.000                                                                  
C27  23561332.327   122690041.276        1051.857          47.000                                                                  
C06  36290607.531   188974716.642           4.321          47.000    36290586.911   146127162.530           3.324          49.000  
C09  37368648.409   194588357.094         128.441          45.000    37368630.364   150467994.334          99.232          48.000  
C22  24610491.602   128153289.071         551.235          42.000                                                                  
G26  20919927.940   109934962.517       -1994.434          47.000    20919918.527    85663568.997       -1553.992          45.000  
G27  21810713.779   114616080.660        2903.979          44.000    21810705.295    89311213.353        2262.809          43.000  
G09  23801182.715   125076068.874        2694.806          36.000    23801177.202    97461858.988        2099.725          37.000  
C28  24784581.894   129059817.320       -1147.066          43.000                                                                  
C07  38013935.256   197948533.821         774.830          42.000    38013915.409   153066294.477         599.277          45.000  
C20  25694590.978   133798470.234       -3627.760          43.000                                                                  
C36  23810212.347   123986025.156        1387.616          44.000                                                                  
C37  25102166.814   130713562.365       -2410.573          42.000                                                                  
C10  39145476.366   203840770.212         716.712          38.000    39145461.074   157622625.390         554.170          42.000  
G08  24055568.421   126412873.757        3582.486          38.000    24055567.368    98503625.721        2791.565          40.000  
G29  25433115.182   133651919.140       -3635.713          33.000    25433104.729   104144314.912       -2832.502          33.000  
C30  25045441.476   130418192.217        2747.634          44.000                                                                  
C13  40844121.351   212686051.519       -2426.337          34.000    40844125.544   164462354.687       -1876.354          37.000  
C08                                                                  41757712.725   168141029.207       -1817.645          36.000  
> 2025 11 03 07 45 59.0000000  0 26                     
G04  21361831.504   112257182.325        1006.486          44.000    21361820.727    87473086.175         784.247          47.000  
G16  20184607.738   106070832.829          99.476          46.000                                                                  
G28  23159693.978   121705007.844       -2746.457          41.000    23159683.330    94835018.500       -2139.657          43.000  
G31  21149953.096   111143757.277       -1750.773          46.000    21149940.771    86605469.264       -1364.296          45.000  
G03  24657696.987   129577067.319       -2964.559          35.000    24657692.690   100969114.612       -2309.632          37.000  
G18  25118530.444   131998791.233        1295.052          31.000    25118524.026   102856155.081        1009.572          36.000  
C16  36732659.279   191276601.968           7.289          48.000    36732645.398   147907142.442           5.796          48.000  
C19  23868832.194   124291271.711       -2235.236          45.000                                                                  
C27  23561324.266   122689999.206        1051.801          47.000                                                                  
C06  36290607.509   188974716.468           4.342          47.000    36290586.879   146127162.392           3.433          49.000  
C09  37368647.390   194588351.964         128.310          45.000    37368629.376   150467990.359          99.333          48.000  
C22  24610487.393   128153267.013         551.411          42.000                                                                  
G26  20919943.099   109935042.292       -1994.385          47.000    20919933.684    85663631.155       -1553.912          45.000  
G27  21810691.683   114615964.503        2903.984          44.000    21810683.195    89311122.829        2263.021          43.000  
G09  23801162.196   125075961.082        2694.836          36.000    23801156.688    97461775.000        2099.671          37.000  
C28  24784590.715   129059863.195       -1146.903          43.000                                                                  
C07  38013929.310   197948502.822         774.968          42.000    38013909.450   153066270.512         599.174          45.000  
C20  25694618.808   133798615.350       -3627.809          43.000                                                                  
C36  23810201.678   123985969.657        1387.518          44.000                                                                  
C37  25102185.333   130713658.792       -2410.632          42.000                                                                  
C10  39145470.836   203840741.528         716.964          38.000    39145455.544   157622603.201         554.536          42.000  
G08  24055541.174   126412730.486        3582.025          38.000    24055540.109    98503514.064        2791.528          40.000  
G29  25433142.853   133652064.544       -3635.273          34.000    25433132.406   104144428.224       -2832.772          33.000  
C30  25045420.365   130418082.311        2747.689          44.000                                                                  
C13  40844139.995   212686148.573       -2426.179          34.000    40844144.195   164462429.736       -1876.244          37.000  
C08                                                                  41757730.771   168141101.897       -1817.310          36.000  
> 2025 11 03 07 45 59.0400000  0 26                     
G04  21361823.850   112257142.068        1006.454          44.000    21361813.079    87473054.812         784.106          47.000  
G16  20184606.982   106070828.857          99.376          46.000                                                                  
G28  23159714.868   121705117.686       -2746.182          41.000    23159704.228    94835104.094       -2139.727          43.000  
G31  21149966.396   111143827.307       -1750.768          46.000    21149954.110    86605523.830       -1364.226          45.000  
G03  24657719.509   129577185.850       -2963.670          35.000    24657715.256   100969206.998       -2309.535          37.000  
G18  25118520.558   131998739.412        1295.507          31.000    25118514.173   102856114.714        1009.433          36.000  
C16  36732659.215   191276601.675           7.292          48.000    36732645.337   147907142.208           5.848          48.000  
C19  23868849.365   124291361.105       -2234.973          45.000                                                                  
C27  23561316.175   122689957.136        1051.757          47.000                                                                  
C06  36290607.472   188974716.293           4.359          47.000    36290586.835   146127162.253           3.480          49.000  
C09  37368646.408   194588346.829         128.309          45.000    37368628.415   150467986.379          99.470          48.000  
C22  24610483.148   128153244.965         551.264          42.000                                                                  
G26  20919958.263   109935122.065       -1994.330          47.000    20919948.879    85663693.318       -1553.986          45.000  
G27  21810669.590   114615848.342        2904.013          44.000    21810661.072    89311032.314        2262.947          43.000  
G09  23801141.679   125075853.296        2694.745          36.000    23801136.174    97461691.011        2099.677          37.000  
C28  24784599.529   129059909.081       -1147.042          43.000                                                                  
C07  38013923.358   197948471.824         774.971          42.000    38013903.482   153066246.549         599.022          45.000  
C20  25694646.674   133798760.463       -3627.773          43.000                                                                  
C36  23810191.001   123985914.152        1387.561          44.000                                                                  
C37  25102203.891   130713755.215       -2410.574          42.000                                                                  
C10  39145465.327   203840712.859         716.837          38.000    39145450.040   157622581.021         554.606          42.000  
G08  24055513.910   126412587.175        3582.424          38.000    24055512.831    98503402.386        2791.874          40.000  
G29  25433170.524   133652209.941       -3634.938          33.000    25433160.111   104144541.522       -2832.653          33.000  
C30  25045399.255   130417972.393        2747.910          44.000                                                                  
C13  40844158.626   212686245.609       -2425.973          34.000    40844162.832   164462504.784       -1876.201          37.000  
C08                                                                  41757748.838   168141174.615       -1817.706          36.000  
> 2025 11 03 07 45 59.0800000  0 26                     
G04  21361816.216   112257101.815        1006.364          44.000    21361805.422    87473023.445         784.109          47.000  
G16  20184606.226   106070824.881          99.382          46.000                                                                  
G28  23159735.756   121705227.515       -2745.804          41.000    23159725.137    94835189.697       -2139.990          43.000  
G31  21149979.722   111143897.342       -1750.807          46.000    21149967.439    86605578.409       -1364.407          45.000  
G03  24657742.091   129577304.440       -2964.227          35.000    24657737.811   100969299.388       -2309.666          37.000  
G18  25118510.690   131998687.592        1295.621          31.000    25118504.305   102856074.330        1009.620          36.000  
C16  36732659.156   191276601.382           7.310          48.000    36732645.229   147907141.991           5.563          48.000  
C19  23868866.521   124291450.514       -2235.114          45.000                                                                  
C27  23561308.068   122689915.073        1051.597          47.000                                                                  
C06  36290607.459   188974716.123           4.298          47.000    36290586.802   146127162.123           3.344          49.000  
C09  37368645.422   194588341.681         128.546          45.000    37368627.448   150467982.407          99.384          48.000  
C22  24610478.887   128153222.922         551.101          42.000                                                                  
G26  20919973.438   109935201.836       -1994.287          47.000    20919964.069    85663755.493       -1554.279          45.000  
G27  21810647.505   114615732.187        2903.906          44.000    21810638.983    89310941.809        2262.675          43.000  
G09  23801121.193   125075745.542        2694.092          36.000    23801115.646    97461607.030        2099.493          37.000  
C28  24784608.345   129059954.973       -1147.225          43.000                                                                  
C07  38013917.404   197948440.828         774.907          42.000    38013897.529   153066222.579         599.150          45.000  
C20  25694674.545   133798905.577       -3627.821          43.000                                                                  
C36  23810180.336   123985858.643        1387.683          44.000                                                                  
C37  25102222.390   130713851.642       -2410.607          42.000                                                                  
C10  39145459.805   203840684.186         716.811          38.000    39145444.545   157622558.848         554.484          42.000  
G08  24055486.648   126412443.871        3582.565          38.000    24055485.556    98503290.714        2791.897          40.000  
G29  25433198.180   133652355.358       -3635.124          33.000    25433187.779   104144654.871       -2833.370          33.000  
C30  25045378.123   130417862.478        2747.954          44.000                                                                  
C13  40844177.265   212686342.673       -2426.399          34.000    40844181.450   164462579.827       -1876.082          37.000  
C08                                                                  41757766.900   168141247.333       -1817.969          36.000  
> 2025 11 03 07 45 59.1200000  0 26                     
G04  21361808.538   112257061.570        1006.177          44.000    21361797.754    87472992.084         784.010          47.000  
G16  20184605.471   106070820.913          99.227          46.000                                                                  
G28  23159756.671   121705337.372       -2746.195          41.000    23159746.063    94835275.314       -2140.380          43.000  
G31  21149993.057   111143967.383       -1750.982          46.000    21149980.791    86605632.982       -1364.354          45.000  
G03  24657764.678   129577423.031       -2964.641          34.000    24657760.380   100969391.811       -2310.510          37.000  
G18  25118500.849   131998635.800        1295.145          31.000    25118494.433   102856033.953        1009.607          36.000  
C16  36732659.102   191276601.095           7.198          48.000    36732645.179   147907141.774           5.405          48.000  
C19  23868883.688   124291539.925       -2235.272          45.000                                                                  
C27  23561299.981   122689873.016        1051.394          47.000                                                                  
C06  36290607.418   188974715.948           4.338          47.000    36290586.807   146127161.990           3.304          49.000  
C09  37368644.432   194588336.540         128.556          45.000    37368626.450   150467978.436          99.306          48.000  
C22  24610474.664   128153200.882         551.004          42.000                                                                  
G26  20919988.631   109935281.614       -1994.403          47.000    20919979.258    85663817.654       -1554.150          45.000  
G27  21810625.422   114615616.036        2903.805          44.000    21810616.888    89310851.311        2262.447          43.000  
G09  23801100.677   125075637.773        2693.976          36.000    23801095.141    97461523.034        2099.787          37.000  
C28  24784617.139   129060000.867       -1147.364          43.000                                                                  
C07  38013911.451   197948409.845         774.663          42.000    38013891.582   153066198.611         599.188          45.000  
C20  25694702.388   133799050.699       -3627.985          43.000                                                                  
C36  23810169.673   123985803.137        1387.665          44.000                                                                  
C37  25102240.892   130713948.069       -2410.626          42.000                                                                  
C10  39145454.289   203840655.520         716.641          38.000    39145439.033   157622536.681         554.291          42.000  
G08  24055459.385   126412300.577        3582.436          38.000    24055458.296    98503179.070        2791.360          40.000  
G29  25433225.860   133652500.791       -3635.515          33.000    25433215.439   104144768.167       -2833.023          33.000  
C30  25045356.998   130417752.567        2747.851          44.000                                                                  
C13  40844195.920   212686439.753       -2426.925          34.000    40844200.071   164462654.891       -1876.449          37.000  
C08                                                                  41757784.950   168141320.056       -1818.188          36.000  
> 2025 11 03 07 45 59.1600000  0 26                     
G04  21361800.890   112257021.326        1006.058          44.000    21361790.097    87472960.726         783.904          47.000  
G16  20184604.718   106070816.950          99.066          46.000                                                                  
G28  23159777.578   121705447.238       -2746.567          41.000    23159766.978    94835360.915       -2140.271          43.000  
G31  21150006.386   111144037.424       -1751.063          46.000    21149994.114    86605687.563       -1364.514          45.000  
G03  24657787.209   129577541.601       -2964.455          34.000    24657782.963   100969484.215       -2310.459          37.000  
G18  25118490.992   131998584.062        1293.819          31.000    25118484.592   102855993.638        1008.344          36.000  
C16  36732659.026   191276600.810           7.117          48.000    36732645.118   147907141.554           5.385          48.000  
C19  23868900.840   124291629.338       -2235.352          45.000                                                                  
C27  23561291.919   122689830.955        1051.401          47.000                                                                  
C06  36290607.413   188974715.776           4.290          47.000    36290586.776   146127161.860           3.242          49.000  
C09  37368643.410   194588331.406         128.425          45.000    37368625.493   150467974.471          99.173          48.000  
C22  24610470.420   128153178.848         550.854          42.000                                                                  
G26  20920003.833   109935361.402       -1994.659          47.000    20919994.434    85663879.823       -1554.218          45.000  
G27  21810603.299   114615499.886        2903.714          44.000    21810594.777    89310760.808        2262.452          43.000  
G09  23801080.161   125075529.986        2694.391          36.000    23801074.619    97461439.067        2099.335          37.000  
C28  24784625.937   129060046.758       -1147.392          43.000                                                                  
C07  38013905.497   197948378.861         774.571          42.000    38013885.659   153066174.649         599.094          45.000  
C20  25694730.259   133799195.824       -3628.116          43.000                                                                  
C36  23810159.016   123985747.631        1387.659          44.000                                                                  
C37  25102259.399   130714044.496       -2410.645          42.000                                                                  
C10  39145448.767   203840626.846         716.705          38.000    39145433.525   157622514.521         554.048          42.000  
G08  24055432.124   126412157.279        3582.415          38.000    24055431.068    98503067.435        2790.929          40.000  
G29  25433253.525   133652646.191       -3635.238          33.000    25433243.127   104144881.460       -2832.691          33.000  
C30  25045335.910   130417642.678        2747.377          44.000                                                                  
C13  40844214.585   212686536.837       -2427.206          34.000    40844218.710   164462729.959       -1876.684          37.000  
C08                                                                  41757803.016   168141392.783       -1818.323          36.000  
> 2025 11 03 07 45 59.2000000  0 26                     
G04  21361793.246   112256981.080        1006.080          44.000    21361782.407    87472929.363         783.962          47.000  
G16  20184603.944   106070812.978          99.168          46.000                                                                  
G28  23159798.495   121705557.097       -2746.588          41.000    23159787.868    94835446.504       -2139.901          43.000  
G31  21150019.720   111144107.457       -1750.944          46.000    21150007.439    86605742.134       -1364.404          45.000  
G03  24657809.805   129577660.180       -2964.428          34.000    24657805.548   100969576.629       -2310.417          37.000  
G18  25118481.145   131998532.289        1293.748          31.000    25118474.754   102855953.290        1008.331          36.000  
C16  36732658.983   191276600.515           7.276          48.000    36732645.035   147907141.323           5.611          48.000  
C19  23868918.035   124291718.747       -2235.297          45.000                                                                  
C27  23561283.819   122689788.888        1051.556          47.000                                                                  
C06  36290607.372   188974715.601           4.332          47.000    36290586.751   146127161.724           3.358          49.000  
C09  37368642.440   194588326.262         128.542          45.000    37368624.505   150467970.499          99.248          48.000  
C22  24610466.196   128153156.793         551.153          42.000                                                                  
G26  20920018.997   109935441.183       -1994.641          47.000    20920009.597    85663941.978       -1554.010          45.000  
G27  21810581.192   114615383.733        2903.765          44.000    21810572.673    89310670.300        2262.589          43.000  
G09  23801059.660   125075422.180        2694.910          36.000    23801054.134    97461355.074        2099.615          37.000  
C28  24784634.789   129060092.647       -1147.334          43.000                                                                  
C07  38013899.584   197948347.858         774.850          42.000    38013879.724   153066150.683         599.114          45.000  
C20  25694758.124   133799340.943       -3628.055          43.000                                                                  
C36  23810148.341   123985692.127        1387.598          44.000                                                                  
C37  25102277.922   130714140.917       -2410.542          42.000                                                                  
C10  39145443.269   203840598.176         716.768          38.000    39145428.016   157622492.353         554.093          42.000  
G08  24055404.870   126412013.984        3582.356          38.000    24055403.788    98502955.774        2791.240          40.000  
G29  25433281.219   133652791.613       -3635.398          33.000    25433270.784   104144994.789       -2833.108          33.000  
C30  25045314.804   130417532.771        2747.492          44.000                                                                  
C13  40844233.226   212686633.876       -2426.437          34.000    40844237.337   164462805.010       -1876.486          37.000  
C08                                                                  41757821.085   168141465.485       -1817.828          36.000  
> 2025 11 03 07 45 59.2400000  0 26                     
G04  21361785.555   112256940.817        1006.399          44.000    21361774.735    87472897.989         784.208          47.000  
G16  20184603.192   106070808.997          99.392          46.000                                                                  
G28  23159819.403   121705666.927       -2746.026          41.000    23159808.778    94835532.091       -2139.698          43.000  
G31  21150033.058   111144177.486       -1750.798          46.000    21150020.750    86605796.690       -1364.086          45.000  
G03  24657832.354   129577778.754       -2964.315          34.000    24657828.108   100969669.006       -2309.844          37.000  
G18  25118471.244                        1296.161          31.000    25118464.895   102855912.919        1008.776          36.000  
C16  36732658.932   191276600.212           7.476          48.000    36732644.961   147907141.084           5.897          48.000  
C19  23868935.208   124291808.154       -2235.254          45.000                                                                  
C27  23561275.743   122689746.811        1051.846          47.000                                                                  
C06  36290607.326   188974715.419           4.484          47.000    36290586.703   146127161.584           3.477          49.000  
C09  37368641.467   194588321.120         128.533          45.000    37368623.510   150467966.508          99.612          48.000  
C22  24610461.959   128153134.734         551.417          42.000                                                                  
G26  20920034.154   109935520.950       -1994.354          47.000    20920024.772    85664004.136       -1553.925          45.000  
G27  21810559.099   114615267.564        2904.073          44.000    21810550.585    89310579.778        2262.914          43.000  
G09  23801039.151   125075314.408        2694.604          36.000    23801033.617    97461271.077        2099.823          37.000  
C28  24784643.600   129060138.527       -1147.111          43.000                                                                  
C07  38013893.612   197948316.845         775.180          42.000    38013873.780   153066126.701         599.427          45.000  
C20  25694786.028   133799486.034       -3627.483          43.000                                                                  
C36  23810137.684   123985636.621        1387.628          44.000                                                                  
C37  25102296.438   130714237.336       -2410.480          42.000                                                                  
C10  39145437.758   203840569.490         717.022          38.000    39145422.487   157622470.167         554.419          42.000  
G08  24055377.615   126411870.671        3582.714          38.000    24055376.522    98502844.111        2791.469          40.000  
G29  25433308.892   133652937.022       -3635.296          33.000    25433298.447   104145108.100       -2832.980          33.000  
C30  25045293.713   130417422.856        2747.769          44.000                                                                  
C13  40844251.849   212686730.926       -2426.326          34.000    40844255.980   164462880.052       -1876.158          37.000  
C08                                                                  41757839.131   168141538.173       -1817.322          36.000  
> 2025 11 03 07 45 59.2800000  0 26                     
G04  21361777.893   112256900.554        1006.567          44.000    21361767.048    87472866.611         784.414          47.000  
G16  20184602.431   106070805.010          99.633          46.000                                                                  
G28  23159840.289   121705776.767       -2745.955          41.000    23159829.677    94835617.671       -2139.451          43.000  
G31  21150046.385   111144247.505       -1750.531          46.000    21150034.051    86605851.248       -1363.965          45.000  
G03  24657854.922   129577897.307       -2963.972          34.000    24657850.677   100969761.370       -2309.318          37.000  
G18  25118461.404                        1294.971          31.000    25118455.043   102855872.534        1009.346          36.000  
C16  36732658.864   191276599.902           7.753          48.000    36732644.886   147907140.844           5.997          48.000  
C19  23868952.381   124291897.547       -2234.918          45.000                                                                  
C27  23561267.686   122689704.733        1051.992          47.000                                                                  
C06  36290607.286   188974715.225           4.788          47.000    36290586.655   146127161.438           3.608          49.000  
C09  37368640.490   194588315.969         128.712          45.000    37368622.557   150467962.520          99.752          48.000  
C22  24610457.727   128153112.673         551.551          42.000                                                                  
G26  20920049.329   109935600.707       -1994.000          47.000    20920039.955    85664066.286       -1553.766          45.000  
G27  21810536.965   114615151.383        2904.472          44.000    21810528.472    89310489.239        2263.376          43.000  
G09  23801018.633   125075206.602        2694.983          36.000    23801013.126    97461187.079        2099.982          37.000  
C28  24784652.421   129060184.401       -1146.879          43.000                                                                  
C07  38013887.661   197948285.834         775.313          42.000    38013867.807   153066102.720         599.542          45.000  
C20  25694813.899   133799631.135       -3627.403          43.000                                                                  
C36  23810127.029   123985581.103        1387.830          44.000                                                                  
C37  25102314.937   130714333.731       -2410.026          41.000                                                                  
C10  39145432.265   203840540.782         717.528          38.000    39145417.002   157622447.984         554.530          42.000  
G08  24055350.370   126411727.369        3582.584          38.000    24055349.234    98502732.417        2792.111          40.000  
G29  25433336.567   133653082.408       -3634.763          33.000    25433326.106   104145221.388       -2832.405          33.000  
C30  25045272.597   130417312.925        2748.158          44.000                                                                  
C13  40844270.502   212686827.938       -2425.577          34.000    40844274.596   164462955.060       -1875.344          37.000  
C08                                                                  41757857.196   168141610.863       -1817.096          36.000  
> 2025 11 03 07 45 59.3200000  0 26                     
G04  21361770.224   112256860.282        1006.782          44.000    21361759.382    87472835.238         784.402          47.000  
G16  20184601.663   106070801.020          99.767          46.000                                                                  
G28  23159861.188   121705886.608       -2745.964          41.000    23159850.596    94835703.263       -2139.636          43.000  
G31  21150059.691   111144317.522       -1750.405          46.000    21150047.370    86605905.812       -1364.008          45.000  
G03  24657877.495   129578015.878       -2964.147          34.000    24657873.259   100969853.750       -2309.303          37.000  
G18  25118451.521                        1295.253          31.000    25118445.186   102855832.167        1009.418          36.000  
C16  36732658.807   191276599.598           7.707          48.000    36732644.802   147907140.605           6.028          48.000  
C19  23868969.555   124291986.948       -2234.967          45.000                                                                  
C27  23561259.596   122689662.654        1052.040          47.000                                                                  
C06  36290607.264   188974715.032           4.894          47.000    36290586.624   146127161.291           3.706          49.000  
C09  37368639.494   194588310.810         128.952          45.000    37368621.567   150467958.533          99.738          48.000  
C22  24610453.478   128153090.615         551.542          42.000                                                                  
G26  20920064.508   109935680.462       -1993.793          47.000    20920055.117    85664128.437       -1553.742          45.000  
G27  21810514.857   114615035.216        2904.365          44.000    21810506.364    89310398.713        2263.311          43.000  
G09  23800998.109   125075098.782        2695.508          36.000    23800992.616    97461103.093        2099.768          37.000  
C28  24784661.232   129060230.278       -1146.809          43.000                                                                  
C07  38013881.710   197948254.829         775.246          42.000    38013861.851   153066078.739         599.564          45.000  
C20  25694841.740   133799776.235       -3627.417          43.000                                                                  
C36  23810116.373   123985525.580        1388.031          44.000                                                                  
C37  25102333.467   130714430.152       -2410.306          41.000                                                                  
C10  39145426.783   203840512.092         717.490          38.000    39145411.522   157622425.797         554.667          42.000  
G08  24055323.100   126411584.071        3582.498          38.000    24055321.956    98502620.742        2792.055          40.000  
G29  25433364.234   133653227.823       -3635.062          33.000    25433353.753   104145334.683       -2832.167          33.000  
C30  25045251.452   130417202.996        2748.294          44.000                                                                  
C13  40844289.144   212686925.000       -2426.055          34.000    40844293.192   164463030.087       -1875.376          37.000  
C08                                                                  41757875.248   168141683.571       -1817.438          36.000  
> 2025 11 03 07 45 59.3600000  0 26                     
G04  21361762.571   112256820.031        1006.481          44.000    21361751.737    87472803.866         784.337          47.000  
G16  20184600.904   106070797.041          99.603          46.000                                                                  
G28  23159882.103   121705996.453       -2746.039          41.000    23159871.517    94835788.856       -2139.754          43.000  
G31  21150073.030   111144387.548       -1750.537          46.000    21150060.700    86605960.378       -1364.121          45.000  
G03  24657900.063   129578134.389       -2963.145          34.000    24657895.829   100969946.145       -2309.702          37.000  
G18  25118441.650                        1294.561          31.000    25118435.330   102855791.797        1009.360          36.000  
C16  36732658.771   191276599.296           7.644          48.000    36732644.731   147907140.372           5.892          48.000  
C19  23868986.706   124292076.349       -2235.010          45.000                                                                  
C27  23561251.528   122689620.574        1052.021          47.000                                                                  
C06  36290607.204   188974714.847           4.764          47.000    36290586.614   146127161.141           3.771          49.000  
C09  37368638.513   194588305.654         128.984          45.000    37368620.585   150467954.551          99.632          48.000  
C22  24610449.267   128153068.564         551.373          42.000                                                                  
G26  20920079.691   109935760.229       -1993.994          47.000    20920070.295    85664190.590       -1553.784          45.000  
G27  21810492.756   114614919.058        2904.104          44.000    21810484.270    89310308.204        2262.944          43.000  
G09  23800977.602   125074991.011        2694.708          36.000    23800972.103    97461019.092        2099.945          37.000  
C28  24784670.030   129060276.154       -1146.838          43.000                                                                  
C07  38013875.774   197948223.824         775.125          42.000    38013855.874   153066054.766         599.385          45.000  
C20  25694869.609   133799921.335       -3627.426          43.000                                                                  
C36  23810105.693   123985470.065        1387.970          44.000                                                                  
C37  25102351.973   130714526.567       -2410.397          41.000                                                                  
C10  39145421.269   203840483.419         717.129          38.000    39145406.037   157622403.618         554.580          42.000  
G08  24055295.843   126411440.774        3582.401          38.000    24055294.699    98502509.096        2791.471          40.000  
G29  25433391.912   133653373.219       -3634.902          33.000    25433381.421   104145447.955       -2831.609          33.000  
C30  25045230.342   130417093.071        2748.265          44.000                                                                  
C13  40844307.774   212687022.034       -2425.938          34.000    40844311.816   164463105.133       -1875.789          37.000  
C08                                                                  41757893.290   168141756.258       -1817.224          36.000  
> 2025 11 03 07 45 59.4000000  0 26                     
G04  21361754.927   112256779.775        1006.396          44.000    21361744.095    87472772.504         784.098          47.000  
G16  20184600.171   106070793.061          99.502          46.000                                                                  
G28  23159902.989   121706106.282       -2745.797          41.000    23159892.420    94835874.439       -2139.648          43.000  
G31  21150086.352   111144457.576       -1750.637          46.000    21150074.044    86606014.943       -1364.153          45.000  
G03  24657922.623   129578253.004       -2964.533          34.000    24657918.403   100970038.542       -2309.897          37.000  
G18  25118431.787                        1295.089          31.000    25118425.484   102855751.425        1009.362          36.000  
C16  36732658.750   191276598.988           7.695          48.000    36732644.655   147907140.137           5.852          48.000  
C19  23869003.890   124292165.745       -2234.937          45.000                                                                  
C27  23561243.430   122689578.505        1051.829          47.000                                                                  
C06  36290607.153   188974714.667           4.583          47.000    36290586.580   146127160.998           3.660          49.000  
C09  37368637.538   194588300.505         128.850          45.000    37368619.569   150467950.565          99.625          48.000  
C22  24610445.000   128153046.514         551.278          42.000                                                                  
G26  20920094.896   109935840.000       -1994.195          47.000    20920085.486    85664252.749       -1553.918          45.000  
G27  21810470.641   114614802.898        2903.996          44.000    21810462.176    89310217.696        2262.739          43.000  
G09  23800957.104   125074883.226        2694.519          36.000    23800951.590    97460935.098        2099.860          37.000  
C28  24784678.858   129060322.044       -1147.131          43.000                                                                  
C07  38013869.817   197948192.821         775.068          42.000    38013849.936   153066030.793         599.331          45.000  
C20  25694897.479   133800066.446       -3627.656          43.000                                                                  
C36  23810095.056   123985414.544        1388.043          44.000                                                                  
C37  25102370.496   130714622.985       -2410.506          41.000                                                                  
C10  39145415.760   203840454.740         716.994          38.000    39145400.534   157622381.450         554.319          42.000  
G08  24055268.594   126411297.460        3582.684          38.000    24055267.408    98502397.417        2791.742          40.000  
G29  25433419.595   133653518.636       -3635.239          33.000    25433409.070   104145561.268       -2832.257          33.000  
C30  25045209.214   130416983.153        2748.065          44.000                                                                  
C13  40844326.429   212687119.078       -2426.000          34.000    40844330.437   164463180.196       -1876.431          37.000  
C08                                                                  41757911.327   168141828.963       -1817.542          36.000  
> 2025 11 03 07 45 59.4400000  0 26                     
G04  21361747.250   112256739.511        1006.505          44.000    21361736.431    87472741.131         784.202          47.000  
G16  20184599.404   106070789.077          99.566          46.000                                                                  
G28  23159923.882   121706216.105       -2745.581          41.000    23159913.310    94835960.022       -2139.625          43.000  
G31  21150099.672   111144527.600       -1750.627          46.000    21150087.368    86606069.504       -1364.082          45.000  
G03  24657945.181   129578371.573       -2964.427          34.000    24657940.960   100970130.916       -2309.661          37.000  
G18  25118421.954                        1294.755          31.000    25118415.592   102855711.034        1009.695          36.000  
C16  36732658.719   191276598.681           7.705          48.000    36732644.576   147907139.894           5.983          48.000  
C19  23869021.061   124292255.144       -2234.961          45.000                                                                  
C27  23561235.371   122689536.423        1051.997          47.000                                                                  
C06  36290607.110   188974714.472           4.745          47.000    36290586.568   146127160.857           3.574          49.000  
C09  37368636.565   194588295.351         128.870          45.000    37368618.605   150467946.577          99.670          48.000  
C22  24610440.745   128153024.447         551.536          42.000                                                                  
G26  20920110.084   109935919.764       -1994.165          47.000    20920100.658    85664314.906       -1553.955          45.000  
G27  21810448.506   114614686.724        2904.175          44.000    21810440.075    89310127.173        2262.912          43.000  
G09  23800936.593   125074775.416        2694.946          36.000    23800931.075    97460851.105        2099.847          37.000  
C28  24784687.670   129060367.924       -1147.126          43.000                                                                  
C07  38013863.875   197948161.802         775.353          42.000    38013843.982   153066006.813         599.445          45.000  
C20  25694925.355   133800211.545       -3627.578          43.000                                                                  
C36  23810084.396   123985359.010        1388.312          44.000                                                                  
C37  25102389.018   130714719.393       -2410.340          40.000                                                                  
C10  39145410.238   203840426.047         717.178          38.000    39145395.037   157622359.248         554.790          42.000  
G08  24055241.338   126411154.136        3582.981          38.000    24055240.131    98502285.738        2791.922          40.000  
G29  25433447.293   133653664.036       -3635.081          33.000    25433436.740   104145674.573       -2832.534          33.000  
C30  25045188.090   130416873.234        2747.990          44.000                                                                  
C13  40844345.069   212687216.139       -2426.345          34.000    40844349.064   164463255.230       -1876.139          37.000  
C08                                                                  41757929.382   168141901.661       -1817.554          36.000  
> 2025 11 03 07 45 59.4800000  0 26                     
G04  21361739.594   112256699.242        1006.641          44.000    21361728.759    87472709.754         784.315          47.000  
G16  20184598.615   106070785.088          99.665          46.000                                                                  
G28  23159944.794   121706325.932       -2745.564          41.000    23159934.212    94836045.612       -2139.756          43.000  
G31  21150113.004   111144597.615       -1750.448          46.000    21150100.669    86606124.060       -1363.949          45.000  
G03  24657967.738   129578490.126       -2963.920          34.000    24657963.536   100970223.313       -2309.875          37.000  
G18  25118412.116                        1295.141          31.000    25118405.737   102855670.674        1009.293          36.000  
C16  36732658.674   191276598.370           7.775          48.000    36732644.502   147907139.656           5.962          48.000  
C19  23869038.229   124292344.531       -2234.796          45.000                                                                  
C27  23561227.284   122689494.340        1052.095          47.000                                                                  
C06  36290607.096   188974714.277           4.847          47.000    36290586.555   146127160.702           3.754          49.000  
C09  37368635.578   194588290.189         128.982          45.000    37368617.590   150467942.581          99.828          48.000  
C22  24610436.498   128153002.383         551.615          42.000                                                                  
G26  20920125.236   109935999.520       -1993.994          47.000    20920115.850    85664377.049       -1553.723          45.000  
G27  21810426.370   114614570.557        2904.158          44.000    21810417.969    89310036.647        2263.116          43.000  
G09  23800916.096   125074667.616        2694.940          36.000    23800910.567    97460767.094        2100.159          37.000  
C28  24784696.489   129060413.807       -1147.143          43.000                                                                  
C07  38013857.907   197948130.793         775.306          42.000    38013838.050   153065982.824         599.677          45.000  
C20  25694953.220   133800356.628       -3627.256          43.000                                                                  
C36  23810073.743   123985303.486        1388.251          44.000                                                                  
C37  25102407.523   130714815.784       -2409.928          40.000                                                                  
C10  39145404.721   203840397.342         717.500          38.000    39145389.530   157622337.048         555.007          42.000  
G08  24055214.060   126411010.818        3582.976          38.000    24055212.862    98502174.065        2791.864          40.000  
G29  25433474.984   133653809.431       -3634.808          33.000    25433464.405   104145787.858       -2832.326          33.000  
C30  25045167.028   130416763.308        2748.062          44.000                                                                  
C13  40844363.704   212687313.194       -2426.450          34.000    40844367.683   164463330.263       -1875.937          37.000  
C08                                                                  41757947.432   168141974.360       -1817.590          36.000  
> 2025 11 03 07 45 59.5200000  0 26                     
G04  21361731.920   112256658.965        1006.853          44.000    21361721.084    87472678.372         784.482          47.000  
G16  20184597.836   106070781.104          99.595          46.000                                                                  
G28  23159965.711   121706435.767       -2745.779          41.000    23159955.122    94836131.198       -2139.756          43.000  
G31  21150126.330   111144667.624       -1750.275          46.000    21150113.991    86606178.626       -1364.074          45.000  
G03  24657990.301   129578608.685       -2963.921          34.000    24657986.071   100970315.679       -2309.463          37.000  
G18  25118402.238                        1296.017          31.000    25118395.879   102855630.312        1009.075          36.000  
C16  36732658.637   191276598.050           7.960          48.000    36732644.437   147907139.408           6.082          48.000  
C19  23869055.392   124292433.931       -2234.894          45.000                                                                  
C27  23561219.195   122689452.261        1052.020          47.000                                                                  
C06  36290607.055   188974714.080           4.901          47.000    36290586.506   146127160.544           3.927          49.000  
C09  37368634.599   194588285.023         129.108          45.000    37368616.593   150467938.588          99.858          48.000  
C22  24610432.247   128152980.319         551.634          42.000                                                                  
G26  20920140.418   109936079.279       -1993.964          47.000    20920131.021    85664439.199       -1553.723          45.000  
G27  21810404.245   114614454.379        2904.340          44.000    21810395.865    89309946.121        2263.182          43.000  
G09  23800895.572   125074559.834        2694.550          36.000    23800890.054    97460683.106        2099.854          37.000  
C28  24784705.299   129060459.688       -1147.135          43.000                                                                  
C07  38013851.960   197948099.771         775.513          42.000    38013832.106   153065958.837         599.672          45.000  
C20  25694981.085   133800501.723       -3627.279          43.000                                                                  
C36  23810063.085   123985247.959        1388.196          44.000                                                                  
C37  25102426.014   130714912.188       -2409.935          40.000                                                                  
C10  39145399.212   203840368.651         717.358          38.000    39145384.057   157622314.872         554.645          42.000  
G08  24055186.798   126410867.504        3582.850          38.000    24055185.597    98502062.383        2791.958          40.000  
G29  25433502.661   133653954.818       -3634.706          33.000    25433492.078   104145901.155       -2832.349          33.000  
C30  25045145.901   130416653.371        2748.321          44.000                                                                  
C13  40844382.361   212687410.209       -2425.653          34.000    40844386.322   164463405.277       -1875.512          37.000  
C08                                                                  41757965.486   168142047.032       -1817.059          36.000  
> 2025 11 03 07 45 59.5600000  0 26                     
G04  21361724.280   112256618.709        1006.573          44.000    21361713.442    87472647.000         784.377          46.000  
G16  20184597.070   106070777.116          99.626          46.000                                                                  
G28  23159986.634   121706545.613       -2746.096          41.000    23159976.019    94836216.777       -2139.669          43.000  
G31  21150139.674   111144737.645       -1750.431          46.000    21150127.326    86606233.181       -1363.934          45.000  
G03  24658012.859   129578727.243       -2963.966          34.000    24658008.634   100970408.055       -2309.391          37.000  
G18  25118392.397                        1296.133          31.000    25118386.020   102855589.953        1008.934          36.000  
C16  36732658.601   191276597.737           7.887          48.000    36732644.386   147907139.173           5.929          48.000  
C19  23869072.567   124292523.327       -2234.906          45.000                                                                  
C27  23561211.132   122689410.182        1051.995          47.000                                                                  
C06  36290607.009   188974713.887           4.865          47.000    36290586.488   146127160.395           3.806          49.000  
C09  37368633.593   194588279.862         129.098          45.000    37368615.583   150467934.592          99.900          48.000  
C22  24610428.008   128152958.269         551.341          42.000                                                                  
G26  20920155.591   109936159.034       -1993.890          47.000    20920146.228    85664501.353       -1553.845          45.000  
G27  21810382.151   114614338.208        2904.289          44.000    21810373.779    89309855.608        2262.960          43.000  
G09  23800875.048   125074452.040        2694.635          36.000    23800869.555    97460599.121        2099.603          37.000  
C28  24784714.132   129060505.561       -1146.944          43.000                                                                  
C07  38013845.990   197948068.752         775.548          42.000    38013826.137   153065934.854         599.601          45.000  
C20  25695008.927   133800646.818       -3627.318          43.000                                                                  
C36  23810052.426   123985192.445        1387.897          44.000                                                                  
C37  25102444.527   130715008.584       -2409.879          40.000                                                                  
C10  39145393.687   203840339.970         717.087          38.000    39145378.535   157622292.683         554.646          42.000  
G08  24055159.537   126410724.193        3582.693          38.000    24055158.333    98501950.709        2791.832          40.000  
G29  25433530.359   133654100.214       -3634.808          33.000    25433519.756   104146014.465       -2832.725          33.000  
C30  25045124.768   130416543.445        2748.211          44.000                                                                  
C13  40844400.969   212687507.226       -2425.348          34.000    40844404.975   164463480.319       -1875.819          37.000  
C08                                                                  41757983.557   168142119.750       -1817.663          36.000  
> 2025 11 03 07 45 59.6000000  0 26                     
G04  21361716.635   112256578.456        1006.339          44.000    21361705.781    87472615.627         784.318          46.000  
G16  20184596.344   106070773.138          99.490          46.000                                                                  
G28  23160007.521   121706655.452       -2746.137          41.000    23159996.911    94836302.361       -2139.644          43.000  
G31  21150153.036   111144807.670       -1750.592          46.000    21150140.657    86606287.741       -1363.964          45.000  
G03  24658035.428   129578845.798       -2963.817          34.000    24658031.190   100970500.469       -2310.047          37.000  
G18  25118382.529                        1294.813          31.000    25118376.145   102855549.564        1009.301          36.000  
C16  36732658.542   191276597.427           7.752          48.000    36732644.316   147907138.931           5.984          48.000  
C19  23869089.736   124292612.731       -2235.077          45.000                                                                  
C27  23561203.046   122689368.108        1051.841          47.000                                                                  
C06  36290606.966   188974713.694           4.836          47.000    36290586.457   146127160.253           3.613          49.000  
C09  37368632.601   194588274.704         129.001          45.000    37368614.597   150467930.604          99.776          48.000  
C22  24610423.764   128152936.216         551.200          42.000                                                                  
G26  20920170.783   109936238.800       -1994.098          47.000    20920161.401    85664563.505       -1553.864          45.000  
G27  21810360.062   114614222.042        2904.162          44.000    21810351.665    89309765.082        2263.066          43.000  
G09  23800854.533   125074344.235        2694.910          36.000    23800849.048    97460515.127        2099.701          37.000  
C28  24784722.959   129060551.438       -1146.927          43.000                                                                  
C07  38013840.035   197948037.745         775.294          42.000    38013820.200   153065910.874         599.462          45.000  
C20  25695036.773   133800791.922       -3627.523          43.000                                                                  
C36  23810041.741   123985136.922        1387.927          44.000                                                                  
C37  25102463.032   130715104.998       -2410.235          40.000                                                                  
C10  39145388.173   203840311.290         716.914          38.000    39145373.034   157622270.511         554.321          42.000  
G08  24055132.272   126410580.852        3583.107          38.000    24055131.069    98501839.051        2791.494          40.000  
G29  25433558.033   133654245.602       -3634.740          33.000    25433547.424   104146127.759       -2832.497          33.000  
C30  25045103.653   130416433.522        2748.093          44.000                                                                  
C13  40844419.600   212687604.223       -2424.968          34.000    40844423.638   164463555.354       -1875.798          37.000  
C08                                                                  41758001.606   168142192.446       -1817.542          36.000  
> 2025 11 03 07 45 59.6400000  0 26                     
G04  21361708.985   112256538.214        1006.066          44.000    21361698.139    87472584.270         784.025          46.000  
G16  20184595.587   106070769.164          99.335          46.000                                                                  
G28  23160028.419   121706765.298       -2746.222          41.000    23160017.808    94836387.956       -2139.881          43.000  
G31  21150166.361   111144877.705       -1750.860          46.000    21150153.977    86606342.310       -1364.116          45.000  
G03  24658058.033   129578964.367       -2964.099          34.000    24658053.739   100970592.843       -2309.661          37.000  
G18  25118372.695                        1294.724          31.000    25118366.287   102855509.189        1009.303          36.000  
C16  36732658.495   191276597.128           7.519          48.000    36732644.217   147907138.691           5.990          48.000  
C19  23869106.906   124292702.133       -2235.126          45.000                                                                  
C27  23561194.989   122689326.037        1051.737          47.000                                                                  
C06  36290606.939   188974713.514           4.573          47.000    36290586.434   146127160.112           3.486          49.000  
C09  37368631.622   194588269.559         128.713          45.000    37368613.586   150467926.625          99.525          48.000  
C22  24610419.532   128152914.163         551.211          42.000                                                                  
G26  20920185.992   109936318.571       -1994.293          47.000    20920176.586    85664625.659       -1553.888          45.000  
G27  21810337.962   114614105.888        2903.879          44.000    21810329.551    89309674.571        2262.879          43.000  
G09  23800834.028   125074236.456        2694.562          36.000    23800828.514    97460431.140        2099.591          37.000  
C28  24784731.775   129060597.325       -1147.128          43.000                                                                  
C07  38013834.082   197948006.746         774.974          42.000    38013814.253   153065886.910         599.143          45.000  
C20  25695064.671   133800937.020       -3627.540          43.000                                                                  
C36  23810031.062   123985081.413        1387.732          44.000                                                                  
C37  25102481.542   130715201.416       -2410.522          40.000                                                                  
C10  39145382.660   203840282.602         716.990          38.000    39145367.543   157622248.336         554.224          42.000  
G08  24055105.015   126410437.544        3582.849          38.000    24055103.799    98501727.393        2791.344          40.000  
G29  25433585.742   133654391.000       -3634.888          33.000    25433575.077   104146241.067       -2832.710          33.000  
C30  25045082.551   130416323.596        2748.067          44.000                                                                  
C13  40844438.248   212687701.298       -2426.194          34.000    40844442.260   164463630.404       -1876.081          37.000  
C08                                                                  41758019.666   168142265.150       -1817.663          36.000  
> 2025 11 03 07 45 59.6800000  0 26                     
G04  21361701.313   112256497.958        1006.200          44.000    21361690.469    87472552.906         783.981          46.000  
G16  20184594.829   106070765.187          99.318          46.000                                                                  
G28  23160049.318   121706875.137       -2746.121          41.000    23160038.708    94836473.547       -2139.879          43.000  
G31  21150179.660   111144947.728       -1750.776          46.000    21150167.306    86606396.877       -1364.186          45.000  
G03  24658080.591   129579082.914       -2963.911          34.000    24658076.303   100970685.237       -2309.765          37.000  
G18  25118362.846                        1295.146          31.000    25118356.429   102855468.834        1008.920          36.000  
C16  36732658.449   191276596.824           7.469          48.000    36732644.141   147907138.454           5.912          48.000  
C19  23869124.061   124292791.541       -2235.229          45.000                                                                  
C27  23561186.909   122689283.968        1051.651          47.000                                                                  
C06  36290606.906   188974713.328           4.554          47.000    36290586.410   146127159.965           3.540          49.000  
C09  37368630.641   194588264.411         128.636          45.000    37368612.596   150467922.648          99.338          48.000  
C22  24610415.324   128152892.124         551.002          42.000                                                                  
G26  20920201.176   109936398.345       -1994.391          47.000    20920191.759    85664687.820       -1554.059          45.000  
G27  21810315.853   114613989.730        2903.837          44.000    21810307.461    89309584.055        2262.877          43.000  
G09  23800813.504   125074128.667        2694.629          36.000    23800808.011    97460347.156        2099.573          37.000  
C28  24784740.589   129060643.213       -1147.240          43.000                                                                  
C07  38013828.130   197947975.747         774.905          42.000    38013808.288   153065862.933         599.237          45.000  
C20  25695092.520   133801082.130       -3627.741          43.000                                                                  
C36  23810020.395   123985025.897        1387.775          44.000                                                                  
C37  25102500.055   130715297.826       -2410.420          40.000                                                                  
C10  39145377.149   203840253.915         717.057          38.000    39145362.023   157622226.145         554.480          42.000  
G08  24055077.736   126410294.273        3581.995          38.000    24055076.519    98501615.709        2791.796          40.000  
G29  25433613.444   133654536.438       -3635.732          33.000    25433602.758   104146354.345       -2832.198          33.000  
C30  25045061.437   130416213.680        2747.873          44.000                                                                  
C13  40844456.894   212687798.348       -2426.437          33.000    40844460.888   164463705.439       -1875.998          37.000  
C08                                                                  41758037.708   168142337.823       -1817.059          36.000  
> 2025 11 03 07 45 59.7200000  0 26                     
G04  21361693.614   112256457.701        1006.288          44.000    21361682.782    87472521.543         783.997          46.000  
G16  20184594.092   106070761.214          99.251          46.000                                                                  
G28  23160070.227   121706984.975       -2746.046          41.000    23160059.605    94836559.133       -2139.791          43.000  
G31  21150192.973   111145017.762       -1750.884          46.000    21150180.609    86606451.448       -1364.310          45.000  
G03  24658103.144   129579201.492       -2964.395          34.000    24658098.862   100970777.634       -2309.879          37.000  
G18  25118352.961                        1295.248          31.000    25118346.581   102855428.457        1009.128          36.000  
C16  36732658.410   191276596.518           7.527          48.000    36732644.076   147907138.214           5.912          48.000  
C19  23869141.228   124292880.942       -2235.132          45.000                                                                  
C27  23561178.860   122689241.896        1051.689          47.000                                                                  
C06  36290606.879   188974713.140           4.600          47.000    36290586.370   146127159.822           3.523          49.000  
C09  37368629.627   194588259.260         128.639          45.000    37368611.583   150467918.668          99.379          48.000  
C22  24610411.106   128152870.072         551.141          42.000                                                                  
G26  20920216.349   109936478.115       -1994.366          47.000    20920206.941    85664749.980       -1554.102          45.000  
G27  21810293.743   114613873.572        2903.844          44.000    21810285.357    89309493.542        2262.808          43.000  
G09  23800792.991   125074020.900        2694.257          36.000    23800787.506    97460263.154        2099.854          37.000  
C28  24784749.400   129060689.099       -1147.284          43.000                                                                  
C07  38013822.176   197947944.739         775.027          42.000    38013802.329   153065838.961         599.232          45.000  
C20  25695120.391   133801227.225       -3627.606          43.000                                                                  
C36  23810009.745   123984970.379        1387.842          44.000                                                                  
C37  25102518.544   130715394.237       -2410.370          40.000                                                                  
C10  39145371.623   203840225.216         717.301          38.000    39145356.518   157622203.965         554.466          41.000  
G08  24055050.478   126410150.948        3582.571          38.000    24055049.258    98501504.034        2791.839          40.000  
G29  25433641.124   133654681.831       -3635.219          33.000    25433630.437   104146467.689       -2833.220          33.000  
C30  25045040.317   130416103.754        2747.991          44.000                                                                  
C13  40844475.517   212687895.412       -2426.647          33.000    40844479.522   164463780.486       -1876.186          37.000  
C08                                                                  41758055.796   168142410.516       -1817.096          36.000  
> 2025 11 03 07 45 59.7600000  0 26                     
G04  21361685.947   112256417.454        1006.182          44.000    21361675.114    87472490.182         783.994          46.000  
G16  20184593.342   106070757.245          99.177          46.000                                                                  
G28  23160091.135   121707094.821       -2746.171          41.000    23160080.515    94836644.726       -2139.815          43.000  
G31  21150206.279   111145087.792       -1750.857          46.000    21150193.937    86606506.024       -1364.429          45.000  
G03  24658125.694   129579320.053       -2964.340          34.000    24658121.404   100970870.008       -2309.566          37.000  
G18  25118343.102                        1294.724          31.000    25118336.740   102855388.094        1009.066          36.000  
C16  36732658.387   191276596.213           7.563          48.000    36732644.019   147907137.976           5.914          48.000  
C19  23869158.386   124292970.347       -2235.132          45.000                                                                  
C27  23561170.759   122689199.826        1051.683          47.000                                                                  
C06  36290606.860   188974712.951           4.689          47.000    36290586.339   146127159.668           3.704          49.000  
C09  37368628.633   194588254.101         128.842          45.000    37368610.579   150467914.682          99.509          48.000  
C22  24610406.889   128152848.018         551.271          42.000                                                                  
G26  20920231.509   109936557.880       -1994.257          47.000    20920222.084    85664812.143       -1554.138          45.000  
G27  21810271.645   114613757.405        2904.045          44.000    21810263.245    89309403.029        2262.805          43.000  
G09  23800772.510   125073913.106        2694.556          36.000    23800766.982    97460179.156        2099.903          37.000  
C28  24784758.203   129060734.989       -1147.317          43.000                                                                  
C07  38013816.204   197947913.732         775.116          42.000    38013796.358   153065814.976         599.446          45.000  
C20  25695148.253   133801372.332       -3627.680          43.000                                                                  
C36  23809999.082   123984914.857        1387.952          44.000                                                                  
C37  25102537.062   130715490.659       -2410.530          40.000                                                                  
C10  39145366.089   203840196.532         717.155          38.000    39145351.031   157622181.781         554.533          41.000  
G08  24055023.212   126410007.627        3582.896          38.000    24055021.987    98501392.371        2791.691          40.000  
G29  25433668.782   133654827.221       -3634.921          34.000    25433658.121   104146580.974       -2832.697          33.000  
C30  25045019.197   130415993.841        2747.850          44.000                                                                  
C13  40844494.146   212687992.445       -2426.228          33.000    40844498.182   164463855.531       -1876.177          37.000  
C08                                                                  41758073.845   168142483.223       -1817.462          36.000  
> 2025 11 03 07 45 59.8000000  0 26                     
G04  21361678.276   112256377.204        1006.178          44.000    21361667.439    87472458.818         784.056          46.000  
G16  20184592.582   106070753.266          99.353          46.000                                                                  
G28  23160112.026   121707204.658       -2746.026          41.000    23160101.421    94836730.320       -2139.877          43.000  
G31  21150219.586   111145157.820       -1750.771          46.000    21150207.249    86606560.588       -1364.276          45.000  
G03  24658148.242   129579438.612       -2964.108          34.000    24658143.966   100970962.378       -2309.220          37.000  
G18  25118333.270                        1294.516          31.000    25118326.897   102855347.724        1009.110          36.000  
C16  36732658.370   191276595.908           7.597          48.000    36732643.929   147907137.749           5.706          48.000  
C19  23869175.561   124293059.751       -2235.114          45.000                                                                  
C27  23561162.684   122689157.756        1051.714          47.000                                                                  
C06  36290606.854   188974712.762           4.714          47.000    36290586.304   146127159.524           3.641          49.000  
C09  37368627.634   194588248.945         128.904          45.000    37368609.583   150467910.695          99.605          48.000  
C22  24610402.652   128152825.976         551.119          43.000                                                                  
G26  20920246.697   109936637.649       -1994.250          47.000    20920237.259    85664874.289       -1553.827          45.000  
G27  21810249.554   114613641.245        2904.015          44.000    21810241.138    89309312.511        2262.878          43.000  
G09  23800751.991   125073805.311        2694.806          36.000    23800746.473    97460095.157        2099.982          37.000  
C28  24784767.013   129060780.870       -1147.142          43.000                                                                  
C07  38013810.224   197947882.717         775.317          42.000    38013790.403   153065791.000         599.407          45.000  
C20  25695176.138   133801517.434       -3627.588          43.000                                                                  
C36  23809988.441   123984859.329        1388.129          44.000                                                                  
C37  25102555.576   130715587.058       -2410.170          40.000                                                                  
C10  39145360.585   203840167.846         717.144          38.000    39145345.513   157622159.616         554.212          41.000  
G08  24054995.943   126409864.315        3582.937          38.000    24054994.707    98501280.705        2791.662          40.000  
G29  25433696.456   133654972.638       -3635.212          34.000    25433685.798   104146694.269       -2832.538          33.000  
C30  25044998.098   130415883.929        2747.751          44.000                                                                  
C13  40844512.757   212688089.461       -2425.716          33.000    40844516.809   164463930.564       -1875.994          38.000  
C08                                                                  41758091.916   168142555.915       -1817.334          36.000  
> 2025 11 03 07 45 59.8400000  0 26                     
G04  21361670.618   112256336.957        1006.122          44.000    21361659.769    87472427.452         784.108          46.000  
G16  20184591.825   106070749.287          99.446          46.000                                                                  
G28  23160132.922   121707314.498       -2746.014          41.000    23160122.329    94836815.911       -2139.833          43.000  
G31  21150232.911   111145227.843       -1750.658          46.000    21150220.548    86606615.150       -1364.136          45.000  
G03  24658170.780   129579557.173       -2963.941          34.000    24658166.513   100971054.777       -2309.659          37.000  
G18  25118323.411                        1295.052          30.000    25118317.031   102855307.332        1009.524          36.000  
C16  36732658.340   191276595.593           7.778          48.000    36732643.847   147907137.511           5.802          48.000  
C19  23869192.734   124293149.162       -2235.211          45.000                                                                  
C27  23561154.608   122689115.689        1051.671          47.000                                                                  
C06  36290606.854   188974712.566           4.877          47.000    36290586.267   146127159.381           3.588          49.000  
C09  37368626.643   194588243.793         128.844          45.000    37368608.584   150467906.706          99.711          48.000  
C22  24610398.435   128152803.924         551.185          43.000                                                                  
G26  20920261.866   109936717.407       -1994.037          47.000    20920252.448    85664936.447       -1553.894          45.000  
G27  21810227.425   114613525.084        2903.978          44.000    21810219.024    89309222.005        2262.727          43.000  
G09  23800731.471   125073697.501        2695.215          36.000    23800725.969    97460011.186        2099.500          37.000  
C28  24784775.818   129060826.758       -1147.169          42.000                                                                  
C07  38013804.260   197947851.711         775.232          42.000    38013784.443   153065767.017         599.526          45.000  
C20  25695203.996   133801662.533       -3627.526          43.000                                                                  
C36  23809977.782   123984803.809        1388.056          44.000                                                                  
C37  25102574.091   130715683.473       -2410.265          40.000                                                                  
C10  39145355.076   203840139.171         716.946          38.000    39145340.016   157622137.430         554.419          41.000  
G08  24054968.679   126409721.018        3582.649          38.000    24054967.411    98501169.037        2791.684          40.000  
G29  25433724.148   133655118.041       -3635.079          34.000    25433713.473   104146807.595       -2833.047          34.000  
C30  25044977.003   130415773.999        2748.065          44.000                                                                  
C13  40844531.407   212688186.526       -2426.252          33.000    40844535.452   164464005.604       -1875.944          37.000  
C08                                                                  41758109.956   168142628.624       -1817.627          36.000  
> 2025 11 03 07 45 59.8800000  0 26                     
G04  21361662.954   112256296.713        1006.058          44.000    21361652.106    87472396.090         784.060          46.000  
G16  20184591.079   106070745.318          99.258          46.000                                                                  
G28  23160153.840   121707424.343       -2746.077          41.000    23160143.233    94836901.506       -2139.870          43.000  
G31  21150246.231   111145297.880       -1750.866          46.000    21150233.879    86606669.728       -1364.375          45.000  
G03  24658193.362   129579675.761       -2964.397          34.000    24658189.063   100971147.181       -2310.079          37.000  
G18  25118313.551                        1295.335          30.000    25118307.174   102855266.960        1009.414          36.000  
C16  36732658.268   191276595.288           7.689          48.000    36732643.775   147907137.277           5.790          48.000  
C19  23869209.888   124293238.579       -2235.425          45.000                                                                  
C27  23561146.528   122689073.627        1051.548          47.000                                                                  
C06  36290606.808   188974712.382           4.719          47.000    36290586.274   146127159.240           3.496          49.000  
C09  37368625.677   194588238.642         128.793          45.000    37368607.592   150467902.718          99.702          48.000  
C22  24610394.212   128152781.889         550.918          43.000                                                                  
G26  20920277.051   109936797.180       -1994.238          47.000    20920267.630    85664998.610       -1554.016          45.000  
G27  21810205.337   114613408.928        2903.881          44.000    21810196.900    89309131.487        2262.821          43.000  
G09  23800710.928   125073589.715        2694.934          36.000    23800705.466    97459927.206        2099.359          37.000  
C28  24784784.628   129060872.641       -1147.119          42.000                                                                  
C07  38013798.321   197947820.707         775.145          42.000    38013778.492   153065743.043         599.405          45.000  
C20  25695231.842   133801807.638       -3627.611          43.000                                                                  
C36  23809967.140   123984748.301        1387.793          44.000                                                                  
C37  25102592.612   130715779.892       -2410.442          40.000                                                                  
C10  39145349.579   203840110.480         717.170          38.000    39145334.517   157622115.248         554.456          41.000  
G08  24054941.420   126409577.715        3582.500          38.000    24054940.122    98501057.372        2791.618          40.000  
G29  25433751.836   133655263.456       -3635.260          34.000    25433741.141   104146920.862       -2832.241          34.000  
C30  25044955.890   130415664.065        2748.280          44.000                                                                  
C13  40844550.073   212688283.565       -2426.073          33.000    40844554.088   164464080.634       -1875.827          38.000  
C08                                                                  41758128.017   168142701.326       -1817.584          36.000  
> 2025 11 03 07 45 59.9200000  0 26                     
G04  21361655.316   112256256.477        1005.891          44.000    21361644.443    87472364.733         783.955          46.000  
G16  20184590.330   106070741.352          99.141          46.000                                                                  
G28  23160174.778   121707534.204       -2746.418          41.000    23160164.144    94836987.098       -2139.845          43.000  
G31  21150259.576   111145367.918       -1750.989          46.000    21150247.196    86606724.301       -1364.416          45.000  
G03  24658215.925   129579794.332       -2964.414          34.000    24658211.647   100971239.567       -2309.935          37.000  
G18  25118303.715                        1295.010          30.000    25118297.313   102855226.635        1008.557          36.000  
C16  36732658.222   191276594.988           7.524          48.000    36732643.721   147907137.039           5.891          48.000  
C19  23869227.076   124293327.983       -2235.272          45.000                                                                  
C27  23561138.432   122689031.563        1051.536          47.000                                                                  
C06  36290606.764   188974712.200           4.561          47.000    36290586.262   146127159.096           3.519          49.000  
C09  37368624.686   194588233.496         128.679          45.000    37368606.624   150467898.740          99.515          48.000  
C22  24610389.975   128152759.862         550.678          43.000                                                                  
G26  20920292.230   109936876.960       -1994.464          47.000    20920282.813    85665060.776       -1554.163          45.000  
G27  21810183.239   114613292.779        2903.693          44.000    21810174.799    89309040.983        2262.665          43.000  
G09  23800690.424   125073481.944        2694.464          36.000    23800684.936    97459843.215        2099.579          37.000  
C28  24784793.442   129060918.548       -1147.469          42.000                                                                  
C07  38013792.377   197947789.702         775.139          42.000    38013772.546   153065719.076         599.197          45.000  
C20  25695259.693   133801952.742       -3627.622          43.000                                                                  
C36  23809956.480   123984692.800        1387.531          44.000                                                                  
C37  25102611.136   130715876.303       -2410.361          40.000                                                                  
C10  39145344.072   203840081.795         717.152          38.000    39145328.987   157622093.079         554.270          41.000  
G08  24054914.154   126409434.408        3582.524          38.000    24054912.847    98500945.707        2791.586          40.000  
G29  25433779.488   133655408.859       -3635.270          34.000    25433768.798   104147034.183       -2832.654          34.000  
C30  25044934.775   130415554.143        2748.157          44.000                                                                  
C13  40844568.730   212688380.602       -2425.877          33.000    40844572.727   164464155.672       -1875.859          38.000  
C08                                                                  41758146.101   168142774.034       -1817.676          36.000  
> 2025 11 03 07 45 59.9600000  0 26                     
G04  21361647.682   112256216.241        1005.847          44.000    21361636.765    87472333.377         783.900          46.000  
G16  20184589.556   106070737.379          99.210          46.000                                                                  
G28  23160195.683   121707644.051       -2746.342          41.000    23160185.041    94837072.702       -2140.038          43.000  
G31  21150272.911   111145437.951       -1750.919          46.000    21150260.523    86606778.875       -1364.418          45.000  
G03  24658238.489   129579912.900       -2964.319          34.000    24658234.216   100971331.972       -2310.125          37.000  
G18  25118293.843                        1295.045          30.000    25118287.458   102855186.251        1009.121          36.000  
C16  36732658.154   191276594.683           7.569          48.000    36732643.622   147907136.803           5.882          48.000  
C19  23869244.254   124293417.396       -2235.315          45.000                                                                  
C27  23561130.368   122688989.502        1051.494          47.000                                                                  
C06  36290606.726   188974712.017           4.528          47.000    36290586.224   146127158.954           3.528          49.000  
C09  37368623.697   194588228.342         128.758          44.000    37368605.630   150467894.755          99.529          48.000  
C22  24610385.750   128152737.820         550.832          43.000                                                                  
G26  20920307.414   109936956.736       -1994.464          47.000    20920297.985    85665122.937       -1554.120          45.000  
G27  21810161.143   114613176.630        2903.650          44.000    21810152.684    89308950.471        2262.734          43.000  
G09  23800669.917   125073374.167        2694.354          36.000    23800664.418    97459759.217        2099.835          37.000  
C28  24784802.251   129060964.447       -1147.526          42.000                                                                  
C07  38013786.418   197947758.696         775.132          42.000    38013766.604   153065695.109         599.107          45.000  
C20  25695287.556   133802097.844       -3627.597          43.000                                                                  
C36  23809945.854   123984637.290        1387.585          44.000                                                                  
C37  25102629.659   130715972.727       -2410.589          40.000                                                                  
C10  39145338.561   203840053.115         717.058          38.000    39145323.487   157622070.890         554.530          41.000  
G08  24054886.891   126409291.092        3582.811          38.000    24054885.576    98500834.047        2791.472          40.000  
G29  25433807.177   133655554.273       -3635.383          34.000    25433796.483   104147147.476       -2832.542          34.000  
C30  25044913.638   130415444.226        2748.000          44.000                                                                  
C13  40844587.379   212688477.652       -2426.120          33.000    40844591.373   164464230.706       -1875.802          37.000  
C08                                                                  41758164.159   168142846.727       -1817.444          36.000  
> 2025 11 03 07 46 00.0000000  0 26                     
G04  21361640.013   112256175.989        1006.116          44.000    21361629.108    87472302.023         783.837          46.000  
G16  20184588.788   106070733.414          99.080          46.000                                                                  
G28  23160216.586   121707753.895       -2746.197          41.000    23160205.947    94837158.290       -2139.837          43.000  
G31  21150286.219   111145507.979       -1750.798          46.000    21150273.832    86606833.436       -1364.204          45.000  
G03  24658261.067   129580031.474       -2964.461          34.000    24658256.790   100971424.363       -2309.954          37.000  
G18  25118283.991                        1294.868          30.000    25118277.594   102855145.894        1009.086          36.000  
C16  36732658.106   191276594.375           7.655          48.000    36732643.540   147907136.565           5.934          48.000  
C19  23869261.430   124293506.800       -2235.205          45.000                                                                  
C27  23561122.352   122688947.437        1051.574          47.000                                                                  
C06  36290606.681   188974711.824           4.690          47.000    36290586.211   146127158.807           3.608          49.000  
C09  37368622.705   194588223.183         128.911          44.000    37368604.617   150467890.767          99.601          48.000  
C22  24610381.507   128152715.772         551.075          43.000                                                                  
G26  20920322.568   109937036.504       -1994.275          47.000    20920313.179    85665185.094       -1553.967          45.000  
G27  21810139.023   114613060.468        2903.879          44.000    21810130.595    89308859.962        2262.736          43.000  
G09  23800649.427   125073266.390        2694.305          36.000    23800643.907    97459675.226        2099.847          37.000  
C28  24784811.073   129061010.340       -1147.463          42.000                                                                  
C07  38013780.455   197947727.682         775.270          42.000    38013760.640   153065671.134         599.242          45.000  
C20  25695315.411   133802242.939       -3627.431          43.000                                                                  
C36  23809935.211   123984581.770        1387.866          44.000                                                                  
C37  25102648.176   130716069.132       -2410.387          40.000                                                                  
C10  39145333.053   203840024.443         716.862          38.000    39145317.982   157622048.708         554.529          41.000  
G08  24054859.609   126409147.774        3583.009          38.000    24054858.307    98500722.382        2791.508          40.000  
G29  25433834.865   133655699.687       -3635.403          33.000    25433824.162   104147260.790       -2832.771          34.000  
C30  25044892.554   130415334.307        2747.952          44.000                                                                  
C13  40844606.006   212688574.669       -2425.669          33.000    40844610.015   164464305.746       -1875.924          37.000  
C08                                                                  41758182.211   168142919.426       -1817.352          36.000  
> 2025 11 03 07 46 00.0400000  0 26                     
G04  21361632.348   112256135.740        1006.202          44.000    21361621.445    87472270.651         784.117          46.000  
G16  20184588.058   106070729.443          99.149          46.000                                                                  
G28  23160237.487   121707863.727       -2745.867          41.000    23160226.858    94837243.876       -2139.701          43.000  
G31  21150299.532   111145578.006       -1750.743          46.000    21150287.168    86606888.008       -1364.261          45.000  
G03  24658283.601   129580150.024       -2964.023          34.000    24658279.346   100971516.734       -2309.533          37.000  
G18  25118274.135                        1295.134          30.000    25118267.743   102855105.554        1008.628          36.000  
C16  36732658.061   191276594.063           7.742          48.000    36732643.470   147907136.325           5.970          48.000  
C19  23869278.589   124293596.211       -2235.242          45.000                                                                  
C27  23561114.280   122688905.371        1051.605          47.000                                                                  
C06  36290606.653   188974711.632           4.764          47.000    36290586.163   146127158.658           3.671          49.000  
C09  37368621.704   194588218.022         128.984          44.000    37368603.648   150467886.773          99.793          48.000  
C22  24610377.293   128152693.722         551.201          43.000                                                                  
G26  20920337.759   109937116.273       -1994.238          47.000    20920328.368    85665247.255       -1554.016          45.000  
G27  21810116.899   114612944.307        2903.965          44.000    21810108.500    89308769.448        2262.816          43.000  
G09  23800628.913   125073158.618        2694.153          36.000    23800623.406    97459591.249        2099.512          37.000  
C28  24784819.890   129061056.232       -1147.398          42.000                                                                  
C07  38013774.510   197947696.689         774.948          42.000    38013754.655   153065647.149         599.530          45.000  
C20  25695343.285   133802388.038       -3627.433          43.000                                                                  
C36  23809924.564   123984526.241        1388.159          44.000                                                                  
C37  25102666.711   130716165.538       -2410.223          40.000                                                                  
C10  39145327.549   203839995.771         716.778          38.000    39145312.496   157622026.530         554.474          41.000  
G08  24054832.331   126409004.482        3582.550          38.000    24054831.024    98500610.710        2791.628          40.000  
G29  25433862.534   133655845.099       -3635.321          34.000    25433851.833   104147374.103       -2832.970          34.000  
C30  25044871.462   130415224.383        2748.020          44.000                                                                  
C13  40844624.635   212688671.709       -2425.894          33.000    40844628.651   164464380.788       -1876.089          37.000  
C08                                                                  41758200.252   168142992.123       -1817.401          36.000  
> 2025 11 03 07 46 00.0800000  0 26                     
G04  21361624.715   112256095.496        1006.146          44.000    21361613.770    87472239.295         783.992          46.000  
G16  20184587.312   106070725.471          99.237          46.000                                                                  
G28  23160258.364   121707973.559       -2745.759          41.000    23160247.767    94837329.461       -2139.667          43.000  
G31  21150312.890   111145648.037       -1750.722          46.000    21150300.524    86606942.578       -1364.277          45.000  
G03  24658306.152   129580268.578       -2963.833          34.000    24658301.900   100971609.117       -2309.496          37.000  
G18  25118264.219                        1294.644          30.000    25118257.910   102855065.192        1008.915          36.000  
C16  36732658.013   191276593.753           7.766          48.000    36732643.410   147907136.089           5.923          48.000  
C19  23869295.748   124293685.620       -2235.223          45.000                                                                  
C27  23561106.247   122688863.296        1051.796          47.000                                                                  
C06  36290606.635   188974711.435           4.886          47.000    36290586.108   146127158.505           3.779          49.000  
C09  37368620.694   194588212.867         128.923          44.000    37368602.659   150467882.782          99.809          48.000  
C22  24610373.077   128152671.680         551.115          43.000                                                                  
G26  20920352.926   109937196.040       -1994.177          47.000    20920343.549    85665309.407       -1553.864          45.000  
G27  21810094.779   114612828.154        2903.870          44.000    21810086.396    89308678.935        2262.816          43.000  
G09  23800608.410   125073050.835        2694.366          36.000    23800602.899    97459507.261        2099.573          37.000  
C28  24784828.682   129061102.138       -1147.599          42.000                                                                  
C07  38013768.545   197947665.680         775.058          42.000    38013748.705   153065623.173         599.483          45.000  
C20  25695371.150   133802533.140       -3627.518          43.000                                                                  
C36  23809913.892   123984470.718        1388.190          44.000                                                                  
C37  25102685.233   130716261.965       -2410.490          40.000                                                                  
C10  39145322.069   203839967.086         716.947          38.000    39145306.970   157622004.360         554.317          41.000  
G08  24054805.055   126408861.168        3582.676          38.000    24054803.758    98500499.031        2791.807          40.000  
G29  25433890.196   133655990.520       -3635.429          34.000    25433879.505   104147487.411       -2832.973          34.000  
C30  25044850.372   130415114.456        2748.143          44.000                                                                  
C13  40844643.291   212688768.751       -2426.148          33.000    40844647.283   164464455.805       -1875.672          37.000  
C08                                                                  41758218.301   168143064.792       -1816.882          36.000  
> 2025 11 03 07 46 00.1200000  0 26                     
G04  21361617.058   112256055.255        1006.052          44.000    21361606.118    87472207.939         783.914          46.000  
G16  20184586.537   106070721.508          99.124          46.000                                                                  
G28  23160279.272   121708083.406       -2746.030          41.000    23160268.682    94837415.055       -2139.760          43.000  
G31  21150326.192   111145718.063       -1750.680          46.000    21150313.836    86606997.143       -1364.212          45.000  
G03  24658328.724   129580387.141       -2963.978          34.000    24658324.450   100971701.515       -2309.771          37.000  
G18  25118254.366                        1294.559          30.000    25118248.039   102855024.841        1008.773          36.000  
C16  36732657.961   191276593.440           7.807          48.000    36732643.326   147907135.848           5.990          48.000  
C19  23869312.909   124293775.027       -2235.193          45.000                                                                  
C27  23561098.173   122688821.230        1051.727          47.000                                                                  
C06  36290606.611   188974711.248           4.727          47.000    36290586.086   146127158.354           3.817          49.000  
C09  37368619.709   194588207.713         128.885          44.000    37368601.687   150467878.792          99.801          48.000  
C22  24610368.813   128152649.645         550.897          43.000                                                                  
G26  20920368.095   109937275.807       -1994.165          47.000    20920358.726    85665371.569       -1553.986          45.000  
G27  21810072.684   114612712.003        2903.786          44.000    21810064.290    89308588.431        2262.638          43.000  
G09  23800587.903   125072943.040        2694.696          36.000    23800582.382    97459423.280        2099.469          37.000  
C28  24784837.502   129061148.031       -1147.457          42.000                                                                  
C07  38013762.585   197947634.680         775.002          42.000    38013742.765   153065599.205         599.293          45.000  
C20  25695399.011   133802678.239       -3627.531          43.000                                                                  
C36  23809903.234   123984415.205        1387.933          44.000                                                                  
C37  25102703.773   130716358.395       -2410.705          40.000                                                                  
C10  39145316.526   203839938.392         717.202          38.000    39145301.458   157621982.174         554.565          41.000  
G08  24054777.787   126408717.860        3582.671          38.000    24054776.476    98500387.376        2791.482          40.000  
G29  25433917.839   133656135.942       -3635.525          34.000    25433907.178   104147600.719       -2832.923          34.000  
C30  25044829.279   130415004.535        2748.047          44.000                                                                  
C13  40844661.938   212688865.812       -2426.650          33.000    40844665.912   164464530.858       -1876.101          37.000  
C08                                                                  41758236.356   168143137.493       -1817.236          36.000  
> 2025 11 03 07 46 00.1600000  0 26                     
G04  21361609.414   112256015.018        1005.929          44.000    21361598.472    87472176.583         783.834          46.000  
G16  20184585.766   106070717.539          99.137          46.000                                                                  
G28  23160300.183   121708193.256       -2746.234          41.000    23160289.602    94837500.657       -2139.990          43.000  
G31  21150339.522   111145788.111       -1751.042          46.000    21150327.184    86607051.725       -1364.464          45.000  
G03  24658351.300   129580505.740       -2964.717          34.000    24658347.014   100971793.885       -2309.379          37.000  
G18  25118244.486                        1293.943          30.000    25118238.190   102854984.484        1008.882          36.000  
C16  36732657.906   191276593.133           7.701          48.000    36732643.247   147907135.612           5.913          48.000  
C19  23869330.091   124293864.434       -2235.175          45.000                                                                  
C27  23561090.086   122688779.171        1051.542          47.000                                                                  
C06  36290606.551   188974711.059           4.689          47.000    36290586.044   146127158.209           3.693          49.000  
C09  37368618.709   194588202.557         128.860          44.000    37368600.705   150467874.806          99.677          48.000  
C22  24610364.553   128152627.621         550.610          43.000                                                                  
G26  20920383.295   109937355.589       -1994.470          47.000    20920373.901    85665433.736       -1554.187          45.000  
G27  21810050.565   114612595.846        2903.819          44.000    21810042.190    89308497.927        2262.530          43.000  
G09  23800567.384   125072835.263        2694.531          36.000    23800561.872    97459339.299        2099.432          37.000  
C28  24784846.337   129061193.940       -1147.652          43.000                                                                  
C07  38013756.654   197947603.672         775.136          42.000    38013736.824   153065575.240         599.158          45.000  
C20  25695426.893   133802823.347       -3627.676          43.000                                                                  
C36  23809892.579   123984359.699        1387.695          44.000                                                                  
C37  25102722.305   130716454.827       -2410.833          40.000                                                                  
C10  39145311.009   203839909.698         717.302          38.000    39145295.952   157621959.988         554.681          41.000  
G08  24054750.533   126408574.582        3582.178          38.000    24054749.196    98500275.706        2791.526          40.000  
G29  25433945.507   133656281.360       -3635.570          33.000    25433934.858   104147714.041       -2833.154          34.000  
C30  25044808.158   130414894.615        2747.978          44.000                                                                  
C13  40844680.590   212688962.870       -2426.800          33.000    40844684.567   164464605.902       -1876.207          37.000  
C08                                                                  41758254.411   168143210.203       -1817.645          36.000  
> 2025 11 03 07 46 00.2000000  0 26                     
G04  21361601.741   112255974.781        1005.886          44.000    21361590.855    87472145.235         783.687          46.000  
G16  20184585.027   106070713.575          99.075          46.000                                                                  
G28  23160321.081   121708303.107       -2746.344          40.000    23160310.505    94837586.256       -2140.037          43.000  
G31  21150352.881   111145858.162       -1751.276          46.000    21150340.513    86607106.310       -1364.627          45.000  
G03  24658373.872   129580624.300       -2964.260          34.000    24658369.577   100971886.306       -2310.147          37.000  
G18  25118234.629                        1294.041          29.000    25118228.326   102854944.132        1008.842          36.000  
C16  36732657.838   191276592.830           7.565          48.000    36732643.164   147907135.381           5.778          48.000  
C19  23869347.265   124293953.845       -2235.242          45.000                                                                  
C27  23561082.026   122688737.118        1051.346          46.000                                                                  
C06  36290606.487   188974710.880           4.508          47.000    36290586.011   146127158.064           3.641          49.000  
C09  37368617.720   194588197.398         128.944          44.000    37368599.739   150467870.824          99.538          48.000  
C22  24610360.312   128152605.584         550.759          43.000                                                                  
G26  20920398.501   109937435.374       -1994.666          46.000    20920389.093    85665495.910       -1554.376          45.000  
G27  21810028.452   114612479.691        2903.812          44.000    21810020.064    89308407.415        2262.639          43.000  
G09  23800546.872   125072727.475        2694.635          36.000    23800541.368    97459255.319        2099.396          37.000  
C28  24784855.144   129061239.843       -1147.648          43.000                                                                  
C07  38013750.711   197947572.664         775.211          42.000    38013730.854   153065551.270         599.191          45.000  
C20  25695454.753   133802968.445       -3627.578          43.000                                                                  
C36  23809881.919   123984304.191        1387.634          44.000                                                                  
C37  25102740.801   130716551.250       -2410.744          40.000                                                                  
C10  39145305.499   203839881.022         717.059          38.000    39145290.448   157621937.810         554.537          41.000  
G08  24054723.279   126408431.288        3582.181          38.000    24054721.939    98500164.053        2791.392          40.000  
G29  25433973.200   133656426.795       -3635.929          33.000    25433962.535   104147827.361       -2833.272          33.000  
C30  25044787.044   130414784.701        2747.851          44.000                                                                  
C13  40844699.230   212689059.904       -2426.321          33.000    40844703.188   164464680.930       -1875.875          38.000  
C08                                                                  41758272.466   168143282.920       -1817.944          36.000  
> 2025 11 03 07 46 00.2400000  0 26                     
G04  21361594.105   112255934.548        1005.779          44.000    21361583.205    87472113.885         783.654          46.000  
G16  20184584.236   106070709.598          99.281          46.000                                                                  
G28  23160341.972   121708412.946       -2746.163          40.000    23160331.416    94837671.846       -2139.836          41.000  
G31  21150366.193   111145928.215       -1751.408          46.000    21150353.849    86607160.874       -1364.334          45.000  
G03  24658396.431   129580742.865       -2964.026          34.000    24658392.127   100971978.670       -2309.546          37.000  
G18  25118224.789                        1294.318          29.000    25118218.495   102854903.789        1008.704          36.000  
C16  36732657.778   191276592.535           7.367          48.000    36732643.085   147907135.142           5.882          48.000  
C19  23869364.416   124294043.259       -2235.352          45.000                                                                  
C27  23561073.957   122688695.066        1051.223          46.000                                                                  
C06  36290606.453   188974710.695           4.542          47.000    36290585.971   146127157.926           3.494          49.000  
C09  37368616.741   194588192.234         129.071          44.000    37368598.773   150467866.846          99.425          48.000  
C22  24610356.100   128152583.549         550.787          43.000                                                                  
G26  20920413.676   109937515.153       -1994.598          46.000    20920404.264    85665558.084       -1554.419          45.000  
G27  21810006.358   114612363.540        2903.757          44.000    21809997.966    89308316.910        2262.594          43.000  
G09  23800526.348   125072619.680        2694.824          36.000    23800520.851    97459171.341        2099.353          37.000  
C28  24784863.979   129061285.744       -1147.608          43.000                                                                  
C07  38013744.789   197947541.645         775.429          42.000    38013724.911   153065527.300         599.185          45.000  
C20  25695482.616   133803113.544       -3627.502          43.000                                                                  
C36  23809871.269   123984248.680        1387.677          44.000                                                                  
C37  25102759.332   130716647.688       -2410.860          40.000                                                                  
C10  39145300.025   203839852.328         717.279          38.000    39145284.920   157621915.642         554.313          41.000  
G08  24054696.011   126408287.964        3582.792          38.000    24054694.665    98500052.383        2791.627          40.000  
G29  25434000.845   133656572.205       -3635.595          30.000    25433990.197   104147940.621       -2831.828          30.000  
C30  25044765.949   130414674.781        2747.928          44.000                                                                  
C13  40844717.866   212689156.953       -2426.368          33.000    40844721.809   164464755.979       -1876.084          38.000  
C08                                                                  41758290.537   168143355.622       -1817.865          36.000  
> 2025 11 03 07 46 00.2800000  0 26                     
G04  21361586.437   112255894.312        1005.826          44.000    21361575.544    87472082.525         783.831          47.000  
G16  20184583.493   106070705.635          99.137          46.000                                                                  
G28  23160362.865   121708522.793       -2746.244          39.000    23160352.325    94837757.447       -2139.955          41.000  
G31  21150379.521   111145998.257       -1751.243          46.000    21150367.184    86607215.458       -1364.495          45.000  
G03  24658418.988   129580861.418       -2963.866          34.000    24658414.694   100972071.065       -2309.664          37.000  
G18  25118214.917                        1294.002          29.000    25118208.638   102854863.408        1009.219          36.000  
C16  36732657.729   191276592.232           7.434          47.000    36732643.008   147907134.909           5.836          48.000  
C19  23869381.580   124294132.669       -2235.321          45.000                                                                  
C27  23561065.903   122688653.007        1051.323          46.000                                                                  
C06  36290606.421   188974710.497           4.788          47.000    36290585.973   146127157.781           3.546          49.000  
C09  37368615.742   194588187.073         129.041          44.000    37368597.790   150467862.862          99.494          48.000  
C22  24610351.877   128152561.517         550.712          43.000                                                                  
G26  20920428.853   109937594.931       -1994.513          46.000    20920419.456    85665620.246       -1554.205          45.000  
G27  21809984.258   114612247.391        2903.701          44.000    21809975.872    89308226.396        2262.719          43.000  
G09  23800505.866   125072511.918        2694.299          36.000    23800500.327    97459087.357        2099.463          37.000  
C28  24784872.773   129061331.647       -1147.620          44.000                                                                  
C07  38013738.812   197947510.645         775.193          42.000    38013718.965   153065503.327         599.287          45.000  
C20  25695510.505   133803258.642       -3627.458          43.000                                                                  
C36  23809860.587   123984193.178        1387.531          44.000                                                                  
C37  25102777.848   130716744.123       -2410.937          40.000                                                                  
C10  39145294.509   203839823.645         717.172          38.000    39145279.433   157621893.457         554.450          41.000  
G08  24054668.729   126408144.649        3582.979          38.000    24054667.369    98499940.721        2791.597          40.000  
G29  25434028.501   133656717.465       -3632.509          30.000    25434017.835   104148053.895       -2831.493          30.000  
C30  25044744.855   130414564.855        2748.063          44.000                                                                  
C13  40844736.492   212689253.990       -2426.037          33.000    40844740.443   164464831.019       -1876.104          38.000  
C08                                                                  41758308.604   168143428.311       -1817.401          36.000  
> 2025 11 03 07 46 00.3200000  0 26                     
G04  21361578.777   112255854.072        1005.907          44.000    21361567.878    87472051.171         783.821          47.000  
G16  20184582.712   106070701.670          99.106          46.000                                                                  
G28  23160383.782   121708632.659       -2746.604          39.000    23160373.230    94837843.045       -2140.018          41.000  
G31  21150392.821   111146068.298       -1751.116          46.000    21150380.501    86607270.041       -1364.614          45.000  
G03  24658441.578   129580980.008       -2964.549          34.000    24658437.260   100972163.469       -2309.967          37.000  
G18  25118205.085                        1294.205          29.000    25118198.798   102854823.053        1008.985          36.000  
C16  36732657.688   191276591.922           7.620          47.000    36732642.959   147907134.670           5.927          48.000  
C19  23869398.763   124294222.079       -2235.315          45.000                                                                  
C27  23561057.812   122688610.953        1051.330          45.000                                                                  
C06  36290606.397   188974710.302           4.867          47.000    36290585.941   146127157.637           3.566          49.000  
C09  37368614.716   194588181.920         128.892          44.000    37368596.802   150467858.880          99.508          48.000  
C22  24610347.629   128152539.478         550.853          43.000                                                                  
G26  20920444.009   109937674.708       -1994.464          46.000    20920434.629    85665682.402       -1553.967          44.000  
G27  21809962.169   114612131.238        2903.755          44.000    21809953.758    89308135.878        2262.866          43.000  
G09  23800485.362   125072404.174        2693.640          36.000    23800479.810    97459003.379        2099.414          38.000  
C28  24784881.565   129061377.552       -1147.652          44.000                                                                  
C07  38013732.853   197947479.644         775.036          42.000    38013712.995   153065479.344         599.525          45.000  
C20  25695538.362   133803403.750       -3627.637          43.000                                                                  
C36  23809849.915   123984137.657        1387.848          44.000                                                                  
C37  25102796.372   130716840.543       -2410.682          40.000                                                                  
C10  39145288.990   203839794.949         717.297          38.000    39145273.942   157621871.292         554.212          41.000  
G08  24054641.487   126408001.328        3583.157          38.000    24054640.099    98499829.071        2791.377          40.000  
G29  25434056.107   133656862.698       -3630.992          29.000    25434045.490   104148167.144       -2830.982          29.000  
C30  25044723.740   130414454.927        2748.182          44.000                                                                  
C13  40844755.119   212689351.011       -2425.633          33.000    40844759.092   164464906.045       -1875.774          38.000  
C08                                                                  41758326.647   168143500.994       -1817.065          36.000  
> 2025 11 03 07 46 00.3600000  0 26                     
G04  21361571.105   112255813.830        1005.977          44.000    21361560.233    87472019.821         783.740          47.000  
G16  20184581.935   106070697.701          99.163          46.000                                                                  
G28  23160404.678   121708742.509       -2746.413          39.000    23160394.125    94837928.650       -2140.262          41.000  
G31  21150406.132   111146138.339       -1751.043          46.000    21150393.828    86607324.618       -1364.577          45.000  
G03  24658464.151   129581098.577       -2964.358          34.000    24658459.835   100972255.872       -2310.230          37.000  
G18  25118195.238                        1294.358          29.000    25118188.943   102854782.687        1009.098          36.000  
C16  36732657.673   191276591.613           7.709          47.000    36732642.856   147907134.439           5.794          48.000  
C19  23869415.918   124294311.497       -2235.431          45.000                                                                  
C27  23561049.770   122688568.896        1051.385          45.000                                                                  
C06  36290606.358   188974710.114           4.762          46.000    36290585.926   146127157.493           3.558          49.000  
C09  37368613.728   194588176.762         128.894          44.000    37368595.819   150467854.896          99.553          48.000  
C22  24610343.369   128152517.442         550.884          43.000                                                                  
G26  20920459.202   109937754.498       -1994.690          46.000    20920449.794    85665744.565       -1554.010          44.000  
G27  21809940.080   114612015.090        2903.703          44.000    21809931.630    89308045.350        2263.103          43.000  
G09  23800464.837   125072296.413        2693.744          36.000    23800459.286    97458919.396        2099.548          39.000  
C28  24784890.388   129061423.459       -1147.723          43.000                                                                  
C07  38013726.893   197947448.648         774.881          42.000    38013707.032   153065455.364         599.553          45.000  
C20  25695566.230   133803548.847       -3627.521          43.000                                                                  
C36  23809839.259   123984082.138        1387.976          44.000                                                                  
C37  25102814.915   130716936.983       -2410.919          39.000                                                                  
C10  39145283.478   203839766.291         716.731          38.000    39145268.436   157621849.114         554.313          41.000  
G08  24054614.233   126407858.048        3582.428          38.000    24054612.821    98499717.410        2791.405          40.000  
G29  25434083.739   133657008.008       -3630.906          29.000    25434073.127   104148280.343       -2830.140          29.000  
C30  25044702.640   130414345.000        2748.211          44.000                                                                  
C13  40844773.723   212689448.034       -2425.417          33.000    40844777.699   164464981.085       -1875.910          38.000  
C08                                                                  41758344.697   168143573.679       -1817.016          36.000  
> 2025 11 03 07 46 00.4000000  0 26                     
G04  21361563.433   112255773.596        1005.868          44.000    21361552.585    87471988.465         783.809          47.000  
G16  20184581.168   106070693.731          99.238          46.000                                                                  
G28  23160425.575   121708852.356       -2746.257          37.000    23160415.050    94838014.254       -2140.221          40.000  
G31  21150419.443   111146208.380       -1751.000          46.000    21150407.177    86607379.191       -1364.426          45.000  
G03  24658486.706   129581217.155       -2964.405          34.000    24658482.424   100972348.246       -2309.720          37.000  
G18  25118185.404                        1294.488          29.000    25118179.108   102854742.346        1008.737          36.000  
C16  36732657.594   191276591.314           7.555          46.000    36732642.807   147907134.210           5.713          48.000  
C19  23869433.111   124294400.920       -2235.608          45.000                                                                  
C27  23561041.664   122688526.841        1051.348          44.000                                                                  
C06  36290606.316   188974709.933           4.585          46.000    36290585.907   146127157.357           3.428          49.000  
C09  37368612.742   194588171.610         128.792          44.000    37368594.814   150467850.906          99.681          47.000  
C22  24610339.140   128152495.419         550.668          43.000                                                                  
G26  20920474.400   109937834.286       -1994.757          46.000    20920464.982    85665806.733       -1554.169          44.000  
G27  21809917.970   114611898.937        2903.764          45.000    21809909.523    89307954.852        2262.676          43.000  
G09  23800444.306   125072188.642        2694.067          36.000    23800438.769    97458835.405        2099.762          39.000  
C28  24784899.213   129061469.367       -1147.712          43.000                                                                  
C07  38013720.938   197947417.639         775.053          42.000    38013701.089   153065431.380         599.606          45.000  
C20  25695594.107   133803693.949       -3627.540          43.000                                                                  
C36  23809828.609   123984026.625        1387.909          44.000                                                                  
C37  25102833.429   130717033.419       -2410.927          39.000                                                                  
C10  39145277.965   203839737.624         716.595          38.000    39145262.912   157621826.936         554.396          42.000  
G08  24054586.969   126407714.746        3582.355          38.000    24054585.533    98499605.746        2791.480          39.000  
G29  25434111.412                       -3631.783          30.000    25434100.826   104148393.600       -2830.770          29.000  
C30  25044681.535   130414235.085        2747.975          44.000                                                                  
C13  40844792.357   212689545.102       -2426.403          33.000    40844796.339   164465056.143       -1876.377          38.000  
C08                                                                  41758362.749   168143646.397       -1817.706          36.000  
> 2025 11 03 07 46 00.4400000  0 26                     
G04  21361555.787   112255733.366        1005.779          44.000    21361544.928    87471957.119         783.705          47.000  
G16  20184580.412   106070689.773          99.025          46.000                                                                  
G28  23160446.488   121708962.201       -2746.134          37.000    23160435.951    94838099.866       -2140.281          40.000  
G31  21150432.785   111146278.430       -1751.172          45.000    21150420.503    86607433.787       -1364.761          45.000  
G03  24658509.253   129581335.718       -2964.245          34.000    24658504.978   100972440.635       -2309.665          37.000  
G18  25118175.530                        1295.009          29.000    25118169.243   102854701.968        1009.174          36.000  
C16  36732657.536   191276591.028           7.223          45.000    36732642.758   147907133.985           5.570          48.000  
C19  23869450.257   124294490.346       -2235.730          45.000                                                                  
C27  23561033.570   122688484.797        1051.132          43.000                                                                  
C06  36290606.276   188974709.757           4.379          46.000    36290585.888   146127157.218           3.425          49.000  
C09  37368611.761   194588166.457         128.743          44.000    37368593.827   150467846.918          99.730          47.000  
C22  24610334.941   128152473.385         550.751          43.000                                                                  
G26  20920489.583   109937914.069       -1994.653          46.000    20920480.148    85665868.898       -1554.199          44.000  
G27  21809895.841   114611782.779        2903.881          45.000    21809887.429    89307864.352        2262.474          43.000  
G09  23800423.776   125072080.837        2694.910          36.000    23800418.260    97458751.413        2099.884          39.000  
C28  24784908.047   129061515.246       -1147.179          42.000                                                                  
C07  38013714.990   197947386.629         775.211          42.000    38013695.106   153065407.391         599.718          46.000  
C20  25695621.997   133803839.052       -3627.565          43.000                                                                  
C36  23809817.952   123983971.100        1388.110          44.000                                                                  
C37  25102851.960   130717129.838       -2410.642          38.000                                                                  
C10  39145272.464   203839708.960         716.489          38.000    39145257.390   157621804.728         554.963          42.000  
G08  24054559.695   126407571.454        3582.217          38.000    24054558.251    98499494.081        2791.568          40.000  
G29  25434139.091                       -3633.456          30.000    25434128.513   104148506.936       -2832.583          30.000  
C30  25044660.422   130414125.175        2747.744          44.000                                                                  
C13  40844810.997   212689642.162       -2426.801          33.000    40844814.965   164465131.178       -1876.146          38.000  
C08                                                                  41758380.806   168143719.100       -1817.749          36.000  
> 2025 11 03 07 46 00.4800000  0 26                     
G04  21361548.129   112255693.126        1005.874          44.000    21361537.259    87471925.765         783.795          47.000  
G16  20184579.654   106070685.811          98.970          45.000                                                                  
G28  23160467.408   121709072.049       -2746.122          35.000    23160456.850    94838185.468       -2140.162          38.000  
G31  21150446.125   111146348.485       -1751.355          45.000    21150433.844    86607488.368       -1364.675          45.000  
G03  24658531.804   129581454.283       -2964.232          34.000    24658527.548   100972533.026       -2309.715          37.000  
G18  25118165.677                        1295.663          29.000    25118159.362   102854661.597        1009.338          36.000  
C16  36732657.476   191276590.753           6.867          45.000    36732642.698   147907133.749           5.750          48.000  
C19  23869467.426   124294579.772       -2235.742          45.000                                                                  
C27  23561025.514   122688442.754        1050.941          42.000                                                                  
C06  36290606.235   188974709.584           4.285          45.000    36290585.858   146127157.078           3.427          49.000  
C09  37368610.755   194588161.299         128.822          43.000    37368592.858   150467842.928          99.792          47.000  
C22  24610330.708   128152451.336         551.072          44.000                                                                  
G26  20920504.767   109937993.838       -1994.336          46.000    20920495.303    85665931.075       -1554.419          44.000  
G27  21809873.714   114611666.608        2904.177          45.000    21809865.346    89307773.864        2262.197          43.000  
G09  23800403.244   125071973.015        2695.593          38.000    23800397.753    97458667.413        2100.024          39.000  
C28  24784916.868   129061561.127       -1146.986          41.000                                                                  
C07  38013709.028   197947355.602         775.612          42.000    38013689.149   153065383.404         599.721          46.000  
C20  25695649.841   133803984.163       -3627.744          43.000                                                                  
C36  23809807.292   123983915.576        1388.147          44.000                                                                  
C37  25102870.476   130717226.229       -2409.955          38.000                                                                  
C10  39145266.966   203839680.267         716.984          38.000    39145251.866   157621782.521         555.214          42.000  
G08  24054532.437   126407428.184        3581.833          38.000    24054530.977    98499382.422        2791.462          39.000  
G29  25434166.808                       -3635.317          30.000    25434156.206   104148620.290       -2833.784          30.000  
C30  25044639.316   130414015.261        2747.766          44.000                                                                  
C13  40844829.662   212689739.238       -2427.044          33.000    40844833.597   164465206.212       -1875.950          38.000  
C08                                                                  41758398.835   168143791.784       -1817.389          36.000  
> 2025 11 03 07 46 00.5200000  0 26                     
G04  21361540.472   112255652.884        1005.998          44.000    21361529.619    87471894.418         783.701          46.000  
G16  20184578.884   106070681.850          98.965          45.000                                                                  
G28  23160488.289   121709181.935       -2746.864          34.000    23160477.753    94838271.060       -2139.888          37.000  
G31  21150459.459   111146418.541       -1751.468          45.000    21150447.168    86607542.939       -1364.460          45.000  
G03  24658554.382   129581572.846       -2964.133          34.000    24658550.103   100972625.414       -2309.734          37.000  
G18  25118155.806                        1295.737          29.000    25118149.525   102854621.239        1009.219          36.000  
C16  36732657.434   191276590.467           6.949          45.000    36732642.644   147907133.507           5.977          48.000  
C19  23869484.596   124294669.188       -2235.541          45.000                                                                  
C27  23561017.424   122688400.709        1050.968          41.000                                                                  
C06  36290606.239   188974709.395           4.495          45.000    36290585.831   146127156.922           3.752          49.000  
C09  37368609.772   194588156.147         128.765          43.000    37368591.856   150467838.929          99.975          47.000  
C22  24610326.472   128152429.284         551.305          44.000                                                                  
G26  20920519.945   109938073.609       -1994.226          45.000    20920510.443    85665993.243       -1554.340          44.000  
G27  21809851.606   114611550.439        2904.277          45.000    21809843.232    89307683.362        2262.311          42.000  
G09  23800382.705   125071865.193        2695.801          38.000    23800377.239    97458583.401        2100.256          39.000  
C28  24784925.678   129061606.999       -1146.708          40.000                                                                  
C07  38013703.072   197947324.590         775.518          42.000    38013683.198   153065359.406         599.883          46.000  
C20  25695677.684   133804129.271       -3627.739          43.000                                                                  
C36  23809796.615   123983860.051        1388.153          44.000                                                                  
C37  25102889.001   130717322.605       -2409.399          38.000                                                                  
C10  39145261.469   203839651.543         717.811          38.000    39145246.323   157621760.312         555.335          42.000  
G08  24054505.164   126407284.853        3582.738          38.000    24054503.698    98499270.741        2791.837          39.000  
G29  25434194.552                       -3636.827          34.000    25434183.898   104148733.622       -2833.912          34.000  
C30  25044618.206   130413905.339        2747.913          44.000                                                                  
C13  40844848.319   212689836.317       -2427.238          33.000    40844852.228   164465281.233       -1875.599          38.000  
C08                                                                  41758416.878   168143864.473       -1817.261          36.000  
> 2025 11 03 07 46 00.5600000  0 26                     
G04  21361532.844   112255612.628        1006.284          44.000    21361521.976    87471863.058         783.895          46.000  
G16  20184578.119   106070677.898          98.817          44.000                                                                  
G28  23160509.177   121709291.813       -2747.089          31.000    23160498.653    94838356.667       -2139.989          37.000  
G31  21150472.799   111146488.581       -1751.200          45.000    21150460.477    86607597.520       -1364.520          44.000  
G03  24658576.939   129581691.398       -2963.847          35.000    24658572.665   100972717.791       -2309.509          37.000  
G18  25118145.942                        1296.692          29.000    25118139.661   102854580.838        1009.842          36.000  
C16  36732657.375   191276590.155           7.484          45.000    36732642.525   147907133.258           6.197          47.000  
C19  23869501.762   124294758.594       -2235.199          45.000                                                                  
C27  23561009.344   122688358.662        1051.142          41.000                                                                  
C06  36290606.213   188974709.209           4.607          45.000    36290585.820   146127156.766           3.909          48.000  
C09  37368608.791   194588150.995         128.740          42.000    37368590.861   150467834.942          99.789          47.000  
C22  24610322.248   128152407.215         551.706          44.000                                                                  
G26  20920535.137   109938153.383       -1994.287          45.000    20920525.615    85666055.407       -1554.218          44.000  
G27  21809829.502   114611434.287        2903.976          44.000    21809821.131    89307592.860        2262.379          42.000  
G09  23800362.183   125071757.390        2695.471          38.000    23800356.740    97458499.403        2100.122          39.000  
C28  24784934.496   129061652.882       -1146.821          39.000                                                                  
C07  38013697.105   197947293.565         775.647          42.000    38013677.232   153065335.410         599.917          46.000  
C20  25695705.563   133804274.365       -3627.452          43.000                                                                  
C36  23809785.922   123983804.534        1387.995          44.000                                                                  
C37  25102907.492   130717418.981       -2409.136          35.000                                                                  
C10  39145255.928   203839622.823         718.115          38.000    39145240.814   157621738.124         554.999          42.000  
G08  24054477.880   126407141.509        3583.476          38.000    24054476.414    98499159.059        2792.038          40.000  
G29  25434222.248                       -3636.228          36.000    25434211.577   104148846.924       -2833.240          34.000  
C30  25044597.109   130413795.395        2748.408          44.000                                                                  
C13  40844866.934   212689933.329       -2425.903          33.000    40844870.850   164465356.271       -1875.800          38.000  
C08                                                                  41758434.917   168143937.151       -1816.998          36.000  
> 2025 11 03 07 46 00.6000000  0 26                     
G04  21361525.196   112255572.371        1006.415          44.000    21361514.328    87471831.697         784.023          46.000  
G16  20184577.360   106070673.941          98.825          44.000                                                                  
G28  23160530.104   121709401.646       -2746.243          31.000    23160519.542    94838442.243       -2139.536          36.000  
G31  21150486.116   111146558.624       -1751.101          45.000    21150473.790    86607652.105       -1364.656          44.000  
G03  24658599.523   129581809.955       -2963.747          35.000    24658595.219   100972810.148       -2309.026          37.000  
G18  25118136.037                        1297.242          29.000    25118129.782   102854540.452        1009.753          36.000  
C16  36732657.328   191276589.840           7.819          46.000    36732642.445   147907133.013           6.201          47.000  
C19  23869518.915   124294848.001       -2235.101          45.000                                                                  
C27  23561001.249   122688316.603        1051.413          41.000                                                                  
C06  36290606.196   188974709.023           4.636          45.000    36290585.808   146127156.611           3.937          48.000  
C09  37368607.818   194588145.837         128.878          42.000    37368589.868   150467830.956          99.675          46.000  
C22  24610318.000   128152385.163         551.517          44.000                                                                  
G26  20920550.319   109938233.153       -1994.269          44.000    20920540.813    85666117.560       -1553.912          43.000  
G27  21809807.391   114611318.132        2903.861          44.000    21809799.016    89307502.345        2262.694          42.000  
G09  23800341.651   125071649.609        2694.830          38.000    23800336.224    97458415.431        2099.555          39.000  
C28  24784943.306   129061698.751       -1146.741          37.000                                                                  
C07  38013691.168   197947262.542         775.631          42.000    38013671.245   153065311.421         599.796          46.000  
C20  25695733.424   133804419.430       -3626.803          43.000                                                                  
C36  23809775.250   123983749.011        1388.013          44.000                                                                  
C37  25102925.997   130717515.375       -2409.406          35.000                                                                  
C10  39145250.396   203839594.114         717.933          38.000    39145235.296   157621715.938         554.719          42.000  
G08  24054450.588   126406998.162        3583.780          40.000    24054449.149    98499047.391        2791.902          40.000  
G29  25434249.893                       -3635.443          36.000    25434239.282   104148960.236       -2832.994          34.000  
C30  25044575.998   130413685.460        2748.501          45.000                                                                  
C13  40844885.542   212690030.332       -2425.085          33.000    40844889.508   164465431.293       -1875.651          38.000  
C08                                                                  41758452.982   168144009.832       -1816.925          36.000  
> 2025 11 03 07 46 00.6400000  0 26                     
G04  21361517.549   112255532.135        1006.124          43.000    21361506.653    87471800.343         783.936          46.000  
G16  20184576.629   106070669.982          98.831          44.000                                                                  
G28  23160550.973   121709511.471       -2745.669          31.000    23160540.445    94838527.845       -2139.940          34.000  
G31  21150499.452   111146628.653       -1750.785          45.000    21150487.099    86607706.668       -1364.305          44.000  
G03  24658622.095   129581928.506       -2963.699          35.000    24658617.757   100972902.533       -2309.336          37.000  
G18  25118126.157                        1297.022          29.000    25118119.936   102854500.090        1009.261          35.000  
C16  36732657.286   191276589.521           8.059          46.000    36732642.354   147907132.780           5.951          47.000  
C19  23869536.072   124294937.410       -2235.114          45.000                                                                  
C27  23560993.175   122688274.528        1051.880          40.000                                                                  
C06  36290606.165   188974708.817           4.994          45.000    36290585.737   146127156.462           3.826          48.000  
C09  37368606.819   194588140.681         128.889          41.000    37368588.868   150467826.963          99.727          46.000  
C22  24610313.781   128152363.123         551.159          44.000                                                                  
G26  20920565.525   109938312.934       -1994.458          44.000    20920556.004    85666179.716       -1553.845          43.000  
G27  21809785.266   114611201.976        2903.848          43.000    21809776.902    89307411.817        2263.084          42.000  
G09  23800321.147   125071541.816        2694.714          38.000    23800315.703    97458331.448        2099.439          39.000  
C28  24784952.128   129061744.624       -1146.845          37.000                                                                  
C07  38013685.204   197947231.521         775.561          42.000    38013665.255   153065287.429         599.745          45.000  
C20  25695761.249   133804564.521       -3627.006          43.000                                                                  
C36  23809764.604   123983693.488        1388.037          43.000                                                                  
C37  25102944.500   130717611.719       -2408.741          35.000                                                                  
C10  39145244.914   203839565.423         717.533          38.000    39145229.779   157621693.758         554.411          42.000  
G08  24054423.314   126406854.856        3583.107          40.000    24054421.856    98498935.705        2792.081          40.000  
G29  25434277.529                       -3634.896          36.000    25434266.971   104149073.538       -2832.697          34.000  
C30  25044554.869   130413575.528        2748.433          45.000                                                                  
C13  40844904.146   212690127.346       -2425.000          33.000    40844908.150   164465506.324       -1875.800          38.000  
C08                                                                  41758471.044   168144082.527       -1817.145          36.000  
> 2025 11 03 07 46 00.6800000  0 26                     
G04  21361509.894   112255491.904        1005.815          43.000    21361499.012    87471768.996         783.737          46.000  
G16  20184575.871   106070666.006          99.173          44.000                                                                  
G28  23160571.854   121709621.305       -2745.798          31.000    23160561.361    94838613.447       -2140.025          34.000  
G31  21150512.764   111146698.680       -1750.614          44.000    21150500.443    86607761.228       -1364.053          44.000  
G03  24658644.670   129582047.072       -2963.946          35.000    24658640.326   100972994.952       -2310.175          37.000  
G18  25118116.294                        1296.030          29.000    25118110.069   102854459.706        1009.377          35.000  
C16  36732657.234   191276589.201           8.130          46.000    36732642.266   147907132.532           6.091          47.000  
C19  23869553.223   124295026.820       -2235.187          45.000                                                                  
C27  23560985.080   122688232.455        1052.013          40.000                                                                  
C06  36290606.125   188974708.612           5.179          45.000    36290585.702   146127156.307           3.838          47.000  
C09  37368605.831   194588135.520         129.043          41.000    37368587.860   150467822.966          99.837          46.000  
C22  24610309.540   128152341.094         550.773          44.000                                                                  
G26  20920580.676   109938392.712       -1994.507          44.000    20920571.196    85666241.872       -1553.833          43.000  
G27  21809763.176   114611085.829        2903.673          43.000    21809754.790    89307321.302        2262.977          41.000  
G09  23800300.628   125071434.028        2694.635          38.000    23800295.194    97458247.472        2099.329          37.000  
C28  24784960.955   129061790.535       -1147.457          37.000                                                                  
C07  38013679.255   197947200.501         775.536          42.000    38013659.310   153065263.455         599.420          45.000  
C20  25695789.100   133804709.605       -3627.062          44.000                                                                  
C36  23809753.956   123983637.956        1388.220          43.000                                                                  
C37  25102963.003   130717708.101       -2409.110          35.000                                                                  
C10  39145239.429   203839536.740         717.156          38.000    39145224.266   157621671.568         554.545          41.000  
G08  24054396.045   126406711.544        3582.868          40.000    24054394.581    98498824.025        2792.066          40.000  
G29  25434305.194                       -3634.749          36.000    25434294.641   104149186.801       -2831.874          34.000  
C30  25044533.729   130413465.593        2748.422          45.000                                                                  
C13  40844922.778   212690224.378       -2425.419          33.000    40844926.776   164465581.350       -1875.864          38.000  
C08                                                                  41758489.087   168144155.203       -1816.974          36.000  
> 2025 11 03 07 46 00.7200000  0 26                     
G04  21361502.235   112255451.668        1005.789          43.000    21361491.346    87471737.642         783.738          45.000  
G16  20184575.148   106070662.046          99.078          43.000                                                                  
G28  23160592.792   121709731.111       -2745.289          31.000    23160582.252    94838699.006       -2139.353          34.000  
G31  21150526.099   111146768.706       -1750.573          44.000    21150513.779    86607815.793       -1364.026          44.000  
G03  24658667.238   129582165.627       -2963.906          35.000    24658662.881   100973087.329       -2309.865          37.000  
G18  25118106.453                        1295.284          29.000    25118100.235   102854419.357        1008.932          35.000  
C16  36732657.180   191276588.886           8.021          46.000    36732642.207   147907132.284           6.147          47.000  
C19  23869570.395   124295116.230       -2235.229          45.000                                                                  
C27  23560977.001   122688190.385        1051.899          40.000                                                                  
C06  36290606.096   188974708.418           5.034          45.000    36290585.667   146127156.155           3.817          47.000  
C09  37368604.852   194588130.344         129.373          41.000    37368586.887   150467818.971          99.847          45.000  
C22  24610305.312   128152319.056         550.788          44.000                                                                  
G26  20920595.837   109938472.485       -1994.366          43.000    20920586.381    85666304.038       -1554.053          43.000  
G27  21809741.077   114610969.665        2903.928          43.000    21809732.704    89307230.797        2262.722          41.000  
G09  23800280.123   125071326.233        2694.781          38.000    23800274.696    97458163.472        2099.756          37.000  
C28  24784969.764   129061836.418       -1147.318          37.000                                                                  
C07  38013673.319   197947169.491         775.310          42.000    38013653.338   153065239.481         599.287          44.000  
C20  25695816.951   133804854.692       -3627.139          44.000                                                                  
C36  23809743.279   123983582.437        1388.092          43.000                                                                  
C37  25102981.529   130717804.516       -2410.082          35.000                                                                  
C10  39145233.932   203839508.039         717.311          38.000    39145218.756   157621649.378         554.564          41.000  
G08  24054368.765   126406568.227        3582.820          40.000    24054367.285    98498712.345        2792.057          40.000  
G29  25434332.839                3      -3634.570          36.000    25434322.303   104149300.101       -2832.121          34.000  
C30  25044512.613   130413355.666        2748.266          45.000                                                                  
C13  40844941.398   212690321.411       -2425.619          33.000    40844945.413   164465656.381       -1875.886          38.000  
C08                                                                  41758507.116   168144227.892       -1817.157          36.000  
> 2025 11 03 07 46 00.7600000  0 26                     
G04  21361494.568   112255411.424        1005.955          42.000    21361483.672    87471706.287         783.788          45.000  
G16  20184574.385   106070658.078          99.158          43.000                                                                  
G28  23160613.705   121709840.876       -2744.299          31.000    23160603.121    94838784.550       -2138.710          34.000  
G31  21150539.425   111146838.732       -1750.575          44.000    21150527.125    86607870.366       -1364.195          43.000  
G03  24658689.784   129582284.178       -2963.870          35.000    24658685.441   100973179.715       -2309.802          37.000  
G18  25118096.626                        1294.568          28.000    25118090.371   102854379.000        1008.758          35.000  
C16  36732657.135   191276588.562           8.073          46.000    36732642.136   147907132.031           6.297          47.000  
C19  23869587.571   124295205.637       -2235.193          45.000                                                                  
C27  23560968.941   122688148.314        1051.856          40.000                                                                  
C06  36290606.080   188974708.217           5.031          45.000    36290585.607   146127156.000           3.837          47.000  
C09  37368603.859   194588125.168         129.511          41.000    37368585.883   150467814.972          99.929          45.000  
C22  24610301.083   128152296.999         551.133          44.000                                                                  
G26  20920611.006   109938552.243       -1994.073          43.000    20920601.545    85666366.194       -1553.949          43.000  
G27  21809718.956   114610853.495        2904.145          43.000    21809710.593    89307140.292        2262.605          41.000  
G09  23800259.564   125071218.437        2694.885          38.000    23800254.191    97458079.493        2099.585          37.000  
C28  24784978.598   129061882.307       -1147.378          37.000                                                                  
C07  38013667.394   197947138.468         775.437          42.000    38013647.392   153065215.496         599.454          44.000  
C20  25695844.818   133804999.793       -3627.404          44.000                                                                  
C36  23809732.626   123983526.907        1388.190          43.000                                                                  
C37  25103000.050   130717900.925       -2410.487          35.000                                                                  
C10  39145228.445   203839479.342         717.313          38.000    39145213.228   157621627.180         554.746          41.000  
G08  24054341.476   126406424.912        3582.810          40.000    24054340.004    98498600.664        2792.070          40.000  
G29  25434360.489                2      -3634.537          36.000    25434349.948   104149413.404       -2832.377          34.000  
C30  25044491.498   130413245.732        2748.293          45.000                                                                  
C13  40844960.029   212690418.434       -2425.658          34.000    40844964.040   164465731.405       -1875.720          38.000  
C08                                                                  41758525.155   168144300.575       -1817.194          36.000  
> 2025 11 03 07 46 00.8000000  0 26                     
G04  21361486.914   112255371.187        1005.929          42.000    21361476.044    87471674.938         783.739          45.000  
G16  20184573.624   106070654.105          99.276          43.000                                                                  
G28  23160634.592   121709950.727       -2745.632          31.000    23160624.007    94838870.159       -2139.657          34.000  
G31  21150552.773   111146908.764       -1750.721          44.000    21150540.455    86607924.918       -1363.936          43.000  
G03  24658712.367   129582402.746       -2964.120          35.000    24658708.005   100973272.071       -2309.080          37.000  
G18  25118086.772                        1294.240          28.000    25118080.515   102854338.641        1008.810          35.000  
C16  36732657.066   191276588.241           8.042          46.000    36732642.047   147907131.791           6.143          47.000  
C19  23869604.718   124295295.050       -2235.297          45.000                                                                  
C27  23560960.846   122688106.233        1051.979          40.000                                                                  
C06  36290606.042   188974708.015           5.040          45.000    36290585.593   146127155.839           3.954          47.000  
C09  37368602.861   194588120.004         129.265          41.000    37368584.897   150467810.973          99.958          45.000  
C22  24610296.841   128152274.958         551.071          43.000                                                                  
G26  20920626.173   109938632.001       -1993.927          43.000    20920616.731    85666428.355       -1554.034          43.000  
G27  21809696.831   114610737.331        2904.151          43.000    21809688.486    89307049.785        2262.569          41.000  
G09  23800239.043   125071110.671        2694.373          36.000    23800233.691    97457995.513        2099.500          37.000  
C28  24784987.427   129061928.197       -1147.352          37.000                                                                  
C07  38013661.438   197947107.446         775.436          42.000    38013641.454   153065191.504         599.655          44.000  
C20  25695872.683   133805144.882       -3627.357          44.000                                                                  
C36  23809721.963   123983471.374        1388.300          42.000                                                                  
C37  25103018.598   130717997.307       -2409.974          35.000                                                                  
C10  39145222.934   203839450.641         717.417          39.000    39145207.722   157621604.989         554.794          41.000  
G08  24054314.223   126406281.601        3582.790          40.000    24054312.727    98498489.003        2791.695          40.000  
G29  25434388.153                2      -3634.904          36.000    25434377.608   104149526.676       -2832.008          34.000  
C30  25044470.412   130413135.794        2748.349          45.000                                                                  
C13  40844978.658   212690515.447       -2425.514          34.000    40844982.688   164465806.436       -1875.784          38.000  
C08                                                                  41758543.205   168144373.253       -1817.102          36.000  
> 2025 11 03 07 46 00.8400000  0 26                     
G04  21361479.261   112255330.954        1005.852          42.000    21361468.392    87471643.580         783.882          45.000  
G16  20184572.870   106070650.136          99.262          43.000                                                                  
G28  23160655.501   121710060.558       -2745.913          30.000    23160644.922    94838955.760       -2140.072          34.000  
G31  21150566.104   111146978.801       -1750.901          44.000    21150553.788    86607979.495       -1364.236          43.000  
G03  24658734.930   129582521.313       -2964.293          35.000    24658730.543   100973364.425       -2308.766          37.000  
G18  25118076.922                        1294.483          28.000    25118070.645   102854298.235        1009.719          35.000  
C16  36732657.007   191276587.924           7.944          46.000    36732641.988   147907131.543           6.141          46.000  
C19  23869621.885   124295384.459       -2235.229          44.000                                                                  
C27  23560952.760   122688064.159        1051.923          40.000                                                                  
C06  36290605.992   188974707.814           5.034          45.000    36290585.575   146127155.687           3.859          47.000  
C09  37368601.845   194588114.843         129.092          41.000    37368583.913   150467806.984          99.790          45.000  
C22  24610292.612   128152252.910         551.121          43.000                                                                  
G26  20920641.367   109938711.769       -1994.104          43.000    20920631.916    85666490.504       -1553.845          43.000  
G27  21809674.752   114610621.174        2903.996          43.000    21809666.385    89306959.276        2262.628          41.000  
G09  23800218.531   125071002.875        2694.714          36.000    23800213.170    97457911.516        2099.719          37.000  
C28  24784996.259   129061974.103       -1147.566          37.000                                                                  
C07  38013655.478   197947076.425         775.474          42.000    38013635.521   153065167.514         599.741          44.000  
C20  25695900.544   133805289.972       -3627.330          44.000                                                                  
C36  23809711.294   123983415.845        1388.263          42.000                                                                  
C37  25103037.118   130718093.686       -2409.601          35.000                                                                  
C10  39145217.422   203839421.933         717.628          39.000    39145202.211   157621582.791         554.888          41.000  
G08  24054286.943   126406138.276        3582.999          40.000    24054285.454    98498377.338        2791.550          40.000  
G29  25434415.816                2      -3635.136          36.000    25434405.270   104149639.991       -2832.616          34.000  
C30  25044449.301   130413025.860        2748.343          45.000                                                                  
C13  40844997.290   212690612.463       -2425.433          34.000    40845001.319   164465881.453       -1875.539          38.000  
C08                                                                  41758561.261   168144445.937       -1817.053          36.000  
> 2025 11 03 07 46 00.8800000  0 26                     
G04  21361471.598   112255290.701        1006.198          42.000    21361460.705    87471612.225         783.889          45.000  
G16  20184572.114   106070646.167          99.224          43.000                                                                  
G28  23160676.411   121710170.423       -2746.459          30.000    23160665.821    94839041.370       -2140.409          34.000  
G31  21150579.425   111147048.829       -1750.822          43.000    21150567.112    86608034.065       -1364.314          43.000  
G03  24658757.495   129582639.858       -2963.918          35.000    24658753.093   100973456.808       -2309.226          37.000  
G18  25118067.055                        1294.585          28.000    25118060.787   102854257.889        1009.108          35.000  
C16  36732656.979   191276587.600           7.996          46.000    36732641.923   147907131.287           6.305          46.000  
C19  23869639.061   124295473.864       -2235.132          44.000                                                                  
C27  23560944.677   122688022.100        1051.577          40.000                                                                  
C06  36290605.987   188974707.610           5.079          45.000    36290585.557   146127155.530           3.892          47.000  
C09  37368600.861   194588109.670         129.191          41.000    37368582.920   150467802.981          99.952          45.000  
C22  24610288.382   128152230.863         551.133          43.000                                                                  
G26  20920656.549   109938791.529       -1994.043          43.000    20920647.073    85666552.653       -1553.735          43.000  
G27  21809652.649   114610505.018        2903.886          43.000    21809644.292    89306868.760        2262.797          41.000  
G09  23800198.001   125070895.068        2695.117          36.000    23800192.654    97457827.505        2100.079          37.000  
C28  24785005.082   129062020.009       -1147.683          37.000                                                                  
C07  38013649.503   197947045.405         775.488          42.000    38013629.582   153065143.514         599.927          44.000  
C20  25695928.421   133805435.038       -3626.853          44.000                                                                  
C36  23809700.650   123983360.317        1388.263          42.000                                                                  
C37  25103055.629   130718190.076       -2409.574          35.000                                                                  
C10  39145211.895   203839393.222         717.762          39.000    39145196.720   157621560.603         554.833          40.000  
G08  24054259.666   126405994.948        3583.175          40.000    24054258.173    98498265.633        2792.219          40.000  
G29  25434443.498   133658901.9533      -3635.045          36.000    25434432.957   104149753.297       -2832.647          34.000  
C30  25044428.158   130412915.917        2748.483          45.000                                                                  
C13  40845015.926   212690709.474       -2425.257          34.000    40845019.982   164465956.459       -1875.189          38.000  
C08                                                                  41758579.302   168144518.593       -1816.595          36.000  
> 2025 11 03 07 46 00.9200000  0 26                     
G04  21361463.937   112255250.453        1006.232          42.000    21361453.056    87471580.867         783.882          45.000  
G16  20184571.367   106070642.194          99.267          42.000                                                                  
G28  23160697.307   121710280.270       -2746.591          30.000    23160686.703    94839126.945       -2139.800          34.000  
G31  21150592.742   111147118.844       -1750.570          43.000    21150580.416    86608088.631       -1364.239          43.000  
G03  24658780.053   129582758.397       -2963.630          36.000    24658775.630   100973549.195       -2309.572          37.000  
G18  25118057.188                        1294.876          28.000    25118050.938   102854217.516        1009.228          35.000  
C16  36732656.935   191276587.269           8.159          46.000    36732641.838   147907131.037           6.308          46.000  
C19  23869656.234   124295563.264       -2235.022          44.000                                                                  
C27  23560936.585   122687980.045        1051.369          39.000                                                                  
C06  36290605.970   188974707.394           5.314          45.000    36290585.508   146127155.360           4.161          47.000  
C09  37368599.864   194588104.501         129.256          41.000    37368581.919   150467798.983          99.965          45.000  
C22  24610284.167   128152208.808         551.267          43.000                                                                  
G26  20920671.752   109938871.288       -1994.006          43.000    20920662.243    85666614.796       -1553.564          43.000  
G27  21809630.561   114610388.852        2904.042          43.000    21809622.184    89306778.248        2262.806          41.000  
G09  23800177.473   125070787.263        2695.148          36.000    23800172.156    97457743.510        2100.031          37.000  
C28  24785013.903   129062065.921       -1147.852          37.000                                                                  
C07  38013643.526   197947014.377         775.683          42.000    38013623.588   153065119.519         599.929          44.000  
C20  25695956.309   133805580.117       -3626.880          44.000                                                                  
C36  23809690.011   123983304.784        1388.330          42.000                                                                  
C37  25103074.149   130718286.458       -2409.428          35.000                                                                  
C10  39145206.405   203839364.514         717.765          39.000    39145191.215   157621538.414         554.776          40.000  
G08  24054232.380   126405851.601        3583.611          40.000    24054230.904    98498153.937        2792.417          40.000  
G29  25434471.129   133659047.3362      -3634.664          36.000    25434460.613   104149866.601       -2832.601          35.000  
C30  25044407.052   130412805.964        2748.739          45.000                                                                  
C13  40845034.554   212690806.498       -2425.460          34.000    40845038.615   164466031.473       -1875.188          38.000  
C08                                                                  41758597.336   168144591.271       -1816.803          36.000  
> 2025 11 03 07 46 00.9600000  0 26                     
G04  21361456.270   112255210.201        1006.267          43.000    21361445.384    87471549.497         784.124          45.000  
G16  20184570.624   106070638.217          99.385          43.000                                                                  
G28  23160718.201   121710390.118       -2746.630          31.000    23160707.612    94839212.534       -2139.688          33.000  
G31  21150606.053   111147188.855       -1750.346          43.000    21150593.731    86608143.188       -1364.026          42.000  
G03  24658802.620   129582876.931       -2963.331          36.000    24658798.182   100973641.590       -2309.945          37.000  
G18  25118047.324                        1295.171          28.000    25118041.080   102854177.147        1009.199          35.000  
C16  36732656.896   191276586.939           8.228          46.000    36732641.758   147907130.777           6.470          46.000  
C19  23869673.427   124295652.667       -2235.065          44.000                                                                  
C27  23560928.484   122687937.983        1051.327          39.000                                                                  
C06  36290605.922   188974707.174           5.498          45.000    36290585.456   146127155.190           4.265          47.000  
C09  37368598.873   194588099.310         129.652          41.000    37368580.899   150467794.972         100.200          45.000  
C22  24610279.957   128152186.759         551.238          42.000                                                                  
G26  20920686.941   109938951.052       -1994.061          44.000    20920677.441    85666676.950       -1553.735          43.000  
G27  21809608.470   114610272.694        2903.981          44.000    21809600.069    89306687.725        2263.007          41.000  
G09  23800156.980   125070679.451        2695.349          36.000    23800151.646    97457659.514        2100.006          37.000  
C28  24785022.713   129062111.794       -1147.212          37.000                                                                  
C07  38013637.525   197946983.335         775.974          42.000    38013617.621   153065095.530         599.789          44.000  
C20  25695984.173   133805725.191       -3626.827          44.000                                                                  
C36  23809679.340   123983249.250        1388.355          42.000                                                                  
C37  25103092.681   130718382.855       -2409.701          35.000                                                                  
C10  39145200.929   203839335.792         718.013          39.000    39145185.689   157621516.210         555.017          40.000  
G08  24054205.120   126405708.265        3583.582          40.000    24054203.626    98498042.257        2792.200          40.000  
G29  25434498.789   133659192.7292      -3634.655          37.000    25434488.282   104149979.883       -2832.190          35.000  
C30  25044385.931   130412696.016        2748.743          45.000                                                                  
C13  40845053.172   212690903.494       -2425.077          34.000    40845057.240   164466106.475       -1874.983          38.000  
C08                                                                  41758615.381   168144663.950       -1816.882          36.000  
> 2025 11 03 07 46 01.0000000  0 26                     
G04  21361448.613   112255169.961        1006.107          42.000    21361437.725    87471518.128         784.244          45.000  
G16  20184569.859   106070634.241          99.459          43.000                                                                  
G28  23160739.090   121710499.950       -2746.399          31.000    23160728.483    94839298.084       -2138.968          33.000  
G31  21150619.404   111147258.881       -1750.516          43.000    21150607.035    86608197.748       -1363.972          42.000  
G03  24658825.196   129582995.471       -2963.308          36.000    24658820.735   100973733.960       -2309.589          37.000  
G18  25118037.470                        1294.699          29.000    25118031.225   102854136.757        1009.547          35.000  
C16  36732656.854   191276586.602           8.414          46.000    36732641.646   147907130.520           6.463          46.000  
C19  23869690.598   124295742.071       -2235.083          44.000                                                                  
C27  23560920.386   122687895.906        1051.679          39.000                                                                  
C06  36290605.889   188974706.966           5.355          45.000    36290585.434   146127155.030           4.139          47.000  
C09  37368597.894   194588094.120         129.823          41.000    37368579.898   150467790.958         100.375          45.000  
C22  24610275.702   128152164.723         550.989          42.000                                                                  
G26  20920702.133   109939030.814       -1994.086          43.000    20920692.624    85666739.098       -1553.729          43.000  
G27  21809586.358   114610156.523        2904.170          43.000    21809577.971    89306597.210        2262.892          41.000  
G09  23800136.458   125070571.669        2694.836          36.000    23800131.123    97457575.529        2099.805          37.000  
C28  24785031.518   129062157.679       -1147.116          37.000                                                                  
C07  38013631.539   197946952.301         775.957          42.000    38013611.669   153065071.545         599.613          43.000  
C20  25696012.021   133805870.268       -3626.886          44.000                                                                  
C36  23809668.702   123983193.712        1388.446          42.000                                                                  
C37  25103111.173   130718479.254       -2409.964          35.000                                                                  
C10  39145195.389   203839307.070         718.129          39.000    39145180.154   157621494.006         555.104          40.000  
G08  24054177.839   126405564.937        3583.356          40.000    24054176.352    98497930.576        2792.058          40.000  
G29  25434526.440   133659338.1262      -3634.788          37.000    25434515.980   104150093.183       -2832.341          35.000  
C30  25044364.823   130412586.078        2748.557          45.000                                                                  
C13  40845071.820   212691000.501       -2425.022          34.000    40845075.885   164466181.503       -1875.421          38.000  
C08                                                                  41758633.408   168144736.631       -1817.029          36.000  
> 2025 11 03 07 46 01.0400000  0 26                     
G04  21361440.975   112255129.720        1006.031          42.000    21361430.068    87471486.772         784.032          45.000  
G16  20184569.109   106070630.270          99.314          43.000                                                                  
G28  23160760.030   121710609.730       -2745.607          31.000    23160749.391    94839383.679       -2139.428          33.000  
G31  21150632.747   111147328.903       -1750.540          43.000    21150620.354    86608252.297       -1363.787          42.000  
G03  24658847.755   129583114.005       -2963.259          36.000    24658843.279   100973826.328       -2309.389          37.000  
G18  25118027.611                        1295.153          29.000    25118021.370   102854096.371        1009.697          35.000  
C16  36732656.803   191276586.273           8.314          46.000    36732641.561   147907130.255           6.602          46.000  
C19  23869707.774   124295831.476       -2235.138          44.000                                                                  
C27  23560912.291   122687853.842        1051.592          39.000                                                                  
C06  36290605.851   188974706.761           5.181          44.000    36290585.413   146127154.862           4.175          47.000  
C09  37368596.902   194588088.936         129.755          41.000    37368578.892   150467786.955         100.220          45.000  
C22  24610271.477   128152142.691         550.794          42.000                                                                  
G26  20920717.281   109939110.564       -1993.848          43.000    20920707.806    85666801.251       -1553.802          43.000  
G27  21809564.256   114610040.350        2904.295          43.000    21809555.875    89306506.686        2263.038          41.000  
G09  23800115.935   125070463.891        2694.495          36.000    23800110.575    97457491.534        2099.787          37.000  
C28  24785040.343   129062203.567       -1147.158          37.000                                                                  
C07  38013625.564   197946921.276         775.715          42.000    38013605.728   153065047.553         599.685          43.000  
C20  25696039.888   133806015.357       -3627.141          44.000                                                                  
C36  23809658.037   123983138.168        1388.580          42.000                                                                  
C37  25103129.687   130718575.643       -2409.949          34.000                                                                  
C10  39145189.877   203839278.376         717.595          39.000    39145174.619   157621471.817         554.914          40.000  
G08  24054150.576   126405421.613        3583.129          40.000    24054149.073    98497818.899        2791.915          40.000  
G29  25434554.113   133659483.5412      -3635.158          37.000    25434543.654   104150206.450       -2831.857          35.000  
C30  25044343.708   130412476.149        2748.248          45.000                                                                  
C13  40845090.456   212691097.543       -2425.723          34.000    40845094.526   164466256.531       -1875.697          38.000  
C08                                                                  41758651.488   168144809.292       -1816.711          36.000  
> 2025 11 03 07 46 01.0800000  0 26                     
G04  21361433.317   112255089.483        1005.936          42.000    21361422.419    87471455.421         783.829          45.000  
G16  20184568.344   106070626.296          99.340          43.000                                                                  
G28  23160780.880   121710719.569       -2745.701          30.000    23160770.300    94839469.298       -2140.047          33.000  
G31  21150646.079   111147398.926       -1750.569          43.000    21150633.673    86608306.869       -1364.066          42.000  
G03  24658870.336   129583232.552       -2963.557          36.000    24658865.859   100973918.696       -2309.257          37.000  
G18  25118017.731                        1295.881          28.000    25118011.539   102854056.009        1009.398          35.000  
C16  36732656.752   191276585.946           8.193          46.000    36732641.479   147907129.999           6.486          46.000  
C19  23869724.923   124295920.886       -2235.266          44.000                                                                  
C27  23560904.202   122687811.778        1051.542          39.000                                                                  
C06  36290605.793   188974706.552           5.151          44.000    36290585.359   146127154.696           4.146          47.000  
C09  37368595.936   194588083.753         129.657          41.000    37368577.900   150467782.955         100.059          45.000  
C22  24610267.285   128152120.651         550.861          42.000                                                                  
G26  20920732.476   109939190.324       -1993.933          43.000    20920723.007    85666863.409       -1553.974          42.000  
G27  21809542.152   114609924.177        2904.347          43.000    21809533.771    89306416.175        2262.829          41.000  
G09  23800095.401   125070356.099        2694.562          36.000    23800090.062    97457407.552        2099.561          37.000  
C28  24785049.158   129062249.460       -1147.342          37.000                                                                  
C07  38013619.570   197946890.265         775.352          42.000    38013599.781   153065023.574         599.523          43.000  
C20  25696067.746   133806160.440       -3627.149          44.000                                                                  
C36  23809647.353   123983082.637        1388.403          42.000                                                                  
C37  25103148.213   130718672.042       -2410.067          34.000                                                                  
C10  39145184.365   203839249.681         717.388          39.000    39145169.112   157621449.626         554.824          39.000  
G08  24054123.307   126405278.292        3583.021          40.000    24054121.793    98497707.223        2791.804          40.000  
G29  25434581.776   133659628.9332      -3634.961          37.000    25434571.330   104150319.781       -2832.747          35.000  
C30  25044322.624   130412366.216        2748.184          45.000                                                                  
C13  40845109.116   212691194.569       -2425.813          35.000    40845113.154   164466331.550       -1875.667          38.000  
C08                                                                  41758669.543   168144881.997       -1817.438          36.000  
> 2025 11 03 07 46 01.1200000  0 26                     
G04  21361425.658   112255049.248        1005.828          42.000    21361414.750    87471424.067         783.755          45.000  
G16  20184567.585   106070622.316          99.427          43.000                                                                  
G28  23160801.786   121710829.433       -2746.122          30.000    23160791.200    94839554.890       -2140.040          33.000  
G31  21150659.440   111147468.957       -1750.726          43.000    21150646.985    86608361.438       -1364.245          42.000  
G03  24658892.941   129583351.111       -2963.906          36.000    24658888.395   100974011.058       -2309.057          37.000  
G18  25118007.844                        1296.145          28.000    25118001.673   102854015.653        1009.050          35.000  
C16  36732656.702   191276585.626           8.021          46.000    36732641.428   147907129.740           6.459          46.000  
C19  23869742.099   124296010.296       -2235.278          44.000                                                                  
C27  23560896.142   122687769.725        1051.371          39.000                                                                  
C06  36290605.739   188974706.335           5.299          44.000    36290585.327   146127154.528           4.153          47.000  
C09  37368594.946   194588078.580         129.473          41.000    37368576.877   150467778.943         100.216          45.000  
C22  24610263.054   128152098.622         550.734          43.000                                                                  
G26  20920747.654   109939270.082       -1993.939          43.000    20920738.191    85666925.550       -1553.680          42.000  
G27  21809520.065   114609808.024        2904.005          43.000    21809511.686    89306325.668        2262.656          41.000  
G09  23800074.887   125070248.320        2694.427          36.000    23800069.544    97457323.548        2099.860          37.000  
C28  24785057.980   129062295.343       -1147.159          37.000                                                                  
C07  38013613.609   197946859.248         775.340          41.000    38013593.836   153064999.579         599.726          43.000  
C20  25696095.622   133806305.520       -3627.077          44.000                                                                  
C36  23809636.690   123983027.106        1388.287          42.000                                                                  
C37  25103166.719   130718768.432       -2409.925          34.000                                                                  
C10  39145178.853   203839220.988         717.236          38.000    39145163.599   157621427.424         554.947          39.000  
G08  24054096.010   126405134.959        3583.167          40.000    24054094.519    98497595.547        2791.765          40.000  
G29  25434609.440   133659774.3142      -3634.670          37.000    25434598.998   104150433.090       -2832.913          35.000  
C30  25044301.512   130412256.273        2748.400          45.000                                                                  
C13  40845127.766   212691291.592       -2425.720          35.000    40845131.812   164466406.554       -1875.281          38.000  
C08                                                                  41758687.610   168144954.672       -1817.188          36.000  
> 2025 11 03 07 46 01.1600000  0 26                     
G04  21361417.979   112255009.002        1005.964          42.000    21361407.085    87471392.707         783.848          45.000  
G16  20184566.836   106070618.332          99.582          43.000                                                                  
G28  23160822.709   121710939.314       -2746.615          25.000    23160812.116    94839640.468       -2139.537          33.000  
G31  21150672.745   111147538.973       -1750.541          43.000    21150660.309    86608415.997       -1364.126          42.000  
G03  24658915.509   129583469.688       -2964.325          36.000    24658910.967   100974103.443       -2309.355          37.000  
G18  25117997.970                        1295.978          28.000    25117991.820   102853975.292        1008.892          35.000  
C16  36732656.655   191276585.286           8.307          46.000    36732641.363   147907129.484           6.408          46.000  
C19  23869759.291   124296099.693       -2235.028          44.000                                                                  
C27  23560888.090   122687727.662        1051.483          39.000                                                                  
C06  36290605.694   188974706.116           5.413          44.000    36290585.315   146127154.363           4.098          47.000  
C09  37368593.953   194588073.393         129.591          41.000    37368575.851   150467774.931         100.284          45.000  
C22  24610258.819   128152076.582         550.863          43.000                                                                  
G26  20920762.832   109939349.840       -1993.970          43.000    20920753.359    85666987.693       -1553.571          42.000  
G27  21809497.983   114609691.875        2903.736          43.000    21809489.567    89306235.149        2262.757          41.000  
G09  23800054.377   125070140.540        2694.446          36.000    23800049.032    97457239.538        2100.122          37.000  
C28  24785066.795   129062341.245       -1147.435          37.000                                                                  
C07  38013607.654   197946828.210         775.732          41.000    38013587.910   153064975.581         599.882          43.000  
C20  25696123.507   133806450.598       -3626.968          44.000                                                                  
C36  23809626.065   123982971.569        1388.361          42.000                                                                  
C37  25103185.222   130718864.824       -2409.859          34.000                                                                  
C10  39145173.340   203839192.289         717.279          38.000    39145158.082   157621405.245         554.656          39.000  
G08  24054068.743   126404991.633        3583.150          40.000    24054067.226    98497483.851        2792.160          40.000  
G29  25434637.112   133659919.7112      -3634.816          37.000    25434626.694   104150546.387       -2832.712          35.000  
C30  25044280.395   130412146.322        2748.684          45.000                                                                  
C13  40845146.413   212691388.588       -2425.153          35.000    40845150.464   164466481.581       -1875.510          38.000  
C08                                                                  41758705.628   168145027.346       -1816.962          36.000  
> 2025 11 03 07 46 01.2000000  0 26                     
G04  21361410.282   112254968.751        1006.174          42.000    21361399.440    87471361.347         783.914          45.000  
G16  20184566.067   106070614.358          99.437          43.000                                                                  
G28  23160843.614   121711049.163       -2746.545          25.000    23160833.006    94839726.033       -2139.187          33.000  
G31  21150686.053   111147608.984       -1750.344          43.000    21150673.621    86608470.562       -1364.152          42.000  
G03  24658938.068   129583588.230       -2963.897          36.000    24658933.512   100974195.834       -2309.690          37.000  
G18  25117988.139                        1295.942          28.000    25117981.978   102853934.933        1008.829          35.000  
C16  36732656.608   191276584.941           8.558          46.000    36732641.293   147907129.233           6.271          46.000  
C19  23869776.457   124296189.096       -2235.034          44.000                                                                  
C27  23560880.037   122687685.598        1051.544          39.000                                                                  
C06  36290605.661   188974705.894           5.521          44.000    36290585.270   146127154.191           4.211          47.000  
C09  37368592.990   194588068.195         129.859          41.000    37368574.846   150467770.920         100.281          45.000  
C22  24610254.598   128152054.542         550.941          43.000                                                                  
G26  20920778.027   109939429.588       -1993.793          43.000    20920768.534    85667049.842       -1553.674          42.000  
G27  21809475.895   114609575.717        2903.792          43.000    21809467.452    89306144.622        2262.979          41.000  
G09  23800033.852   125070032.753        2694.623          36.000    23800028.527    97457155.551        2099.799          37.000  
C28  24785075.593   129062387.118       -1147.107          37.000                                                                  
C07  38013601.690   197946797.190         775.636          41.000    38013581.953   153064951.586         599.905          43.000  
C20  25696151.352   133806595.677       -3626.958          44.000                                                                  
C36  23809615.397   123982916.033        1388.348          42.000                                                                  
C37  25103203.749   130718961.234       -2410.212          34.000                                                                  
C10  39145167.807   203839163.586         717.428          38.000    39145152.555   157621383.034         555.033          39.000  
G08  24054041.476   126404848.300        3583.247          40.000    24054039.928    98497372.159        2792.321          40.000  
G29  25434664.781   133660065.0982      -3634.727          37.000    25434654.342   104150659.656       -2832.104          35.000  
C30  25044259.313   130412036.368        2748.858          45.000                                                                  
C13  40845165.029   212691485.590       -2424.892          35.000    40845169.078   164466556.587       -1875.238          38.000  
C08                                                                  41758723.677   168145099.996       -1816.406          36.000  
> 2025 11 03 07 46 01.2400000  0 26                     
G04  21361402.617   112254928.503        1006.201          43.000    21361391.792    87471329.984         784.033          45.000  
G16  20184565.290   106070610.381          99.387          43.000                                                                  
G28  23160864.552   121711159.020       -2746.594          25.000    23160853.927    94839811.638       -2139.852          33.000  
G31  21150699.369   111147678.994       -1750.225          44.000    21150686.944    86608525.112       -1363.883          42.000  
G03  24658960.613   129583706.779       -2963.864          36.000    24658956.073   100974288.201       -2309.447          37.000  
G18  25117978.299                        1295.067          28.000    25117972.121   102853894.541        1009.346          35.000  
C16  36732656.570   191276584.598           8.660          46.000    36732641.237   147907128.961           6.589          46.000  
C19  23869793.620   124296278.486       -2234.796          44.000                                                                  
C27  23560871.979   122687643.528        1051.723          39.000                                                                  
C06  36290605.617   188974705.668           5.641          44.000    36290585.221   146127154.014           4.348          47.000  
C09  37368591.983   194588063.014         129.646          41.000    37368573.861   150467766.906         100.311          45.000  
C22  24610250.360   128152032.501         550.984          43.000                                                                  
G26  20920793.212   109939509.340       -1993.762          43.000    20920783.714    85667111.974       -1553.406          42.000  
G27  21809453.775   114609459.542        2904.149          43.000    21809445.360    89306054.106        2262.958          41.000  
G09  23800013.333   125069924.967        2694.629          36.000    23800008.019    97457071.558        2099.731          37.000  
C28  24785084.391   129062433.008       -1147.139          37.000                                                                  
C07  38013595.734   197946766.151         775.880          41.000    38013575.977   153064927.582         600.034          43.000  
C20  25696179.227   133806740.735       -3626.572          44.000                                                                  
C36  23809604.735   123982860.489        1388.550          42.000                                                                  
C37  25103222.271   130719057.621       -2410.023          34.000                                                                  
C10  39145162.299   203839134.874         717.686          38.000    39145147.018   157621360.810         555.506          39.000  
G08  24054014.210   126404704.957        3583.528          40.000    24054012.627    98497260.456        2792.562          40.000  
G29  25434692.464   133660210.4992      -3634.913          37.000    25434681.991   104150772.944       -2832.121          35.000  
C30  25044238.197   130411926.414        2748.921          45.000                                                                  
C13  40845183.652   212691582.603       -2425.023          35.000    40845187.705   164466631.604       -1875.317          38.000  
C08                                                                  41758741.735   168145172.658       -1816.370          37.000  
> 2025 11 03 07 46 01.2800000  0 26                     
G04  21361394.947   112254888.262        1006.112          43.000    21361384.124    87471298.626         783.989          45.000  
G16  20184564.528   106070606.400          99.462          43.000                                                                  
G28  23160885.455   121711268.839       -2746.147          25.000    23160874.838    94839897.239       -2139.882          33.000  
G31  21150712.716   111147749.010       -1750.294          44.000    21150700.268    86608579.661       -1363.717          42.000  
G03  24658983.165   129583825.308       -2963.407          37.000    24658978.645   100974380.591       -2309.673          37.000  
G18  25117968.485                        1294.700          28.000    25117962.258   102853854.166        1009.364          35.000  
C16  36732656.495   191276584.252           8.703          46.000    36732641.174   147907128.704           6.506          46.000  
C19  23869810.794   124296367.880       -2234.772          44.000                                                                  
C27  23560863.877   122687601.460        1051.709          39.000                                                                  
C06  36290605.561   188974705.437           5.814          44.000    36290585.157   146127153.845           4.299          47.000  
C09  37368590.970   194588057.820         129.783          41.000    37368572.882   150467762.897         100.240          45.000  
C22  24610246.132   128152010.450         551.197          43.000                                                                  
G26  20920808.395   109939589.096       -1993.842          43.000    20920798.877    85667174.122       -1553.589          42.000  
G27  21809431.681   114609343.371        2904.281          43.000    21809423.243    89305963.588        2262.915          41.000  
G09  23799992.834   125069817.157        2695.099          37.000    23799987.504    97456987.553        2099.921          37.000  
C28  24785093.203   129062478.904       -1147.298          37.000                                                                  
C07  38013589.765   197946735.107         776.135          41.000    38013570.002   153064903.588         599.931          43.000  
C20  25696207.069   133806885.805       -3626.617          44.000                                                                  
C36  23809594.084   123982804.952        1388.501          42.000                                                                  
C37  25103240.796   130719154.022       -2410.145          34.000                                                                  
C10  39145156.783   203839106.131         718.326          38.000    39145141.492   157621338.607         555.324          39.000  
G08  24053986.955   126404561.628        3583.385          40.000    24053985.337    98497148.771        2792.354          40.000  
G29  25434720.146   133660355.8812      -3634.701          37.000    25434709.651   104150886.223       -2831.925          35.000  
C30  25044217.075   130411816.466        2748.832          45.000                                                                  
C13  40845202.280   212691679.614       -2425.165          35.000    40845206.336   164466706.620       -1875.394          39.000  
C08                                                                  41758759.770   168145245.337       -1816.748          37.000  
> 2025 11 03 07 46 01.3200000  0 26                     
G04  21361387.279   112254848.012        1006.196          43.000    21361376.451    87471267.258         784.105          45.000  
G16  20184563.740   106070602.419          99.512          43.000                                                                  
G28  23160906.350   121711378.681       -2746.092          25.000    23160895.739    94839982.802       -2139.252          33.000  
G31  21150726.038   111147819.029       -1750.395          44.000    21150713.578    86608634.214       -1363.749          43.000  
G03  24659005.728   129583943.828       -2963.064          37.000    24659001.172   100974472.933       -2308.939          37.000  
G18  25117958.635                        1295.378          28.000    25117952.414   102853813.761        1010.007          34.000  
C16  36732656.458   191276583.901           8.803          46.000    36732641.108   147907128.432           6.720          46.000  
C19  23869827.960   124296457.273       -2234.796          45.000                                                                  
C27  23560855.800   122687559.368        1052.152          39.000                                                                  
C06  36290605.517   188974705.203           5.890          44.000    36290585.102   146127153.670           4.357          47.000  
C09  37368589.970   194588052.634         129.689          41.000    37368571.897   150467758.883         100.311          45.000  
C22  24610241.926   128151988.395         551.408          43.000                                                                  
G26  20920823.594   109939668.845       -1993.756          43.000    20920814.070    85667236.261       -1553.564          42.000  
G27  21809409.572   114609227.204        2904.295          43.000    21809401.111    89305873.049        2263.252          41.000  
G09  23799972.306   125069709.335        2695.599          37.000    23799966.986    97456903.544        2100.159          37.000  
C28  24785102.011   129062524.776       -1147.012          37.000                                                                  
C07  38013583.824   197946704.062         776.217          41.000    38013564.050   153064879.590         599.924          43.000  
C20  25696234.940   133807030.862       -3626.456          44.000                                                                  
C36  23809583.425   123982749.399        1388.727          42.000                                                                  
C37  25103259.314   130719250.416       -2409.989          34.000                                                                  
C10  39145151.270   203839077.420         718.089          38.000    39145135.981   157621316.411         555.049          39.000  
G08  24053959.681   126404418.300        3583.269          40.000    24053958.068    98497037.104        2791.837          40.000  
G29  25434747.799   133660501.2572      -3634.467          37.000    25434737.325   104150999.504       -2831.904          35.000  
C30  25044195.960   130411706.516        2748.792          45.000                                                                  
C13  40845220.912   212691776.599       -2424.847          35.000    40845224.998   164466781.615       -1875.041          39.000  
C08                                                                  41758777.830   168145317.991       -1816.467          37.000  
> 2025 11 03 07 46 01.3600000  0 26                     
G04  21361379.635   112254807.765        1006.210          43.000    21361368.820    87471235.895         784.100          45.000  
G16  20184562.987   106070598.438          99.530          43.000                                                                  
G28  23160927.275   121711488.498       -2745.728          25.000    23160916.621    94840068.362       -2138.940          33.000  
G31  21150739.352   111147889.036       -1750.255          44.000    21150726.905    86608688.771       -1363.847          43.000  
G03  24659028.295   129584062.359       -2963.113          37.000    24659023.722   100974565.292       -2308.801          37.000  
G18  25117948.737                        1295.552          28.000    25117942.576   102853773.413        1009.300          34.000  
C16  36732656.423   191276583.544           8.954          46.000    36732641.020   147907128.160           6.837          46.000  
C19  23869845.147   124296546.666       -2234.851          45.000                                                                  
C27  23560847.704   122687517.289        1052.139          39.000                                                                  
C06  36290605.481   188974704.974           5.836          44.000    36290585.070   146127153.492           4.426          47.000  
C09  37368588.992   194588047.434         129.880          41.000    37368570.871   150467754.867         100.354          45.000  
C22  24610237.700   128151966.335         551.547          43.000                                                                  
G26  20920838.752   109939748.595       -1993.750          43.000    20920829.256    85667298.399       -1553.516          42.000  
G27  21809387.456   114609111.018        2904.597          43.000    21809379.008    89305782.525        2263.200          41.000  
G09  23799951.788   125069601.515        2695.721          37.000    23799946.459    97456819.536        2100.305          37.000  
C28  24785110.815   129062570.663       -1147.116          37.000                                                                  
C07  38013577.870   197946673.021         776.183          41.000    38013558.100   153064855.579         600.170          43.000  
C20  25696262.774   133807175.921       -3626.423          44.000                                                                  
C36  23809572.755   123982693.843        1388.916          43.000                                                                  
C37  25103277.815   130719346.778       -2409.257          34.000                                                                  
C10  39145145.737   203839048.698         718.092          38.000    39145130.446   157621294.193         555.286          39.000  
G08  24053932.393   126404274.938        3583.823          40.000    24053930.794    98496925.407        2792.088          40.000  
G29  25434775.471   133660646.6492      -3634.672          37.000    25434764.990   104151112.795       -2832.109          35.000  
C30  25044174.835   130411596.554        2748.984          45.000                                                                  
C13  40845239.513   212691873.593       -2424.839          35.000    40845243.592   164466856.616       -1875.028          39.000  
C08                                                                  41758795.891   168145390.658       -1816.632          37.000  
> 2025 11 03 07 46 01.4000000  0 26                     
G04  21361371.974   112254767.509        1006.304          43.000    21361361.156    87471204.529         784.119          45.000  
G16  20184562.220   106070594.445          99.753          43.000                                                                  
G31  21150752.671   111147959.038       -1750.095          44.000    21150740.238    86608743.333       -1364.022          43.000  
G03  24659050.902   129584180.910       -2963.552          37.000    24659046.279   100974657.632       -2308.461          37.000  
G18  25117938.856                        1296.001          28.000    25117932.714   102853733.022        1009.639          34.000  
C16  36732656.362   191276583.197           8.801          46.000    36732640.909   147907127.891           6.783          46.000  
C19  23869862.312   124296636.059       -2234.851          45.000                                                                  
C27  23560839.624   122687475.207        1052.125          39.000                                                                  
C06  36290605.454   188974704.741           5.809          44.000    36290585.029   146127153.319           4.390          47.000  
C09  37368588.009   194588042.235         129.974          41.000    37368569.859   150467750.847         100.461          45.000  
C22  24610233.470   128151944.283         551.427          43.000                                                                  
G26  20920853.926   109939828.349       -1993.866          43.000    20920844.433    85667360.546       -1553.644          42.000  
G27  21809365.344   114608994.846        2904.448          42.000    21809356.918    89305692.004        2263.078          41.000  
G09  23799931.258   125069493.692        2695.740          37.000    23799925.949    97456735.530        2100.287          37.000  
C28  24785119.615   129062616.553       -1147.236          37.000                                                                  
C07  38013571.901   197946641.969         776.267          41.000    38013552.135   153064831.573         600.192          43.000  
C20  25696290.664   133807320.989       -3626.596          44.000                                                                  
C36  23809562.069   123982638.290        1388.904          43.000                                                                  
C37  25103296.339   130719443.200       -2410.049          34.000                                                                  
C10  39145140.223   203839019.957         718.417          38.000    39145124.937   157621271.972         555.480          39.000  
G08  24053905.115   126404131.588        3583.885          40.000    24053903.517    98496813.701        2792.406          40.000  
G29  25434803.139   133660792.0072      -3634.180          37.000    25434792.639   104151226.064       -2831.865          35.000  
C30  25044153.734   130411486.588        2749.140          45.000                                                                  
C13  40845258.139   212691970.606       -2425.115          35.000    40845262.206   164466931.612       -1874.943          39.000  
G28                                                                  23160937.519    94840153.932       -2138.957          33.000  
C08                                                                  41758813.928   168145463.313       -1816.479          37.000  
> 2025 11 03 07 46 01.4400000  0 26                     
G04  21361364.328   112254727.269        1006.095          43.000    21361353.497    87471173.173         783.959          45.000  
G16  20184561.457   106070590.457          99.764          43.000                                                                  
G31  21150765.991   111148029.048       -1750.155          44.000    21150753.538    86608797.889       -1363.996          43.000  
G03  24659073.442   129584299.438       -2963.419          37.000    24659068.831   100974749.993       -2308.719          37.000  
G18  25117928.960                        1297.229          27.000    25117922.852   102853692.629        1009.888          34.000  
C16  36732656.313   191276582.850           8.715          47.000    36732640.806   147907127.621           6.754          46.000  
C19  23869879.477   124296725.450       -2234.821          45.000                                                                  
C27  23560831.547   122687433.132        1051.939          39.000                                                                  
C06  36290605.401   188974704.511           5.784          44.000    36290585.008   146127153.145           4.353          47.000  
C09  37368587.032   194588037.050         129.700          41.000    37368568.850   150467746.826         100.503          45.000  
C22  24610229.243   128151922.234         551.334          43.000                                                                  
G26  20920869.121   109939908.091       -1993.683          43.000    20920859.609    85667422.681       -1553.479          42.000  
G27  21809343.241   114608878.673        2904.359          42.000    21809334.805    89305601.482        2263.006          41.000  
G09  23799910.744   125069385.902        2695.044          37.000    23799905.435    97456651.540        2099.933          37.000  
C28  24785128.426   129062662.425       -1147.005          37.000                                                                  
C07  38013565.946   197946610.934         775.995          41.000    38013546.164   153064807.568         600.159          43.000  
C20  25696318.505   133807466.053       -3626.607          44.000                                                                  
C36  23809551.404   123982582.747        1388.684          43.000                                                                  
C37  25103314.849   130719539.587       -2409.964          34.000                                                                  
C10  39145134.692   203838991.248         717.956          38.000    39145119.408   157621249.779         555.088          39.000  
G08  24053877.840   126403988.255        3583.580          40.000    24053876.232    98496702.011        2792.289          40.000  
G29  25434830.806   133660937.3882      -3634.321          37.000    25434820.313   104151339.344       -2831.988          35.000  
C30  25044132.633   130411376.633        2748.998          45.000                                                                  
C13  40845276.790   212692067.598       -2424.926          35.000    40845280.873   164467006.629       -1875.225          39.000  
G28                                                                  23160958.394    94840239.519       -2139.421          33.000  
C08                                                                  41758831.986   168145535.977       -1816.650          37.000  
> 2025 11 03 07 46 01.4800000  0 26                     
G04  21361356.661   112254687.026        1006.028          43.000    21361345.844    87471141.808         784.034          45.000  
G16  20184560.699   106070586.481          99.489          43.000                                                                  
G31  21150779.317   111148099.066       -1750.364          44.000    21150766.859    86608852.442       -1363.920          43.000  
G03  24659096.020   129584417.969       -2963.373          37.000    24659091.371   100974842.360       -2308.978          37.000  
G18  25117919.060                        1295.656          27.000    25117913.002   102853652.266        1009.530          34.000  
C16  36732656.262   191276582.509           8.553          47.000    36732640.733   147907127.357           6.637          46.000  
C19  23869896.658   124296814.851       -2234.973          45.000                                                                  
C27  23560823.463   122687391.063        1051.724          39.000                                                                  
C06  36290605.366   188974704.289           5.592          44.000    36290584.962   146127152.963           4.464          47.000  
C09  37368586.037   194588031.851         129.831          41.000    37368567.870   150467742.806         100.500          45.000  
C22  24610225.038   128151900.180         551.348          43.000                                                                  
G26  20920884.282   109939987.838       -1993.646          43.000    20920874.790    85667484.826       -1553.595          42.000  
G27  21809321.123   114608762.521        2903.929          42.000    21809312.705    89305510.957        2263.042          41.000  
G09  23799890.239   125069278.116        2694.641          37.000    23799884.933    97456567.539        2099.903          37.000  
C28  24785137.213   129062708.319       -1147.217          37.000                                                                  
C07  38013560.000   197946579.896         775.928          41.000    38013540.191   153064783.559         600.208          43.000  
C20  25696346.375   133807611.107       -3626.436          44.000                                                                  
C36  23809540.730   123982527.206        1388.495          43.000                                                                  
C37  25103333.345   130719635.953       -2409.524          33.000                                                                  
C10  39145129.200   203838962.524         717.999          38.000    39145113.876   157621227.578         554.959          39.000  
G08  24053850.562   126403844.919        3583.437          40.000    24053848.936    98496590.316        2792.281          40.000  
G29  25434858.456   133661082.7652      -3634.403          37.000    25434847.991   104151452.610       -2831.769          35.000  
C30  25044111.495   130411266.678        2748.900          45.000                                                                  
C13  40845295.411   212692164.577       -2424.574          35.000    40845299.491   164467081.632       -1875.174          39.000  
G28                                                                  23160979.306    94840325.117       -2139.874          33.000  
C08                                                                  41758850.051   168145608.635       -1816.571          37.000  
