     3.04           OBSERVATION DATA    M: Mixed            RINEX VERSION / TYPE
RTKCONV 2.4.3 b34                       20251103 075652 UTC PGM / RUN BY / DATE 
format: u-blox UBX                                          COMMENT             
log: D:\GPdata\11_3\mixfingure_11_3_3.ubx                   COMMENT             
                                                            MARKER NAME         
                                                            MARKER NUMBER       
                                                            MARKER TYPE         
                                                            OBSERVER / AGENCY   
                                                            REC # / TYPE / VERS 
                                                            ANT # / TYPE        
        0.0000        0.0000        0.0000                  APPROX POSITION XYZ 
        0.0000        0.0000        0.0000                  ANTENNA: DELTA H/E/N
G    8 C1C L1C D1C S1C C2L L2L D2L S2L                      SYS / # / OBS TYPES 
C    8 C2I L2I D2I S2I C7I L7I D7I S7I                      SYS / # / OBS TYPES 
  2025    11    03    07    46   31.2400000     GPS         TIME OF FIRST OBS   
  2025    11    03    07    46   47.4000000     GPS         TIME OF LAST OBS    
G L1C                                                       SYS / PHASE SHIFT   
G L2L  0.00000                                              SYS / PHASE SHIFT   
C L2I                                                       SYS / PHASE SHIFT   
C L7I                                                       SYS / PHASE SHIFT   
  0                                                         GLONASS SLOT / FRQ #
 C1C    0.000 C1P    0.000 C2C    0.000 C2P    0.000        GLONASS COD/PHS/BIS 
                                                            END OF HEADER       
> 2025 11 03 07 46 31.2400000  0 26                     
G04  21355709.109   112225008.4761        988.636          45.000    21355698.223    87448015.6671        770.626          47.000  
G16  20184035.590   106067823.1431         86.728          46.000                                                                  
G28  23176557.638   121793632.6961      -2751.934          40.000    23176546.622    94904072.0881      -2144.284          42.000  
G31  21160718.313   111200327.1841      -1758.880          47.000    21160705.904    86649549.7241      -1370.900          44.000  
G03  24675887.543   129672657.8611      -2965.738          34.000    24675882.748   101043600.6001      -2311.333          38.000  
G18  25110607.231                1       1285.557          31.000    25110603.404   102823717.2861       1002.056          36.000  
C16  36732602.682   191276306.5661         10.368          48.000    36732588.600   147906914.0201          7.987          48.000  
C19  23882704.562   124363505.3091      -2246.429          45.000                                                                  
C27  23554848.483   122656276.5691       1039.593          47.000                                                                  
C06  36290569.395   188974516.6311          7.255          46.000    36290548.714   146127007.8841          5.677          49.000  
C09  37367837.180   194584133.6571        132.519          44.000    37367819.211   150464728.5421        102.539          47.000  
C22  24607119.829   128135729.0291        535.963          43.000                                                                  
G26  20932195.021   109999429.0581      -2000.445          47.000    20932185.990    85713802.6751      -1558.856          45.000  
G27  21792906.514   114522499.4261       2893.570          45.000    21792897.244    89238293.0461       2254.627          43.000  
G09  23784654.882   124989217.9071       2685.327          36.000    23784649.360    97394183.0811       2092.706          38.000  
C28  24791735.349   129097067.4791      -1161.706          44.000                                                                  
C07  38009130.408   197923513.7501        774.289          41.000    38009110.296   153046947.4551        598.986          45.000  
C20  25717072.621   133915536.7911      -3626.119          43.000                                                                  
C36  23801610.076   123941231.1921       1387.030          44.000                                                                  
C37  25117105.705   130791356.0761      -2410.060          42.000                                                                  
C10  39141029.300   203817613.7721        717.201          38.000    39141014.220   157604719.4731        554.645          41.000  
G08  24033561.521   126297231.0201       3581.729          38.000    24033560.528    98413515.2581       2791.179          40.000  
G29  25455459.941   133769347.0281      -3640.581          35.000    25455450.328   104235798.2011      -2836.689          35.000  
C30  25028403.438   130329470.6731       2748.447          43.000                                                                  
C13  40859147.516   212764293.2571      -2421.651          33.000    40859151.593   164522855.5091      -1872.679          38.000  
C08                                                                  41772263.429   168199624.3021      -1813.379          35.000  
> 2025 11 03 07 46 31.2800000  0 26                     
G04  21355701.580   112224968.909         988.983          45.000    21355690.682    87447984.849         770.496          47.000  
G16  20184034.940   106067819.687          86.417          46.000                                                                  
G28  23176578.594   121793742.769       -2751.847          40.000    23176567.585    94904157.866       -2144.426          42.000  
G31  21160731.718   111200397.555       -1759.120          47.000    21160719.280    86649604.541       -1370.583          45.000  
G03  24675910.139   129672776.524       -2966.383          34.000    24675905.331   101043693.066       -2311.591          38.000  
G18  25110597.444   131957078.1131       1286.035          31.000    25110593.613   102823677.178        1002.410          36.000  
C16  36732602.586   191276306.155          10.302          48.000    36732588.503   147906913.696           8.038          48.000  
C19  23882721.835   124363595.165       -2246.411          45.000                                                                  
C27  23554840.495   122656234.983        1039.599          47.000                                                                  
C06  36290569.347   188974516.331           7.377          46.000    36290548.662   146127007.656           5.658          49.000  
C09  37367836.190   194584128.349         132.627          44.000    37367818.185   150464724.434         102.634          47.000  
C22  24607115.715   128135707.582         536.031          43.000                                                                  
G26  20932210.261   109999509.085       -2000.623          47.000    20932201.218    85713865.025       -1558.734          45.000  
G27  21792884.509   114522383.690        2893.449          45.000    21792875.209    89238202.855        2254.706          43.000  
G09  23784634.443   124989110.468        2685.645          36.000    23784628.921    97394099.372        2092.688          38.000  
C28  24791744.288   129097113.930       -1161.484          44.000                                                                  
C07  38009124.462   197923482.753         774.633          41.000    38009104.346   153046923.497         598.935          45.000  
C20  25717100.492   133915681.829       -3626.086          43.000                                                                  
C36  23801599.423   123941175.710        1387.024          44.000                                                                  
C37  25117124.193   130791452.476       -2410.096          42.000                                                                  
C10  39141023.799   203817585.097         716.892          38.000    39141008.732   157604697.309         554.216          41.000  
G08  24033534.241   126297087.741        3581.841          38.000    24033533.261    98413403.619        2791.060          40.000  
G29  25455487.667   133769492.664       -3640.900          35.000    25455478.041   104235911.659       -2836.423          35.000  
C30  25028382.332   130329360.730        2748.457          43.000                                                                  
C13  40859166.114   212764390.155       -2422.232          33.000    40859170.168   164522930.415       -1872.675          38.000  
C08                                                                  41772281.453   168199696.822       -1813.202          35.000  
> 2025 11 03 07 46 31.3200000  0 26                     
G04  21355694.054   112224929.359         988.822          44.000    21355683.150    87447954.031         770.427          47.000  
G16  20184034.272   106067816.218          86.576          46.000                                                                  
G28  23176599.557   121793852.837       -2751.724          40.000    23176588.552    94904243.645       -2144.511          42.000  
G31  21160745.111   111200467.925       -1759.231          47.000    21160732.659    86649659.366       -1370.606          45.000  
G03  24675932.737   129672895.196       -2966.881          34.000    24675927.921   101043785.527       -2311.579          38.000  
G18  25110587.683                        1287.187          31.000    25110583.821   102823637.077        1002.518          36.000  
C16  36732602.502   191276305.738          10.376          48.000    36732588.392   147906913.373           8.055          48.000  
C19  23882739.075   124363685.033       -2246.631          45.000                                                                  
C27  23554832.503   122656193.396        1039.642          47.000                                                                  
C06  36290569.298   188974516.032           7.465          46.000    36290548.598   146127007.421           5.791          49.000  
C09  37367835.166   194584123.048         132.560          44.000    37367817.166   150464720.333         102.588          47.000  
C22  24607111.600   128135686.139         536.014          43.000                                                                  
G26  20932225.471   109999589.098       -2000.433          47.000    20932216.450    85713927.378       -1558.795          45.000  
G27  21792862.479   114522267.949        2893.491          45.000    21792853.171    89238112.674        2254.561          43.000  
G09  23784614.003   124989003.031        2685.901          36.000    23784608.460    97394015.651        2092.865          38.000  
C28  24791753.194   129097160.392       -1161.555          44.000                                                                  
C07  38009118.514   197923451.775         774.495          41.000    38009098.374   153046899.538         598.922          45.000  
C20  25717128.375   133915826.867       -3626.048          43.000                                                                  
C36  23801588.759   123941120.225        1387.097          44.000                                                                  
C37  25117142.697   130791548.880       -2410.170          42.000                                                                  
C10  39141018.281   203817556.399         717.180          38.000    39141003.233   157604675.130         554.275          41.000  
G08  24033506.997   126296944.476        3581.670          38.000    24033505.994    98413291.985        2790.895          40.000  
G29  25455515.373   133769638.286       -3640.790          35.000    25455505.760   104236025.104       -2836.162          35.000  
C30  25028361.206   130329250.777        2748.700          43.000                                                                  
C13  40859184.701   212764487.019       -2421.783          33.000    40859188.760   164523005.334       -1872.908          38.000  
C08                                                                  41772299.451   168199769.342       -1813.177          35.000  
> 2025 11 03 07 46 31.3600000  0 26                     
G04  21355686.519   112224889.799         988.916          45.000    21355675.605    87447923.211         770.438          47.000  
G16  20184033.589   106067812.757          86.502          46.000                                                                  
G28  23176620.483   121793962.914       -2751.850          40.000    23176609.514    94904329.426       -2144.553          42.000  
G31  21160758.519   111200538.289       -1759.196          47.000    21160746.047    86649714.182       -1370.472          45.000  
G03  24675955.314   129673013.854       -2966.739          34.000    24675950.505   101043877.974       -2311.361          38.000  
G18  25110577.893   131956975.104        1287.783          31.000    25110574.031   102823596.965        1002.709          36.000  
C16  36732602.427   191276305.319          10.420          48.000    36732588.299   147906913.048           8.093          48.000  
C19  23882756.327   124363774.897       -2246.649          45.000                                                                  
C27  23554824.525   122656151.811        1039.599          47.000                                                                  
C06  36290569.248   188974515.733           7.487          46.000    36290548.564   146127007.188           5.834          49.000  
C09  37367834.168   194584117.730         132.828          44.000    37367816.160   150464716.231         102.561          47.000  
C22  24607107.488   128135664.693         536.046          43.000                                                                  
G26  20932240.706   109999669.122       -2000.574          47.000    20932231.678    85713989.730       -1558.801          45.000  
G27  21792840.437   114522152.201        2893.614          45.000    21792831.129    89238022.481        2254.685          43.000  
G09  23784593.566   124988895.595        2685.901          36.000    23784588.009    97393931.932        2092.957          38.000  
C28  24791762.115   129097206.853       -1161.601          44.000                                                                  
C07  38009112.572   197923420.786         774.673          41.000    38009092.432   153046875.582         598.860          45.000  
C20  25717156.228   133915971.905       -3625.990          43.000                                                                  
C36  23801578.107   123941064.740        1387.103          44.000                                                                  
C37  25117161.224   130791645.285       -2410.206          42.000                                                                  
C10  39141012.753   203817527.715         717.118          38.000    39140997.713   157604652.930         554.747          41.000  
G08  24033479.716   126296801.193        3581.778          38.000    24033478.742    98413180.337        2791.117          40.000  
G29  25455543.095   133769783.905       -3640.666          35.000    25455533.476   104236138.599       -2836.926          35.000  
C30  25028340.053   130329140.838        2748.547          43.000                                                                  
C13  40859203.286   212764583.881       -2421.697          33.000    40859207.361   164523080.233       -1872.674          38.000  
C08                                                                  41772317.448   168199841.879       -1813.507          35.000  
> 2025 11 03 07 46 31.4000000  0 26                     
G04  21355678.983   112224850.243         988.878          44.000    21355668.076    87447892.393         770.421          47.000  
G16  20184032.906   106067809.286          86.664          46.000                                                                  
G28  23176641.415   121794072.980       -2751.752          40.000    23176630.465    94904415.188       -2144.267          42.000  
G31  21160771.940   111200608.660       -1759.274          47.000    21160759.452    86649769.028       -1370.894          45.000  
G03  24675977.876   129673132.479       -2966.220          34.000    24675973.087   101043970.428       -2311.289          38.000  
G18  25110568.121                        1287.178          31.000    25110564.234   102823556.853        1002.805          36.000  
C16  36732602.365   191276304.903          10.397          48.000    36732588.214   147906912.723           8.125          48.000  
C19  23882773.597   124363864.758       -2246.625          45.000                                                                  
C27  23554816.500   122656110.239        1039.365          47.000                                                                  
C06  36290569.184   188974515.433           7.495          47.000    36290548.511   146127006.960           5.779          49.000  
C09  37367833.152   194584112.427         132.709          44.000    37367815.128   150464712.134         102.447          47.000  
C22  24607103.343   128135643.255         535.964          43.000                                                                  
G26  20932255.963   109999749.144       -2000.568          47.000    20932246.932    85714052.089       -1558.929          45.000  
G27  21792818.423   114522036.465        2893.474          45.000    21792809.107    89237932.291        2254.758          43.000  
G09  23784573.124   124988788.167        2685.663          36.000    23784567.566    97393848.225        2092.731          38.000  
C28  24791771.027   129097253.317       -1161.651          44.000                                                                  
C07  38009106.608   197923389.802         774.653          41.000    38009086.464   153046851.614         599.075          45.000  
C20  25717184.081   133916116.945       -3625.997          43.000                                                                  
C36  23801567.463   123941009.254        1387.134          44.000                                                                  
C37  25117179.741   130791741.677       -2409.963          42.000                                                                  
C10  39141007.235   203817499.029         717.121          38.000    39140992.226   157604630.729         555.016          41.000  
G08  24033452.446   126296657.929        3581.640          38.000    24033451.463    98413068.691        2791.193          40.000  
G29  25455570.793   133769929.502       -3640.213          36.000    25455561.186   104236252.057       -2836.653          35.000  
C30  25028318.907   130329030.898        2748.476          43.000                                                                  
C13  40859221.888   212764680.754       -2421.851          33.000    40859225.949   164523155.148       -1872.845          38.000  
C08                                                                  41772335.466   168199914.391       -1813.123          35.000  
> 2025 11 03 07 46 31.4400000  0 26                     
G04  21355671.467   112224810.700         988.658          44.000    21355660.563    87447861.571         770.502          47.000  
G16  20184032.252   106067805.824          86.576          46.000                                                                  
G28  23176662.365   121794183.072       -2752.157          40.000    23176651.441    94904500.961       -2144.287          42.000  
G31  21160785.312   111200679.024       -1759.196          47.000    21160772.837    86649823.874       -1371.130          45.000  
G03  24676000.450   129673251.127       -2966.253          34.000    24675995.669   101044062.879       -2311.199          38.000  
G18  25110558.351                        1285.931          31.000    25110554.448   102823516.755        1002.600          36.000  
C16  36732602.307   191276304.481          10.496          48.000    36732588.119   147906912.404           8.011          48.000  
C19  23882790.877   124363954.618       -2246.570          45.000                                                                  
C27  23554808.536   122656068.659        1039.403          47.000                                                                  
C06  36290569.100   188974515.142           7.322          47.000    36290548.475   146127006.733           5.707          49.000  
C09  37367832.140   194584107.136         132.415          44.000    37367814.102   150464708.043         102.295          47.000  
C22  24607099.235   128135621.817         535.921          43.000                                                                  
G26  20932271.191   109999829.162       -2000.537          47.000    20932262.140    85714114.443       -1558.929          45.000  
G27  21792796.407   114521920.735        2893.294          45.000    21792787.099    89237842.120        2254.438          43.000  
G09  23784552.672   124988680.720        2685.980          36.000    23784547.125    97393764.499        2092.926          38.000  
C28  24791779.974   129097299.775       -1161.564          44.000                                                                  
C07  38009100.647   197923358.818         774.595          41.000    38009080.487   153046827.652         599.067          45.000  
C20  25717211.951   133916261.978       -3625.908          43.000                                                                  
C36  23801556.825   123940953.769        1387.116          44.000                                                                  
C37  25117198.264   130791838.062       -2409.741          42.000                                                                  
C10  39141001.731   203817470.328         717.358          38.000    39140986.720   157604608.549         554.712          41.000  
G08  24033425.165   126296514.652        3581.778          38.000    24033424.186    98412957.050        2791.062          40.000  
G29  25455598.539   133770075.111       -3640.097          36.000    25455588.903   104236365.529       -2836.741          35.000  
C30  25028297.796   130328920.948        2748.614          43.000                                                                  
C13  40859240.502   212764777.643       -2422.221          33.000    40859244.548   164523230.058       -1872.851          38.000  
C08                                                                  41772353.474   168199986.927       -1813.440          35.000  
> 2025 11 03 07 46 31.4800000  0 26                     
G04  21355663.928   112224771.143         988.776          45.000    21355653.041    87447830.753         770.468          47.000  
G16  20184031.590   106067802.351          86.719          46.000                                                                  
G28  23176683.331   121794293.149       -2752.041          40.000    23176672.400    94904586.732       -2144.263          42.000  
G31  21160798.687   111200749.385       -1759.075          47.000    21160786.230    86649878.701       -1370.954          45.000  
G03  24676023.028   129673369.768       -2966.103          34.000    24676018.245   101044155.325       -2311.058          38.000  
G18  25110548.548                        1286.246          31.000    25110544.640   102823476.650        1002.582          36.000  
C16  36732602.257   191276304.066          10.443          48.000    36732588.013   147906912.080           8.053          48.000  
C19  23882808.141   124364044.470       -2246.399          45.000                                                                  
C27  23554800.565   122656027.076        1039.489          47.000                                                                  
C06  36290569.046   188974514.846           7.333          47.000    36290548.408   146127006.503           5.721          49.000  
C09  37367831.115   194584101.831         132.516          44.000    37367813.054   150464703.941         102.419          47.000  
C22  24607095.121   128135600.380         535.911          43.000                                                                  
G26  20932286.414   109999909.187       -2000.629          47.000    20932277.360    85714176.802       -1558.997          45.000  
G27  21792774.395   114521805.005        2893.243          45.000    21792765.057    89237751.939        2254.485          43.000  
G09  23784532.217   124988573.270        2686.218          36.000    23784526.695    97393680.787        2092.828          38.000  
C28  24791788.886   129097346.235       -1161.505          44.000                                                                  
C07  38009094.713   197923327.833         774.589          41.000    38009074.534   153046803.696         598.947          45.000  
C20  25717239.827   133916407.006       -3625.745          43.000                                                                  
C36  23801546.181   123940898.292        1386.938          44.000                                                                  
C37  25117216.763   130791934.459       -2409.845          42.000                                                                  
C10  39140996.234   203817441.648         717.191          38.000    39140981.226   157604586.372         554.514          41.000  
G08  24033397.893   126296371.378        3581.839          38.000    24033396.923    98412845.415        2790.876          40.000  
G29  25455626.242   133770220.719       -3640.117          36.000    25455616.615   104236479.002       -2836.917          35.000  
C30  25028276.694   130328811.000        2748.664          43.000                                                                  
C13  40859259.114   212764874.560       -2422.861          33.000    40859263.163   164523304.952       -1872.542          38.000  
C08                                                                  41772371.486   168200059.456       -1813.342          35.000  
> 2025 11 03 07 46 31.5200000  0 26                     
G04  21355656.396   112224731.596         988.699          45.000    21355645.536    87447799.932         770.479          47.000  
G16  20184030.942   106067798.890          86.582          46.000                                                                  
G28  23176704.253   121794403.216       -2751.779          40.000    23176693.350    94904672.508       -2144.388          42.000  
G31  21160812.080   111200819.754       -1759.209          47.000    21160799.636    86649933.531       -1370.845          45.000  
G03  24676045.618   129673488.417       -2966.149          34.000    24676040.812   101044247.772       -2311.087          38.000  
G18  25110538.736   131956769.284        1286.634          31.000    25110534.841   102823436.539        1002.611          36.000  
C16  36732602.161   191276303.650          10.430          48.000    36732587.918   147906911.761           7.981          48.000  
C19  23882825.400   124364134.326       -2246.368          45.000                                                                  
C27  23554792.607   122655985.492        1039.545          47.000                                                                  
C06  36290568.989   188974514.544           7.439          47.000    36290548.321   146127006.270           5.781          49.000  
C09  37367830.087   194584096.529         132.496          44.000    37367812.039   150464699.824         102.765          47.000  
C22  24607091.016   128135578.934         536.051          43.000                                                                  
G26  20932301.625   109999989.199       -2000.421          47.000    20932292.591    85714239.149       -1558.801          45.000  
G27  21792752.372   114521689.273        2893.227          45.000    21792743.033    89237661.744        2254.747          43.000  
G09  23784511.753   124988465.845        2685.901          36.000    23784506.246    97393597.065        2092.963          38.000  
C28  24791797.813   129097392.701       -1161.625          44.000                                                                  
C07  38009088.761   197923296.849         774.563          41.000    38009068.603   153046779.727         599.124          45.000  
C20  25717267.658   133916552.046       -3625.900          43.000                                                                  
C36  23801535.521   123940842.806        1387.048          44.000                                                                  
C37  25117235.263   130792030.864       -2410.046          42.000                                                                  
C10  39140990.736   203817412.968         717.059          38.000    39140975.699   157604564.191         554.447          41.000  
G08  24033370.631   126296228.080        3582.222          38.000    24033369.668    98412733.775        2790.853          40.000  
G29  25455653.965   133770366.332       -3640.244          36.000    25455644.329   104236592.488       -2837.148          35.000  
C30  25028255.600   130328701.054        2748.655          43.000                                                                  
C13  40859277.701   212764971.438       -2422.444          33.000    40859281.771   164523379.858       -1872.550          38.000  
C08                                                                  41772389.504   168200131.980       -1813.129          35.000  
> 2025 11 03 07 46 31.5600000  0 26                     
G04  21355648.876   112224692.038         988.881          45.000    21355638.009    87447769.109         770.525          47.000  
G16  20184030.283   106067795.413          86.813          46.000                                                                  
G28  23176725.215   121794513.291       -2751.844          40.000    23176714.294    94904758.279       -2144.305          42.000  
G31  21160825.491   111200890.127       -1759.333          47.000    21160813.015    86649988.363       -1370.793          45.000  
G03  24676068.184   129673607.060       -2966.147          34.000    24676063.379   101044340.240       -2311.559          38.000  
G18  25110528.940   131956717.800        1287.018          31.000    25110525.031   102823396.434        1002.517          36.000  
C16  36732602.099   191276303.230          10.488          48.000    36732587.812   147906911.444           7.903          48.000  
C19  23882842.654   124364224.187       -2246.454          45.000                                                                  
C27  23554784.616   122655943.907        1039.618          47.000                                                                  
C06  36290568.933   188974514.251           7.358          47.000    36290548.257   146127006.037           5.804          49.000  
C09  37367829.070   194584091.219         132.630          44.000    37367811.026   150464695.718         102.733          47.000  
C22  24607086.898   128135557.497         535.982          43.000                                                                  
G26  20932316.847   110000069.219       -2000.452          47.000    20932307.793    85714301.500       -1558.765          45.000  
G27  21792730.347   114521573.530        2893.452          45.000    21792721.013    89237571.568        2254.554          43.000  
G09  23784491.301   124988358.420        2685.712          36.000    23784485.784    97393513.339        2093.048          38.000  
C28  24791806.717   129097439.166       -1161.654          44.000                                                                  
C07  38009082.799   197923265.853         774.784          41.000    38009062.649   153046755.773         598.933          45.000  
C20  25717295.514   133916697.086       -3626.014          43.000                                                                  
C36  23801524.858   123940787.327        1386.957          44.000                                                                  
C37  25117253.764   130792127.263       -2410.042          42.000                                                                  
C10  39140985.235   203817384.259         717.473          38.000    39140970.190   157604542.013         554.408          41.000  
G08  24033343.345   126296084.805        3582.023          38.000    24033342.411    98412622.131        2790.924          40.000  
G29  25455681.691   133770511.956       -3640.443          36.000    25455672.043   104236705.951       -2836.801          35.000  
C30  25028234.486   130328591.112        2748.577          43.000                                                                  
C13  40859296.296   212765068.244       -2420.718          33.000    40859300.346   164523454.778       -1872.879          38.000  
C08                                                                  41772407.472   168200204.475       -1812.567          35.000  
> 2025 11 03 07 46 31.6000000  0 26                     
G04  21355641.325   112224652.493         988.676          45.000    21355630.487    87447738.296         770.365          47.000  
G16  20184029.646   106067791.956          86.531          46.000                                                                  
G28  23176746.166   121794623.370       -2751.924          40.000    23176735.257    94904844.057       -2144.424          42.000  
G31  21160838.856   111200960.490       -1759.216          47.000    21160826.398    86650043.189       -1370.702          45.000  
G03  24676090.737   129673725.711       -2966.224          34.000    24676085.962   101044432.692       -2311.539          38.000  
G18  25110519.126   131956666.321        1287.098          31.000    25110515.244   102823356.344        1002.229          36.000  
C16  36732602.021   191276302.815          10.421          48.000    36732587.712   147906911.118           8.018          48.000  
C19  23882859.878   124364314.049       -2246.558          45.000                                                                  
C27  23554776.623   122655902.329        1039.513          47.000                                                                  
C06  36290568.882   188974513.948           7.491          47.000    36290548.213   146127005.812           5.670          49.000  
C09  37367828.066   194584085.905         132.783          44.000    37367809.986   150464691.618         102.576          47.000  
C22  24607082.770   128135536.049         536.097          43.000                                                                  
G26  20932332.056   110000149.238       -2000.452          47.000    20932323.012    85714363.851       -1558.771          45.000  
G27  21792708.325   114521457.796        2893.388          45.000    21792698.974    89237481.391        2254.423          43.000  
G09  23784470.855   124988250.993        2685.602          36.000    23784465.348    97393429.638        2092.676          38.000  
C28  24791815.647   129097485.623       -1161.501          44.000                                                                  
C07  38009076.840   197923234.867         774.713          41.000    38009056.697   153046731.816         598.852          45.000  
C20  25717323.388   133916842.117       -3625.906          43.000                                                                  
C36  23801514.240   123940731.837        1387.122          44.000                                                                  
C37  25117272.282   130792223.667       -2410.125          42.000                                                                  
C10  39140979.730   203817355.555         717.631          38.000    39140964.677   157604519.835         554.364          41.000  
G08  24033316.085   126295941.526        3581.990          38.000    24033315.140    98412510.483        2791.042          40.000  
G29  25455709.402   133770657.583       -3640.672          36.000    25455699.741   104236819.390       -2836.223          35.000  
C30  25028213.393   130328481.162        2748.636          43.000                                                                  
C13  40859314.898   212765165.101       -2420.882          33.000    40859318.942   164523529.686       -1872.793          38.000  
C08                                                                  41772425.494   168200276.996       -1812.744          35.000  
> 2025 11 03 07 46 31.6400000  0 26                     
G04  21355633.812   112224612.949         988.604          45.000    21355622.948    87447707.479         770.371          47.000  
G16  20184029.000   106067788.504          86.315          46.000                                                                  
G28  23176767.114   121794733.444       -2751.843          40.000    23176756.206    94904929.831       -2144.417          42.000  
G31  21160852.254   111201030.864       -1759.350          47.000    21160839.791    86650098.013       -1370.608          45.000  
G03  24676113.307   129673844.360       -2966.320          34.000    24676108.542   101044525.155       -2311.608          38.000  
G18  25110509.332   131956614.874        1286.564          31.000    25110505.443   102823316.247        1002.260          36.000  
C16  36732601.954   191276302.396          10.440          48.000    36732587.634   147906910.795           8.049          48.000  
C19  23882877.140   124364403.914       -2246.649          45.000                                                                  
C27  23554768.627   122655860.754        1039.390          47.000                                                                  
C06  36290568.837   188974513.646           7.516          47.000    36290548.172   146127005.577           5.757          49.000  
C09  37367827.019   194584080.596         132.767          44.000    37367808.969   150464687.518         102.482          47.000  
C22  24607078.629   128135514.613         535.967          43.000                                                                  
G26  20932347.286   110000229.255       -2000.458          47.000    20932338.241    85714426.202       -1558.795          45.000  
G27  21792686.294   114521342.060        2893.395          45.000    21792676.960    89237391.208        2254.460          43.000  
G09  23784450.418   124988143.575        2685.358          36.000    23784444.913    97393345.945        2092.389          38.000  
C28  24791824.580   129097532.090       -1161.601          44.000                                                                  
C07  38009070.868   197923203.876         774.783          41.000    38009050.750   153046707.850         599.017          45.000  
C20  25717351.227   133916987.159       -3626.025          43.000                                                                  
C36  23801503.601   123940676.356        1387.048          44.000                                                                  
C37  25117290.805   130792320.066       -2410.057          42.000                                                                  
C10  39140974.198   203817326.878         717.191          38.000    39140959.181   157604497.626         554.907          41.000  
G08  24033288.819   126295798.267        3581.656          38.000    24033287.863    98412398.822        2791.354          40.000  
G29  25455737.086   133770803.207       -3640.678          36.000    25455727.452   104236932.855       -2836.361          35.000  
C30  25028192.283   130328371.216        2748.627          43.000                                                                  
C13  40859333.528   212765261.981       -2421.545          33.000    40859337.561   164523604.598       -1872.850          38.000  
C08                                                                  41772443.492   168200349.527       -1813.123          35.000  
> 2025 11 03 07 46 31.6800000  0 26                     
G04  21355626.286   112224573.391         988.792          45.000    21355615.417    87447676.659         770.446          47.000  
G16  20184028.372   106067785.022          86.784          46.000                                                                  
G28  23176788.065   121794843.513       -2751.744          40.000    23176777.151    94905015.593       -2144.187          42.000  
G31  21160865.637   111201101.227       -1759.183          47.000    21160853.191    86650152.848       -1370.759          45.000  
G03  24676135.872   129673962.997       -2966.113          34.000    24676131.119   101044617.583       -2310.995          38.000  
G18  25110499.537   131956563.410        1286.496          31.000    25110495.666   102823276.141        1002.459          36.000  
C16  36732601.882   191276301.976          10.466          48.000    36732587.547   147906910.465           8.178          48.000  
C19  23882894.415   124364493.772       -2246.539          45.000                                                                  
C27  23554760.660   122655819.171        1039.471          47.000                                                                  
C06  36290568.786   188974513.343           7.588          47.000    36290548.125   146127005.345           5.764          49.000  
C09  37367826.004   194584075.281         132.861          44.000    37367807.929   150464683.414         102.536          47.000  
C22  24607074.533   128135493.177         535.897          43.000                                                                  
G26  20932362.540   110000309.272       -2000.427          47.000    20932353.484    85714488.555       -1558.850          45.000  
G27  21792664.268   114521226.321        2893.459          45.000    21792654.920    89237301.023        2254.539          43.000  
G09  23784429.983   124988036.140        2685.614          36.000    23784424.438    97393262.221        2092.902          38.000  
C28  24791833.501   129097578.555       -1161.619          44.000                                                                  
C07  38009064.940   197923172.883         774.838          41.000    38009044.774   153046683.887         599.086          45.000  
C20  25717379.073   133917132.188       -3625.814          43.000                                                                  
C36  23801492.949   123940620.872        1387.073          44.000                                                                  
C37  25117309.341   130792416.450       -2409.754          42.000                                                                  
C10  39140968.691   203817298.188         717.213          38.000    39140953.655   157604475.439         554.849          41.000  
G08  24033261.560   126295654.991        3581.708          38.000    24033260.603    98412287.182        2791.171          40.000  
G29  25455764.770   133770948.791       -3639.945          36.000    25455755.184   104237046.324       -2836.529          35.000  
C30  25028171.165   130328261.261        2748.736          43.000                                                                  
C13  40859352.142   212765358.857       -2421.819          33.000    40859356.197   164523679.481       -1872.334          38.000  
C08                                                                  41772461.501   168200422.050       -1813.165          35.000  
> 2025 11 03 07 46 31.7200000  0 26                     
G04  21355618.767   112224533.849         988.638          45.000    21355607.886    87447645.834         770.555          47.000  
G16  20184027.741   106067781.556          86.688          46.000                                                                  
G28  23176809.019   121794953.608       -2752.167          40.000    23176798.116    94905101.363       -2144.226          42.000  
G31  21160879.011   111201171.577       -1758.880          47.000    21160866.557    86650207.682       -1370.829          45.000  
G03  24676158.447   129674081.648       -2966.274          34.000    24676153.685   101044710.017       -2310.737          38.000  
G18  25110489.731   131956511.947        1286.460          31.000    25110485.854   102823236.007        1003.118          36.000  
C16  36732601.814   191276301.548          10.620          48.000    36732587.474   147906910.131           8.317          48.000  
C19  23882911.683   124364583.633       -2246.552          45.000                                                                  
C27  23554752.693   122655777.585        1039.613          47.000                                                                  
C06  36290568.731   188974513.033           7.722          47.000    36290548.058   146127005.107           5.875          49.000  
C09  37367824.984   194584069.979         132.672          44.000    37367806.933   150464679.305         102.657          47.000  
C22  24607070.422   128135471.732         536.037          43.000                                                                  
G26  20932377.750   110000389.291       -2000.482          47.000    20932368.700    85714550.905       -1558.826          45.000  
G27  21792642.238   114521110.573        2893.625          45.000    21792632.877    89237210.820        2254.943          43.000  
G09  23784409.532   124987928.701        2685.809          36.000    23784403.990    97393178.507        2092.883          38.000  
C28  24791842.421   129097625.011       -1161.483          44.000                                                                  
C07  38009058.989   197923141.888         774.893          41.000    38009038.825   153046659.916         599.210          45.000  
C20  25717406.937   133917277.216       -3625.729          43.000                                                                  
C36  23801482.293   123940565.378        1387.262          44.000                                                                  
C37  25117327.853   130792512.847       -2409.817          42.000                                                                  
C10  39140963.177   203817269.492         717.284          38.000    39140948.132   157604453.250         554.809          41.000  
G08  24033234.310   126295511.712        3581.802          38.000    24033233.337    98412175.540        2791.048          40.000  
G29  25455792.444   133771094.401       -3640.041          36.000    25455782.889   104237159.781       -2836.441          35.000  
C30  25028150.045   130328151.302        2748.847          43.000                                                                  
C13  40859370.761   212765455.735       -2421.932          33.000    40859374.795   164523754.375       -1872.258          38.000  
C08                                                                  41772479.515   168200494.561       -1812.866          35.000  
> 2025 11 03 07 46 31.7600000  0 26                     
G04  21355611.218   112224494.286         988.916          45.000    21355600.349    87447615.015         770.504          47.000  
G16  20184027.087   106067778.104          86.402          46.000                                                                  
G28  23176829.944   121795063.676       -2751.929          40.000    23176819.057    94905187.133       -2144.264          42.000  
G31  21160892.411   111201241.947       -1759.085          47.000    21160879.934    86650262.514       -1370.841          45.000  
G03  24676181.012   129674200.284       -2966.040          34.000    24676176.259   101044802.471       -2311.100          38.000  
G18  25110479.933   131956460.465        1286.818          31.000    25110476.052   102823195.891        1003.095          36.000  
C16  36732601.740   191276301.124          10.601          48.000    36732587.365   147906909.803           8.253          48.000  
C19  23882928.942   124364673.495       -2246.558          45.000                                                                  
C27  23554744.711   122655736.005        1039.520          47.000                                                                  
C06  36290568.692   188974512.731           7.635          47.000    36290548.013   146127004.869           5.945          49.000  
C09  37367823.970   194584064.678         132.520          44.000    37367805.913   150464675.202         102.584          47.000  
C22  24607066.269   128135450.302         535.825          43.000                                                                  
G26  20932392.981   110000469.315       -2000.598          47.000    20932383.924    85714613.259       -1558.856          45.000  
G27  21792620.200   114520994.833        2893.561          45.000    21792610.841    89237120.634        2254.815          43.000  
G09  23784389.090   124987821.254        2686.102          36.000    23784383.537    97393094.778        2093.158          38.000  
C28  24791851.333   129097671.470       -1161.459          44.000                                                                  
C07  38009053.051   197923110.903         774.702          41.000    38009032.873   153046635.954         599.159          45.000  
C20  25717434.774   133917422.254       -3625.858          43.000                                                                  
C36  23801471.651   123940509.889        1387.250          44.000                                                                  
C37  25117346.350   130792609.233       -2409.732          42.000                                                                  
C10  39140957.661   203817240.792         717.398          38.000    39140942.602   157604431.066         554.664          42.000  
G08  24033207.039   126295368.435        3581.835          38.000    24033206.077    98412063.891        2791.096          40.000  
G29  25455820.141   133771240.047       -3640.909          36.000    25455810.597   104237273.271       -2837.059          35.000  
C30  25028128.942   130328041.366        2748.515          43.000                                                                  
C13  40859389.362   212765552.606       -2421.776          33.000    40859393.396   164523829.274       -1872.343          38.000  
C08                                                                  41772497.525   168200567.101       -1813.300          35.000  
> 2025 11 03 07 46 31.8000000  0 26                     
G04  21355603.716   112224454.760         988.362          45.000    21355592.826    87447584.212         770.154          47.000  
G16  20184026.415   106067774.640          86.459          46.000                                                                  
G28  23176850.888   121795173.757       -2752.029          40.000    23176840.024    94905272.923       -2144.650          42.000  
G31  21160905.817   111201312.323       -1759.325          47.000    21160893.330    86650317.334       -1370.605          45.000  
G03  24676203.619   129674318.926       -2965.961          34.000    24676198.851   101044894.938       -2311.566          38.000  
G18  25110470.146   131956409.006        1286.704          31.000    25110466.259   102823155.788        1002.851          36.000  
C16  36732601.669   191276300.708          10.463          48.000    36732587.283   147906909.485           8.028          48.000  
C19  23882946.184   124364763.365       -2246.722          45.000                                                                  
C27  23554736.696   122655694.436        1039.279          47.000                                                                  
C06  36290568.623   188974512.439           7.389          47.000    36290547.981   146127004.646           5.685          49.000  
C09  37367822.945   194584059.376         132.485          44.000    37367804.868   150464671.103         102.455          47.000  
C22  24607062.119   128135428.876         535.625          43.000                                                                  
G26  20932408.213   110000549.336       -2000.580          47.000    20932399.147    85714675.618       -1558.972          45.000  
G27  21792598.187   114520879.114        2893.128          45.000    21792588.831    89237030.455        2254.554          43.000  
G09  23784368.619   124987713.812        2686.139          36.000    23784363.089    97393011.069        2092.889          38.000  
C28  24791860.245   129097717.941       -1161.670          44.000                                                                  
C07  38009047.111   197923079.926         774.452          41.000    38009026.949   153046611.998         598.956          45.000  
C20  25717462.647   133917567.284       -3625.827          43.000                                                                  
C36  23801460.993   123940454.415        1386.951          44.000                                                                  
C37  25117364.834   130792705.634       -2409.908          42.000                                                                  
C10  39140952.146   203817212.121         716.948          38.000    39140937.123   157604408.872         554.783          42.000  
G08  24033179.738   126295225.157        3581.873          38.000    24033178.802    98411952.256        2790.949          40.000  
G29  25455847.866   133771385.655       -3640.614          36.000    25455838.318   104237386.723       -2836.726          35.000  
C30  25028107.836   130327931.426        2748.432          43.000                                                                  
C13  40859407.958   212765649.467       -2421.543          33.000    40859411.997   164523904.190       -1872.804          38.000  
C08                                                                  41772515.523   168200639.610       -1812.946          35.000  
> 2025 11 03 07 46 31.8400000  0 26                     
G04  21355596.197   112224415.221         988.326          45.000    21355585.304    87447553.408         770.005          47.000  
G16  20184025.774   106067771.186          86.354          46.000                                                                  
G28  23176871.812   121795283.822       -2751.717          40.000    23176860.979    94905358.696       -2144.523          42.000  
G31  21160919.228   111201382.706       -1759.583          47.000    21160906.722    86650372.185       -1371.063          45.000  
G03  24676226.192   129674437.555       -2965.772          34.000    24676221.437   101044987.399       -2311.684          38.000  
G18  25110460.344   131956357.551        1286.504          31.000    25110456.466   102823115.704        1002.412          36.000  
C16  36732601.585   191276300.305          10.132          48.000    36732587.174   147906909.171           7.831          48.000  
C19  23882963.423   124364853.242       -2246.936          45.000                                                                  
C27  23554728.718   122655652.865        1039.200          47.000                                                                  
C06  36290568.563   188974512.147           7.250          47.000    36290547.902   146127004.416           5.688          49.000  
C09  37367821.924   194584054.073         132.514          44.000    37367803.855   150464667.007         102.370          47.000  
C22  24607058.015   128135407.446         535.608          43.000                                                                  
G26  20932423.422   110000629.364       -2000.702          47.000    20932414.406    85714737.981       -1559.082          45.000  
G27  21792576.162   114520763.392        2892.962          45.000    21792566.805    89236940.287        2254.220          43.000  
G09  23784348.181   124987606.405        2685.358          36.000    23784342.643    97392927.366        2092.615          38.000  
C28  24791869.179   129097764.420       -1161.932          44.000                                                                  
C07  38009041.174   197923048.944         774.482          41.000    38009020.979   153046588.029         599.102          45.000  
C20  25717490.478   133917712.322       -3625.895          43.000                                                                  
C36  23801450.341   123940398.940        1386.835          44.000                                                                  
C37  25117383.353   130792802.031       -2409.965          42.000                                                                  
C10  39140946.637   203817183.428         717.141          38.000    39140931.589   157604386.694         554.582          42.000  
G08  24033152.469   126295081.899        3581.533          38.000    24033151.537    98411840.621        2790.842          40.000  
G29  25455875.558   133771531.271       -3640.561          36.000    25455866.022   104237500.193       -2836.775          35.000  
C30  25028086.721   130327821.495        2748.244          43.000                                                                  
C13  40859426.559   212765746.322       -2421.358          33.000    40859430.601   164523979.099       -1872.863          38.000  
C08                                                                  41772533.535   168200712.136       -1813.068          35.000  
> 2025 11 03 07 46 31.8800000  0 26                     
G04  21355588.653   112224375.685         988.290          45.000    21355577.794    87447522.605         769.929          47.000  
G16  20184025.137   106067767.742          86.120          46.000                                                                  
G28  23176892.754   121795393.909       -2752.036          40.000    23176881.930    94905444.496       -2144.932          42.000  
G31  21160932.626   111201453.092       -1759.745          47.000    21160920.136    86650427.032       -1371.248          45.000  
G03  24676248.792   129674556.230       -2966.399          34.000    24676244.029   101045079.870       -2311.807          38.000  
G18  25110450.571   131956306.086        1286.509          31.000    25110446.675   102823075.634        1001.889          36.000  
C16  36732601.516   191276299.896          10.070          48.000    36732587.091   147906908.860           7.716          48.000  
C19  23882980.666   124364943.114       -2246.906          45.000                                                                  
C27  23554720.742   122655611.299        1039.071          47.000                                                                  
C06  36290568.497   188974511.864           7.026          47.000    36290547.867   146127004.191           5.592          49.000  
C09  37367820.901   194584048.778         132.381          44.000    37367802.840   150464662.905         102.430          47.000  
C22  24607053.876   128135386.011         535.757          43.000                                                                  
G26  20932438.663   110000709.395       -2000.781          47.000    20932429.644    85714800.342       -1559.088          45.000  
G27  21792554.145   114520647.675        2892.808          45.000    21792544.798    89236850.113        2254.201          43.000  
G09  23784327.742   124987499.012        2684.680          36.000    23784322.203    97392843.675        2092.340          38.000  
C28  24791878.097   129097810.902       -1162.114          44.000                                                                  
C07  38009035.225   197923017.968         774.384          41.000    38009015.049   153046564.072         598.983          45.000  
C20  25717518.330   133917857.374       -3626.237          43.000                                                                  
C36  23801439.660   123940343.467        1386.780          44.000                                                                  
C37  25117401.864   130792898.435       -2410.105          42.000                                                                  
C10  39140941.108   203817154.749         717.014          38.000    39140926.095   157604364.525         554.252          42.000  
G08  24033125.199   126294938.631        3581.538          38.000    24033124.292    98411728.982        2790.860          40.000  
G29  25455903.289   133771676.886       -3640.408          36.000    25455893.729   104237613.670       -2836.967          35.000  
C30  25028065.644   130327711.557        2748.283          43.000                                                                  
C13  40859445.183   212765843.229       -2422.319          33.000    40859449.231   164524054.028       -1873.236          38.000  
C08                                                                  41772551.542   168200784.659       -1813.080          35.000  
> 2025 11 03 07 46 31.9200000  0 26                     
G04  21355581.145   112224336.160         988.127          45.000    21355570.263    87447491.800         770.013          47.000  
G16  20184024.471   106067764.291          86.096          46.000                                                                  
G28  23176913.694   121795504.003       -2752.347          40.000    23176902.887    94905530.273       -2144.642          42.000  
G31  21160946.006   111201523.472       -1759.712          47.000    21160933.543    86650481.865       -1371.077          45.000  
G03  24676271.384   129674674.896       -2966.587          34.000    24676266.617   101045172.327       -2311.620          38.000  
G18  25110440.765   131956254.649        1286.060          31.000    25110436.891   102823035.559        1001.724          36.000  
C16  36732601.476   191276299.487          10.071          48.000    36732587.000   147906908.542           7.781          48.000  
C19  23882997.907   124365032.990       -2246.973          45.000                                                                  
C27  23554712.764   122655569.738        1038.949          47.000                                                                  
C06  36290568.439   188974511.574           7.042          47.000    36290547.845   146127003.965           5.579          49.000  
C09  37367819.919   194584043.478         132.403          44.000    37367801.807   150464658.803         102.495          47.000  
C22  24607049.749   128135364.583         535.691          43.000                                                                  
G26  20932453.883   110000789.433       -2000.946          47.000    20932444.880    85714862.698       -1559.015          45.000  
G27  21792532.089   114520531.959        2892.740          45.000    21792522.761    89236759.947        2254.057          43.000  
G09  23784307.318   124987391.599        2684.778          36.000    23784301.781    97392759.959        2092.584          38.000  
C28  24791887.041   129097857.383       -1162.178          44.000                                                                  
C07  38009029.278   197922986.988         774.429          41.000    38009009.120   153046540.132         598.569          45.000  
C20  25717546.182   133918002.422       -3626.313          43.000                                                                  
C36  23801428.982   123940287.994        1386.774          44.000                                                                  
C37  25117420.387   130792994.855       -2410.475          42.000                                                                  
C10  39140935.595   203817126.071         716.910          38.000    39140920.589   157604342.350         554.248          42.000  
G08  24033097.924   126294795.351        3581.701          38.000    24033097.024    98411617.344        2790.848          40.000  
G29  25455930.989   133771822.513       -3640.610          36.000    25455921.455   104237727.166       -2837.312          35.000  
C30  25028044.537   130327601.613        2748.449          43.000                                                                  
C13  40859463.803   212765940.131       -2422.746          33.000    40859467.849   164524128.966       -1873.589          38.000  
C08                                                                  41772569.558   168200857.204       -1813.440          35.000  
> 2025 11 03 07 46 31.9600000  0 26                     
G04  21355573.626   112224296.629         988.113          45.000    21355562.728    87447460.998         769.976          47.000  
G16  20184023.833   106067760.856          85.868          46.000                                                                  
G28  23176934.666   121795614.111       -2752.749          40.000    23176923.817    94905616.057       -2144.611          42.000  
G31  21160959.384   111201593.855       -1759.706          47.000    21160946.931    86650536.713       -1371.184          45.000  
G03  24676293.943   129674793.583       -2967.075          34.000    24676289.188   101045264.766       -2311.126          38.000  
G18  25110430.976   131956203.184        1286.217          31.000    25110427.122   102822995.446        1002.458          36.000  
C16  36732601.415   191276299.083          10.017          48.000    36732586.907   147906908.225           7.822          48.000  
C19  23883015.156   124365122.871       -2247.101          45.000                                                                  
C27  23554704.765   122655528.183        1038.815          47.000                                                                  
C06  36290568.396   188974511.281           7.162          47.000    36290547.824   146127003.748           5.422          49.000  
C09  37367818.898   194584038.191         132.185          44.000    37367800.776   150464654.707         102.396          47.000  
C22  24607045.619   128135343.181         535.185          43.000                                                                  
G26  20932469.111   110000869.468       -2000.946          47.000    20932460.089    85714925.063       -1559.113          45.000  
G27  21792510.049   114520416.242        2892.776          45.000    21792500.754    89236669.783        2253.974          43.000  
G09  23784286.858   124987284.174        2685.211          36.000    23784281.366    97392676.268        2092.285          38.000  
C28  24791895.965   129097903.867       -1162.236          44.000                                                                  
C07  38009023.354   197922956.012         774.367          41.000    38009003.194   153046516.185         598.537          45.000  
C20  25717574.024   133918147.465       -3626.208          43.000                                                                  
C36  23801418.331   123940232.516        1386.884          44.000                                                                  
C37  25117438.898   130793091.275       -2410.652          42.000                                                                  
C10  39140930.109   203817097.392         716.919          38.000    39140915.072   157604320.187         554.052          42.000  
G08  24033070.682   126294652.098        3581.457          38.000    24033069.777    98411505.722        2790.595          40.000  
G29  25455958.722   133771968.167       -3641.217          36.000    25455949.179   104237840.649       -2837.264          35.000  
C30  25028023.430   130327491.675        2748.462          43.000                                                                  
C13  40859482.414   212766037.008       -2422.397          33.000    40859486.451   164524203.873       -1873.129          38.000  
C08                                                                  41772587.557   168200929.731       -1813.269          35.000  
> 2025 11 03 07 46 32.0000000  0 26                     
G04  21355566.131   112224257.108         987.996          45.000    21355555.216    87447430.198         769.968          47.000  
G16  20184023.173   106067757.412          85.965          46.000                                                                  
G28  23176955.617   121795724.220       -2752.866          40.000    23176944.766    94905701.837       -2144.492          42.000  
G31  21160972.752   111201664.235       -1759.606          47.000    21160960.313    86650591.559       -1371.220          45.000  
G03  24676316.528   129674912.248       -2966.879          34.000    24676311.777   101045357.224       -2311.259          38.000  
G18  25110421.171   131956151.743        1285.976          31.000    25110417.342   102822955.356        1002.445          36.000  
C16  36732601.373   191276298.677          10.062          48.000    36732586.814   147906907.916           7.705          48.000  
C19  23883032.374   124365212.756       -2247.205          45.000                                                                  
C27  23554696.767   122655486.623        1038.872          47.000                                                                  
C06  36290568.334   188974510.990           7.196          47.000    36290547.779   146127003.529           5.389          49.000  
C09  37367817.894   194584032.893         132.286          44.000    37367799.776   150464650.613         102.302          47.000  
C22  24607041.488   128135321.765         535.212          43.000                                                                  
G26  20932484.325   110000949.511       -2001.086          47.000    20932475.332    85714987.441       -1559.393          45.000  
G27  21792487.996   114520300.520        2892.926          45.000    21792478.722    89236579.616        2254.077          43.000  
G09  23784266.396   124987176.759        2685.297          36.000    23784260.928    97392592.567        2092.358          38.000  
C28  24791904.895   129097950.353       -1162.247          44.000                                                                  
C07  38009017.419   197922925.052         774.093          41.000    38008997.241   153046492.239         598.567          45.000  
C20  25717601.876   133918292.512       -3626.173          43.000                                                                  
C36  23801407.668   123940177.046        1386.780          44.000                                                                  
C37  25117457.419   130793187.683       -2410.494          42.000                                                                  
C10  39140924.619   203817068.728         716.693          38.000    39140909.576   157604298.009         554.240          42.000  
G08  24033043.409   126294508.841        3581.373          38.000    24033042.515    98411394.089        2790.678          40.000  
G29  25455986.446   133772113.787       -3640.917          36.000    25455976.904   104237954.127       -2837.078          35.000  
C30  25028002.333   130327381.740        2748.381          43.000                                                                  
C13  40859501.010   212766133.897       -2422.317          33.000    40859505.036   164524278.774       -1872.714          38.000  
C08                                                                  41772605.571   168201002.263       -1813.367          35.000  
> 2025 11 03 07 46 32.0400000  0 26                     
G04  21355558.609   112224217.569         988.259          45.000    21355547.689    87447399.401         769.911          47.000  
G16  20184022.493   106067753.962          86.089          46.000                                                                  
G28  23176976.568   121795834.314       -2752.614          40.000    23176965.726    94905787.630       -2144.692          42.000  
G31  21160986.144   111201734.626       -1759.766          47.000    21160973.714    86650646.416       -1371.422          45.000  
G03  24676339.108   129675030.893       -2966.428          34.000    24676334.367   101045449.673       -2311.219          38.000  
G18  25110411.344   131956100.324        1285.371          31.000    25110407.558   102822915.270        1002.295          36.000  
C16  36732601.311   191276298.275          10.018          48.000    36732586.711   147906907.608           7.623          48.000  
C19  23883049.623   124365302.644       -2247.290          45.000                                                                  
C27  23554688.795   122655445.064        1038.903          47.000                                                                  
C06  36290568.277   188974510.711           7.012          47.000    36290547.702   146127003.316           5.283          49.000  
C09  37367816.905   194584027.596         132.339          44.000    37367798.770   150464646.526         102.138          47.000  
C22  24607037.374   128135300.358         535.081          43.000                                                                  
G26  20932499.558   110001029.553       -2001.147          47.000    20932490.580    85715049.812       -1559.424          45.000  
G27  21792465.978   114520184.804        2892.912          45.000    21792456.694    89236489.442        2254.228          43.000  
G09  23784245.965   124987069.338        2685.449          36.000    23784240.501    97392508.889        2091.968          38.000  
C28  24791913.813   129097996.846       -1162.396          44.000                                                                  
C07  38009011.459   197922894.088         774.001          41.000    38008991.295   153046468.294         598.568          45.000  
C20  25717629.728   133918437.565       -3626.293          43.000                                                                  
C36  23801396.996   123940121.587        1386.530          44.000                                                                  
C37  25117475.941   130793284.087       -2410.298          42.000                                                                  
C10  39140919.111   203817040.057         716.710          38.000    39140904.059   157604275.844         554.113          42.000  
G08  24033016.131   126294365.578        3581.397          38.000    24033015.244    98411282.462        2790.613          40.000  
G29  25456014.146   133772259.427       -3641.042          36.000    25456004.609   104238067.589       -2836.743          35.000  
C30  25027981.187   130327271.823        2747.982          43.000                                                                  
C13  40859519.597   212766230.801       -2422.400          33.000    40859523.637   164524353.669       -1872.386          38.000  
C08                                                                  41772623.579   168201074.808       -1813.544          35.000  
> 2025 11 03 07 46 32.0800000  0 26                     
G04  21355551.081   112224178.055         987.996          44.000    21355540.189    87447368.610         769.768          47.000  
G16  20184021.853   106067750.523          85.990          46.000                                                                  
G28  23176997.516   121795944.402       -2752.372          40.000    23176986.682    94905873.429       -2144.916          42.000  
G31  21160999.533   111201805.027       -1759.987          47.000    21160987.087    86650701.267       -1371.385          45.000  
G03  24676361.678   129675149.561       -2966.614          34.000    24676356.947   101045542.166       -2312.061          38.000  
G18  25110401.539   131956048.897        1285.350          31.000    25110397.769   102822875.188        1002.154          36.000  
C16  36732601.253   191276297.875           9.962          48.000    36732586.651   147906907.297           7.641          48.000  
C19  23883066.871   124365392.539       -2247.412          45.000                                                                  
C27  23554680.801   122655403.513        1038.792          47.000                                                                  
C06  36290568.217   188974510.437           6.827          47.000    36290547.690   146127003.100           5.298          49.000  
C09  37367815.886   194584022.311         132.133          44.000    37367797.763   150464642.439         102.066          47.000  
C22  24607033.289   128135278.941         535.234          43.000                                                                  
G26  20932514.781   110001109.595       -2001.105          47.000    20932505.790    85715112.181       -1559.314          45.000  
G27  21792443.956   114520069.092        2892.806          45.000    21792434.669    89236399.270        2254.261          43.000  
G09  23784225.549   124986961.933        2685.199          36.000    23784220.055    97392425.191        2092.188          38.000  
C28  24791922.753   129098043.335       -1162.361          44.000                                                                  
C07  38009005.544   197922863.109         774.288          41.000    38008985.346   153046444.343         598.669          45.000  
C20  25717657.571   133918582.623       -3626.451          43.000                                                                  
C36  23801386.341   123940066.129        1386.401          44.000                                                                  
C37  25117494.462   130793380.500       -2410.311          42.000                                                                  
C10  39140913.626   203817011.385         716.749          38.000    39140898.545   157604253.677         554.100          42.000  
G08  24032988.876   126294222.339        3581.023          38.000    24032987.992    98411170.844        2790.439          40.000  
G29  25456041.852   133772405.064       -3640.990          36.000    25456032.321   104238181.063       -2836.782          35.000  
C30  25027960.043   130327161.904        2747.890          43.000                                                                  
C13  40859538.193   212766327.650       -2421.384          33.000    40859542.248   164524428.591       -1872.775          38.000  
C08                                                                  41772641.581   168201147.350       -1813.605          35.000  
> 2025 11 03 07 46 32.1200000  0 26                     
G04  21355543.563   112224138.546         987.743          45.000    21355532.649    87447337.821         769.668          47.000  
G16  20184021.178   106067747.088          85.847          46.000                                                                  
G28  23177018.488   121796054.497       -2752.355          40.000    23177007.630    94905959.224       -2144.951          42.000  
G31  21161012.924   111201875.418       -1759.950          47.000    21161000.482    86650756.115       -1371.291          45.000  
G03  24676384.263   129675268.222       -2966.545          34.000    24676379.532   101045634.631       -2311.943          38.000  
G18  25110391.748   131955997.438        1286.016          31.000    25110387.980   102822835.094        1002.243          36.000  
C16  36732601.197   191276297.476           9.939          48.000    36732586.561   147906906.981           7.782          48.000  
C19  23883084.156   124365482.425       -2247.284          45.000                                                                  
C27  23554672.797   122655361.966        1038.657          47.000                                                                  
C06  36290568.182   188974510.160           6.830          47.000    36290547.673   146127002.883           5.355          49.000  
C09  37367814.880   194584017.021         132.163          44.000    37367796.736   150464638.351         102.096          47.000  
C22  24607029.178   128135257.520         535.417          43.000                                                                  
G26  20932530.019   110001189.643       -2001.233          47.000    20932521.023    85715174.557       -1559.387          45.000  
G27  21792421.934   114519953.391        2892.568          45.000    21792412.651    89236309.124        2253.842          43.000  
G09  23784205.101   124986854.534        2684.979          36.000    23784199.615    97392341.497        2092.279          38.000  
C28  24791931.690   129098089.827       -1162.384          44.000                                                                  
C07  38008999.605   197922832.139         774.280          41.000    38008979.414   153046420.396         598.656          45.000  
C20  25717685.438   133918727.669       -3626.302          43.000                                                                  
C36  23801375.675   123940010.662        1386.566          44.000                                                                  
C37  25117512.959   130793476.918       -2410.407          42.000                                                                  
C10  39140908.077   203816982.704         716.920          38.000    39140893.033   157604231.504         554.231          42.000  
G08  24032961.622   126294079.076        3581.281          38.000    24032960.726    98411059.214        2790.566          40.000  
G29  25456069.565   133772550.694       -3640.888          36.000    25456060.049   104238294.577       -2837.452          35.000  
C30  25027938.935   130327051.981        2747.895          43.000                                                                  
C13  40859556.799   212766424.508       -2421.153          33.000    40859560.860   164524503.526       -1873.232          38.000  
C08                                                                  41772659.599   168201219.903       -1813.843          35.000  
> 2025 11 03 07 46 32.1600000  0 26                     
G04  21355536.044   112224099.035         987.618          44.000    21355525.121    87447307.031         769.656          47.000  
G16  20184020.555   106067743.661          85.668          46.000                                                                  
G28  23177039.411   121796164.611       -2752.698          40.000    23177028.574    94906045.019       -2144.892          42.000  
G31  21161026.304   111201945.812       -1759.945          47.000    21161013.868    86650810.972       -1371.401          45.000  
G03  24676406.861   129675386.885       -2966.532          34.000    24676402.115   101045727.098       -2311.806          38.000  
G18  25110381.971   131955945.957        1286.642          31.000    25110378.207   102822795.023        1001.895          36.000  
C16  36732601.135   191276297.080           9.855          48.000    36732586.476   147906906.680           7.592          48.000  
C19  23883101.417   124365572.313       -2247.241          45.000                                                                  
C27  23554664.803   122655320.418        1038.615          47.000                                                                  
C06  36290568.164   188974509.877           6.962          47.000    36290547.629   146127002.665           5.414          49.000  
C09  37367813.838   194584011.740         131.998          44.000    37367795.749   150464634.262         102.144          47.000  
C22  24607025.039   128135236.124         535.055          43.000                                                                  
G26  20932545.249   110001269.692       -2001.300          47.000    20932536.274    85715236.924       -1559.259          45.000  
G27  21792399.908   114519837.686        2892.523          45.000    21792390.648    89236218.957        2253.948          43.000  
G09  23784184.675   124986747.141        2684.821          36.000    23784179.172    97392257.815        2092.010          38.000  
C28  24791940.622   129098136.323       -1162.412          44.000                                                                  
C07  38008993.629   197922801.177         774.103          41.000    38008973.457   153046396.460         598.429          45.000  
C20  25717713.305   133918872.727       -3626.449          43.000                                                                  
C36  23801365.023   123939955.203        1386.475          44.000                                                                  
C37  25117531.484   130793573.348       -2410.710          42.000                                                                  
C10  39140902.548   203816954.035         716.776          38.000    39140887.525   157604209.327         554.339          42.000  
G08  24032934.357   126293935.815        3581.410          38.000    24032933.457    98410947.576        2790.841          40.000  
G29  25456097.293   133772696.339       -3640.974          35.000    25456087.766   104238408.046       -2837.068          35.000  
C30  25027917.832   130326942.047        2748.119          43.000                                                                  
C13  40859575.393   212766521.438       -2422.586          33.000    40859579.493   164524578.451       -1873.245          38.000  
C08                                                                  41772677.607   168201292.416       -1813.275          35.000  
> 2025 11 03 07 46 32.2000000  0 26                     
G04  21355528.513   112224059.512         987.828          45.000    21355517.613    87447276.239         769.686          47.000  
G16  20184019.896   106067740.231          85.658          46.000                                                                  
G28  23177060.350   121796274.695       -2752.329          40.000    23177049.523    94906130.814       -2144.867          42.000  
G31  21161039.685   111202016.204       -1759.903          47.000    21161027.261    86650865.826       -1371.416          45.000  
G03  24676429.435   129675505.546       -2966.479          34.000    24676424.688   101045819.576       -2311.940          38.000  
G18  25110372.166   131955894.503        1286.515          31.000    25110368.446   102822754.961        1001.576          36.000  
C16  36732601.077   191276296.680           9.918          48.000    36732586.380   147906906.367           7.705          48.000  
C19  23883118.670   124365662.205       -2247.296          45.000                                                                  
C27  23554656.870   122655278.868        1038.640          47.000                                                                  
C06  36290568.126   188974509.599           6.920          47.000    36290547.598   146127002.444           5.510          49.000  
C09  37367812.825   194584006.454         132.048          44.000    37367794.738   150464630.169         102.260          47.000  
C22  24607020.942   128135214.716         535.069          43.000                                                                  
G26  20932560.480   110001349.737       -2001.221          47.000    20932551.525    85715299.296       -1559.296          45.000  
G27  21792377.886   114519721.981        2892.529          45.000    21792368.637    89236128.803        2253.841          43.000  
G09  23784164.231   124986639.733        2684.979          36.000    23784158.718    97392174.108        2092.438          38.000  
C28  24791949.529   129098182.816       -1162.424          44.000                                                                  
C07  38008987.708   197922770.208         774.130          41.000    38008967.520   153046372.514         598.494          45.000  
C20  25717741.157   133919017.783       -3626.472          43.000                                                                  
C36  23801354.358   123939899.734        1386.639          44.000                                                                  
C37  25117550.012   130793669.760       -2410.469          42.000                                                                  
C10  39140897.045   203816925.356         716.890          38.000    39140882.021   157604187.156         554.293          42.000  
G08  24032907.084   126293792.546        3581.604          38.000    24032906.186    98410835.950        2790.733          40.000  
G29  25456124.997   133772841.973       -3640.905          35.000    25456115.490   104238521.547       -2837.448          35.000  
C30  25027896.731   130326832.111        2748.305          43.000                                                                  
C13  40859594.009   212766618.335       -2422.669          33.000    40859598.086   164524653.358       -1872.884          38.000  
C08                                                                  41772695.621   168201364.960       -1813.477          35.000  
> 2025 11 03 07 46 32.2400000  0 26                     
G04  21355520.970   112224019.997         987.850          44.000    21355510.093    87447245.439         769.865          47.000  
G16  20184019.220   106067736.790          85.903          46.000                                                                  
G28  23177081.311   121796384.804       -2752.573          40.000    23177070.484    94906216.608       -2144.830          42.000  
G31  21161053.088   111202086.596       -1759.854          47.000    21161040.673    86650920.681       -1371.421          45.000  
G03  24676452.009   129675624.209       -2966.529          34.000    24676447.255   101045912.030       -2311.676          38.000  
G18  25110362.383   131955843.094        1285.639          31.000    25110358.643   102822714.878        1001.798          36.000  
C16  36732601.013   191276296.276          10.024          48.000    36732586.291   147906906.053           7.796          48.000  
C19  23883135.932   124365752.091       -2247.192          45.000                                                                  
C27  23554648.880   122655237.312        1038.775          47.000                                                                  
C06  36290568.059   188974509.311           7.100          47.000    36290547.543   146127002.224           5.505          49.000  
C09  37367811.807   194584001.162         132.204          44.000    37367793.707   150464626.081         102.240          47.000  
C22  24607016.844   128135193.306         535.159          43.000                                                                  
G26  20932575.699   110001429.775       -2001.038          47.000    20932566.766    85715361.669       -1559.332          45.000  
G27  21792355.845   114519606.271        2892.641          45.000    21792346.627    89236038.637        2254.031          43.000  
G09  23784143.786   124986532.316        2685.278          36.000    23784138.291    97392090.401        2092.670          38.000  
C28  24791958.454   129098229.309       -1162.397          44.000                                                                  
C07  38008981.752   197922739.255         773.905          41.000    38008961.565   153046348.566         598.634          45.000  
C20  25717769.022   133919162.834       -3626.376          43.000                                                                  
C36  23801343.710   123939844.269        1386.670          44.000                                                                  
C37  25117568.519   130793766.165       -2410.224          42.000                                                                  
C10  39140891.542   203816896.694         716.683          38.000    39140876.515   157604164.985         554.253          42.000  
G08  24032879.843   126293649.308        3581.223          38.000    24032878.934    98410724.338        2790.399          40.000  
G29  25456152.732   133772987.632       -3641.283          35.000    25456143.221   104238635.049       -2837.687          35.000  
C30  25027875.644   130326722.171        2748.494          43.000                                                                  
C13  40859612.645   212766715.239       -2422.762          33.000    40859616.684   164524728.282       -1873.019          38.000  
C08                                                                  41772713.633   168201437.462       -1812.823          35.000  
> 2025 11 03 07 46 32.2800000  0 26                     
G04  21355513.442   112223980.485         987.782          45.000    21355502.600    87447214.652         769.745          47.000  
G16  20184018.570   106067733.364          85.708          46.000                                                                  
G28  23177102.272   121796494.933       -2753.082          40.000    23177091.423    94906302.398       -2144.762          42.000  
G31  21161066.505   111202156.996       -1759.990          47.000    21161054.050    86650975.529       -1371.292          45.000  
G03  24676474.596   129675742.903       -2967.206          34.000    24676469.815   101046004.497       -2311.658          38.000  
G18  25110352.609   131955791.697        1284.800          30.000    25110348.854   102822674.796        1001.875          36.000  
C16  36732600.945   191276295.876           9.994          48.000    36732586.189   147906905.744           7.755          48.000  
C19  23883153.191   124365841.982       -2247.284          45.000                                                                  
C27  23554640.904   122655195.765        1038.701          47.000                                                                  
C06  36290567.989   188974509.028           7.087          47.000    36290547.523   146127002.011           5.352          49.000  
C09  37367810.797   194583995.870         132.292          44.000    37367792.700   150464621.994         102.187          47.000  
C22  24607012.754   128135171.904         535.048          43.000                                                                  
G26  20932590.956   110001509.822       -2001.129          47.000    20932581.984    85715424.047       -1559.442          45.000  
G27  21792333.807   114519490.565        2892.601          45.000    21792324.624    89235948.477        2254.029          43.000  
G09  23784123.339   124986424.907        2685.272          36.000    23784117.844    97392006.705        2092.578          38.000  
C28  24791967.403   129098275.807       -1162.468          44.000                                                                  
C07  38008975.806   197922708.289         774.014          41.000    38008955.664   153046324.618         598.683          45.000  
C20  25717796.891   133919307.896       -3626.528          43.000                                                                  
C36  23801333.046   123939788.814        1386.475          44.000                                                                  
C37  25117587.028   130793862.581       -2410.314          42.000                                                                  
C10  39140886.031   203816868.009         716.933          38.000    39140871.003   157604142.811         554.294          41.000  
G08  24032852.584   126293506.061        3581.057          38.000    24032851.670    98410612.710        2790.501          40.000  
G29  25456180.465   133773133.275       -3641.173          35.000    25456170.949   104238748.524       -2837.222          35.000  
C30  25027854.529   130326612.255        2748.106          43.000                                                                  
C13  40859631.270   212766812.131       -2422.583          33.000    40859635.283   164524803.192       -1872.829          38.000  
C08                                                                  41772731.634   168201509.983       -1812.799          35.000  
> 2025 11 03 07 46 32.3200000  0 26                     
G04  21355505.925   112223940.974         987.732          45.000    21355495.080    87447183.868         769.613          47.000  
G16  20184017.937   106067729.933          85.728          46.000                                                                  
G28  23177123.231   121796605.024       -2752.687          40.000    23177112.368    94906388.191       -2144.813          42.000  
G31  21161079.894   111202227.394       -1760.035          47.000    21161067.430    86651030.387       -1371.410          45.000  
G03  24676497.188   129675861.605       -2967.743          34.000    24676492.391   101046096.980       -2311.980          38.000  
G18  25110342.826   131955740.249        1285.395          30.000    25110339.054   102822634.700        1002.113          36.000  
C16  36732600.858   191276295.484           9.830          48.000    36732586.076   147906905.441           7.610          48.000  
C19  23883170.461   124365931.880       -2247.437          45.000                                                                  
C27  23554632.931   122655154.222        1038.566          47.000                                                                  
C06  36290567.969   188974508.754           6.906          47.000    36290547.495   146127001.802           5.216          49.000  
C09  37367809.779   194583990.580         132.289          44.000    37367791.656   150464617.910         102.097          48.000  
C22  24607008.639   128135150.505         534.946          43.000                                                                  
G26  20932606.182   110001589.871       -2001.208          47.000    20932597.243    85715486.430       -1559.583          45.000  
G27  21792311.781   114519374.866        2892.465          45.000    21792302.609    89235858.317        2254.022          43.000  
G09  23784102.898   124986317.518        2684.851          36.000    23784097.416    97391923.039        2091.901          38.000  
C28  24791976.326   129098322.306       -1162.490          44.000                                                                  
C07  38008969.874   197922677.326         774.001          41.000    38008949.711   153046300.676         598.614          45.000  
C20  25717824.775   133919452.959       -3626.634          43.000                                                                  
C36  23801322.376   123939733.357        1386.389          44.000                                                                  
C37  25117605.529   130793959.001       -2410.492          42.000                                                                  
C10  39140880.535   203816839.359         716.498          38.000    39140865.497   157604120.655         554.029          41.000  
G08  24032825.338   126293362.808        3581.112          38.000    24032824.407    98410501.091        2790.424          40.000  
G29  25456208.171   133773278.924       -3641.290          35.000    25456198.652   104238861.995       -2836.927          35.000  
C30  25027833.415   130326502.343        2747.820          43.000                                                                  
C13  40859649.891   212766909.021       -2422.445          33.000    40859653.869   164524878.117       -1873.014          38.000  
C08                                                                  41772749.647   168201582.547       -1813.757          35.000  
> 2025 11 03 07 46 32.3600000  0 26                     
G04  21355498.424   112223901.477         987.451          45.000    21355487.580    87447153.093         769.393          47.000  
G16  20184017.286   106067726.517          85.455          46.000                                                                  
G28  23177144.177   121796715.122       -2752.595          40.000    23177133.324    94906473.997       -2145.068          42.000  
G31  21161093.319   111202297.800       -1760.155          47.000    21161080.845    86651085.250       -1371.583          45.000  
G03  24676519.777   129675980.273       -2967.213          34.000    24676514.981   101046189.452       -2311.912          38.000  
G18  25110333.031   131955688.835        1285.169          30.000    25110329.261   102822594.619        1002.033          36.000  
C16  36732600.773   191276295.093           9.730          48.000    36732585.997   147906905.148           7.360          48.000  
C19  23883187.697   124366021.793       -2247.791          45.000                                                                  
C27  23554624.948   122655112.686        1038.394          47.000                                                                  
C06  36290567.913   188974508.489           6.654          47.000    36290547.461   146127001.594           5.109          49.000  
C09  37367808.743   194583985.303         132.037          44.000    37367790.647   150464613.835         101.862          48.000  
C22  24607004.558   128135129.112         534.806          43.000                                                                  
G26  20932621.441   110001669.938       -2001.599          47.000    20932612.474    85715548.815       -1559.705          45.000  
G27  21792289.778   114519259.183        2892.131          45.000    21792280.596    89235768.181        2253.550          43.000  
G09  23784082.477   124986210.133        2684.583          36.000    23784076.998    97391839.391        2091.205          38.000  
C28  24791985.274   129098368.818       -1162.741          44.000                                                                  
C07  38008963.935   197922646.367         773.900          41.000    38008943.787   153046276.741         598.431          45.000  
C20  25717852.660   133919598.021       -3626.644          43.000                                                                  
C36  23801311.719   123939677.909        1386.200          44.000                                                                  
C37  25117624.051   130794055.436       -2410.804          42.000                                                                  
C10  39140875.033   203816810.696         716.441          38.000    39140859.996   157604098.496         553.903          41.000  
G08  24032798.083   126293219.544        3581.325          38.000    24032797.157    98410389.485        2790.126          41.000  
G29  25456235.901   133773424.574       -3641.324          35.000    25456226.373   104238975.508       -2837.567          35.000  
C30  25027812.301   130326392.432        2747.687          43.000                                                                  
C13  40859668.512   212767005.933       -2422.669          33.000    40859672.447   164524953.059       -1873.420          38.000  
C08                                                                  41772767.656   168201655.104       -1814.014          35.000  
> 2025 11 03 07 46 32.4000000  0 26                     
G04  21355490.906   112223861.995         987.045          45.000    21355480.073    87447122.331         769.053          47.000  
G16  20184016.658   106067723.112          85.127          46.000                                                                  
G28  23177165.130   121796825.256       -2753.231          40.000    23177154.294    94906559.810       -2145.334          42.000  
G31  21161106.742   111202368.226       -1760.580          47.000    21161094.240    86651140.124       -1371.854          45.000  
G03  24676542.362   129676098.956       -2967.148          34.000    24676537.572   101046281.954       -2312.405          38.000  
G18  25110323.227   131955637.354        1286.302          30.000    25110319.492   102822554.563        1001.659          36.000  
C16  36732600.697   191276294.723           9.325          48.000    36732585.907   147906904.854           7.259          48.000  
C19  23883204.940   124366111.716       -2248.151          45.000                                                                  
C27  23554616.957   122655071.161        1038.093          47.000                                                                  
C06  36290567.872   188974508.230           6.420          47.000    36290547.420   146127001.400           4.846          49.000  
C09  37367807.733   194583980.039         131.663          44.000    37367789.651   150464609.764         101.720          48.000  
C22  24607000.426   128135107.735         534.475          43.000                                                                  
G26  20932636.703   110001750.009       -2001.874          47.000    20932627.731    85715611.203       -1559.784          45.000  
G27  21792267.750   114519143.500        2891.959          45.000    21792258.560    89235678.039        2253.367          43.000  
G09  23784062.047   124986102.753        2684.381          36.000    23784056.548    97391755.711        2091.547          38.000  
C28  24791994.196   129098415.349       -1163.224          44.000                                                                  
C07  38008958.001   197922615.427         773.512          41.000    38008937.843   153046252.815         598.163          45.000  
C20  25717880.518   133919743.101       -3626.965          43.000                                                                  
C36  23801301.068   123939622.474        1385.876          44.000                                                                  
C37  25117642.555   130794151.878       -2411.086          42.000                                                                  
C10  39140869.557   203816782.056         716.037          38.000    39140854.501   157604076.353         553.594          41.000  
G08  24032770.830   126293076.308        3580.978          38.000    24032769.905    98410277.859        2790.350          41.000  
G29  25456263.610   133773570.235       -3641.514          35.000    25456254.098   104239088.996       -2837.376          35.000  
C30  25027791.195   130326282.532        2747.444          43.000                                                                  
C13  40859687.105   212767102.838       -2422.732          33.000    40859691.044   164525028.000       -1873.624          38.000  
C08                                                                  41772785.699   168201727.666       -1814.221          35.000  
> 2025 11 03 07 46 32.4400000  0 26                     
G04  21355483.398   112223822.512         986.892          45.000    21355472.539    87447091.563         769.003          47.000  
G16  20184016.006   106067719.706          84.994          46.000                                                                  
G28  23177186.097   121796935.395       -2753.592          40.000    23177175.262    94906645.637       -2145.723          42.000  
G31  21161120.142   111202438.651       -1760.731          47.000    21161107.623    86651195.014       -1372.217          45.000  
G03  24676564.956   129676217.653       -2967.328          34.000    24676560.163   101046374.431       -2312.145          38.000  
G18  25110313.413   131955585.925        1286.036          30.000    25110309.719   102822514.533        1000.896          36.000  
C16  36732600.636   191276294.348           9.227          48.000    36732585.832   147906904.568           7.111          48.000  
C19  23883222.235   124366201.634       -2248.181          45.000                                                                  
C27  23554608.951   122655029.644        1037.830          47.000                                                                  
C06  36290567.829   188974507.987           6.051          47.000    36290547.381   146127001.209           4.659          49.000  
C09  37367806.695   194583974.782         131.353          44.000    37367788.620   150464605.698         101.581          48.000  
C22  24606996.325   128135086.368         534.114          43.000                                                                  
G26  20932651.932   110001830.087       -2002.069          47.000    20932642.988    85715673.609       -1560.138          45.000  
G27  21792245.745   114519027.823        2891.806          45.000    21792236.544    89235587.903        2253.222          43.000  
G09  23784041.606   124985995.396        2683.862          36.000    23784036.111    97391672.024        2091.968          38.000  
C28  24792003.120   129098461.876       -1163.357          44.000                                                                  
C07  38008952.066   197922584.487         773.380          42.000    38008931.917   153046228.899         597.872          45.000  
C20  25717908.374   133919888.187       -3627.199          43.000                                                                  
C36  23801290.430   123939567.032        1385.913          44.000                                                                  
C37  25117661.078   130794248.327       -2411.340          42.000                                                                  
C10  39140864.044   203816753.409         715.953          38.000    39140848.989   157604054.196         553.723          41.000  
G08  24032743.578   126292933.095        3580.388          38.000    24032742.658    98410166.261        2790.043          41.000  
G29  25456291.314   133773715.885       -3641.380          35.000    25456281.814   104239202.530       -2838.192          35.000  
C30  25027770.107   130326172.622        2747.532          43.000                                                                  
C13  40859705.701   212767199.715       -2422.104          33.000    40859709.664   164525102.941       -1873.681          38.000  
C08                                                                  41772803.696   168201800.214       -1813.989          35.000  
> 2025 11 03 07 46 32.4800000  0 26                     
G04  21355475.864   112223783.034         986.798          45.000    21355465.014    87447060.802         768.901          47.000  
G16  20184015.340   106067716.307          84.854          46.000                                                                  
G28  23177207.058   121797045.533       -2753.667          40.000    23177196.230    94906731.452       -2145.613          42.000  
G31  21161133.536   111202509.080       -1760.840          47.000    21161121.013    86651249.892       -1372.219          45.000  
G03  24676587.518   129676336.329       -2967.146          34.000    24676582.734   101046466.920       -2312.216          38.000  
G18  25110303.642   131955534.549        1284.813          30.000    25110299.954   102822474.469        1001.135          36.000  
C16  36732600.583   191276293.977           9.141          48.000    36732585.750   147906904.280           7.108          48.000  
C19  23883239.511   124366291.553       -2248.120          45.000                                                                  
C27  23554600.968   122654988.132        1037.666          47.000                                                                  
C06  36290567.793   188974507.733           6.062          47.000    36290547.329   146127001.010           4.767          49.000  
C09  37367805.693   194583969.524         131.274          44.000    37367787.608   150464601.619         101.752          48.000  
C22  24606992.222   128135064.992         534.130          43.000                                                                  
G26  20932667.179   110001910.161       -2002.039          47.000    20932658.214    85715736.003       -1560.071          45.000  
G27  21792223.730   114518912.146        2891.772          45.000    21792214.529    89235497.763        2253.309          43.000  
G09  23784021.196   124985888.014        2684.180          36.000    23784015.689    97391588.352        2091.840          38.000  
C28  24792012.051   129098508.398       -1163.283          44.000                                                                  
C07  38008946.133   197922553.549         773.284          42.000    38008925.987   153046204.976         597.884          45.000  
C20  25717936.255   133920033.265       -3627.174          43.000                                                                  
C36  23801279.789   123939511.599        1385.773          44.000                                                                  
C37  25117679.624   130794344.770       -2411.281          42.000                                                                  
C10  39140858.534   203816724.765         715.929          38.000    39140843.439   157604032.041         553.825          41.000  
G08  24032716.327   126292789.876        3580.192          38.000    24032715.425    98410054.655        2790.029          41.000  
G29  25456319.048   133773861.560       -3641.770          35.000    25456309.550   104239316.028       -2837.848          35.000  
C30  25027749.010   130326062.721        2747.479          43.000                                                                  
C13  40859724.308   212767296.644       -2422.768          33.000    40859728.291   164525177.891       -1873.815          38.000  
C08                                                                  41772821.743   168201872.770       -1813.904          35.000  
> 2025 11 03 07 46 32.5200000  0 26                     
G04  21355468.347   112223743.550         986.903          45.000    21355457.512    87447030.036         768.964          47.000  
G16  20184014.689   106067712.905          84.927          46.000                                                                  
G28  23177228.015   121797155.657       -2753.390          40.000    23177217.178    94906817.264       -2145.461          42.000  
G31  21161146.940   111202579.509       -1760.854          47.000    21161134.417    86651304.764       -1372.034          45.000  
G03  24676610.099   129676455.005       -2967.097          34.000    24676605.312   101046559.413       -2312.311          38.000  
G18  25110293.898   131955483.188        1284.018          30.000    25110290.161   102822434.396        1001.557          36.000  
C16  36732600.527   191276293.603           9.223          48.000    36732585.680   147906903.990           7.165          48.000  
C19  23883256.799   124366381.477       -2248.157          46.000                                                                  
C27  23554592.997   122654946.611        1037.803          47.000                                                                  
C06  36290567.739   188974507.474           6.244          47.000    36290547.270   146127000.810           4.885          49.000  
C09  37367804.687   194583964.261         131.367          44.000    37367786.585   150464597.549         101.741          48.000  
C22  24606988.115   128135043.617         534.194          43.000                                                                  
G26  20932682.398   110001990.235       -2001.984          47.000    20932673.450    85715798.389       -1559.821          45.000  
G27  21792201.703   114518796.476        2891.643          45.000    21792192.511    89235407.625        2253.361          43.000  
G09  23784000.759   124985780.619        2684.698          36.000    23783995.251    97391504.687        2091.718          38.000  
C28  24792020.977   129098554.930       -1163.369          44.000                                                                  
C07  38008940.198   197922522.621         773.138          42.000    38008920.071   153046181.050         597.988          45.000  
C20  25717964.141   133920178.347       -3627.169          43.000                                                                  
C36  23801269.158   123939456.165        1385.773          44.000                                                                  
C37  25117698.169   130794441.215       -2411.269          42.000                                                                  
C10  39140853.045   203816696.125         715.858          38.000    39140837.916   157604009.898         553.652          41.000  
G08  24032689.041   126292646.639        3580.488          38.000    24032688.175    98409943.041        2790.217          40.000  
G29  25456346.786   133774007.244       -3642.107          35.000    25456337.275   104239429.570       -2838.583          35.000  
C30  25027727.912   130325952.814        2747.580          43.000                                                                  
C13  40859742.930   212767393.586       -2423.237          33.000    40859746.894   164525252.831       -1873.692          38.000  
C08                                                                  41772839.763   168201945.320       -1813.812          35.000  
> 2025 11 03 07 46 32.5600000  0 26                     
G04  21355460.827   112223704.065         986.993          45.000    21355449.994    87446999.266         769.114          47.000  
G16  20184014.020   106067709.501          85.009          46.000                                                                  
G28  23177248.971   121797265.773       -2753.066          40.000    23177238.127    94906903.076       -2145.380          42.000  
G31  21161160.317   111202649.928       -1760.666          47.000    21161147.823    86651359.632       -1371.832          45.000  
G03  24676632.703   129676573.734       -2967.915          34.000    24676627.895   101046651.897       -2312.181          38.000  
G18  25110284.137   131955431.802        1284.202          30.000    25110280.378   102822394.334        1001.627          36.000  
C16  36732600.470   191276293.222           9.374          48.000    36732585.597   147906903.695           7.269          48.000  
C19  23883274.070   124366471.389       -2247.925          46.000                                                                  
C27  23554585.014   122654905.082        1038.106          47.000                                                                  
C06  36290567.700   188974507.215           6.394          47.000    36290547.235   146127000.607           5.004          49.000  
C09  37367803.690   194583958.992         131.563          44.000    37367785.582   150464593.469         101.896          48.000  
C22  24606984.035   128135022.235         534.422          43.000                                                                  
G26  20932697.641   110002070.306       -2001.874          47.000    20932688.721    85715860.791       -1559.967          45.000  
G27  21792179.679   114518680.796        2891.829          45.000    21792170.497    89235317.497        2253.213          43.000  
G09  23783980.329   124985673.241        2684.644          36.000    23783974.801    97391421.014        2091.760          38.000  
C28  24792029.922   129098601.451       -1163.150          44.000                                                                  
C07  38008934.275   197922491.672         773.482          42.000    38008914.109   153046157.120         598.165          45.000  
C20  25717992.012   133920323.424       -3627.027          43.000                                                                  
C36  23801258.531   123939400.722        1385.962          44.000                                                                  
C37  25117716.715   130794537.667       -2411.361          42.000                                                                  
C10  39140847.533   203816667.472         716.158          38.000    39140832.434   157603987.766         553.389          41.000  
G08  24032661.779   126292503.399        3580.802          38.000    24032660.929    98409831.441        2790.041          40.000  
G29  25456374.538   133774152.926       -3642.165          35.000    25456364.992   104239543.060       -2837.846          34.000  
C30  25027706.813   130325842.918        2747.446          43.000                                                                  
C13  40859761.530   212767490.496       -2423.014          33.000    40859765.526   164525327.770       -1873.546          38.000  
C08                                                                  41772857.803   168202017.878       -1813.940          35.000  
> 2025 11 03 07 46 32.6000000  0 26                     
G04  21355453.302   112223664.575         987.167          45.000    21355442.465    87446968.496         769.177          47.000  
G16  20184013.360   106067706.093          85.126          46.000                                                                  
G28  23177269.934   121797375.920       -2753.466          40.000    23177259.078    94906988.890       -2145.381          42.000  
G31  21161173.679   111202720.345       -1760.493          47.000    21161161.225    86651414.496       -1371.678          45.000  
G03  24676655.279   129676692.442       -2968.015          34.000    24676650.503   101046744.392       -2312.314          38.000  
G18  25110274.309                        1285.900          30.000    25110270.588   102822354.257        1001.805          36.000  
C16  36732600.401   191276292.841           9.443          48.000    36732585.473   147906903.399           7.352          48.000  
C19  23883291.340   124366561.310       -2247.986          46.000                                                                  
C27  23554577.045   122654863.560        1038.093          47.000                                                                  
C06  36290567.626   188974506.944           6.687          47.000    36290547.205   146127000.409           4.973          49.000  
C09  37367802.678   194583953.727         131.618          44.000    37367784.574   150464589.396         101.860          48.000  
C22  24606979.928   128135000.864         534.321          43.000                                                                  
G26  20932712.882   110002150.386       -2001.978          47.000    20932703.957    85715923.187       -1559.930          45.000  
G27  21792157.666   114518565.115        2891.967          45.000    21792148.501    89235227.355        2253.409          43.000  
G09  23783959.868   124985565.884        2684.216          36.000    23783954.380    97391337.355        2091.431          38.000  
C28  24792038.869   129098647.988       -1163.314          44.000                                                                  
C07  38008928.351   197922460.727         773.606          42.000    38008908.166   153046133.180         598.395          45.000  
C20  25718019.866   133920468.499       -3626.940          43.000                                                                  
C36  23801247.909   123939345.280        1386.035          44.000                                                                  
C37  25117735.228   130794634.100       -2411.021          42.000                                                                  
C10  39140842.032   203816638.835         716.006          38.000    39140826.921   157603965.616         553.623          41.000  
G08  24032634.519   126292360.174        3580.718          38.000    24032633.672    98409719.827        2790.226          40.000  
G29  25456402.250   133774298.564       -3641.289          35.000    25456392.714   104239656.538       -2837.155          34.000  
C30  25027685.696   130325733.018        2747.436          43.000                                                                  
C13  40859780.140   212767587.390       -2422.574          33.000    40859784.133   164525402.706       -1873.441          38.000  
C08                                                                  41772875.796   168202090.420       -1813.702          35.000  
> 2025 11 03 07 46 32.6400000  0 26                     
G04  21355445.790   112223625.090         987.176          45.000    21355434.949    87446937.728         769.188          47.000  
G16  20184012.733   106067702.703          84.865          46.000                                                                  
G28  23177290.888   121797486.060       -2753.564          40.000    23177280.044    94907074.709       -2145.475          42.000  
G31  21161187.082   111202790.767       -1760.505          47.000    21161174.624    86651469.374       -1371.848          45.000  
G03  24676677.890   129676811.135       -2967.643          34.000    24676673.099   101046836.868       -2311.967          38.000  
G18  25110264.516                        1284.350          30.000    25110260.821   102822314.210        1001.441          36.000  
C16  36732600.344   191276292.471           9.332          48.000    36732585.411   147906903.111           7.252          48.000  
C19  23883308.632   124366651.227       -2247.937          46.000                                                                  
C27  23554569.033   122654822.045        1037.944          47.000                                                                  
C06  36290567.582   188974506.692           6.473          47.000    36290547.178   146127000.209           4.957          49.000  
C09  37367801.684   194583948.455         131.763          44.000    37367783.540   150464585.330         101.694          48.000  
C22  24606975.848   128134979.485         534.440          43.000                                                                  
G26  20932728.107   110002230.462       -2001.947          47.000    20932719.186    85715985.576       -1559.790          45.000  
G27  21792135.640   114518449.441        2891.877          45.000    21792126.476    89235137.214        2253.518          43.000  
G09  23783939.444   124985458.529        2683.954          36.000    23783933.940    97391253.703        2091.254          38.000  
C28  24792047.803   129098694.519       -1163.305          44.000                                                                  
C07  38008922.407   197922429.781         773.679          42.000    38008902.224   153046109.259         598.198          45.000  
C20  25718047.693   133920613.584       -3627.062          43.000                                                                  
C36  23801237.285   123939289.830        1386.224          44.000                                                                  
C37  25117753.752   130794730.539       -2410.934          42.000                                                                  
C10  39140836.525   203816610.184         716.187          38.000    39140821.422   157603943.459         553.867          41.000  
G08  24032607.264   126292216.962        3580.432          38.000    24032606.396    98409608.219        2790.201          41.000  
G29  25456429.945   133774444.235       -3641.596          35.000    25456420.427   104239770.035       -2837.216          34.000  
C30  25027664.554   130325623.115        2747.488          43.000                                                                  
C13  40859798.750   212767684.321       -2422.901          33.000    40859802.725   164525477.637       -1873.305          38.000  
C08                                                                  41772893.809   168202162.989       -1814.105          35.000  
> 2025 11 03 07 46 32.6800000  0 26                     
G04  21355438.262   112223585.623         986.831          45.000    21355427.474    87446906.967         769.070          47.000  
G16  20184012.089   106067699.306          84.860          46.000                                                                  
G28  23177311.824   121797596.181       -2753.290          40.000    23177301.006    94907160.526       -2145.493          42.000  
G31  21161200.487   111202861.194       -1760.594          47.000    21161188.029    86651524.260       -1372.101          45.000  
G03  24676700.501   129676929.837       -2967.466          34.000    24676695.701   101046929.387       -2312.581          38.000  
G18  25110254.751                        1283.842          30.000    25110251.038   102822274.171        1001.078          36.000  
C16  36732600.288   191276292.106           9.157          48.000    36732585.329   147906902.824           7.188          48.000  
C19  23883325.903   124366741.152       -2248.108          46.000                                                                  
C27  23554561.045   122654780.539        1037.717          46.000                                                                  
C06  36290567.510   188974506.442           6.295          47.000    36290547.135   146127000.010           4.944          49.000  
C09  37367800.672   194583943.189         131.688          44.000    37367782.537   150464581.263         101.625          48.000  
C22  24606971.726   128134958.118         534.212          43.000                                                                  
G26  20932743.350   110002310.542       -2001.984          47.000    20932734.422    85716047.972       -1559.851          45.000  
G27  21792113.638   114518333.765        2891.856          45.000    21792104.457    89235047.083        2253.355          43.000  
G09  23783919.015   124985351.162        2684.064          36.000    23783913.492    97391170.034        2091.528          38.000  
C28  24792056.721   129098741.061       -1163.499          43.000                                                                  
C07  38008916.473   197922398.838         773.614          42.000    38008896.287   153046085.344         597.921          45.000  
C20  25718075.564   133920758.665       -3627.093          43.000                                                                  
C36  23801226.607   123939234.406        1385.797          44.000                                                                  
C37  25117772.268   130794826.990       -2411.137          42.000                                                                  
C10  39140831.006   203816581.552         715.946          38.000    39140815.908   157603921.297         554.063          41.000  
G08  24032580.028   126292073.734        3580.516          38.000    24032579.161    98409496.619        2790.083          40.000  
G29  25456457.662   133774589.909       -3641.816          35.000    25456448.167   104239883.560       -2837.756          34.000  
C30  25027643.451   130325513.225        2747.294          43.000                                                                  
C13  40859817.358   212767781.251       -2423.250          33.000    40859821.339   164525552.566       -1873.251          38.000  
C08                                                                  41772911.825   168202235.543       -1813.995          35.000  
> 2025 11 03 07 46 32.7200000  0 26                     
G04  21355430.744   112223546.147         986.819          45.000    21355419.980    87446876.218         768.768          47.000  
G16  20184011.449   106067695.913          84.805          46.000                                                                  
G28  23177332.782   121797706.329       -2753.595          40.000    23177321.975    94907246.355       -2145.709          42.000  
G31  21161213.913   111202931.629       -1760.827          47.000    21161201.437    86651579.141       -1372.144          45.000  
G03  24676723.065   129677048.522       -2967.286          34.000    24676718.282   101047021.887       -2312.603          38.000  
G18  25110245.004                        1284.647          30.000    25110241.253   102822234.124        1001.002          36.000  
C16  36732600.221   191276291.736           9.156          48.000    36732585.229   147906902.543           7.041          48.000  
C19  23883343.146   124366831.093       -2248.492          46.000                                                                  
C27  23554553.057   122654739.038        1037.508          46.000                                                                  
C06  36290567.488   188974506.206           5.972          47.000    36290547.095   146126999.816           4.830          49.000  
C09  37367799.646   194583937.929         131.527          44.000    37367781.533   150464577.193         101.626          48.000  
C22  24606967.596   128134936.759         533.975          43.000                                                                  
G26  20932758.584   110002390.621       -2001.984          47.000    20932749.662    85716110.367       -1559.869          45.000  
G27  21792091.638   114518218.099        2891.667          45.000    21792082.463    89234956.955        2253.198          43.000  
G09  23783898.580   124985243.792        2684.131          36.000    23783893.062    97391086.357        2091.766          38.000  
C28  24792065.667   129098787.629       -1164.104          43.000                                                                  
C07  38008910.538   197922367.901         773.456          42.000    38008890.346   153046061.427         597.830          45.000  
C20  25718103.401   133920903.753       -3627.206          43.000                                                                  
C36  23801215.941   123939178.988        1385.443          44.000                                                                  
C37  25117790.766   130794923.467       -2411.751          42.000                                                                  
C10  39140825.518   203816552.927         715.680          38.000    39140810.404   157603899.167         553.523          41.000  
G08  24032552.790   126291930.502        3580.673          38.000    24032551.903    98409385.023        2789.928          40.000  
G29  25456485.375   133774735.581       -3641.801          35.000    25456475.907   104239997.085       -2837.998          34.000  
C30  25027622.360   130325403.333        2747.234          43.000                                                                  
C13  40859835.981   212767878.161       -2423.014          33.000    40859839.933   164525627.505       -1873.443          38.000  
C08                                                                  41772929.819   168202308.095       -1813.977          35.000  
> 2025 11 03 07 46 32.7600000  0 26                     
G04  21355423.203   112223506.683         986.606          45.000    21355412.486    87446845.472         768.608          47.000  
G16  20184010.838   106067692.527          84.650          46.000                                                                  
G28  23177353.727   121797816.473       -2753.668          40.000    23177342.936    94907332.176       -2145.651          42.000  
G31  21161227.334   111203002.078       -1761.172          47.000    21161214.864    86651634.039       -1372.443          45.000  
G03  24676745.665   129677167.200       -2967.005          34.000    24676740.858   101047114.365       -2312.145          38.000  
G18  25110235.212                        1285.601          30.000    25110231.488   102822194.099        1000.621          36.000  
C16  36732600.192   191276291.365           9.190          48.000    36732585.140   147906902.261           6.994          48.000  
C19  23883360.413   124366921.029       -2248.535          46.000                                                                  
C27  23554545.090   122654697.539        1037.386          46.000                                                                  
C06  36290567.452   188974505.962           5.966          47.000    36290547.065   146126999.629           4.678          49.000  
C09  37367798.665   194583932.678         131.312          44.000    37367780.531   150464573.129         101.573          48.000  
C22  24606963.511   128134915.410         533.705          43.000                                                                  
G26  20932773.821   110002470.697       -2001.917          47.000    20932764.916    85716172.775       -1560.144          45.000  
G27  21792069.638   114518102.442        2891.427          45.000    21792060.444    89234866.832        2253.062          43.000  
G09  23783878.150   124985136.420        2684.247          36.000    23783872.621    97391002.702        2091.461          37.000  
C28  24792074.612   129098834.181       -1164.077          43.000                                                                  
C07  38008904.592   197922336.976         773.137          42.000    38008884.399   153046037.519         597.644          45.000  
C20  25718131.289   133921048.838       -3627.223          43.000                                                                  
C36  23801205.300   123939123.567        1385.419          44.000                                                                  
C37  25117809.310   130795019.922       -2411.647          42.000                                                                  
C10  39140820.019   203816524.266         716.210          38.000    39140804.886   157603877.025         553.453          41.000  
G08  24032525.515   126291787.277        3580.643          38.000    24032524.629    98409273.418        2789.984          40.000  
G29  25456513.087   133774881.266       -3642.111          35.000    25456503.631   104240110.634       -2838.614          34.000  
C30  25027601.258   130325293.447        2747.115          43.000                                                                  
C13  40859854.615   212767975.078       -2422.962          33.000    40859858.542   164525702.461       -1873.877          38.000  
C08                                                                  41772947.827   168202380.669       -1814.307          35.000  
> 2025 11 03 07 46 32.8000000  0 26                     
G04  21355415.696   112223467.216         986.582          45.000    21355404.991    87446814.722         768.599          47.000  
G16  20184010.194   106067689.136          84.658          46.000                                                                  
G28  23177374.692   121797926.624       -2753.854          40.000    23177363.886    94907417.997       -2145.570          42.000  
G31  21161240.726   111203072.526       -1761.329          47.000    21161228.273    86651688.928       -1372.438          45.000  
G03  24676768.251   129677285.931       -2967.781          34.000    24676763.435   101047206.842       -2311.947          38.000  
G18  25110225.416                        1284.647          30.000    25110221.714   102822154.057        1000.805          36.000  
C16  36732600.134   191276290.981           9.447          48.000    36732585.062   147906901.972           7.142          48.000  
C19  23883377.695   124367010.952       -2248.242          46.000                                                                  
C27  23554537.113   122654656.029        1037.566          46.000                                                                  
C06  36290567.425   188974505.704           6.229          47.000    36290546.999   146126999.432           4.805          49.000  
C09  37367797.681   194583927.421         131.319          44.000    37367779.542   150464569.062         101.601          48.000  
C22  24606959.390   128134894.033         534.083          43.000                                                                  
G26  20932789.066   110002550.779       -2002.014          47.000    20932780.155    85716235.184       -1560.266          44.000  
G27  21792047.616   114517986.772        2891.582          45.000    21792038.432    89234776.696        2253.219          43.000  
G09  23783857.725   124985029.046        2684.296          36.000    23783852.199    97390919.046        2091.302          37.000  
C28  24792083.564   129098880.739       -1164.099          43.000                                                                  
C07  38008898.669   197922306.055         772.966          42.000    38008878.466   153046013.604         597.730          45.000  
C20  25718159.119   133921193.918       -3627.107          43.000                                                                  
C36  23801194.662   123939068.127        1385.779          44.000                                                                  
C37  25117827.839   130795116.405       -2412.014          42.000                                                                  
C10  39140814.490   203816495.620         716.240          38.000    39140799.384   157603854.878         553.542          41.000  
G08  24032498.248   126291644.048        3580.682          38.000    24032497.390    98409161.819        2789.968          40.000  
G29  25456540.800   133775026.914       -3641.539          35.000    25456531.364   104240224.124       -2837.804          34.000  
C30  25027580.160   130325183.544        2747.372          43.000                                                                  
C13  40859873.234   212768071.994       -2422.866          33.000    40859877.160   164525777.426       -1874.242          38.000  
C08                                                                  41772965.831   168202453.233       -1814.282          35.000  
> 2025 11 03 07 46 32.8400000  0 26                     
G04  21355408.201   112223427.756         986.442          45.000    21355397.479    87446783.962         768.783          47.000  
G16  20184009.549   106067685.748          84.634          46.000                                                                  
G28  23177395.670   121798036.773       -2753.902          40.000    23177384.842    94907503.825       -2145.669          42.000  
G31  21161254.132   111203142.971       -1761.328          46.000    21161241.674    86651743.814       -1372.328          45.000  
G03  24676790.851   129677404.661       -2968.351          34.000    24676786.045   101047299.325       -2311.999          38.000  
G18  25110215.631                        1284.265          31.000    25110211.925   102822114.013        1000.998          36.000  
C16  36732600.061   191276290.604           9.467          48.000    36732584.967   147906901.683           7.192          48.000  
C19  23883394.949   124367100.880       -2248.224          46.000                                                                  
C27  23554529.161   122654614.532        1037.437          46.000                                                                  
C06  36290567.397   188974505.442           6.483          47.000    36290546.952   146126999.238           4.825          49.000  
C09  37367796.675   194583922.162         131.385          44.000    37367778.565   150464564.992         101.705          48.000  
C22  24606955.251   128134872.659         534.297          43.000                                                                  
G26  20932804.298   110002630.866       -2002.197          47.000    20932795.396    85716297.594       -1560.315          44.000  
G27  21792025.602   114517871.102        2891.683          45.000    21792016.410    89234686.550        2253.519          43.000  
G09  23783837.287   124984921.663        2684.473          36.000    23783831.786    97390835.421        2090.704          37.000  
C28  24792092.523   129098927.299       -1164.145          43.000                                                                  
C07  38008892.730   197922275.119         773.178          42.000    38008872.507   153045989.675         598.058          45.000  
C20  25718186.980   133921339.003       -3627.160          43.000                                                                  
C36  23801183.992   123939012.693        1385.797          44.000                                                                  
C37  25117846.365   130795212.880       -2412.102          42.000                                                                  
C10  39140808.989   203816466.979         716.124          38.000    39140793.854   157603832.736         553.517          41.000  
G08  24032471.011   126291500.838        3580.413          38.000    24032470.140    98409050.223        2789.861          40.000  
G29  25456568.515   133775172.541       -3640.869          35.000    25456559.061   104240337.592       -2837.001          34.000  
C30  25027559.055   130325073.641        2747.518          43.000                                                                  
C13  40859891.843   212768168.907       -2422.826          33.000    40859895.749   164525852.365       -1873.902          38.000  
C08                                                                  41772983.857   168202525.774       -1813.672          35.000  
> 2025 11 03 07 46 32.8800000  0 26                     
G04  21355400.683   112223388.294         986.461          45.000    21355389.965    87446753.195         769.059          47.000  
G16  20184008.896   106067682.351          84.803          46.000                                                                  
G28  23177416.647   121798146.929       -2754.018          40.000    23177405.811    94907589.670       -2146.099          41.000  
G31  21161267.529   111203213.414       -1761.246          46.000    21161255.079    86651798.699       -1372.239          45.000  
G03  24676813.463   129677523.367       -2968.147          34.000    24676808.659   101047391.869       -2313.116          38.000  
G18  25110205.868                        1283.654          31.000    25110202.147   102822073.948        1001.391          36.000  
C16  36732599.975   191276290.240           9.213          47.000    36732584.873   147906901.401           7.078          48.000  
C19  23883412.222   124367190.827       -2248.602          46.000                                                                  
C27  23554521.189   122654573.032        1037.413          46.000                                                                  
C06  36290567.337   188974505.182           6.554          47.000    36290546.902   146126999.046           4.771          49.000  
C09  37367795.644   194583916.897         131.513          44.000    37367777.565   150464560.921         101.760          48.000  
C22  24606951.148   128134851.301         534.060          43.000                                                                  
G26  20932819.567   110002710.973       -2002.618          46.000    20932810.614    85716360.009       -1560.425          44.000  
G27  21792003.594   114517755.434        2891.734          46.000    21791994.406    89234596.418        2253.398          43.000  
G09  23783816.836   124984814.299        2684.253          36.000    23783811.365    97390751.792        2090.546          37.000  
C28  24792101.475   129098973.853       -1163.987          43.000                                                                  
C07  38008886.803   197922244.181         773.374          42.000    38008866.560   153045965.742         598.300          45.000  
C20  25718214.856   133921484.095       -3627.318          43.000                                                                  
C36  23801173.342   123938957.277        1385.486          44.000                                                                  
C37  25117864.901   130795309.357       -2412.112          41.000                                                                  
C10  39140803.487   203816438.360         715.666          38.000    39140788.347   157603810.605         553.285          42.000  
G08  24032443.728   126291357.614        3580.469          38.000    24032442.896    98408938.628        2789.827          40.000  
G29  25456596.240   133775318.227       -3641.580          35.000    25456586.751   104240451.076       -2836.972          34.000  
C30  25027537.947   130324963.739        2747.571          44.000                                                                  
C13  40859910.441   212768265.818       -2422.841          33.000    40859914.351   164525927.325       -1874.058          38.000  
C08                                                                  41773001.880   168202598.312       -1813.409          35.000  
> 2025 11 03 07 46 32.9200000  0 26                     
G04  21355393.162   112223348.824         986.616          45.000    21355382.445    87446722.428         769.183          47.000  
G16  20184008.236   106067678.953          84.933          46.000                                                                  
G28  23177437.594   121798257.099       -2754.416          38.000    23177426.779    94907675.507       -2146.076          41.000  
G31  21161280.955   111203283.871       -1761.406          46.000    21161268.479    86651853.590       -1372.273          45.000  
G03  24676836.014   129677642.039       -2967.332          34.000    24676831.249   101047484.392       -2313.271          37.000  
G18  25110196.097                        1284.551          31.000    25110192.376   102822033.905        1001.255          36.000  
C16  36732599.883   191276289.888           8.854          47.000    36732584.782   147906901.127           6.876          48.000  
C19  23883429.498   124367280.770       -2248.688          46.000                                                                  
C27  23554513.245   122654531.538        1037.308          45.000                                                                  
C06  36290567.302   188974504.941           6.238          47.000    36290546.873   146126998.863           4.595          48.000  
C09  37367794.612   194583911.626         131.717          44.000    37367776.565   150464556.849         101.797          48.000  
C22  24606947.059   128134829.966         533.513          43.000                                                                  
G26  20932834.817   110002791.076       -2002.698          46.000    20932825.868    85716422.415       -1560.272          43.000  
G27  21791981.595   114517639.759        2891.822          46.000    21791972.405    89234506.296        2253.150          43.000  
G09  23783796.402   124984706.981        2683.221          36.000    23783790.938    97390668.134        2091.125          37.000  
C28  24792110.392   129099020.401       -1163.782          42.000                                                                  
C07  38008880.866   197922213.245         773.441          42.000    38008860.590   153045941.809         598.364          45.000  
C20  25718242.722   133921629.186       -3627.371          43.000                                                                  
C36  23801162.707   123938901.860        1385.382          44.000                                                                  
C37  25117883.438   130795405.831       -2412.001          41.000                                                                  
C10  39140798.010   203816409.736         715.498          38.000    39140782.843   157603788.433         553.919          43.000  
G08  24032416.477   126291214.427        3579.868          38.000    24032415.632    98408827.024        2789.934          40.000  
G29  25456623.948   133775463.914       -3642.097          35.000    25456614.469   104240564.553       -2836.862          34.000  
C30  25027516.831   130324853.839        2747.560          44.000                                                                  
C13  40859929.031   212768362.768       -2423.674          33.000    40859932.982   164526002.280       -1873.984          38.000  
C08                                                                  41773019.883   168202670.856       -1813.477          35.000  
> 2025 11 03 07 46 32.9600000  0 26                     
G04  21355385.638   112223309.350         986.777          45.000    21355374.950    87446691.679         768.890          47.000  
G16  20184007.602   106067675.560          84.863          46.000                                                                  
G28  23177458.545   121798367.283       -2754.746          38.000    23177447.719    94907761.345       -2146.093          39.000  
G31  21161294.355   111203354.326       -1761.453          46.000    21161281.892    86651908.493       -1372.497          45.000  
G03  24676858.606   129677760.727       -2967.100          34.000    24676853.832   101047576.862       -2312.361          37.000  
G18  25110186.301                        1285.887          31.000    25110182.626   102821993.866        1000.953          36.000  
C16  36732599.836   191276289.547           8.508          46.000    36732584.718   147906900.852           6.785          48.000  
C19  23883446.794   124367370.700       -2248.438          46.000                                                                  
C27  23554505.273   122654490.046        1037.229          44.000                                                                  
C06  36290567.266   188974504.713           5.798          46.000    36290546.840   146126998.688           4.376          48.000  
C09  37367793.588   194583906.360         131.725          44.000    37367775.560   150464552.786         101.642          48.000  
C22  24606942.956   128134808.626         533.368          43.000                                                                  
G26  20932850.054   110002871.175       -2002.630          45.000    20932841.116    85716484.831       -1560.370          43.000  
G27  21791959.590   114517524.088        2891.796          46.000    21791950.398    89234416.184        2252.794          43.000  
G09  23783775.959   124984599.648        2683.026          36.000    23783770.491    97390584.444        2092.078          39.000  
C28  24792119.329   129099066.917       -1163.133          40.000                                                                  
C07  38008874.918   197922182.295         773.677          43.000    38008854.648   153045917.885         598.204          46.000  
C20  25718270.612   133921774.277       -3627.336          43.000                                                                  
C36  23801152.085   123938846.438        1385.437          44.000                                                                  
C37  25117901.964   130795502.300       -2411.810          39.000                                                                  
C10  39140792.488   203816381.104         715.607          38.000    39140777.355   157603766.279         553.936          43.000  
G08  24032389.217   126291071.229        3579.791          38.000    24032388.382    98408715.419        2790.048          40.000  
G29  25456651.700   133775609.632       -3642.906          35.000    25456642.218   104240678.087       -2837.928          34.000  
C30  25027495.719   130324743.944        2747.416          44.000                                                                  
C13  40859947.642   212768459.707       -2423.809          33.000    40859951.596   164526077.217       -1873.606          38.000  
C08                                                                  41773037.907   168202743.413       -1813.776          35.000  
> 2025 11 03 07 46 33.0000000  0 26                     
G04  21355378.128   112223269.880         986.757          45.000    21355367.456    87446660.937         768.604          47.000  
G16  20184006.980   106067672.187          84.445          46.000                                                                  
G28  23177479.517   121798477.485       -2755.271          36.000    23177468.669    94907847.183       -2146.162          38.000  
G31  21161307.756   111203424.769       -1761.248          46.000    21161295.308    86651963.409       -1372.826          45.000  
G03  24676881.186   129677879.445       -2967.527          34.000    24676876.411   101047669.343       -2312.039          37.000  
G18  25110176.515                        1286.690          31.000    25110172.830   102821953.769        1002.020          36.000  
C16  36732599.782   191276289.214           8.252          46.000    36732584.613   147906900.578           6.779          48.000  
C19  23883464.083   124367460.629       -2248.260          46.000                                                                  
C27  23554497.297   122654448.562        1037.044          43.000                                                                  
C06  36290567.236   188974504.482           5.642          45.000    36290546.791   146126998.501           4.471          48.000  
C09  37367792.583   194583901.094         131.670          44.000    37367774.570   150464548.721         101.584          47.000  
C22  24606938.844   128134787.262         533.794          43.000                                                                  
G26  20932865.283   110002951.269       -2002.466          45.000    20932856.334    85716547.237       -1560.236          43.000  
G27  21791937.569   114517408.427        2891.594          46.000    21791928.388    89234326.075        2252.542          42.000  
G09  23783755.530   124984492.279        2683.807          36.000    23783750.059    97390500.757        2092.371          39.000  
C28  24792128.245   129099113.398       -1162.139          38.000                                                                  
C07  38008868.974   197922151.348         773.749          43.000    38008848.727   153045893.971         597.902          46.000  
C20  25718298.500   133921919.374       -3627.431          43.000                                                                  
C36  23801141.429   123938790.993        1385.913          44.000                                                                  
C37  25117920.476   130795598.760       -2411.569          37.000                                                                  
C10  39140787.008   203816352.451         716.086          38.000    39140771.847   157603744.119         554.013          43.000  
G08  24032361.955   126290927.993        3580.530          38.000    24032361.131    98408603.820        2789.932          40.000  
G29  25456679.433   133775755.355       -3643.279          37.000    25456669.966   104240791.647       -2838.889          34.000  
C30  25027474.613   130324634.067        2746.998          44.000                                                                  
C13  40859966.250   212768556.650       -2423.838          33.000    40859970.201   164526152.144       -1873.241          38.000  
C08                                                                  41773055.956   168202815.994       -1814.386          35.000  
> 2025 11 03 07 46 33.0400000  0 26                     
G04  21355370.646   112223230.425         986.471          45.000    21355359.961    87446630.201         768.379          47.000  
G16  20184006.338   106067668.826          84.019          45.000                                                                  
G28  23177500.459   121798587.650       -2754.704          36.000    23177489.650    94907933.032       -2146.265          38.000  
G31  21161321.175   111203495.229       -1761.453          46.000    21161308.716    86652018.313       -1372.806          45.000  
G03  24676903.773   129677998.181       -2968.227          34.000    24676898.997   101047761.838       -2312.166          37.000  
G18  25110166.699                        1288.018          31.000    25110163.037   102821913.713        1001.865          36.000  
C16  36732599.729   191276288.868           8.385          45.000    36732584.545   147906900.305           6.764          47.000  
C19  23883481.361   124367550.566       -2248.358          46.000                                                                  
C27  23554489.338   122654407.094        1036.670          42.000                                                                  
C06  36290567.197   188974504.252           5.563          45.000    36290546.756   146126998.310           4.647          48.000  
C09  37367791.542   194583895.853         131.176          43.000    37367773.538   150464544.671         101.278          47.000  
C22  24606934.729   128134765.888         534.186          44.000                                                                  
G26  20932880.504   110003031.363       -2002.362          45.000    20932871.583    85716609.651       -1560.309          42.000  
G27  21791915.562   114517292.772        2891.354          45.000    21791906.369    89234235.952        2252.761          42.000  
G09  23783735.076   124984384.905        2684.326          36.000    23783729.646    97390417.083        2092.175          39.000  
C28  24792137.174   129099159.879       -1161.832          38.000                                                                  
C07  38008863.047   197922120.429         773.244          43.000    38008842.777   153045870.058         597.761          45.000  
C20  25718326.372   133922064.459       -3627.278          43.000                                                                  
C36  23801130.775   123938735.559        1385.956          44.000                                                                  
C37  25117938.988   130795695.129       -2409.815          35.000                                                                  
C10  39140781.512   203816323.786         716.509          38.000    39140766.352   157603721.973         553.785          42.000  
G08  24032334.676   126290784.757        3580.876          38.000    24032333.888    98408492.216        2789.994          40.000  
G29  25456707.162   133775901.064       -3643.164          37.000    25456697.697   104240905.198       -2839.102          34.000  
C30  25027453.535   130324524.179        2747.000          43.000                                                                  
C13  40859984.848   212768653.566       -2423.261          33.000    40859988.838   164526227.100       -1873.643          38.000  
C08                                                                  41773073.964   168202888.557       -1814.313          35.000  
> 2025 11 03 07 46 33.0800000  0 26                     
G04  21355363.146   112223190.968         986.359          44.000    21355352.444    87446599.464         768.279          46.000  
G16  20184005.716   106067665.461          83.956          45.000                                                                  
G28  23177521.437   121798697.872       -2755.564          33.000    23177510.605    94908018.864       -2146.014          35.000  
G31  21161334.597   111203565.684       -1761.482          45.000    21161322.133    86652073.210       -1372.604          44.000  
G03  24676926.350   129678116.899       -2968.175          35.000    24676921.580   101047854.324       -2312.161          37.000  
G18  25110156.975                        1285.347          31.000    25110153.243   102821873.649        1001.835          36.000  
C16  36732599.672   191276288.510           8.725          45.000    36732584.481   147906900.026           6.864          47.000  
C19  23883498.599   124367640.522       -2248.761          46.000                                                                  
C27  23554481.377   122654365.613        1036.808          42.000                                                                  
C06  36290567.183   188974504.026           5.522          44.000    36290546.724   146126998.126           4.606          48.000  
C09  37367790.540   194583890.620         130.814          43.000    37367772.533   150464540.622         101.118          46.000  
C22  24606930.626   128134744.523         534.207          44.000                                                                  
G26  20932895.726   110003111.452       -2002.209          44.000    20932886.830    85716672.060       -1560.278          42.000  
G27  21791893.547   114517177.121        2891.187          44.000    21791884.361    89234145.847        2252.566          41.000  
G09  23783714.602   124984277.519        2684.705          36.000    23783709.220    97390333.434        2091.522          39.000  
C28  24792146.091   129099206.398       -1162.443          38.000                                                                  
C07  38008857.101   197922089.498         773.198          43.000    38008836.847   153045846.155         597.539          45.000  
C20  25718354.281   133922209.542       -3627.139          44.000                                                                  
C36  23801120.133   123938680.131        1385.809          44.000                                                                  
C37  25117957.493   130795791.513       -2409.168          34.000                                                                  
C10  39140776.031   203816295.142         716.327          38.000    39140760.862   157603699.849         553.227          41.000  
G08  24032307.409   126290641.537        3580.714          38.000    24032306.639    98408380.624        2789.844          40.000  
G29  25456734.891   133776046.761       -3642.775          39.000    25456725.435   104241018.730       -2838.748          36.000  
C30  25027432.428   130324414.287        2747.123          43.000                                                                  
C13  40860003.456   212768750.501       -2423.340          33.000    40860007.459   164526302.046       -1873.641          38.000  
C08                                                                  41773091.951   168202961.110       -1814.014          35.000  
> 2025 11 03 07 46 33.1200000  0 26                     
G04  21355355.627   112223151.512         986.309          44.000    21355344.936    87446568.719         768.442          46.000  
G16  20184005.071   106067662.090          84.078          44.000                                                                  
G28  23177542.369   121798807.965       -2753.327          29.000    23177531.574    94908104.714       -2146.202          35.000  
G31  21161348.003   111203636.144       -1761.535          44.000    21161335.531    86652128.103       -1372.426          44.000  
G03  24676948.934   129678235.615       -2968.114          35.000    24676944.152   101047946.829       -2312.490          37.000  
G18  25110147.206                        1284.120          31.000    25110143.453   102821833.630        1000.904          36.000  
C16  36732599.614   191276288.152           8.900          44.000    36732584.405   147906899.739           7.078          47.000  
C19  23883515.882   124367730.480       -2248.999          46.000                                                                  
C27  23554473.425   122654324.114        1037.271          41.000                                                                  
C06  36290567.151   188974503.797           5.613          43.000    36290546.691   146126997.939           4.637          48.000  
C09  37367789.536   194583885.379         130.808          42.000    37367771.499   150464536.559         101.304          46.000  
C22  24606926.535   128134723.171         533.965          45.000                                                                  
G26  20932910.958   110003191.526       -2001.898          43.000    20932902.075    85716734.469       -1560.278          42.000  
G27  21791871.561   114517061.475        2891.041          44.000    21791862.362    89234055.747        2252.394          41.000  
G09  23783694.145   124984170.163        2684.241          36.000    23783688.802    97390249.796        2090.961          39.000  
C28  24792155.019   129099252.987       -1164.153          38.000                                                                  
C07  38008851.178   197922058.577         773.006          42.000    38008830.915   153045822.241         597.645          45.000  
C20  25718382.149   133922354.634       -3627.243          44.000                                                                  
C36  23801109.496   123938624.713        1385.541          44.000                                                                  
C37  25117976.012   130795887.941       -2409.889          34.000                                                                  
C10  39140770.526   203816266.512         715.985          38.000    39140755.347   157603677.723         552.971          40.000  
G08  24032280.155   126290498.298        3580.924          38.000    24032279.364    98408269.027        2789.800          39.000  
G29  25456762.616   133776192.439       -3642.139          39.000    25456753.163   104241132.266       -2838.551          36.000  
C30  25027411.315   130324304.409        2746.977          42.000                                                                  
C13  40860022.085   212768847.389       -2422.519          33.000    40860026.052   164526376.980       -1873.459          38.000  
C08                                                                  41773109.941   168203033.651       -1813.702          35.000  
> 2025 11 03 07 46 33.1600000  0 26                     
G04  21355348.138   112223112.054         986.368          44.000    21355337.428    87446537.971         768.566          46.000  
G16  20184004.373   106067658.716          84.235          44.000                                                                  
G28  23177563.349   121798918.096       -2752.834          29.000    23177552.532    94908190.562       -2146.314          35.000  
G31  21161361.401   111203706.592       -1761.335          44.000    21161348.951    86652182.987       -1372.143          44.000  
G03  24676971.523   129678354.275       -2967.061          35.000    24676966.764   101048039.359       -2313.032          37.000  
G18  25110137.443                        1283.964          31.000    25110133.703   102821793.604        1000.552          36.000  
C16  36732599.547   191276287.797           8.899          44.000    36732584.340   147906899.455           7.132          47.000  
C19  23883533.179   124367820.437       -2249.066          45.000                                                                  
C27  23554465.438   122654282.618        1037.380          41.000                                                                  
C06  36290567.112   188974503.560           5.806          43.000    36290546.672   146126997.744           4.800          48.000  
C09  37367788.519   194583880.134         130.930          42.000    37367770.469   150464532.488         101.607          46.000  
C22  24606922.404   128134701.827         533.661          45.000                                                                  
G26  20932926.202   110003271.618       -2002.099          43.000    20932917.325    85716796.878       -1560.260          41.000  
G27  21791849.551   114516945.834        2890.933          43.000    21791840.367    89233965.650        2252.299          41.000  
G09  23783673.735   124984062.824        2683.698          36.000    23783668.371    97390166.140        2091.138          39.000  
C28  24792163.976   129099299.591       -1165.250          38.000                                                                  
C07  38008845.247   197922027.661         772.853          42.000    38008824.943   153045798.329         597.709          44.000  
C20  25718410.006   133922499.724       -3627.262          44.000                                                                  
C36  23801098.847   123938569.299        1385.291          44.000                                                                  
C37  25117994.507   130795984.446       -2411.938          34.000                                                                  
C10  39140765.029   203816237.868         716.032          38.000    39140749.863   157603655.601         552.877          40.000  
G08  24032252.885   126290355.078        3580.673          39.000    24032252.120    98408157.456        2789.388          39.000  
G29  25456790.333   133776338.123       -3641.927          39.000    25456780.916   104241245.775       -2837.949          37.000  
C30  25027390.209   130324194.536        2746.813          41.000                                                                  
C13  40860040.695   212768944.308       -2422.698          33.000    40860044.688   164526451.919       -1873.455          39.000  
C08                                                                  41773127.943   168203106.193       -1813.538          35.000  
> 2025 11 03 07 46 33.2000000  0 26                     
G04  21355340.657   112223072.608         986.151          44.000    21355329.907    87446507.222         768.656          45.000  
G16  20184003.737   106067655.347          84.260          43.000                                                                  
G28  23177584.346   121799028.319       -2753.687          29.000    23177573.507    94908276.400       -2146.049          35.000  
G31  21161374.828   111203777.051       -1761.425          43.000    21161362.346    86652237.886       -1372.288          44.000  
G03  24676994.092   129678472.985       -2967.364          37.000    24676989.362   101048131.876       -2313.136          37.000  
G18  25110127.631                        1283.813          31.000    25110123.940   102821753.562        1000.786          36.000  
C16  36732599.484   191276287.448           8.810          44.000    36732584.242   147906899.172           7.115          47.000  
C19  23883550.435   124367910.389       -2248.956          45.000                                                                  
C27  23554457.466   122654241.122        1037.422          41.000                                                                  
C06  36290567.067   188974503.337           5.648          43.000    36290546.622   146126997.558           4.701          47.000  
C09  37367787.509   194583874.879         131.241          42.000    37367769.452   150464528.423         101.654          46.000  
C22  24606918.290   128134680.486         533.500          45.000                                                                  
G26  20932941.458   110003351.723       -2002.466          43.000    20932932.578    85716859.307       -1560.638          41.000  
G27  21791827.548   114516830.188        2890.961          43.000    21791818.358    89233875.539        2252.528          41.000  
G09  23783653.275   124983955.484        2683.398          36.000    23783647.936    97390082.494        2091.107          39.000  
C28  24792172.924   129099346.161       -1165.051          39.000                                                                  
C07  38008839.321   197921996.735         773.014          40.000    38008819.021   153045774.434         597.367          43.000  
C20  25718437.858   133922644.814       -3627.281          44.000                                                                  
C36  23801088.196   123938513.891        1385.108          45.000                                                                  
C37  25118013.043   130796080.916       -2412.305          34.000                                                                  
C10  39140759.543   203816209.255         715.466          38.000    39140744.358   157603633.500         552.472          39.000  
G08  24032225.664   126290211.876        3580.175          39.000    24032224.873    98408045.858        2789.672          39.000  
G29  25456818.064   133776483.809       -3641.932          39.000    25456808.633   104241359.314       -2838.217          37.000  
C30  25027369.109   130324084.672        2746.588          41.000                                                                  
C13  40860059.297   212769041.236       -2423.022          33.000    40860063.310   164526526.889       -1874.014          39.000  
C08                                                                  41773145.951   168203178.778       -1814.392          35.000  
> 2025 11 03 07 46 33.2400000  0 26                     
G04  21355333.153   112223033.159         986.127          44.000    21355322.404    87446476.487         768.453          45.000  
G16  20184003.085   106067651.981          84.153          43.000                                                                  
G28  23177605.319   121799138.469       -2753.548          29.000    23177594.486    94908362.259       -2146.241          32.000  
G31  21161388.211   111203847.502       -1761.338          43.000    21161375.758    86652292.792       -1372.533          44.000  
G03  24677016.695   129678591.687       -2967.455          37.000    24677011.951   101048224.395       -2313.156          35.000  
G18  25110117.866                        1284.664          31.000    25110114.138   102821713.486        1001.561          36.000  
C16  36732599.431   191276287.108           8.568          45.000    36732584.131   147906898.901           6.869          47.000  
C19  23883567.705   124368000.342       -2248.883          45.000                                                                  
C27  23554449.458   122654199.616        1037.631          41.000                                                                  
C06  36290567.041   188974503.095           5.914          44.000    36290546.589   146126997.377           4.528          46.000  
C09  37367786.511   194583869.630         131.262          42.000    37367768.455   150464524.357         101.656          46.000  
C22  24606914.202   128134659.138         533.534          45.000                                                                  
G26  20932956.714   110003431.824       -2002.576          42.000    20932947.842    85716921.723       -1560.559          41.000  
G27  21791805.543   114516714.550        2890.874          42.000    21791796.330    89233785.424        2252.764          41.000  
G09  23783632.835   124983848.145        2683.350          36.000    23783627.492    97389998.836        2091.339          39.000  
C28  24792181.841   129099392.726       -1164.698          40.000                                                                  
C07  38008833.391   197921965.827         772.802          41.000    38008813.098   153045750.530         597.396          43.000  
C20  25718465.715   133922789.908       -3627.356          45.000                                                                  
C36  23801077.538   123938458.466        1385.376          45.000                                                                  
C37  25118031.570   130796177.388       -2412.365          35.000                                                                  
C10  39140754.047   203816180.629         715.476          37.000    39140738.877   157603611.382         552.623          39.000  
G08  24032198.407   126290068.682        3579.845          39.000    24032197.627    98407934.281        2789.460          39.000  
G29  25456845.812   133776629.515       -3642.355          39.000    25456836.366   104241472.866       -2838.649          37.000  
C30  25027348.025   130323974.789        2746.829          42.000                                                                  
C13  40860077.916   212769138.171       -2423.373          34.000    40860081.917   164526601.833       -1873.827          39.000  
C08                                                                  41773163.969   168203251.360       -1814.655          35.000  
> 2025 11 03 07 46 33.2800000  0 26                     
G04  21355325.659   112222993.719         985.962          43.000    21355314.935    87446445.758         768.214          45.000  
G16  20184002.444   106067648.617          84.104          43.000                                                                  
G28  23177626.272   121799248.571       -2752.952          28.000    23177615.444    94908448.065       -2145.369          32.000  
G31  21161401.621   111203917.954       -1761.309          43.000    21161389.179    86652347.690       -1372.506          44.000  
G03  24677039.286   129678710.408       -2967.825          37.000    24677034.532   101048316.895       -2312.802          35.000  
G18  25110108.103                        1285.046          31.000    25110104.340   102821673.437        1001.457          36.000  
C16  36732599.368   191276286.758           8.620          45.000    36732584.062   147906898.621           6.913          46.000  
C19  23883584.962   124368090.296       -2248.871          45.000                                                                  
C27  23554441.479   122654158.123        1037.432          41.000                                                                  
C06  36290567.014   188974502.850           6.084          44.000    36290546.583   146126997.205           4.290          46.000  
C09  37367785.502   194583864.387         131.164          42.000    37367767.482   150464520.308         101.313          46.000  
C22  24606910.103   128134637.780         533.774          45.000                                                                  
G26  20932971.930   110003511.928       -2002.716          41.000    20932963.092    85716984.153       -1560.687          41.000  
G27  21791783.533   114516598.891        2891.233          42.000    21791774.323    89233695.313        2252.839          41.000  
G09  23783612.415   124983740.761        2684.235          37.000    23783607.074    97389915.170        2091.638          39.000  
C28  24792190.796   129099439.273       -1164.074          40.000                                                                  
C07  38008827.471   197921934.898         773.087          39.000    38008807.170   153045726.620         597.549          41.000  
C20  25718493.573   133922935.004       -3627.438          45.000                                                                  
C36  23801066.875   123938403.047        1385.461          44.000                                                                  
C37  25118050.091   130796273.818       -2411.536          35.000                                                                  
C10  39140748.552   203816152.021         715.210          37.000    39140733.394   157603589.245         553.120          39.000  
G08  24032171.141   126289925.472        3579.992          39.000    24032170.372    98407822.688        2789.661          39.000  
G29  25456873.540   133776775.210       -3642.410          39.000    25456864.094   104241586.389       -2838.328          37.000  
C30  25027326.928   130323864.898        2747.140          42.000                                                                  
C13  40860096.547   212769235.109       -2423.543          34.000    40860100.530   164526676.788       -1873.940          39.000  
C08                                                                  41773182.022   168203323.957       -1815.015          35.000  
> 2025 11 03 07 46 33.3200000  0 26                     
G04  21355318.160   112222954.276         985.978          43.000    21355307.408    87446415.025         768.190          45.000  
G16  20184001.804   106067645.259          83.974          43.000                                                                  
G28  23177647.254   121799358.705       -2752.906          28.000    23177636.395    94908533.901       -2145.518          32.000  
G31  21161415.059   111203988.407       -1761.331          43.000    21161402.587    86652402.587       -1372.494          44.000  
G03  24677061.902   129678829.114       -2967.800          37.000    24677057.104   101048409.380       -2312.317          35.000  
G18  25110098.353                        1284.587          31.000    25110094.559   102821633.408        1001.058          36.000  
C16  36732599.321   191276286.406           8.735          45.000    36732583.988   147906898.343           6.875          46.000  
C19  23883602.242   124368180.250       -2248.889          45.000                                                                  
C27  23554433.509   122654116.619        1037.581          40.000                                                                  
C06  36290566.963   188974502.628           5.745          44.000    36290546.562   146126997.023           4.381          46.000  
C09  37367784.498   194583859.140         131.170          42.000    37367766.474   150464516.254         101.255          46.000  
C22  24606906.017   128134616.429         533.771          45.000                                                                  
G26  20932987.188   110003592.025       -2002.588          40.000    20932978.335    85717046.584       -1560.779          41.000  
G27  21791761.501   114516483.236        2891.371          42.000    21791752.329    89233605.185        2253.153          41.000  
G09  23783591.973   124983633.398        2684.283          37.000    23783586.645    97389831.529        2091.309          39.000  
C28  24792199.716   129099485.839       -1164.062          40.000                                                                  
C07  38008821.537   197921903.965         773.280          39.000    38008801.222   153045702.695         597.959          40.000  
C20  25718521.445   133923080.096       -3627.417          45.000                                                                  
C36  23801056.236   123938347.621        1385.632          43.000                                                                  
C37  25118068.612   130796370.265       -2411.224          35.000                                                                  
C10  39140743.034   203816123.350         716.151          36.000    39140727.870   157603567.083         553.806          39.000  
G08  24032143.878   126289782.256        3580.242          39.000    24032143.108    98407711.092        2789.875          39.000  
G29  25456901.245   133776920.904       -3642.400          37.000    25456891.824   104241699.887       -2837.610          37.000  
C30  25027305.839   130323755.003        2747.324          42.000                                                                  
C13  40860115.162   212769332.039       -2423.471          34.000    40860119.150   164526751.736       -1873.818          39.000  
C08                                                                  41773200.023   168203396.505       -1814.288          35.000  
> 2025 11 03 07 46 33.3600000  0 26                     
G04  21355310.640   112222914.830         986.040          41.000    21355299.886    87446384.299         768.042          45.000  
G16  20184001.168   106067641.915          83.639          43.000                                                                  
G28  23177668.218   121799468.841       -2752.977          28.000    23177657.361    94908619.740       -2145.789          32.000  
G31  21161428.476   111204058.859       -1761.296          43.000    21161416.002    86652457.489       -1372.573          44.000  
G03  24677084.545   129678947.850       -2968.278          37.000    24677079.710   101048501.900       -2312.660          35.000  
G18  25110088.600                        1283.802          31.000    25110084.777   102821593.375        1000.780          36.000  
C16  36732599.279   191276286.055           8.759          45.000    36732583.930   147906898.079           6.615          46.000  
C19  23883619.528   124368270.202       -2248.853          44.000                                                                  
C27  23554425.531   122654075.124        1037.457          40.000                                                                  
C06  36290566.941   188974502.395           5.743          44.000    36290546.501   146126996.846           4.377          46.000  
C09  37367783.493   194583853.900         131.068          42.000    37367765.467   150464512.204         101.176          45.000  
C22  24606901.919   128134595.081         533.683          45.000                                                                  
G26  20933002.448   110003672.128       -2002.618          40.000    20932993.572    85717109.000       -1560.565          41.000  
G27  21791739.496   114516367.576        2891.486          42.000    21791730.320    89233515.066        2253.129          41.000  
G09  23783571.516   124983526.055        2683.777          37.000    23783566.223    97389747.903        2090.796          39.000  
C28  24792208.642   129099532.403       -1164.015          40.000                                                                  
C07  38008815.619   197921873.048         773.043          39.000    38008795.300   153045678.772         598.079          40.000  
C20  25718549.306   133923225.195       -3627.518          45.000                                                                  
C36  23801045.599   123938292.207        1385.413          43.000                                                                  
C37  25118087.124   130796466.720       -2411.230          35.000                                                                  
C10  39140737.511   203816094.706         716.156          36.000    39140722.385   157603544.949         553.725          38.000  
G08  24032116.617   126289639.038        3580.397          39.000    24032115.842    98407599.506        2789.767          39.000  
G29  25456928.959   133777066.577       -3642.016          37.000    25456919.555   104241813.405       -2837.602          37.000  
C30  25027284.715   130323645.113        2747.336          42.000                                                                  
C13  40860133.780   212769428.970       -2423.321          34.000    40860137.774   164526826.697       -1873.954          39.000  
C08                                                                  41773218.020   168203469.065       -1814.093          35.000  
> 2025 11 03 07 46 33.4000000  0 26                     
G04  21355303.134   112222875.397         985.872          41.000    21355292.398    87446353.574         768.007          44.000  
G16  20184000.516   106067638.552          83.848          43.000                                                                  
G28  23177689.148   121799578.925       -2752.479          28.000    23177678.323    94908705.555       -2145.351          32.000  
G31  21161441.880   111204129.315       -1761.372          43.000    21161429.424    86652512.391       -1372.610          44.000  
G03  24677107.145   129679066.586       -2968.448          37.000    24677102.304   101048594.397       -2312.526          35.000  
G18  25110078.794                        1283.521          31.000    25110075.001   102821553.349        1000.548          36.000  
C16  36732599.249   191276285.696           8.920          45.000    36732583.840   147906897.805           6.724          46.000  
C19  23883636.804   124368360.160       -2248.920          44.000                                                                  
C27  23554417.569   122654033.631        1037.346          40.000                                                                  
C06  36290566.899   188974502.167           5.682          44.000    36290546.460   146126996.660           4.524          46.000  
C09  37367782.474   194583848.660         130.979          42.000    37367764.471   150464508.163         100.983          45.000  
C22  24606897.817   128134573.731         533.671          44.000                                                                  
G26  20933017.693   110003752.242       -2002.844          40.000    20933008.824    85717171.421       -1560.553          41.000  
G27  21791717.488   114516251.931        2891.257          42.000    21791708.316    89233424.945        2253.107          39.000  
G09  23783551.090   124983418.705        2683.691          37.000    23783545.801    97389664.261        2090.857          38.000  
C28  24792217.563   129099578.968       -1164.053          40.000                                                                  
C07  38008809.683   197921842.119         773.170          39.000    38008789.357   153045654.851         598.094          40.000  
C20  25718577.158   133923370.300       -3627.674          45.000                                                                  
C36  23801034.953   123938236.801        1385.169          43.000                                                                  
C37  25118105.646   130796563.186       -2411.523          35.000                                                                  
C10  39140732.018   203816066.089         715.609          36.000    39140716.867   157603522.801         553.791          38.000  
G08  24032089.366   126289495.848        3579.935          39.000    24032088.590    98407487.922        2789.651          39.000  
G29  25456956.674   133777212.269       -3642.175          37.000    25456947.281   104241926.941       -2838.063          37.000  
C30  25027263.597   130323535.230        2747.210          42.000                                                                  
C13  40860152.397   212769525.901       -2423.232          34.000    40860156.381   164526901.647       -1873.834          39.000  
C08                                                                  41773236.038   168203541.639       -1814.294          35.000  
> 2025 11 03 07 46 33.4400000  0 26                     
G04  21355295.647   112222835.972         985.662          40.000    21355284.864    87446322.834         768.292          44.000  
G16  20183999.871   106067635.191          83.979          43.000                                                                  
G28  23177710.078   121799689.097       -2753.174          28.000    23177699.257    94908791.378       -2145.272          32.000  
G31  21161455.289   111204199.776       -1761.503          43.000    21161442.839    86652567.283       -1372.427          43.000  
G03  24677129.727   129679185.311       -2968.340          37.000    24677124.883   101048686.882       -2312.258          35.000  
G18  25110069.024                        1284.116          31.000    25110065.230   102821513.317        1000.626          36.000  
C16  36732599.186   191276285.342           8.875          46.000    36732583.773   147906897.538           6.682          46.000  
C19  23883654.089   124368450.115       -2248.938          44.000                                                                  
C27  23554409.588   122653992.144        1037.167          40.000                                                                  
C06  36290566.875   188974501.935           5.712          44.000    36290546.433   146126996.483           4.479          45.000  
C09  37367781.471   194583843.416         131.032          40.000    37367763.441   150464504.112         101.105          45.000  
C22  24606893.721   128134552.386         533.621          44.000                                                                  
G26  20933032.919   110003832.364       -2003.070          40.000    20933024.048    85717233.842       -1560.516          41.000  
G27  21791695.511   114516136.295        2890.967          42.000    21791686.304    89233334.847        2252.626          39.000  
G09  23783530.633   124983311.363        2683.453          36.000    23783525.377    97389580.610        2091.071          38.000  
C28  24792226.512   129099625.553       -1164.474          40.000                                                                  
C07  38008803.723   197921811.187         773.276          39.000    38008783.422   153045630.936         597.966          40.000  
C20  25718605.047   133923515.406       -3627.733          45.000                                                                  
C36  23801024.312   123938181.397        1385.071          42.000                                                                  
C37  25118124.174   130796659.651       -2411.552          35.000                                                                  
C10  39140726.524   203816037.484         715.138          36.000    39140711.346   157603500.633         554.108          38.000  
G08  24032062.100   126289352.635        3580.133          39.000    24032061.345    98407376.316        2789.978          39.000  
G29  25456984.396   133777357.963       -3642.304          37.000    25456975.006   104242040.484       -2838.436          37.000  
C30  25027242.498   130323425.344        2747.158          42.000                                                                  
C13  40860171.014   212769622.824       -2423.148          34.000    40860174.990   164526976.599       -1873.803          39.000  
C08                                                                  41773254.065   168203614.204       -1814.203          35.000  
> 2025 11 03 07 46 33.4800000  0 26                     
G04  21355288.130   112222796.542         985.658          40.000    21355277.355    87446292.104         768.282          44.000  
G16  20183999.211   106067631.827          84.072          43.000                                                                  
G28  23177731.100   121799799.333       -2754.484          28.000    23177720.207    94908877.230       -2145.834          32.000  
G31  21161468.701   111204270.236       -1761.560          43.000    21161456.244    86652622.189       -1372.567          43.000  
G03  24677152.291   129679304.020       -2967.926          36.000    24677147.474   101048779.399       -2312.626          35.000  
G18  25110059.240                        1284.570          31.000    25110055.448   102821473.281        1000.779          36.000  
C16  36732599.129   191276284.986           8.893          46.000    36732583.713   147906897.270           6.671          46.000  
C19  23883671.372   124368540.068       -2248.901          44.000                                                                  
C27  23554401.629   122653950.674        1036.755          40.000                                                                  
C06  36290566.842   188974501.703           5.780          44.000    36290546.379   146126996.305           4.445          45.000  
C09  37367780.464   194583838.184         130.827          40.000    37367762.431   150464500.054         101.344          45.000  
C22  24606889.647   128134531.045         533.499          43.000                                                                  
G26  20933048.161   110003912.486       -2003.186          40.000    20933039.293    85717296.267       -1560.632          41.000  
G27  21791673.531   114516020.664        2890.739          42.000    21791664.319    89233244.759        2252.184          39.000  
G09  23783510.188   124983204.025        2683.301          36.000    23783504.959    97389496.967        2091.138          38.000  
C28  24792235.468   129099672.125       -1164.417          40.000                                                                  
C07  38008797.806   197921780.291         772.626          39.000    38008777.511   153045607.029         597.746          40.000  
C20  25718632.917   133923660.509       -3627.679          45.000                                                                  
C36  23801013.679   123938125.986        1385.156          41.000                                                                  
C37  25118142.690   130796756.134       -2411.980          35.000                                                                  
C10  39140721.043   203816008.875         714.966          36.000    39140705.844   157603478.491         553.804          38.000  
G08  24032034.847   126289209.439        3579.985          39.000    24032034.099    98407264.740        2789.617          39.000  
G29  25457012.134   133777503.668       -3642.572          37.000    25457002.734   104242154.007       -2838.255          37.000  
C30  25027221.377   130323315.472        2746.914          42.000                                                                  
C13  40860189.634   212769719.742       -2422.948          34.000    40860193.617   164527051.550       -1873.850          39.000  
C08                                                                  41773272.078   168203686.759       -1814.008          35.000  
> 2025 11 03 07 46 33.5200000  0 26                     
G04  21355280.651   112222757.097         985.918          40.000    21355269.845    87446261.373         768.301          44.000  
G16  20183998.586   106067628.468          84.033          43.000                                                                  
G28  23177752.076   121799909.490       -2754.467          28.000    23177741.168    94908963.075       -2145.999          32.000  
G31  21161482.103   111204340.695       -1761.532          43.000    21161469.643    86652677.088       -1372.532          43.000  
G03  24677174.904   129679422.737       -2967.870          36.000    24677170.059   101048871.901       -2312.652          35.000  
G18  25110049.478   131954198.354        1285.172          31.000    25110045.686   102821433.255        1000.615          36.000  
C16  36732599.070   191276284.628           8.916          46.000    36732583.635   147906896.991           6.875          46.000  
C19  23883688.636   124368630.021       -2248.846          44.000                                                                  
C27  23554393.654   122653909.198        1036.689          40.000                                                                  
C06  36290566.796   188974501.459           5.995          44.000    36290546.327   146126996.126           4.438          45.000  
C09  37367779.477   194583832.952         130.749          40.000    37367761.416   150464495.995         101.481          44.000  
C22  24606885.587   128134509.712         533.385          43.000                                                                  
G26  20933063.385   110003992.592       -2002.875          40.000    20933054.546    85717358.697       -1560.718          41.000  
G27  21791651.523   114515905.016        2890.952          42.000    21791642.328    89233154.648        2252.465          39.000  
G09  23783489.768   124983096.667        2683.630          36.000    23783484.521    97389413.327        2091.101          38.000  
C28  24792244.380   129099718.704       -1164.525          38.000                                                                  
C07  38008791.868   197921749.374         772.682          40.000    38008771.598   153045583.124         597.546          40.000  
C20  25718660.804   133923805.600       -3627.430          45.000                                                                  
C36  23801003.037   123938070.564        1385.407          41.000                                                                  
C37  25118161.214   130796852.594       -2411.736          35.000                                                                  
C10  39140715.533   203815980.266         715.003          36.000    39140700.359   157603456.380         553.033          38.000  
G08  24032007.600   126289066.238        3579.938          39.000    24032006.842    98407153.139        2789.828          39.000  
G29  25457039.864   133777649.354       -3642.287          37.000    25457030.459   104242267.537       -2838.252          37.000  
C30  25027200.282   130323205.587        2746.990          42.000                                                                  
C13  40860208.232   212769816.695       -2423.484          34.000    40860212.248   164527126.499       -1873.813          39.000  
C08                                                                  41773290.105   168203759.346       -1814.453          35.000  
> 2025 11 03 07 46 33.5600000  0 26                     
G04  21355273.147   112222717.658         985.995          40.000    21355262.357    87446230.650         768.147          44.000  
G16  20183997.926   106067625.099          84.170          43.000                                                                  
G28  23177773.066   121800019.631       -2754.193          28.000    23177762.115    94909048.880       -2145.313          32.000  
G31  21161495.517   111204411.150       -1761.458          43.000    21161483.074    86652731.990       -1372.561          43.000  
G03  24677197.506   129679541.447       -2967.713          36.000    24677192.663   101048964.422       -2312.948          35.000  
G18  25110039.742   131954147.001        1284.428          31.000    25110035.926   102821393.223        1000.717          35.000  
C16  36732599.039   191276284.270           8.948          46.000    36732583.532   147906896.711           6.981          45.000  
C19  23883705.926   124368719.970       -2248.743          44.000                                                                  
C27  23554385.674   122653867.692        1037.289          40.000                                                                  
C06  36290566.758   188974501.220           6.013          44.000    36290546.284   146126995.947           4.458          45.000  
C09  37367778.446   194583827.710         130.920          40.000    37367760.415   150464491.942         101.405          44.000  
C22  24606881.483   128134488.380         533.258          43.000                                                                  
G26  20933078.616   110004072.695       -2002.661          40.000    20933069.792    85717421.114       -1560.535          41.000  
G27  21791629.509   114515789.370        2891.065          42.000    21791620.331    89233064.515        2253.073          39.000  
G09  23783469.305   124982989.314        2683.765          36.000    23783464.103    97389329.683        2091.095          37.000  
C28  24792253.321   129099765.276       -1164.449          38.000                                                                  
C07  38008785.907   197921718.450         772.906          40.000    38008765.659   153045559.221         597.476          41.000  
C20  25718688.674   133923950.703       -3627.484          45.000                                                                  
C36  23800992.398   123938015.143        1385.529          40.000                                                                  
C37  25118179.745   130796949.054       -2411.594          35.000                                                                  
C10  39140710.024   203815951.628         715.551          36.000    39140694.852   157603434.255         552.941          38.000  
G08  24031980.334   126288923.033        3580.016          39.000    24031979.593    98407041.552        2789.688          39.000  
G29  25457067.564   133777795.049       -3642.268          37.000    25457058.198   104242381.059       -2838.037          36.000  
C30  25027179.228   130323095.706        2746.985          42.000                                                                  
C13  40860226.849   212769913.621       -2423.297          34.000    40860230.845   164527201.454       -1873.920          39.000  
C08                                                                  41773308.093   168203831.889       -1813.928          35.000  
> 2025 11 03 07 46 33.6000000  0 26                     
G04  21355265.631   112222678.219         985.975          40.000    21355254.828    87446199.911         768.341          44.000  
G16  20183997.284   106067621.733          84.174          42.000                                                                  
G28  23177794.030                       -2753.976          28.000    23177783.067    94909134.703       -2145.266          31.000  
G31  21161508.889   111204481.597       -1761.267          43.000    21161496.481    86652786.894       -1372.626          43.000  
G03  24677220.089   129679660.161       -2967.797          36.000    24677215.248   101049056.934       -2312.938          35.000  
G18  25110029.964   131954095.628        1284.346          31.000    25110026.127   102821353.164        1001.203          35.000  
C16  36732599.007   191276283.905           9.063          46.000    36732583.442   147906896.438           6.925          45.000  
C19  23883723.199   124368809.924       -2248.834          44.000                                                                  
C27  23554377.711   122653826.198        1037.417          40.000                                                                  
C06  36290566.735   188974500.974           6.127          44.000    36290546.223   146126995.761           4.575          45.000  
C09  37367777.431   194583822.450         131.409          40.000    37367759.384   150464487.879         101.524          44.000  
C22  24606877.396   128134467.043         533.331          43.000                                                                  
G26  20933093.876   110004152.792       -2002.405          40.000    20933085.025    85717483.530       -1560.406          41.000  
G27  21791607.504   114515673.722        2891.176          42.000    21791598.315    89232974.399        2253.078          39.000  
G09  23783448.885   124982881.965        2683.679          36.000    23783443.663    97389246.040        2091.022          37.000  
C28  24792262.254   129099811.845       -1164.354          38.000                                                                  
C07  38008779.963   197921687.520         773.144          41.000    38008759.716   153045535.299         597.798          42.000  
C20  25718716.557   133924095.811       -3627.637          45.000                                                                  
C36  23800981.756   123937959.730        1385.388          40.000                                                                  
C37  25118198.266   130797045.499       -2411.213          35.000                                                                  
C10  39140704.544   203815922.978         716.073          37.000    39140689.344   157603412.122         552.991          38.000  
G08  24031953.092   126288779.823        3580.113          39.000    24031952.349    98406929.959        2789.738          39.000  
G29  25457095.284   133777940.744       -3642.321          37.000    25457085.917   104242494.568       -2837.742          37.000  
C30  25027158.127   130322985.828        2746.956          42.000                                                                  
C13  40860245.462   212770010.558       -2423.353          34.000    40860249.473   164527276.397       -1873.705          39.000  
C08                                                                  41773326.136   168203904.442       -1813.721          35.000  
> 2025 11 03 07 46 33.6400000  0 26                     
G04  21355258.127   112222638.793         985.751          40.000    21355247.323    87446169.186         768.206          44.000  
G16  20183996.623   106067618.362          84.229          43.000                                                                  
G28  23177814.982                       -2753.710          28.000    23177804.014    94909220.555       -2146.020          31.000  
G31  21161522.311   111204552.061       -1761.481          43.000    21161509.889    86652841.784       -1372.427          43.000  
G03  24677242.689   129679778.892       -2968.151          36.000    24677237.819   101049149.449       -2313.044          35.000  
G18  25110020.206   131954044.256        1284.279          31.000    25110016.351   102821313.142        1000.778          35.000  
C16  36732598.972   191276283.535           9.188          46.000    36732583.371   147906896.173           6.734          45.000  
C19  23883740.462   124368899.880       -2248.914          44.000                                                                  
C27  23554369.729   122653784.701        1037.515          40.000                                                                  
C06  36290566.696   188974500.735           6.047          44.000    36290546.178   146126995.577           4.576          45.000  
C09  37367776.426   194583817.204         131.328          40.000    37367758.370   150464483.819         101.509          44.000  
C22  24606873.304   128134445.700         533.495          42.000                                                                  
G26  20933109.119   110004232.899       -2002.533          40.000    20933100.266    85717545.944       -1560.321          41.000  
G27  21791585.511   114515558.082        2891.060          42.000    21791576.301    89232884.285        2252.984          39.000  
G09  23783428.429   124982774.591        2684.155          37.000    23783423.254    97389162.388        2091.272          37.000  
C28  24792271.203   129099858.401       -1164.045          38.000                                                                  
C07  38008774.019   197921656.592         773.280          41.000    38008753.784   153045511.378         597.979          42.000  
C20  25718744.421   133924240.899       -3627.363          45.000                                                                  
C36  23800971.113   123937904.318        1385.321          40.000                                                                  
C37  25118216.802   130797141.971       -2411.610          35.000                                                                  
C10  39140699.063   203815894.354         715.848          37.000    39140683.859   157603389.966         553.508          38.000  
G08  24031925.829   126288636.598        3580.470          39.000    24031925.122    98406818.382        2789.457          39.000  
G29  25457122.993   133778086.429       -3642.188          37.000    25457113.637   104242608.098       -2837.979          36.000  
C30  25027137.031   130322875.938        2747.164          42.000                                                                  
C13  40860264.096   212770107.480       -2423.173          34.000    40860268.101   164527351.359       -1873.970          39.000  
C08                                                                  41773344.158   168203977.017       -1814.142          35.000  
> 2025 11 03 07 46 33.6800000  0 26                     
G04  21355250.608   112222599.346         986.040          40.000    21355239.814    87446138.455         768.256          44.000  
G16  20183995.992   106067615.003          84.054          43.000                                                                  
G28  23177835.970                       -2753.599          28.000    23177825.017    94909306.397       -2146.253          31.000  
G31  21161535.721   111204622.504       -1761.248          44.000    21161523.312    86652896.683       -1372.477          42.000  
G03  24677265.297   129679897.617       -2968.235          37.000    24677260.410   101049241.955       -2312.844          35.000  
G18  25110010.422   131953992.908        1283.804          32.000    25110006.589   102821273.126        1000.372          35.000  
C16  36732598.941   191276283.166           9.236          46.000    36732583.269   147906895.894           6.848          45.000  
C19  23883757.751   124368989.836       -2248.956          44.000                                                                  
C27  23554361.772   122653743.211        1037.353          39.000                                                                  
C06  36290566.672   188974500.494           5.999          44.000    36290546.145   146126995.386           4.685          46.000  
C09  37367775.424   194583811.941         131.547          40.000    37367757.346   150464479.761         101.462          44.000  
C22  24606869.248   128134424.355         533.596          42.000                                                                  
G26  20933124.369   110004313.001       -2002.521          40.000    20933115.515    85717608.362       -1560.413          41.000  
G27  21791563.497   114515442.437        2891.087          42.000    21791554.288    89232794.170        2252.888          39.000  
G09  23783407.998   124982667.255        2683.643          37.000    23783402.815    97389078.744        2091.144          37.000  
C28  24792280.129   129099904.973       -1164.178          38.000                                                                  
C07  38008768.078   197921625.660         773.332          41.000    38008747.822   153045487.462         597.971          42.000  
C20  25718772.312   133924385.990       -3627.264          45.000                                                                  
C36  23800960.484   123937848.891        1385.535          40.000                                                                  
C37  25118235.327   130797238.429       -2411.535          35.000                                                                  
C10  39140693.554   203815865.726         715.748          37.000    39140678.327   157603367.819         553.628          38.000  
G08  24031898.585   126288493.408        3580.026          40.000    24031897.883    98406706.816        2789.159          39.000  
G29  25457150.692   133778232.118       -3642.218          37.000    25457141.362   104242721.628       -2838.154          36.000  
C30  25027115.963   130322766.047        2747.303          42.000                                                                  
C13  40860282.712   212770204.385       -2422.721          35.000    40860286.721   164527426.294       -1873.597          40.000  
C08                                                                  41773362.195   168204049.585       -1814.203          35.000  
> 2025 11 03 07 46 33.7200000  0 26                     
G04  21355243.097   112222559.906         986.035          40.000    21355232.303    87446107.728         768.186          44.000  
G16  20183995.344   106067611.646          83.925          43.000                                                                  
G28  23177856.931                       -2753.668          28.000    23177845.978    94909392.300       -2147.393          31.000  
G31  21161549.129   111204692.960       -1761.354          44.000    21161536.743    86652951.586       -1372.574          42.000  
G03  24677287.868   129680016.313       -2967.726          37.000    24677282.970   101049334.456       -2312.567          35.000  
G18  25110000.671   131953941.525        1284.160          32.000    25109996.820   102821233.066        1000.942          35.000  
C16  36732598.864   191276282.809           9.043          46.000    36732583.226   147906895.608           7.061          45.000  
C19  23883775.018   124369079.785       -2248.822          44.000                                                                  
C27  23554353.841   122653701.731        1037.063          39.000                                                                  
C06  36290566.644   188974500.252           6.034          44.000    36290546.147   146126995.201           4.678          46.000  
C09  37367774.413   194583806.693         131.333          40.000    37367756.315   150464475.691         101.640          44.000  
C22  24606865.133   128134403.020         533.405          42.000                                                                  
G26  20933139.590   110004393.098       -2002.417          40.000    20933130.761    85717670.775       -1560.339          41.000  
G27  21791541.504   114515326.797        2890.999          42.000    21791532.292    89232704.067        2252.661          39.000  
G09  23783387.592   124982559.924        2683.282          36.000    23783382.383    97388995.096        2091.168          37.000  
C28  24792289.079   129099951.562       -1164.542          38.000                                                                  
C07  38008762.134   197921594.737         773.186          41.000    38008741.879   153045463.547         597.918          42.000  
C20  25718800.175   133924531.080       -3627.243          45.000                                                                  
C36  23800949.843   123937793.472        1385.510          40.000                                                                  
C37  25118253.842   130797334.875       -2411.310          35.000                                                                  
C10  39140688.059   203815837.115         715.374          37.000    39140672.818   157603345.672         553.700          38.000  
G08  24031871.338   126288350.195        3580.203          40.000    24031870.623    98406595.204        2789.823          39.000  
G29  25457178.391   133778377.817       -3642.391          37.000    25457169.104   104242835.156       -2838.162          36.000  
C30  25027094.873   130322656.158        2747.255          42.000                                                                  
C13  40860301.334   212770301.322       -2423.084          35.000    40860305.358   164527501.238       -1873.530          40.000  
C08                                                                  41773380.196   168204122.154       -1814.276          35.000  
> 2025 11 03 07 46 33.7600000  0 26                     
G04  21355235.593   112222520.475         985.901          40.000    21355224.798    87446076.994         768.239          44.000  
G16  20183994.693   106067608.276          84.145          43.000                                                                  
G28  23177877.893                       -2754.095          28.000    23177866.914    94909478.090       -2145.720          31.000  
G31  21161562.558   111204763.415       -1761.385          44.000    21161550.165    86653006.479       -1372.441          42.000  
G03  24677310.425   129680135.045       -2968.080          37.000    24677305.532   101049426.950       -2312.390          35.000  
G18  25109990.919   131953890.141        1284.392          32.000    25109987.068   102821193.039        1000.752          35.000  
C16  36732598.832   191276282.446           9.032          46.000    36732583.135   147906895.335           6.917          45.000  
C19  23883792.290   124369169.751       -2249.097          44.000                                                                  
C27  23554345.863   122653660.255        1036.892          39.000                                                                  
C06  36290566.618   188974500.006           6.078          44.000    36290546.115   146126995.015           4.674          46.000  
C09  37367773.400   194583801.442         131.268          40.000    37367755.325   150464471.643         101.330          44.000  
C22  24606861.032   128134381.696         533.147          42.000                                                                  
G26  20933154.813   110004473.197       -2002.454          40.000    20933145.989    85717733.203       -1560.645          41.000  
G27  21791519.493   114515211.150        2891.052          42.000    21791510.277    89232613.956        2252.639          39.000  
G09  23783367.155   124982452.574        2683.502          36.000    23783361.984    97388911.464        2090.900          37.000  
C28  24792298.017   129099998.108       -1163.989          36.000                                                                  
C07  38008756.212   197921563.815         773.093          41.000    38008735.953   153045439.647         597.591          42.000  
C20  25718828.030   133924676.175       -3627.301          45.000                                                                  
C36  23800939.175   123937738.055        1385.455          40.000                                                                  
C37  25118272.379   130797431.353       -2411.718          35.000                                                                  
C10  39140682.579   203815808.483         715.580          37.000    39140667.342   157603323.570         552.895          38.000  
G08  24031844.060   126288206.988        3580.170          40.000    24031843.345    98406483.606        2789.987          39.000  
G29  25457206.110   133778523.527       -3642.729          37.000    25457196.825   104242948.693       -2838.380          36.000  
C30  25027073.778   130322546.285        2746.944          42.000                                                                  
C13  40860319.949   212770398.265       -2423.436          35.000    40860323.957   164527576.194       -1873.758          40.000  
C08                                                                  41773398.221   168204194.704       -1813.940          35.000  
> 2025 11 03 07 46 33.8000000  0 26                     
G04  21355228.074   112222481.028         986.058          40.000    21355217.293    87446046.260         768.326          43.000  
G16  20183994.068   106067604.917          84.038          43.000                                                                  
G28  23177898.861                       -2754.341          28.000    23177887.873    94909563.938       -2145.944          31.000  
G31  21161575.984   111204833.873       -1761.464          44.000    21161563.567    86653061.386       -1372.610          42.000  
G03  24677333.001   129680253.740       -2967.599          37.000    24677328.115   101049519.464       -2312.688          35.000  
G18  25109981.167   131953838.735        1284.908          32.000    25109977.310   102821152.998        1000.931          35.000  
C16  36732598.788   191276282.081           9.080          46.000    36732583.043   147906895.045           7.118          45.000  
C19  23883809.590   124369259.713       -2249.139          44.000                                                                  
C27  23554337.916   122653618.795        1036.499          39.000                                                                  
C06  36290566.572   188974499.767           6.040          44.000    36290546.080   146126994.824           4.703          46.000  
C09  37367772.373   194583796.182         131.437          40.000    37367754.325   150464467.584         101.373          44.000  
C22  24606856.917   128134360.366         533.144          42.000                                                                  
G26  20933170.069   110004553.303       -2002.570          40.000    20933161.239    85717795.614       -1560.443          41.000  
G27  21791497.523   114515095.519        2890.818          42.000    21791488.295    89232523.857        2252.433          39.000  
G09  23783346.730   124982345.254        2683.075          36.000    23783341.558    97388827.824        2090.955          37.000  
C28  24792306.946   129100044.688       -1164.291          36.000                                                                  
C07  38008750.262   197921532.896         772.954          41.000    38008730.022   153045415.747         597.470          42.000  
C20  25718855.884   133924821.277       -3627.491          45.000                                                                  
C36  23800928.521   123937682.638        1385.461          40.000                                                                  
C37  25118290.895   130797527.846       -2412.189          35.000                                                                  
C10  39140677.074   203815779.855         715.654          37.000    39140661.804   157603301.445         552.917          38.000  
G08  24031816.813   126288063.774        3580.283          40.000    24031816.112    98406372.022        2789.774          39.000  
G29  25457233.798   133778669.209       -3642.398          37.000    25457224.565   104243062.235       -2838.540          36.000  
C30  25027052.649   130322436.420        2746.659          42.000                                                                  
C13  40860338.554   212770495.185       -2423.148          35.000    40860342.559   164527651.145       -1873.841          40.000  
C08                                                                  41773416.225   168204267.261       -1813.953          35.000  
> 2025 11 03 07 46 33.8400000  0 26                     
G04  21355220.561   112222441.589         985.966          40.000    21355209.770    87446015.524         768.375          43.000  
G16  20183993.429   106067601.547          84.194          43.000                                                                  
G28  23177919.861                       -2754.759          28.000    23177908.849    94909649.799       -2146.280          31.000  
G31  21161589.388   111204904.336       -1761.572          44.000    21161577.005    86653116.290       -1372.647          42.000  
G03  24677355.569   129680372.456       -2967.692          37.000    24677350.706   101049611.979       -2312.812          35.000  
G18  25109971.366   131953787.351        1284.668          32.000    25109967.541   102821112.980        1000.599          35.000  
C16  36732598.755   191276281.728           8.884          46.000    36732582.941   147906894.770           6.964          45.000  
C19  23883826.880   124369349.669       -2248.981          44.000                                                                  
C27  23554329.937   122653577.324        1036.613          39.000                                                                  
C06  36290566.534   188974499.521           6.084          44.000    36290546.038   146126994.633           4.749          46.000  
C09  37367771.357   194583790.922         131.472          40.000    37367753.283   150464463.513         101.643          44.000  
C22  24606852.828   128134339.034         533.222          42.000                                                                  
G26  20933185.330   110004633.415       -2002.789          40.000    20933176.486    85717858.037       -1560.547          41.000  
G27  21791475.503   114514979.883        2890.793          42.000    21791466.306    89232433.752        2252.523          39.000  
G09  23783326.309   124982237.917        2683.282          36.000    23783321.145    97388744.193        2090.796          37.000  
C28  24792315.867   129100091.255       -1164.265          36.000                                                                  
C07  38008744.355   197921501.983         772.838          41.000    38008724.104   153045391.838         597.554          42.000  
C20  25718883.751   133924966.375       -3627.516          45.000                                                                  
C36  23800917.879   123937627.228        1385.321          40.000                                                                  
C37  25118309.409   130797624.304       -2411.855          35.000                                                                  
C10  39140671.592   203815751.219         715.798          37.000    39140656.316   157603279.297         553.393          38.000  
G08  24031789.572   126287920.570        3580.175          40.000    24031788.851    98406260.422        2789.925          39.000  
G29  25457261.530   133778814.915       -3642.623          37.000    25457252.303   104243175.776       -2838.552          36.000  
C30  25027031.539   130322326.532        2746.945          42.000                                                                  
C13  40860357.162   212770592.102       -2423.039          35.000    40860361.181   164527726.089       -1873.700          40.000  
C08                                                                  41773434.244   168204339.819       -1814.032          35.000  
> 2025 11 03 07 46 33.8800000  0 26                     
G04  21355213.076   112222402.159         985.784          40.000    21355202.277    87445984.792         768.326          43.000  
G16  20183992.812   106067598.177          84.223          43.000                                                                  
G28  23177940.864                       -2754.899          28.000    23177929.802    94909735.647       -2146.318          31.000  
G31  21161602.799   111204974.790       -1761.468          44.000    21161590.424    86653171.193       -1372.642          42.000  
G03  24677378.165   129680491.180       -2967.970          37.000    24677373.284   101049704.486       -2312.791          35.000  
G18  25109961.649   131953735.982        1284.355          31.000    25109957.745   102821072.907        1001.392          35.000  
C16  36732598.717   191276281.364           8.980          46.000    36732582.886   147906894.481           7.121          45.000  
C19  23883844.155   124369439.633       -2249.036          44.000                                                                  
C27  23554321.964   122653535.848        1036.749          39.000                                                                  
C06  36290566.481   188974499.281           6.002          44.000    36290545.993   146126994.448           4.670          46.000  
C09  37367770.329   194583785.669         131.401          40.000    37367752.270   150464459.440         101.778          44.000  
C22  24606848.737   128134317.705         533.218          42.000                                                                  
G26  20933200.570   110004713.514       -2002.637          40.000    20933191.739    85717920.448       -1560.406          41.000  
G27  21791453.480   114514864.246        2890.849          42.000    21791444.300    89232343.633        2252.847          39.000  
G09  23783305.895   124982130.576        2683.453          36.000    23783300.721    97388660.527        2091.437          37.000  
C28  24792324.818   129100137.822       -1164.175          36.000                                                                  
C07  38008738.443   197921471.068         772.739          41.000    38008718.192   153045367.939         597.461          42.000  
C20  25718911.624   133925111.465       -3627.381          45.000                                                                  
C36  23800907.275   123937571.810        1385.437          40.000                                                                  
C37  25118327.942   130797720.770       -2411.709          35.000                                                                  
C10  39140666.120   203815722.614         715.321          37.000    39140650.840   157603257.171         553.250          38.000  
G08  24031762.319   126287777.348        3580.402          40.000    24031761.584    98406148.823        2789.952          39.000  
G29  25457289.244   133778960.627       -3642.857          37.000    25457280.033   104243289.305       -2838.331          36.000  
C30  25027010.415   130322216.657        2746.887          42.000                                                                  
C13  40860375.778   212770689.016       -2422.942          35.000    40860379.792   164527801.024       -1873.430          40.000  
C08                                                                  41773452.309   168204412.371       -1813.910          35.000  
> 2025 11 03 07 46 33.9200000  0 26                     
G04  21355205.576   112222362.724         985.756          40.000    21355194.785    87445954.071         768.088          43.000  
G16  20183992.183   106067594.810          84.204          43.000                                                                  
G28  23177961.848                       -2755.106          28.000    23177950.753    94909821.505       -2146.555          31.000  
G31  21161616.217   111205045.248       -1761.489          44.000    21161603.819    86653226.084       -1372.392          43.000  
G03  24677400.763   129680609.909       -2968.228          37.000    24677395.886   101049796.999       -2312.868          35.000  
G18  25109951.839   131953684.595        1284.601          31.000    25109947.973   102821032.870        1001.212          35.000  
C16  36732598.677   191276280.997           9.111          46.000    36732582.823   147906894.200           7.052          45.000  
C19  23883861.463   124369529.589       -2248.956          44.000                                                                  
C27  23554313.986   122653494.365        1036.995          39.000                                                                  
C06  36290566.440   188974499.027           6.193          44.000    36290545.966   146126994.259           4.705          46.000  
C09  37367769.329   194583780.418         131.285          40.000    37367751.249   150464455.372         101.734          44.000  
C22  24606844.676   128134296.385         533.013          42.000                                                                  
G26  20933215.811   110004793.615       -2002.588          40.000    20933206.972    85717982.863       -1560.413          41.000  
G27  21791431.476   114514748.612        2890.845          42.000    21791422.297    89232253.530        2252.703          39.000  
G09  23783285.473   124982023.246        2683.270          36.000    23783280.297    97388576.880        2091.406          37.000  
C28  24792333.758   129100184.408       -1164.560          36.000                                                                  
C07  38008732.518   197921440.151         772.804          40.000    38008712.243   153045344.028         597.631          42.000  
C20  25718939.467   133925256.552       -3627.243          45.000                                                                  
C36  23800896.622   123937516.384        1385.663          40.000                                                                  
C37  25118346.469   130797817.215       -2411.272          35.000                                                                  
C10  39140660.621   203815693.987         715.459          37.000    39140645.338   157603235.037         553.264          38.000  
G08  24031735.073   126287634.135        3580.366          40.000    24031734.341    98406037.231        2789.840          39.000  
G29  25457316.967   133779106.331       -3642.846          37.000    25457307.785   104243402.817       -2837.911          36.000  
C30  25026989.300   130322106.766        2747.141          42.000                                                                  
C13  40860394.394   212770785.976       -2423.722          35.000    40860398.407   164527875.971       -1873.610          40.000  
C08                                                                  41773470.328   168204484.941       -1814.209          35.000  
> 2025 11 03 07 46 33.9600000  0 26                     
G04  21355198.080   112222323.293         985.758          40.000    21355187.280    87445923.341         768.162          43.000  
G16  20183991.556   106067591.457          83.930          43.000                                                                  
G28  23177982.845                       -2754.641          28.000    23177971.713    94909907.314       -2145.687          31.000  
G31  21161629.634   111205115.699       -1761.361          44.000    21161617.243    86653280.985       -1372.452          43.000  
G03  24677423.370   129680728.636       -2968.277          37.000    24677418.479   101049889.525       -2313.138          35.000  
G18  25109942.060   131953633.174        1285.405          31.000    25109938.195   102820992.846        1000.752          35.000  
C16  36732598.624   191276280.631           9.146          46.000    36732582.746   147906893.913           7.102          45.000  
C19  23883878.730   124369619.543       -2248.877          44.000                                                                  
C27  23554306.019   122653452.891        1037.020          39.000                                                                  
C06  36290566.433   188974498.776           6.246          44.000    36290545.931   146126994.068           4.735          46.000  
C09  37367768.345   194583775.166         131.255          40.000    37367750.241   150464451.314         101.521          44.000  
C22  24606840.592   128134275.056         533.083          42.000                                                                  
G26  20933231.052   110004873.713       -2002.502          40.000    20933222.206    85718045.269       -1560.223          41.000  
G27  21791409.479   114514632.970        2891.019          41.000    21791400.284    89232163.411        2252.905          39.000  
G09  23783265.041   124981915.920        2683.148          36.000    23783259.884    97388493.259        2090.839          37.000  
C28  24792342.687   129100230.949       -1163.905          36.000                                                                  
C07  38008726.582   197921409.229         772.924          40.000    38008706.311   153045320.111         597.838          42.000  
C20  25718967.353   133925401.651       -3627.384          45.000                                                                  
C36  23800885.965   123937460.964        1385.602          40.000                                                                  
C37  25118365.000   130797913.667       -2411.054          34.000                                                                  
C10  39140655.120   203815665.338         715.980          37.000    39140639.843   157603212.902         553.319          38.000  
G08  24031707.805   126287490.942        3579.978          40.000    24031707.106    98405925.641        2789.749          39.000  
G29  25457344.684   133779252.031       -3642.667          37.000    25457335.505   104243516.346       -2838.051          36.000  
C30  25026968.198   130321996.890        2747.027          42.000                                                                  
C13  40860413.021   212770882.880       -2423.021          35.000    40860417.016   164527950.917       -1873.661          40.000  
C08                                                                  41773488.356   168204557.496       -1814.001          35.000  
> 2025 11 03 07 46 34.0000000  0 26                     
G04  21355190.548   112222283.850         985.957          40.000    21355179.764    87445892.614         768.124          43.000  
G16  20183990.908   106067588.085          84.080          43.000                                                                  
G28  23178003.804                       -2754.344          28.000    23177992.680    94909993.162       -2145.991          31.000  
G31  21161643.054   111205186.156       -1761.419          44.000    21161630.657    86653335.887       -1372.514          43.000  
G03  24677445.954   129680847.326       -2967.556          36.000    24677441.050   101049981.997       -2312.260          35.000  
G18  25109932.252   131953581.799        1284.852          31.000    25109928.435   102820952.820        1000.614          35.000  
C16  36732598.585   191276280.263           9.196          46.000    36732582.665   147906893.631           7.035          45.000  
C19  23883896.011   124369709.501       -2248.932          44.000                                                                  
C27  23554298.047   122653411.420        1036.908          39.000                                                                  
C06  36290566.403   188974498.535           6.064          44.000    36290545.904   146126993.875           4.792          46.000  
C09  37367767.348   194583769.893         131.649          40.000    37367749.208   150464447.246         101.582          44.000  
C22  24606836.504   128134253.729         533.085          42.000                                                                  
G26  20933246.283   110004953.818       -2002.618          40.000    20933237.439    85718107.686       -1560.315          41.000  
G27  21791387.466   114514517.331        2891.022          41.000    21791378.275    89232073.299        2252.825          39.000  
G09  23783244.629   124981808.573        2683.423          36.000    23783239.484    97388409.608        2091.028          37.000  
C28  24792351.639   129100277.505       -1163.797          36.000                                                                  
C07  38008720.648   197921378.285         773.388          40.000    38008700.408   153045296.195         597.924          42.000  
C20  25718995.228   133925546.740       -3627.301          45.000                                                                  
C36  23800875.343   123937405.553        1385.370          40.000                                                                  
C37  25118383.530   130798010.146       -2411.525          31.000                                                                  
C10  39140649.608   203815636.708         715.907          37.000    39140634.338   157603190.768         553.301          38.000  
G08  24031680.532   126287347.728        3580.148          40.000    24031679.859    98405814.057        2789.608          39.000  
G29  25457372.386   133779397.713       -3642.287          37.000    25457363.241   104243629.851       -2837.728          36.000  
C30  25026947.063   130321886.998        2747.226          42.000                                                                  
C13  40860431.637   212770979.780       -2422.527          35.000    40860435.616   164528025.870       -1873.837          40.000  
C08                                                                  41773506.382   168204630.074       -1814.429          35.000  
> 2025 11 03 07 46 34.0400000  0 26                     
G04  21355183.030   112222244.414         985.931          41.000    21355172.257    87445861.883         768.234          43.000  
G16  20183990.282   106067584.728          83.962          43.000                                                                  
G28  23178024.795                       -2754.394          28.000    23178013.657    94910079.010       -2146.178          31.000  
G31  21161656.447   111205256.608       -1761.353          44.000    21161644.064    86653390.785       -1372.467          43.000  
G03  24677468.564   129680966.037       -2967.618          37.000    24677463.637   101050074.528       -2312.809          35.000  
G18  25109922.480   131953530.441        1284.225          32.000    25109918.665   102820912.790        1000.572          35.000  
C16  36732598.501   191276279.896           9.187          46.000    36732582.587   147906893.351           6.978          45.000  
C19  23883913.303   124369799.457       -2248.932          44.000                                                                  
C27  23554290.067   122653369.941        1037.013          39.000                                                                  
C06  36290566.379   188974498.293           6.023          44.000    36290545.845   146126993.684           4.784          46.000  
C09  37367766.330   194583764.638         131.520          40.000    37367748.179   150464443.176         101.678          44.000  
C22  24606832.423   128134232.384         533.430          42.000                                                                  
G26  20933261.518   110005033.916       -2002.515          41.000    20933252.683    85718170.104       -1560.413          41.000  
G27  21791365.456   114514401.685        2891.128          42.000    21791356.291    89231983.203        2252.544          39.000  
G09  23783224.199   124981701.239        2683.319          37.000    23783219.051    97388325.966        2091.022          37.000  
C28  24792360.579   129100324.063       -1163.881          36.000                                                                  
C07  38008714.742   197921347.346         773.540          39.000    38008694.479   153045272.282         597.916          42.000  
C20  25719023.112   133925691.822       -3627.105          45.000                                                                  
C36  23800864.698   123937350.132        1385.455          40.000                                                                  
C37  25118402.069   130798106.637       -2412.053          32.000                                                                  
C10  39140644.132   203815608.062         716.097          37.000    39140628.844   157603168.633         553.322          38.000  
G08  24031653.282   126287204.500        3580.471          40.000    24031652.609    98405702.476        2789.497          39.000  
G29  25457400.078   133779543.410       -3642.296          38.000    25457390.974   104243743.407       -2838.503          36.000  
C30  25026925.955   130321777.109        2747.240          42.000                                                                  
C13  40860450.241   212771076.696       -2422.603          35.000    40860454.227   164528100.820       -1873.872          40.000  
C08                                                                  41773524.412   168204702.621       -1813.928          35.000  
> 2025 11 03 07 46 34.0800000  0 26                     
G04  21355175.514   112222204.974         985.984          41.000    21355164.739    87445831.156         768.179          43.000  
G16  20183989.646   106067581.355          84.188          43.000                                                                  
G28  23178045.779                       -2754.017          28.000    23178034.618    94910164.829       -2145.760          32.000  
G31  21161669.862   111205327.059       -1761.316          44.000    21161657.473    86653445.684       -1372.461          43.000  
G03  24677491.169   129681084.770       -2968.103          37.000    24677486.221   101050167.024       -2312.524          35.000  
G18  25109912.716   131953479.075        1283.940          32.000    25109908.876   102820872.733        1001.081          35.000  
C16  36732598.453   191276279.523           9.316          46.000    36732582.513   147906893.063           7.112          45.000  
C19  23883930.588   124369889.408       -2248.785          44.000                                                                  
C27  23554282.091   122653328.449        1037.234          39.000                                                                  
C06  36290566.356   188974498.029           6.346          44.000    36290545.819   146126993.486           4.888          46.000  
C09  37367765.334   194583759.378         131.519          40.000    37367747.187   150464439.105         101.735          44.000  
C22  24606828.329   128134211.050         533.424          42.000                                                                  
G26  20933276.754   110005113.997       -2002.161          41.000    20933267.913    85718232.517       -1560.321          41.000  
G27  21791343.449   114514286.035        2891.234          42.000    21791334.291    89231893.106        2252.403          40.000  
G09  23783203.762   124981593.880        2683.789          37.000    23783198.611    97388242.320        2091.095          37.000  
C28  24792369.510   129100370.627       -1164.057          36.000                                                                  
C07  38008708.817   197921316.433         773.095          39.000    38008688.528   153045248.368         597.914          41.000  
C20  25719050.982   133925836.908       -3627.089          45.000                                                                  
C36  23800854.060   123937294.706        1385.590          42.000                                                                  
C37  25118420.567   130798203.033       -2410.746          32.000                                                                  
C10  39140638.639   203815579.441         715.788          37.000    39140623.339   157603146.481         553.675          38.000  
G08  24031626.020   126287061.265        3580.789          40.000    24031625.329    98405590.868        2789.906          39.000  
G29  25457427.803   133779689.097       -3642.124          38.000    25457418.696   104243856.954       -2838.797          36.000  
C30  25026904.879   130321667.210        2747.443          42.000                                                                  
C13  40860468.834   212771173.598       -2422.490          35.000    40860472.845   164528175.756       -1873.568          40.000  
C08                                                                  41773542.420   168204775.177       -1813.861          35.000  
> 2025 11 03 07 46 34.1200000  0 26                     
G04  21355168.014   112222165.528         986.113          41.000    21355157.208    87445800.409         768.513          43.000  
G16  20183988.997   106067577.977          84.398          43.000                                                                  
G28  23178066.735                       -2753.808          28.000    23178055.591    94910250.673       -2145.942          32.000  
G31  21161683.273   111205397.506       -1761.218          44.000    21161670.897    86653500.578       -1372.361          43.000  
G03  24677513.749   129681203.478       -2967.920          37.000    24677508.816   101050259.529       -2312.543          35.000  
G18  25109902.942   131953427.664        1284.823          32.000    25109899.104   102820832.698        1001.019          35.000  
C16  36732598.401   191276279.146           9.416          46.000    36732582.441   147906892.765           7.358          45.000  
C19  23883947.842   124369979.360       -2248.773          44.000                                                                  
C27  23554274.095   122653286.966        1037.196          39.000                                                                  
C06  36290566.316   188974497.776           6.359          44.000    36290545.769   146126993.293           4.900          46.000  
C09  37367764.333   194583754.113         131.635          40.000    37367746.167   150464435.030         101.835          44.000  
C22  24606824.242   128134189.718         533.347          42.000                                                                  
G26  20933291.981   110005194.093       -2002.307          41.000    20933283.124    85718294.916       -1560.059          41.000  
G27  21791321.430   114514170.391        2891.162          42.000    21791312.267    89231802.981        2252.867          40.000  
G09  23783183.307   124981486.527        2683.972          37.000    23783178.181    97388158.657        2091.443          37.000  
C28  24792378.475   129100417.188       -1164.078          36.000                                                                  
C07  38008702.879   197921285.500         773.203          39.000    38008682.585   153045224.452         597.881          41.000  
C20  25719078.858   133925981.989       -3627.016          45.000                                                                  
C36  23800843.415   123937239.273        1385.773          42.000                                                                  
C37  25118439.092   130798299.478       -2410.802          32.000                                                                  
C10  39140633.144   203815550.798         715.873          37.000    39140617.841   157603124.344         553.475          38.000  
G08  24031598.776   126286918.046        3580.631          40.000    24031598.065    98405479.271        2789.922          39.000  
G29  25457455.515   133779834.779       -3642.017          38.000    25457446.420   104243970.471       -2838.352          36.000  
C30  25026883.781   130321557.324        2747.268          42.000                                                                  
C13  40860487.462   212771270.536       -2423.108          35.000    40860491.480   164528250.682       -1873.263          40.000  
C08                                                                  41773560.411   168204847.699       -1813.110          35.000  
> 2025 11 03 07 46 34.1600000  0 26                     
G04  21355160.515   112222126.083         986.190          41.000    21355149.711    87445769.676         768.438          43.000  
G16  20183988.361   106067574.602          84.414          43.000                                                                  
G28  23178087.683                       -2753.483          28.000    23178076.546    94910336.497       -2145.661          32.000  
G31  21161696.648   111205467.949       -1761.102          44.000    21161684.283    86653555.471       -1372.327          43.000  
G03  24677536.334   129681322.162       -2967.305          37.000    24677531.393   101050352.025       -2312.437          35.000  
G18  25109893.175   131953376.251        1285.227          31.000    25109889.322   102820792.667        1000.847          35.000  
C16  36732598.334   191276278.770           9.443          46.000    36732582.349   147906892.470           7.415          45.000  
C19  23883965.107   124370069.310       -2248.724          44.000                                                                  
C27  23554266.158   122653245.487        1037.035          39.000                                                                  
C06  36290566.277   188974497.515           6.494          44.000    36290545.736   146126993.092           5.017          46.000  
C09  37367763.334   194583748.847         131.669          40.000    37367745.196   150464430.957         101.832          44.000  
C22  24606820.116   128134168.381         533.398          43.000                                                                  
G26  20933307.228   110005274.180       -2002.252          41.000    20933298.375    85718357.320       -1559.998          41.000  
G27  21791299.432   114514054.747        2891.096          42.000    21791290.253    89231712.845        2253.322          40.000  
G09  23783162.865   124981379.191        2683.563          37.000    23783157.756    97388075.001        2091.486          37.000  
C28  24792387.419   129100463.757       -1164.177          36.000                                                                  
C07  38008696.926   197921254.575         773.109          39.000    38008676.649   153045200.534         597.866          41.000  
C20  25719106.712   133926127.065       -3626.910          45.000                                                                  
C36  23800832.772   123937183.836        1385.919          42.000                                                                  
C37  25118457.638   130798395.978       -2411.978          32.000                                                                  
C10  39140627.656   203815522.203         715.114          34.000    39140612.338   157603102.191         553.727          38.000  
G08  24031571.532   126286774.840        3580.297          40.000    24031570.805    98405367.658        2790.173          39.000  
G29  25457483.241   133779980.460       -3642.053          38.000    25457474.158   104244083.973       -2837.802          36.000  
C30  25026862.685   130321447.424        2747.396          42.000                                                                  
C13  40860506.079   212771367.436       -2422.784          35.000    40860510.100   164528325.615       -1873.204          40.000  
C08                                                                  41773578.404   168204920.235       -1813.190          35.000  
> 2025 11 03 07 46 34.2000000  0 26                     
G04  21355153.000   112222086.633         986.282          41.000    21355142.215    87445738.943         768.353          43.000  
G16  20183987.722   106067571.235          84.232          43.000                                                                  
G28  23178108.670                       -2753.281          28.000    23178097.494    94910422.318       -2145.406          32.000  
G31  21161710.037   111205538.392       -1761.042          44.000    21161697.681    86653610.352       -1372.121          43.000  
G03  24677558.903   129681440.840       -2966.958          37.000    24677553.960   101050444.520       -2312.398          35.000  
G18  25109883.410   131953324.853        1285.153          31.000    25109879.545   102820752.613        1001.128          35.000  
C16  36732598.289   191276278.386           9.576          46.000    36732582.253   147906892.182           7.270          45.000  
C19  23883982.367   124370159.252       -2248.547          44.000                                                                  
C27  23554258.188   122653203.992        1037.288          39.000                                                                  
C06  36290566.229   188974497.253           6.559          44.000    36290545.697   146126992.889           5.074          46.000  
C09  37367762.342   194583743.560         132.097          40.000    37367744.186   150464426.887         101.786          44.000  
C22  24606816.038   128134147.035         533.601          43.000                                                                  
G26  20933322.452   110005354.267       -2002.215          40.000    20933313.610    85718419.732       -1560.168          41.000  
G27  21791277.426   114513939.090        2891.346          42.000    21791268.234    89231622.726        2253.236          40.000  
G09  23783142.441   124981271.840        2683.685          37.000    23783137.354    97387991.339        2091.559          37.000  
C28  24792396.363   129100510.309       -1164.009          36.000                                                                  
C07  38008690.985   197921223.620         773.651          39.000    38008670.721   153045176.628         597.621          41.000  
C20  25719134.590   133926272.139       -3626.845          45.000                                                                  
C36  23800822.134   123937128.407        1385.785          42.000                                                                  
C37  25118476.145   130798492.391       -2411.052          32.000                                                                  
C10  39140622.139   203815493.508         716.552          34.000    39140606.854   157603080.048         553.629          38.000  
G08  24031544.267   126286631.615        3580.487          40.000    24031543.567    98405256.048        2790.248          39.000  
G29  25457510.942   133780126.138       -3641.983          38.000    25457501.896   104244197.484       -2837.669          36.000  
C30  25026841.572   130321337.525        2747.438          42.000                                                                  
C13  40860524.711   212771464.329       -2422.472          35.000    40860528.706   164528400.546       -1873.221          40.000  
C08                                                                  41773596.415   168204992.790       -1813.574          35.000  
> 2025 11 03 07 46 34.2400000  0 26                     
G04  21355145.476   112222047.198         986.038          41.000    21355134.693    87445708.218         768.163          43.000  
G16  20183987.058   106067567.865          84.214          43.000                                                                  
G28  23178129.641                       -2753.222          28.000    23178118.444    94910508.144       -2145.460          32.000  
G31  21161723.468   111205608.839       -1761.108          44.000    21161711.107    86653665.246       -1372.277          43.000  
G03  24677581.512   129681559.551       -2967.447          37.000    24677576.556   101050537.023       -2312.519          35.000  
G18  25109873.660   131953273.515        1283.957          31.000    25109869.780   102820712.571        1001.128          35.000  
C16  36732598.225   191276278.011           9.486          46.000    36732582.171   147906891.895           7.214          45.000  
C19  23883999.659   124370249.199       -2248.596          44.000                                                                  
C27  23554250.189   122653162.504        1037.256          39.000                                                                  
C06  36290566.179   188974496.993           6.512          44.000    36290545.684   146126992.698           4.885          46.000  
C09  37367761.332   194583738.283         132.114          40.000    37367743.176   150464422.821         101.691          44.000  
C22  24606811.950   128134125.709         533.334          43.000                                                                  
G26  20933337.695   110005434.357       -2002.240          40.000    20933328.855    85718482.147       -1560.346          41.000  
G27  21791255.427   114513823.447        2891.197          42.000    21791246.232    89231532.609        2253.042          40.000  
G09  23783122.004   124981164.477        2683.984          37.000    23783116.916    97387907.710        2090.967          37.000  
C28  24792405.314   129100556.872       -1164.091          36.000                                                                  
C07  38008685.029   197921192.689         773.444          39.000    38008664.783   153045152.703         597.939          41.000  
C20  25719162.441   133926417.223       -3626.999          44.000                                                                  
C36  23800811.494   123937072.974        1385.797          42.000                                                                  
C37  25118494.683   130798588.825       -2410.914          31.000                                                                  
C10  39140616.645   203815464.878         716.314          34.000    39140601.341   157603057.912         553.477          38.000  
G08  24031517.027   126286488.389        3580.582          40.000    24031516.319    98405144.455        2790.011          39.000  
G29  25457538.663   133780271.830       -3642.216          38.000    25457529.646   104244311.013       -2837.926          36.000  
C30  25026820.475   130321227.629        2747.402          42.000                                                                  
C13  40860543.317   212771561.238       -2422.614          35.000    40860547.324   164528475.474       -1873.178          40.000  
C08                                                                  41773614.423   168205065.347       -1814.050          35.000  
> 2025 11 03 07 46 34.2800000  0 26                     
G04  21355137.963   112222007.774         985.698          41.000    21355127.178    87445677.492         768.083          43.000  
G16  20183986.421   106067564.491          84.276          43.000                                                                  
G28  23178150.635                       -2753.587          28.000    23178139.402    94910593.962       -2145.356          32.000  
G31  21161736.871   111205679.292       -1761.270          44.000    21161724.536    86653720.142       -1372.398          43.000  
G03  24677604.085   129681678.269       -2967.920          37.000    24677599.129   101050629.485       -2311.903          35.000  
G18  25109863.892   131953222.097        1284.744          31.000    25109859.995   102820672.504        1001.524          35.000  
C16  36732598.183   191276277.634           9.396          46.000    36732582.107   147906891.600           7.295          45.000  
C19  23884016.959   124370339.151       -2248.779          44.000                                                                  
C27  23554242.216   122653121.024        1037.071          39.000                                                                  
C06  36290566.146   188974496.746           6.237          44.000    36290545.651   146126992.504           4.806          46.000  
C09  37367760.323   194583733.031         131.568          40.000    37367742.155   150464418.747         101.774          44.000  
C22  24606807.838   128134104.378         533.263          43.000                                                                  
G26  20933352.938   110005514.450       -2002.374          40.000    20933344.094    85718544.553       -1560.230          41.000  
G27  21791233.425   114513707.797        2891.212          42.000    21791224.238    89231442.503        2252.747          40.000  
G09  23783101.603   124981057.129        2683.832          37.000    23783096.476    97387824.073        2090.833          37.000  
C28  24792414.234   129100603.425       -1163.973          37.000                                                                  
C07  38008679.091   197921161.767         773.155          38.000    38008658.818   153045128.775         598.106          41.000  
C20  25719190.295   133926562.312       -3627.189          44.000                                                                  
C36  23800800.804   123937017.558        1385.474          42.000                                                                  
C37  25118513.194   130798685.296       -2411.563          32.000                                                                  
C10  39140611.146   203815436.214         716.634          34.000    39140595.851   157603035.765         553.536          38.000  
G08  24031489.784   126286345.169        3580.534          40.000    24031489.063    98405032.860        2789.858          39.000  
G29  25457566.420   133780417.540       -3642.619          38.000    25457557.386   104244424.535       -2838.010          36.000  
C30  25026799.366   130321117.736        2747.338          42.000                                                                  
C13  40860561.926   212771658.176       -2423.281          35.000    40860565.923   164528550.411       -1873.311          40.000  
C08                                                                  41773632.441   168205137.911       -1814.203          35.000  
> 2025 11 03 07 46 34.3200000  0 26                     
G04  21355130.458   112221968.349         985.531          41.000    21355119.667    87445646.761         768.163          43.000  
G16  20183985.793   106067561.132          84.015          43.000                                                                  
G28  23178171.611                       -2753.648          29.000    23178160.374    94910679.799       -2145.598          32.000  
G31  21161750.286   111205749.744       -1761.333          44.000    21161737.955    86653775.051       -1372.665          43.000  
G03  24677626.699   129681796.967       -2967.792          36.000    24677621.725   101050721.979       -2312.174          35.000  
G18  25109854.107   131953170.733        1284.283          31.000    25109850.234   102820632.483        1000.916          35.000  
C16  36732598.116   191276277.266           9.201          46.000    36732582.039   147906891.310           7.260          45.000  
C19  23884034.243   124370429.125       -2249.213          44.000                                                                  
C27  23554234.260   122653079.546        1036.936          39.000                                                                  
C06  36290566.150   188974496.496           6.167          44.000    36290545.630   146126992.309           4.811          46.000  
C09  37367759.294   194583727.770         131.466          40.000    37367741.127   150464414.677         101.742          44.000  
C22  24606803.714   128134083.053         533.090          43.000                                                                  
G26  20933368.187   110005594.547       -2002.441          40.000    20933359.338    85718606.967       -1560.303          41.000  
G27  21791211.408   114513592.153        2891.109          42.000    21791202.220    89231352.387        2252.749          40.000  
G09  23783081.153   124980949.794        2683.496          37.000    23783076.049    97387740.410        2091.290          37.000  
C28  24792423.166   129100650.014       -1164.550          37.000                                                                  
C07  38008673.146   197921130.837         773.177          38.000    38008652.855   153045104.851         598.180          41.000  
C20  25719218.191   133926707.393       -3627.148          44.000                                                                  
C36  23800790.175   123936962.132        1385.504          42.000                                                                  
C37  25118531.696   130798781.765       -2411.918          32.000                                                                  
C10  39140605.654   203815407.592         715.980          34.000    39140590.356   157603013.609         553.763          38.000  
G08  24031462.532   126286201.946        3580.559          40.000    24031461.809    98404921.260        2789.847          39.000  
G29  25457594.142   133780563.224       -3642.290          38.000    25457585.107   104244538.052       -2837.924          36.000  
C30  25026778.262   130321007.847        2747.258          42.000                                                                  
C13  40860580.549   212771755.098       -2423.209          35.000    40860584.542   164528625.360       -1873.650          40.000  
C08                                                                  41773650.472   168205210.474       -1814.246          35.000  
> 2025 11 03 07 46 34.3600000  0 26                     
G04  21355122.947   112221928.905         985.869          41.000    21355112.150    87445616.025         768.280          43.000  
G16  20183985.146   106067557.764          84.104          43.000                                                                  
G28  23178192.582                       -2754.120          29.000    23178181.325    94910765.641       -2145.890          32.000  
G31  21161763.694   111205820.187       -1761.216          44.000    21161751.356    86653829.942       -1372.475          43.000  
G03  24677649.314   129681915.716       -2968.554          36.000    24677644.321   101050814.491       -2312.644          35.000  
G18  25109844.290   131953119.367        1284.107          31.000    25109840.458   102820592.444        1000.992          35.000  
C16  36732598.069   191276276.883           9.377          46.000    36732581.975   147906891.025           7.149          45.000  
C19  23884051.525   124370519.064       -2248.749          44.000                                                                  
C27  23554226.295   122653038.052        1037.183          39.000                                                                  
C06  36290566.104   188974496.234           6.343          44.000    36290545.603   146126992.104           4.956          46.000  
C09  37367758.290   194583722.503         131.563          40.000    37367740.128   150464410.593         101.986          44.000  
C22  24606799.627   128134061.702         533.502          43.000                                                                  
G26  20933383.426   110005674.633       -2002.252          40.000    20933374.574    85718669.368       -1560.107          41.000  
G27  21791189.386   114513476.498        2891.269          42.000    21791180.233    89231262.291        2252.484          40.000  
G09  23783060.711   124980842.448        2683.545          37.000    23783055.618    97387656.758        2091.284          37.000  
C28  24792432.129   129100696.564       -1164.082          37.000                                                                  
C07  38008667.197   197921099.893         773.448          38.000    38008646.915   153045080.918         598.289          41.000  
C20  25719246.032   133926852.462       -3626.854          44.000                                                                  
C36  23800779.535   123936906.686        1385.925          42.000                                                                  
C37  25118550.206   130798878.207       -2411.503          32.000                                                                  
C10  39140600.148   203815378.981         715.330          34.000    39140584.833   157602991.465         553.701          38.000  
G08  24031435.265   126286058.724        3580.538          40.000    24031434.541    98404809.654        2790.013          39.000  
G29  25457621.846   133780708.899       -3641.991          38.000    25457612.835   104244651.580       -2838.046          36.000  
C30  25026757.167   130320897.936        2747.622          42.000                                                                  
C13  40860599.156   212771851.981       -2422.336          35.000    40860603.155   164528700.293       -1873.457          40.000  
C08                                                                  41773668.473   168205282.994       -1813.391          35.000  
> 2025 11 03 07 46 34.4000000  0 26                     
G04  21355115.419   112221889.453         986.174          41.000    21355104.653    87445585.279         768.543          43.000  
G16  20183984.483   106067554.388          84.304          43.000                                                                  
G28  23178213.532                       -2753.493          29.000    23178202.272    94910851.467       -2145.740          32.000  
G31  21161777.106   111205890.623       -1761.018          44.000    21161764.763    86653884.829       -1372.279          43.000  
G03  24677671.878   129682034.403       -2967.889          36.000    24677666.892   101050906.988       -2312.599          35.000  
G18  25109834.504   131953067.915        1285.629          31.000    25109830.671   102820552.373        1001.570          35.000  
C16  36732598.044   191276276.493           9.639          46.000    36732581.894   147906890.725           7.367          45.000  
C19  23884068.791   124370609.001       -2248.474          44.000                                                                  
C27  23554218.319   122652996.551        1037.460          38.000                                                                  
C06  36290566.055   188974495.963           6.632          44.000    36290545.579   146126991.893           5.199          46.000  
C09  37367757.256   194583717.228         131.822          40.000    37367739.109   150464406.502         102.231          44.000  
C22  24606795.532   128134040.352         533.703          43.000                                                                  
G26  20933398.650   110005754.724       -2002.277          40.000    20933389.805    85718731.772       -1560.083          41.000  
G27  21791167.376   114513360.852        2891.188          42.000    21791158.204    89231172.158        2252.993          40.000  
G09  23783040.270   124980735.068        2684.229          37.000    23783035.192    97387573.109        2091.278          37.000  
C28  24792441.062   129100743.120       -1163.956          37.000                                                                  
C07  38008661.248   197921068.929         774.013          38.000    38008640.962   153045056.998         598.105          41.000  
C20  25719273.884   133926997.533       -3626.723          44.000                                                                  
C36  23800768.896   123936851.236        1386.206          42.000                                                                  
C37  25118568.744   130798974.614       -2410.644          32.000                                                                  
C10  39140594.642   203815350.311         716.055          34.000    39140579.313   157602969.325         553.560          38.000  
G08  24031407.989   126285915.482        3580.918          40.000    24031407.278    98404698.048        2790.047          39.000  
G29  25457649.592   133780854.568       -3641.708          38.000    25457640.568   104244765.100       -2838.020          37.000  
C30  25026736.089   130320788.027        2747.750          42.000                                                                  
C13  40860617.737   212771948.874       -2422.195          35.000    40860621.742   164528775.219       -1873.270          40.000  
C08                                                                  41773686.487   168205355.533       -1813.391          35.000  
> 2025 11 03 07 46 34.4400000  0 26                     
G04  21355107.918   112221850.008         986.224          41.000    21355097.156    87445554.552         768.287          43.000  
G16  20183983.848   106067551.004          84.532          43.000                                                                  
G28  23178234.491                       -2753.725          29.000    23178223.250    94910937.289       -2145.616          32.000  
G31  21161790.519   111205961.065       -1761.005          44.000    21161778.151    86653939.711       -1372.086          43.000  
G03  24677694.477   129682153.080       -2967.301          36.000    24677689.490   101050999.486       -2312.588          35.000  
G18  25109824.726   131953016.525        1285.347          31.000    25109820.916   102820512.344        1001.152          35.000  
C16  36732598.002   191276276.103           9.790          46.000    36732581.800   147906890.423           7.520          45.000  
C19  23884086.065   124370698.937       -2248.352          44.000                                                                  
C27  23554210.339   122652955.054        1037.490          38.000                                                                  
C06  36290565.999   188974495.695           6.688          44.000    36290545.546   146126991.685           5.234          46.000  
C09  37367756.237   194583711.938         132.201          40.000    37367738.076   150464402.424         102.103          44.000  
C22  24606791.447   128134019.008         533.640          43.000                                                                  
G26  20933413.916   110005834.813       -2002.246          40.000    20933405.038    85718794.186       -1560.242          41.000  
G27  21791145.352   114513245.202        2891.206          42.000    21791136.197    89231082.029        2253.228          40.000  
G09  23783019.818   124980627.710        2684.137          37.000    23783014.764    97387489.459        2091.193          37.000  
C28  24792450.032   129100789.677       -1163.903          37.000                                                                  
C07  38008655.314   197921038.001         773.590          38.000    38008635.038   153045033.085         597.913          41.000  
C20  25719301.745   133927142.607       -3626.766          44.000                                                                  
C36  23800758.249   123936795.806        1385.938          42.000                                                                  
C37  25118587.253   130799071.030       -2410.428          32.000                                                                  
C10  39140589.139   203815321.667         716.047          34.000    39140573.828   157602947.176         553.569          38.000  
G08  24031380.734   126285772.256        3580.812          40.000    24031380.003    98404586.434        2790.247          39.000  
G29  25457677.301   133781000.241       -3641.760          38.000    25457668.298   104244878.609       -2837.797          37.000  
C30  25026714.973   130320678.112        2747.872          42.000                                                                  
C13  40860636.334   212772045.771       -2422.162          35.000    40860640.358   164528850.133       -1872.951          40.000  
C08                                                                  41773704.486   168205428.072       -1813.495          35.000  
> 2025 11 03 07 46 34.4800000  0 26                     
G04  21355100.407   112221810.551         986.382          41.000    21355089.640    87445523.814         768.377          43.000  
G16  20183983.195   106067547.621          84.623          43.000                                                                  
G28  23178255.419   121802553.191       -2753.295          29.000    23178244.207    94911023.100       -2145.318          32.000  
G31  21161803.912   111206031.502       -1760.955          44.000    21161791.543    86653994.586       -1371.892          43.000  
G03  24677717.061   129682271.748       -2966.815          36.000    24677712.089   101051091.980       -2312.417          35.000  
G18  25109814.979   131952965.151        1284.759          31.000    25109811.124   102820472.297        1001.193          35.000  
C16  36732597.933   191276275.707           9.931          46.000    36732581.726   147906890.121           7.578          45.000  
C19  23884103.328   124370788.873       -2248.334          44.000                                                                  
C27  23554202.357   122652913.563        1037.421          38.000                                                                  
C06  36290565.972   188974495.410           7.045          44.000    36290545.507   146126991.483           5.137          46.000  
C09  37367755.209   194583706.646         132.349          40.000    37367737.030   150464398.352         101.923          44.000  
C22  24606787.344   128133997.671         533.534          43.000                                                                  
G26  20933429.155   110005914.896       -2002.112          40.000    20933420.276    85718856.580       -1559.918          41.000  
G27  21791123.338   114513129.545        2891.336          40.000    21791114.193    89230991.911        2253.086          40.000  
G09  23782999.423   124980520.350        2684.113          37.000    23782994.329    97387405.799        2091.357          37.000  
C28  24792458.961   129100836.206       -1163.358          37.000                                                                  
C07  38008649.396   197921007.053         773.613          38.000    38008629.089   153045009.163         597.991          40.000  
C20  25719329.591   133927287.668       -3626.533          44.000                                                                  
C36  23800747.587   123936740.374        1385.797          42.000                                                                  
C37  25118605.800   130799167.511       -2411.452          32.000                                                                  
C10  39140583.614   203815292.994         716.491          34.000    39140568.319   157602925.027         553.623          38.000  
G08  24031353.467   126285629.028        3580.769          40.000    24031352.740    98404474.827        2790.248          39.000  
G29  25457705.004   133781145.926       -3641.993          38.000    25457696.023   104244992.106       -2837.508          37.000  
C30  25026693.855   130320568.211        2747.685          42.000                                                                  
C13  40860654.937   212772142.647       -2421.833          35.000    40860658.952   164528925.068       -1873.194          40.000  
C08                                                                  41773722.528   168205500.618       -1813.690          35.000  
> 2025 11 03 07 46 34.5200000  0 26                     
G04  21355092.922   112221771.109         986.217          41.000    21355082.121    87445493.077         768.400          43.000  
G16  20183982.564   106067544.259          84.235          43.000                                                                  
G28  23178276.395   121802663.316       -2753.074          29.000    23178265.163    94911108.919       -2145.314          33.000  
G31  21161817.306   111206101.934       -1760.835          44.000    21161804.953    86654049.469       -1371.978          43.000  
G03  24677739.659   129682390.437       -2967.012          36.000    24677734.656   101051184.439       -2311.706          35.000  
G18  25109805.218   131952913.743        1284.960          31.000    25109801.341   102820432.245        1001.349          35.000  
C16  36732597.860   191276275.320           9.798          46.000    36732581.646   147906889.824           7.494          45.000  
C19  23884120.613   124370878.821       -2248.590          44.000                                                                  
C27  23554194.384   122652872.044        1037.827          38.000                                                                  
C06  36290565.901   188974495.136           6.998          43.000    36290545.451   146126991.282           5.029          45.000  
C09  37367754.204   194583701.372         132.065          40.000    37367735.994   150464394.278         101.842          44.000  
C22  24606783.258   128133976.314         533.810          43.000                                                                  
G26  20933444.420   110005994.987       -2002.203          40.000    20933435.504    85718918.981       -1559.930          41.000  
G27  21791101.338   114513013.873        2891.680          40.000    21791092.187    89230901.794        2252.958          40.000  
G09  23782979.005   124980413.006        2683.771          37.000    23782973.905    97387322.144        2091.345          37.000  
C28  24792467.905   129100882.784       -1163.999          37.000                                                                  
C07  38008643.482   197920976.100         773.738          38.000    38008623.161   153044985.232         598.197          40.000  
C20  25719357.443   133927432.734       -3626.531          44.000                                                                  
C36  23800736.943   123936684.923        1386.133          42.000                                                                  
C37  25118624.295   130799263.926       -2410.843          31.000                                                                  
C10  39140578.128   203815264.343         716.377          34.000    39140562.810   157602902.855         554.126          38.000  
G08  24031326.214   126285485.793        3580.830          40.000    24031325.492    98404363.212        2790.349          39.000  
G29  25457732.723   133781291.604       -3641.979          38.000    25457723.747   104245105.621       -2837.728          37.000  
C30  25026672.754   130320458.297        2747.787          42.000                                                                  
C13  40860673.534   212772239.558       -2422.406          35.000    40860677.565   164528999.988       -1873.005          40.000  
C08                                                                  41773740.537   168205573.147       -1813.562          34.000  
> 2025 11 03 07 46 34.5600000  0 26                     
G04  21355085.429   112221731.674         985.952          41.000    21355074.605    87445462.339         768.456          43.000  
G16  20183981.928   106067540.886          84.237          43.000                                                                  
G28  23178297.324   121802773.447       -2753.204          29.000    23178286.117    94911194.746       -2145.604          33.000  
G31  21161830.733   111206172.372       -1760.886          44.000    21161818.357    86654104.361       -1372.146          43.000  
G03  24677762.231   129682509.134       -2967.314          36.000    24677757.250   101051276.935       -2312.062          35.000  
G18  25109795.425   131952862.335        1285.134          31.000    25109791.555   102820392.184        1001.442          35.000  
C16  36732597.810   191276274.931           9.750          46.000    36732581.575   147906889.521           7.511          44.000  
C19  23884137.901   124370968.767       -2248.682          44.000                                                                  
C27  23554186.393   122652830.558        1037.425          38.000                                                                  
C06  36290565.852   188974494.863           6.952          43.000    36290545.428   146126991.069           5.182          45.000  
C09  37367753.210   194583696.083         132.134          40.000    37367734.984   150464390.190         102.081          44.000  
C22  24606779.172   128133954.962         533.869          41.000                                                                  
G26  20933459.660   110006075.068       -2002.124          40.000    20933450.740    85718981.381       -1559.937          41.000  
G27  21791079.320   114512898.216        2891.613          40.000    21791070.168    89230811.661        2253.195          40.000  
G09  23782958.550   124980305.639        2684.027          37.000    23782953.493    97387238.492        2091.327          37.000  
C28  24792476.834   129100929.347       -1164.112          37.000                                                                  
C07  38008637.519   197920945.154         773.687          37.000    38008617.211   153044961.293         598.460          40.000  
C20  25719385.294   133927577.797       -3626.528          43.000                                                                  
C36  23800726.298   123936629.482        1386.090          42.000                                                                  
C37  25118642.795   130799360.369       -2410.936          31.000                                                                  
C10  39140572.648   203815235.696         716.250          34.000    39140557.294   157602880.694         554.164          38.000  
G08  24031298.957   126285342.555        3580.900          40.000    24031298.226    98404251.596        2790.407          38.000  
G29  25457760.439   133781437.266       -3641.737          38.000    25457751.470   104245219.142       -2837.959          37.000  
C30  25026651.640   130320348.373        2748.002          42.000                                                                  
C13  40860692.155   212772336.444       -2422.318          35.000    40860696.179   164529074.911       -1872.969          40.000  
C08                                                                  41773758.546   168205645.671       -1813.245          34.000  
> 2025 11 03 07 46 34.6000000  0 26                     
G04  21355077.908   112221692.237         985.839          41.000    21355067.111    87445431.613         768.234          43.000  
G16  20183981.292   106067537.492          84.674          43.000                                                                  
G28  23178318.290   121802883.581       -2753.348          30.000    23178307.085    94911280.561       -2145.484          33.000  
G31  21161844.154   111206242.812       -1760.963          44.000    21161831.765    86654159.260       -1372.388          43.000  
G03  24677784.830   129682627.831       -2967.510          36.000    24677779.828   101051369.406       -2311.745          35.000  
G18  25109785.657   131952810.953        1284.790          30.000    25109781.797   102820352.164        1000.853          35.000  
C16  36732597.723   191276274.543           9.684          46.000    36732581.511   147906889.226           7.406          44.000  
C19  23884155.189   124371058.714       -2248.767          44.000                                                                  
C27  23554178.401   122652789.062        1037.314          38.000                                                                  
C06  36290565.814   188974494.602           6.665          43.000    36290545.390   146126990.858           5.232          45.000  
C09  37367752.200   194583690.809         131.909          40.000    37367733.946   150464386.094         102.361          44.000  
C22  24606775.086   128133933.623         533.599          41.000                                                                  
G26  20933474.879   110006155.152       -2002.124          40.000    20933465.975    85719043.795       -1560.236          40.000  
G27  21791057.298   114512782.563        2891.451          40.000    21791048.141    89230721.543        2253.068          40.000  
G09  23782938.107   124980198.272        2684.167          36.000    23782933.036    97387154.816        2091.718          37.000  
C28  24792485.767   129100975.927       -1164.430          37.000                                                                  
C07  38008631.580   197920914.208         773.661          37.000    38008611.244   153044937.353         598.588          40.000  
C20  25719413.154   133927722.868       -3626.676          43.000                                                                  
C36  23800715.628   123936574.045        1385.986          41.000                                                                  
C37  25118661.318   130799456.785       -2410.435          31.000                                                                  
C10  39140567.118   203815207.044         716.264          34.000    39140551.777   157602858.523         554.324          38.000  
G08  24031271.713   126285199.319        3580.890          40.000    24031270.982    98404139.993        2790.167          38.000  
G29  25457788.148   133781582.932       -3641.637          38.000    25457779.170   104245332.638       -2837.676          37.000  
C30  25026630.528   130320238.480        2747.552          42.000                                                                  
C13  40860710.770   212772433.335       -2422.297          35.000    40860714.804   164529149.850       -1873.330          40.000  
C08                                                                  41773776.562   168205718.222       -1813.519          34.000  
