     3.04           OBSERVATION DATA    M: Mixed            RINEX VERSION / TYPE
RTKCONV 2.4.3 b34                       20251111 081136 UTC PGM / RUN BY / DATE 
format: u-blox UBX                                          COMMENT             
log: D:\GPdata\11_11\fingure_200_11_11_2.ubx                COMMENT             
                                                            MARKER NAME         
                                                            MARKER NUMBER       
                                                            MARKER TYPE         
                                                            OBSERVER / AGENCY   
                                                            REC # / TYPE / VERS 
                                                            ANT # / TYPE        
        0.0000        0.0000        0.0000                  APPROX POSITION XYZ 
        0.0000        0.0000        0.0000                  ANTENNA: DELTA H/E/N
G    8 C1C L1C D1C S1C C2L L2L D2L S2L                      SYS / # / OBS TYPES 
R    8 C1C L1C D1C S1C C2C L2C D2C S2C                      SYS / # / OBS TYPES 
J    8 C1C L1C D1C S1C C2L L2L D2L S2L                      SYS / # / OBS TYPES 
C    8 C2I L2I D2I S2I C7I L7I D7I S7I                      SYS / # / OBS TYPES 
  2025    11    11    08    02   48.8400000     GPS         TIME OF FIRST OBS   
  2025    11    11    08    03   07.1600000     GPS         TIME OF LAST OBS    
G L1C                                                       SYS / PHASE SHIFT   
G L2L  0.00000                                              SYS / PHASE SHIFT   
R L1C                                                       SYS / PHASE SHIFT   
R L2C                                                       SYS / PHASE SHIFT   
J L1C                                                       SYS / PHASE SHIFT   
J L2L  0.00000                                              SYS / PHASE SHIFT   
C L2I                                                       SYS / PHASE SHIFT   
C L7I                                                       SYS / PHASE SHIFT   
  8 R05  1 R12  6 R14 -7 R15  0 R16 -1 R24  2 R25  4 R26 -3 GLONASS SLOT / FRQ #
 C1C    0.000 C1P    0.000 C2C    0.000 C2P    0.000        GLONASS COD/PHS/BIS 
                                                            END OF HEADER       
> 2025 11 11 08 02 48.8400000  0 32                     
G28  24493891.495   128716267.5671      -3371.834          36.000    24493898.088   100298417.2721      -2626.820          38.000  
G26  21827653.783   114705095.0361      -2534.208          44.000    21827655.223    89380598.2861      -1974.882          43.000  
G27  20174055.372   106015376.0421       1350.878          48.000    20174056.244    82609386.5971       1052.636          46.000  
G31  21995539.875   115587342.4811      -2676.771          46.000    21995539.633    90068058.0441      -2085.821          44.000  
G04  20941145.422   110046461.5871       -912.360          46.000    20941145.640    85750489.6881       -710.809          46.000  
C37  22295563.240   116098847.8193       -859.753          49.000                                                                  
C06  35874439.541   186807622.2231         52.130          45.000    35874430.415   144451465.6501         40.350          48.000  
C16  36316185.070   189107906.4271         58.871          48.000    36316181.120   146230212.8341         45.529          48.000  
C28  22660129.402   117997240.6581        513.313          49.000                                                                  
C07  37197739.114   193698388.3701        550.046          43.000    37197731.240   149779849.0401        425.274          47.000  
C27  23529644.731   122525034.3341       2512.655          45.000                                                                  
R10  22706777.979   121039904.6781      -2618.899          40.000                                                                  
R22  23203435.567   123861517.4981       3911.763          43.000    23203464.222    96336856.9861       3042.444          42.000  
R12  21744827.833   116156966.7361       1674.764          49.000    21744830.149    90344316.6601       1302.652          49.000  
R11  20143876.854   107642770.8651       -697.254          51.000    20143875.399    83722148.5161       -542.232          51.000  
R20  22104198.399   118201082.8661      -2050.907          46.000    22104197.211    91934167.7291      -1595.079          46.000  
R01  21087795.394   112726350.1301      -2928.120          47.000                                                                  
G08  21766471.199   114383578.0001       2933.177          43.000    21766476.596    89130083.8841       2285.637          43.000  
G09  22222358.091   116779279.7021       1291.440          42.000    22222360.227    90996850.6911       1006.349          41.000  
G16  20085432.122   105549657.5881      -1098.823          46.000                                                                  
J02  38896879.364   204404480.5361       -784.314          46.000    38896879.246   159276219.2861       -611.285          47.000  
G18  24327550.023   127842141.9241         -9.541          37.000    24327551.907    99617258.3711         -7.592          40.000  
C20  24706230.671   128651826.5153      -2751.814          43.000                                                                  
C09  36820890.917   191736041.0751        293.503          45.000    36820883.509   148262440.5311        226.774          48.000  
C23  25143462.100   130928607.4983      -2420.580          41.000                                                                  
C19  24956425.493   129954656.8153       -670.974          41.000                                                                  
C10  38448167.630   200209698.4241        553.426          39.000    38448164.988   154814827.8301        428.128          43.000  
R21  20844426.294   111542735.4361       1508.069          51.000    20844426.580    86755461.2151       1172.992          50.000  
R08  23532248.620   126014122.0941      -4672.000          40.000    23532287.550    98011145.4751      -3633.545          43.000  
J03  37737289.772   198310795.0551          0.803          38.000    37737297.475   154527925.3701          0.596          42.000  
J07  37119219.610   195062816.0261       -335.652          39.000    37119219.936   151996999.8531       -261.543          46.000  
J04                                                                  36993209.769   151481008.5311       -489.223          40.000  
> 2025 11 11 08 02 48.8800000  0 32                     
G28  24493917.162   128716402.411       -3371.409          36.000    24493923.733   100298522.327       -2626.339          38.000  
G26  21827673.071   114705196.384       -2533.784          44.000    21827674.519    89380677.240       -1974.134          43.000  
G27  20174045.068   106015321.981        1351.430          48.000    20174045.949    82609344.471        1053.075          46.000  
G31  21995560.240   115587449.519       -2676.074          46.000    21995559.999    90068141.456       -2085.381          44.000  
G04  20941152.355   110046498.057        -911.841          46.000    20941152.576    85750518.102        -710.376          46.000  
C37  22295569.836   116098882.1852       -859.254          49.000                                                                  
C06  35874439.136   186807620.122          52.539          45.000    35874430.013   144451464.018          40.790          48.000  
C16  36316184.633   189107904.050          59.335          48.000    36316180.687   146230210.992          45.934          48.000  
C28  22660125.460   117997220.107         513.763          49.000                                                                  
C07  37197734.869   193698366.342         550.581          43.000    37197727.044   149779832.015         425.588          47.000  
C27  23529625.447   122524933.812        2513.024          45.000                                                                  
R10  22706797.616   121040009.408       -2618.286          40.000                                                                  
R22  23203406.238   123861361.007        3912.264          43.000    23203434.913    96336735.279        3042.702          42.000  
R12  21744815.291   116156899.714        1675.404          49.000    21744817.579    90344264.534        1303.062          49.000  
R11  20143882.049   107642798.724        -696.597          51.000    20143880.617    83722170.189        -541.861          51.000  
R20  22104213.758   118201164.877       -2050.444          46.000    22104212.535    91934231.503       -1594.515          46.000  
R01  21087817.294   112726467.227       -2927.611          47.000                                                                  
G08  21766448.861   114383460.639        2933.762          43.000    21766454.247    89129992.435        2286.064          43.000  
G09  22222348.249   116779228.012        1292.074          42.000    22222350.397    90996810.418        1006.748          41.000  
G16  20085440.498   105549701.517       -1098.297          46.000                                                                  
J02  38896885.329   204404511.888        -783.820          46.000    38896885.215   159276243.714        -610.797          47.000  
G18  24327550.075   127842142.278          -8.900          37.000    24327551.947    99617258.650          -7.107          40.000  
C20  24706251.825   128651936.5632      -2751.373          43.000                                                                  
C09  36820888.656   191736029.320         293.882          45.000    36820881.257   148262431.436         227.274          48.000  
C23  25143480.648   130928704.2692      -2419.675          41.000                                                                  
C19  24956430.633   129954683.6332       -670.546          41.000                                                                  
C10  38448163.365   200209676.278         553.684          39.000    38448160.742   154814810.704         428.213          43.000  
R21  20844415.025   111542675.090        1508.576          50.000    20844415.267    86755414.275        1173.419          50.000  
R08  23532283.511   126014308.959       -4671.563          40.000    23532322.451    98011290.809       -3633.265          43.000  
J03  37737289.748   198310795.000           1.296          38.000    37737297.462   154527925.325           1.015          42.000  
J07  37119222.144   195062829.427        -335.117          39.000    37119222.493   151997010.294        -261.116          46.000  
J04                                                                  36993214.535   151481028.088        -488.888          40.000  
> 2025 11 11 08 02 48.9200000  0 32                     
G28  24493942.800   128716537.240       -3370.863          36.000    24493949.393   100298627.379       -2626.053          38.000  
G26  21827692.348   114705297.712       -2533.254          44.000    21827693.790    89380756.203       -1973.914          43.000  
G27  20174034.762   106015267.913        1351.791          48.000    20174035.649    82609302.340        1053.357          46.000  
G31  21995580.605   115587556.558       -2675.797          46.000    21995580.356    90068224.848       -2084.839          44.000  
G04  20941159.298   110046534.523        -911.572          46.000    20941159.508    85750546.522        -710.345          46.000  
C37  22295576.447   116098916.5332       -858.710          49.000                                                                  
C06  35874438.710   186807618.010          52.869          45.000    35874429.620   144451462.384          40.991          48.000  
C16  36316184.203   189107901.654          59.854          48.000    36316180.235   146230209.141          46.279          48.000  
C28  22660121.507   117997199.541         514.164          49.000                                                                  
C07  37197730.638   193698344.316         550.792          43.000    37197722.810   149779814.975         425.961          47.000  
C27  23529606.139   122524833.278        2513.360          45.000                                                                  
R10  22706817.240   121040114.125       -2617.829          40.000                                                                  
R22  23203376.900   123861204.508        3912.562          43.000    23203405.586    96336613.574        3042.717          42.000  
R12  21744802.747   116156832.683        1675.846          49.000    21744805.029    90344212.398        1303.390          49.000  
R11  20143887.259   107642826.574        -696.162          51.000    20143885.818    83722191.854        -541.591          51.000  
R20  22104229.103   118201246.871       -2049.908          46.000    22104227.853    91934295.288       -1594.472          46.000  
R01  21087839.176   112726584.307       -2927.089          47.000                                                                  
G08  21766426.515   114383343.254        2934.510          43.000    21766431.892    89129900.974        2286.452          43.000  
G09  22222338.409   116779176.327        1292.271          42.000    22222340.551    90996770.144        1006.911          41.000  
G16  20085448.858   105549745.436       -1097.909          46.000                                                                  
J02  38896891.291   204404543.234        -783.533          46.000    38896891.165   159276268.137        -610.498          47.000  
G18  24327550.167   127842142.661          -9.136          37.000    24327552.019    99617258.919          -6.732          40.000  
C20  24706272.950   128652046.5952      -2750.893          43.000                                                                  
C09  36820886.388   191736017.552         294.240          45.000    36820878.985   148262422.334         227.616          48.000  
C23  25143499.209   130928801.0472      -2419.346          41.000                                                                  
C19  24956435.808   129954710.4402       -670.131          41.000                                                                  
C10  38448159.100   200209654.090         554.583          39.000    38448156.497   154814793.557         428.618          43.000  
R21  20844403.717   111542614.732        1508.996          50.000    20844403.977    86755367.333        1173.633          50.000  
R08  23532318.397   126014495.820       -4671.356          40.000    23532357.339    98011436.146       -3633.237          43.000  
J03  37737289.737   198310794.933           1.669          38.000    37737297.451   154527925.278           1.240          42.000  
J07  37119224.689   195062842.809        -334.546          39.000    37119225.055   151997020.725        -260.767          46.000  
J04                                                                  36993219.295   151481047.637        -488.619          40.000  
> 2025 11 11 08 02 48.9600000  0 32                     
G28  24493968.444   128716672.068       -3370.615          36.000    24493975.052   100298732.445       -2626.298          38.000  
G26  21827711.641   114705399.052       -2533.290          44.000    21827713.067    89380835.175       -1974.049          43.000  
G27  20174024.491   106015213.852        1351.760          48.000    20174025.331    82609260.214        1053.313          46.000  
G31  21995600.996   115587663.606       -2675.921          46.000    21995600.737    90068308.276       -2085.253          44.000  
G04  20941166.238   110046570.992        -911.584          46.000    20941166.449    85750574.946        -710.461          46.000  
C37  22295582.995   116098950.8962       -858.793          49.000                                                                  
C06  35874438.312   186807615.898          52.960          45.000    35874429.206   144451460.759          40.826          48.000  
C16  36316183.751   189107899.273          59.800          48.000    36316179.786   146230207.297          46.285          48.000  
C28  22660117.537   117997178.990         514.043          49.000                                                                  
C07  37197726.411   193698322.293         550.746          43.000    37197718.565   149779797.936         426.097          47.000  
C27  23529586.796   122524732.742        2513.512          45.000                                                                  
R10  22706836.887   121040218.860       -2618.034          39.000                                                                  
R22  23203347.570   123861048.017        3912.500          43.000    23203376.278    96336491.868        3042.734          42.000  
R12  21744790.193   116156765.660        1675.847          49.000    21744792.478    90344160.270        1303.407          48.000  
R11  20143892.471   107642854.439        -696.326          51.000    20143891.053    83722213.524        -541.596          51.000  
R20  22104244.435   118201328.870       -2049.826          46.000    22104243.207    91934359.068       -1594.425          46.000  
R01  21087861.068   112726701.399       -2927.074          47.000                                                                  
G08  21766404.193   114383225.899        2934.292          43.000    21766409.551    89129809.522        2286.462          43.000  
G09  22222328.560   116779124.643        1292.271          42.000    22222330.716    90996729.880        1006.753          41.000  
G16  20085457.232   105549789.360       -1097.881          46.000                                                                  
J02  38896897.258   204404574.581        -783.496          46.000    38896897.138   159276292.566        -610.510          47.000  
G18  24327550.236   127842143.030          -9.149          37.000    24327552.096    99617259.220          -7.113          40.000  
C20  24706294.082   128652156.6362      -2750.849          43.000                                                                  
C09  36820884.120   191736005.791         294.221          45.000    36820876.739   148262413.237         227.628          48.000  
C23  25143517.806   130928897.8542      -2419.800          41.000                                                                  
C19  24956440.958   129954737.2592       -670.213          41.000                                                                  
C10  38448154.837   200209631.919         554.584          39.000    38448152.216   154814776.423         428.536          43.000  
R21  20844392.459   111542554.378        1509.039          50.000    20844392.706    86755320.396        1173.572          50.000  
R08  23532353.295   126014682.675       -4671.205          39.000    23532392.224    98011581.492       -3633.454          43.000  
J03  37737289.742   198310794.875           1.630          38.000    37737297.433   154527925.243           1.113          42.000  
J07  37119227.227   195062856.200        -334.477          39.000    37119227.618   151997031.166        -260.816          46.000  
J04                                                                  36993224.062   151481067.202        -488.812          40.000  
> 2025 11 11 08 02 49.0000000  0 32                     
G28  24493994.117   128716806.898       -3370.697          36.000    24494000.713   100298837.519       -2626.587          38.000  
G26  21827730.906   114705500.395       -2533.388          44.000    21827732.379    89380914.140       -1974.044          43.000  
G27  20174014.195   106015159.802        1351.476          48.000    20174015.055    82609218.099        1053.075          46.000  
G31  21995621.366   115587770.661       -2676.195          45.000    21995621.107    90068391.691       -2085.322          44.000  
G04  20941173.190   110046607.464        -911.700          46.000    20941173.388    85750603.365        -710.474          46.000  
C37  22295589.582   116098985.2712       -859.129          49.000                                                                  
C06  35874437.909   186807613.791          52.826          45.000    35874428.787   144451459.133          40.729          48.000  
C16  36316183.306   189107896.898          59.636          48.000    36316179.354   146230205.458          46.143          48.000  
C28  22660113.587   117997158.448         513.727          48.000                                                                  
C07  37197722.194   193698300.265         550.758          43.000    37197714.310   149779780.904         425.985          47.000  
C27  23529567.498   122524632.218        2513.319          45.000                                                                  
R10  22706856.531   121040323.596       -2618.237          39.000                                                                  
R22  23203318.246   123860891.533        3912.292          43.000    23203346.951    96336370.166        3042.652          42.000  
R12  21744777.662   116156698.652        1675.505          49.000    21744779.930    90344108.149        1303.192          49.000  
R11  20143897.702   107642882.311        -696.615          51.000    20143896.277    83722235.197        -541.698          51.000  
R20  22104259.778   118201410.879       -2050.033          45.000    22104258.534    91934422.858       -1594.614          46.000  
R01  21087882.986   112726818.509       -2927.448          47.000                                                                  
G08  21766381.866   114383108.549        2933.980          43.000    21766387.217    89129718.086        2286.137          43.000  
G09  22222318.728   116779072.963        1292.122          42.000    22222320.889    90996689.607        1006.828          41.000  
G16  20085465.611   105549833.292       -1098.075          46.000                                                                  
J02  38896903.249   204404605.936        -783.685          46.000    38896903.100   159276316.997        -610.669          47.000  
G18  24327550.284   127842143.386          -8.983          37.000    24327552.165    99617259.506          -7.120          39.000  
C20  24706315.216   128652266.6902      -2751.104          42.000                                                                  
C09  36820881.858   191735994.038         294.034          45.000    36820874.495   148262404.142         227.558          48.000  
C23  25143536.381   130928994.6572      -2419.994          41.000                                                                  
C19  24956446.112   129954764.0742       -670.234          41.000                                                                  
C10  38448150.607   200209609.757         554.279          39.000    38448147.960   154814759.287         428.492          43.000  
R21  20844381.198   111542494.038        1508.752          50.000    20844381.436    86755273.465        1173.370          50.000  
R08  23532388.194   126014869.540       -4671.436          39.000    23532427.115    98011726.831       -3633.460          43.000  
J03  37737289.737   198310794.833           1.255          38.000    37737297.433   154527925.208           0.995          42.000  
J07  37119229.783   195062869.618        -335.023          39.000    37119230.172   151997041.615        -261.045          46.000  
J04                                                                  36993228.831   151481086.765        -488.982          40.000  
> 2025 11 11 08 02 49.0400000  0 32                     
G28  24494019.803   128716941.741       -3370.962          36.000    24494026.361   100298942.608       -2627.130          38.000  
G26  21827750.189   114705601.745       -2533.594          44.000    21827751.655    89380993.111       -1974.195          43.000  
G27  20174003.929   106015105.760        1351.153          48.000    20174004.781    82609175.988        1052.833          46.000  
G31  21995641.767   115587877.720       -2676.434          45.000    21995641.481    90068475.105       -2085.301          44.000  
G04  20941180.160   110046643.948        -911.981          46.000    20941180.347    85750631.790        -710.608          46.000  
C37  22295596.189   116099019.6422       -859.256          49.000                                                                  
C06  35874437.515   186807611.678          52.838          45.000    35874428.379   144451457.504          40.710          48.000  
C16  36316182.858   189107894.512          59.669          48.000    36316178.923   146230203.624          45.940          48.000  
C28  22660109.639   117997137.901         513.639          48.000                                                                  
C07  37197717.962   193698278.235         550.792          43.000    37197710.048   149779763.877         425.782          47.000  
C27  23529548.171   122524531.695        2513.170          45.000                                                                  
R10  22706876.165   121040428.324       -2618.251          39.000                                                                  
R22  23203288.939   123860735.043        3912.236          43.000    23203317.612    96336248.451        3042.756          42.000  
R12  21744765.091   116156631.640        1675.348          49.000    21744767.394    90344056.031        1303.005          48.000  
R11  20143902.910   107642910.176        -696.671          51.000    20143901.492    83722256.873        -541.830          51.000  
R20  22104275.092   118201492.898       -2050.359          45.000    22104273.882    91934486.640       -1594.582          46.000  
R01  21087904.898   112726935.611       -2927.553          47.000                                                                  
G08  21766359.549   114382991.195        2933.842          43.000    21766364.878    89129626.638        2286.145          43.000  
G09  22222308.899   116779021.288        1291.940          42.000    22222311.049    90996649.335        1006.778          41.000  
G16  20085473.989   105549877.226       -1098.252          46.000                                                                  
J02  38896909.215   204404637.296        -783.936          46.000    38896909.083   159276341.431        -610.828          47.000  
G18  24327550.365   127842143.749          -9.082          37.000    24327552.234    99617259.785          -7.028          39.000  
C20  24706336.353   128652376.7482      -2751.347          42.000                                                                  
C09  36820879.598   191735982.285         293.872          45.000    36820872.234   148262395.056         227.311          48.000  
C23  25143554.966   130929091.4512      -2419.960          41.000                                                                  
C19  24956451.265   129954790.8972       -670.420          41.000                                                                  
C10  38448146.341   200209587.602         553.970          39.000    38448143.755   154814742.147         428.510          43.000  
R21  20844369.909   111542433.699        1508.527          50.000    20844370.152    86755226.535        1173.254          50.000  
R08  23532423.095   126015056.403       -4671.597          39.000    23532462.018    98011872.167       -3633.455          43.000  
J03  37737289.739   198310794.781           1.272          38.000    37737297.420   154527925.168           0.974          42.000  
J07  37119232.334   195062883.034        -335.353          39.000    37119232.727   151997052.061        -261.135          46.000  
J04                                                                  36993233.592   151481106.323        -489.015          40.000  
> 2025 11 11 08 02 49.0800000  0 32                     
G28  24494045.448   128717076.570       -3370.818          36.000    24494052.022   100299047.676       -2626.965          38.000  
G26  21827769.472   114705703.098       -2533.803          44.000    21827770.943    89381072.092       -1974.480          43.000  
G27  20173993.628   106015051.710        1351.124          48.000    20173994.519    82609133.872        1052.822          46.000  
G31  21995662.172   115587984.782       -2676.609          45.000    21995661.855    90068558.541       -2085.729          44.000  
G04  20941187.118   110046680.430        -912.115          46.000    20941187.284    85750660.219        -710.773          46.000  
C37  22295602.765   116099054.0142       -859.350          49.000                                                                  
C06  35874437.118   186807609.578          52.570          45.000    35874427.993   144451455.874          40.735          48.000  
C16  36316182.397   189107892.141          59.408          48.000    36316178.479   146230201.790          45.825          48.000  
C28  22660105.678   117997117.358         513.540          48.000                                                                  
C07  37197713.713   193698256.227         550.400          43.000    37197705.836   149779746.855         425.597          47.000  
C27  23529528.858   122524431.180        2512.886          45.000                                                                  
R10  22706895.810   121040533.064       -2618.495          39.000                                                                  
R22  23203259.622   123860578.560        3912.074          43.000    23203288.299    96336126.743        3042.712          42.000  
R12  21744752.541   116156564.626        1675.272          49.000    21744754.842    90344003.905        1303.029          48.000  
R11  20143908.135   107642938.049        -696.825          51.000    20143906.711    83722278.553        -541.991          51.000  
R20  22104290.451   118201574.922       -2050.599          45.000    22104289.240    91934550.432       -1594.751          46.000  
R01  21087926.813   112727052.715       -2927.601          47.000                                                                  
G08  21766337.214   114382873.839        2933.846          43.000    21766342.519    89129535.188        2286.184          43.000  
G09  22222299.073   116778969.622        1291.694          42.000    22222301.207    90996609.071        1006.625          41.000  
G16  20085482.358   105549921.154       -1098.258          46.000                                                                  
J02  38896915.191   204404668.654        -784.021          46.000    38896915.049   159276365.864        -610.883          47.000  
G18  24327550.435   127842144.115          -9.160          37.000    24327552.304    99617260.069          -7.070          39.000  
C20  24706357.497   128652486.8032      -2751.455          42.000                                                                  
C09  36820877.345   191735970.525         293.900          45.000    36820869.952   148262385.967         227.215          48.000  
C23  25143573.548   130929188.2492      -2420.018          41.000                                                                  
C19  24956456.418   129954817.7202       -670.549          41.000                                                                  
C10  38448142.086   200209565.451         553.743          39.000    38448139.518   154814725.012         428.386          43.000  
R21  20844358.643   111542373.365        1508.313          50.000    20844358.862    86755179.604        1173.230          50.000  
R08  23532457.993   126015243.264       -4671.646          39.000    23532496.906    98012017.506       -3633.535          43.000  
J03  37737289.724   198310794.719           1.484          38.000    37737297.383   154527925.118           1.157          42.000  
J07  37119234.890   195062896.446        -335.429          39.000    37119235.301   151997062.510        -261.242          46.000  
J04                                                                  36993238.352   151481125.883        -489.094          40.000  
> 2025 11 11 08 02 49.1200000  0 32                     
G28  24494071.106   128717211.403       -3370.842          36.000    24494077.668   100299152.739       -2626.721          38.000  
G26  21827788.760   114705804.455       -2533.965          44.000    21827790.216    89381151.064       -1974.439          43.000  
G27  20173983.356   106014997.667        1351.013          48.000    20173984.243    82609091.772        1052.524          46.000  
G31  21995682.539   115588091.847       -2676.712          45.000    21995682.217    90068641.960       -2085.649          44.000  
G04  20941194.057   110046716.918        -912.268          46.000    20941194.231    85750688.649        -710.828          46.000  
C37  22295609.339   116099088.3992       -859.616          49.000                                                                  
C06  35874436.721   186807607.484          52.295          45.000    35874427.605   144451454.256          40.527          48.000  
C16  36316181.937   189107889.776          59.143          48.000    36316178.055   146230199.957          45.757          48.000  
C28  22660101.734   117997096.820         513.410          48.000                                                                  
C07  37197709.492   193698234.220         550.209          43.000    37197701.583   149779729.843         425.313          47.000  
C27  23529509.553   122524330.669        2512.690          45.000                                                                  
R10  22706915.452   121040637.821       -2618.922          39.000                                                                  
R22  23203230.304   123860422.087        3911.814          43.000    23203258.979    96336005.039        3042.580          42.000  
R12  21744740.028   116156497.618        1675.159          49.000    21744742.295    90343951.787        1302.906          48.000  
R11  20143913.367   107642965.925        -696.942          51.000    20143911.933    83722300.233        -542.070          51.000  
R20  22104305.778   118201656.944       -2050.674          45.000    22104304.597    91934614.237       -1595.111          46.000  
R01  21087948.716   112727169.824       -2927.738          47.000                                                                  
G08  21766314.888   114382756.496        2933.592          43.000    21766320.191    89129443.759        2285.853          43.000  
G09  22222289.284   116778917.964        1291.417          42.000    22222291.375    90996568.814        1006.403          41.000  
G16  20085490.718   105549965.100       -1098.539          46.000                                                                  
J02  38896921.160   204404700.015        -784.106          46.000    38896921.006   159276390.304        -611.029          47.000  
G18  24327550.531   127842144.505          -9.631          37.000    24327552.381    99617260.363          -7.311          39.000  
C20  24706378.629   128652596.8602      -2751.542          42.000                                                                  
C09  36820875.067   191735958.778         293.700          45.000    36820867.710   148262376.884         227.068          48.000  
C23  25143592.145   130929285.0442      -2419.950          41.000                                                                  
C19  24956461.552   129954844.5522       -670.757          41.000                                                                  
C10  38448137.800   200209543.292         553.850          39.000    38448135.251   154814707.883         428.189          43.000  
R21  20844347.367   111542313.035        1508.185          50.000    20844347.578    86755132.683        1173.047          50.000  
R08  23532492.900   126015430.137       -4671.855          39.000    23532531.804    98012162.853       -3633.720          43.000  
J03  37737289.709   198310794.695           0.832          38.000    37737297.346   154527925.082           0.951          42.000  
J07  37119237.449   195062909.859        -335.455          39.000    37119237.827   151997072.958        -261.266          46.000  
J04                                                                  36993243.134   151481145.438        -488.993          40.000  
> 2025 11 11 08 02 49.1600000  0 32                     
G28  24494096.794   128717346.262       -3371.286          37.000    24494103.317   100299257.814       -2626.797          38.000  
G26  21827808.036   114705905.820       -2534.167          44.000    21827809.502    89381230.050       -1974.630          43.000  
G27  20173973.065   106014943.630        1350.878          48.000    20173973.969    82609049.661        1052.634          46.000  
G31  21995702.906   115588198.916       -2676.808          45.000    21995702.576    90068725.387       -2085.698          44.000  
G04  20941201.002   110046753.408        -912.335          46.000    20941201.170    85750717.083        -710.901          46.000  
C37  22295615.963   116099122.7782       -859.622          49.000                                                                  
C06  35874436.325   186807605.397          52.081          45.000    35874427.232   144451452.642          40.338          48.000  
C16  36316181.503   189107887.414          58.955          48.000    36316177.582   146230198.126          45.719          48.000  
C28  22660097.768   117997076.288         513.282          48.000                                                                  
C07  37197705.260   193698212.222         549.940          43.000    37197697.326   149779712.834         425.156          47.000  
C27  23529490.258   122524230.153        2512.754          45.000                                                                  
R10  22706935.098   121040742.561       -2618.792          39.000                                                                  
R22  23203200.994   123860265.606        3911.866          43.000    23203229.644    96335883.347        3042.314          42.000  
R12  21744727.490   116156430.611        1675.092          49.000    21744729.739    90343899.677        1302.722          48.000  
R11  20143918.574   107642993.807        -697.127          51.000    20143917.150    83722321.919        -542.162          51.000  
R20  22104321.119   118201738.967       -2050.700          46.000    22104319.943    91934678.035       -1595.126          46.000  
R01  21087970.619   112727286.940       -2927.940          47.000                                                                  
G08  21766292.566   114382639.154        2933.470          43.000    21766297.852    89129352.324        2285.762          43.000  
G09  22222279.447   116778866.299        1291.412          42.000    22222281.523    90996528.556        1006.338          41.000  
G16  20085499.101   105550009.052       -1098.831          46.000                                                                  
J02  38896927.123   204404731.380        -784.198          46.000    38896926.967   159276414.747        -611.115          47.000  
G18  24327550.606   127842144.878          -9.551          37.000    24327552.463    99617260.677          -7.813          39.000  
C20  24706399.753   128652706.9132      -2751.484          42.000                                                                  
C09  36820872.782   191735947.037         293.511          45.000    36820865.442   148262367.811         226.813          48.000  
C23  25143610.731   130929381.8542      -2420.162          41.000                                                                  
C19  24956466.695   129954871.3912       -670.956          41.000                                                                  
C10  38448133.552   200209521.136         553.869          39.000    38448130.987   154814690.762         427.980          43.000  
R21  20844336.116   111542252.710        1508.044          50.000    20844336.284    86755085.763        1172.937          50.000  
R08  23532527.823   126015617.018       -4672.087          39.000    23532566.708    98012308.197       -3633.681          43.000  
J03  37737289.716   198310794.662           0.708          38.000    37737297.346   154527925.056           0.706          42.000  
J07  37119240.010   195062923.267        -335.352          39.000    37119240.393   151997083.418        -261.489          46.000  
J04                                                                  36993247.895   151481165.003        -489.129          40.000  
> 2025 11 11 08 02 49.2000000  0 32                     
G28  24494122.478   128717481.138       -3371.826          37.000    24494128.960   100299362.877       -2626.667          38.000  
G26  21827827.310   114706007.166       -2533.867          44.000    21827828.786    89381309.039       -1974.753          43.000  
G27  20173962.797   106014889.582        1351.030          48.000    20173963.689    82609007.546        1052.777          46.000  
G31  21995723.265   115588305.968       -2676.531          45.000    21995722.929    90068808.811       -2085.668          44.000  
G04  20941207.935   110046789.891        -912.219          46.000    20941208.092    85750745.511        -710.791          46.000  
C37  22295622.573   116099157.1552       -859.539          49.000                                                                  
C06  35874435.913   186807603.293          52.325          45.000    35874426.809   144451451.021          40.411          48.000  
C16  36316181.067   189107885.039          59.174          48.000    36316177.152   146230196.289          45.828          48.000  
C28  22660093.830   117997055.748         513.355          48.000                                                                  
C07  37197701.029   193698190.201         550.249          43.000    37197693.088   149779695.812         425.323          47.000  
C27  23529470.929   122524129.642        2512.749          45.000                                                                  
R10  22706954.751   121040847.299       -2618.591          39.000                                                                  
R22  23203171.703   123860109.109        3912.203          43.000    23203200.318    96335761.643        3042.422          42.000  
R12  21744714.937   116156363.599        1675.177          49.000    21744717.193    90343847.556        1302.862          48.000  
R11  20143923.768   107643021.676        -696.925          51.000    20143922.367    83722343.599        -542.085          51.000  
R20  22104336.458   118201820.995       -2050.732          45.000    22104335.289    91934741.835       -1595.092          46.000  
R01  21087992.529   112727404.054       -2927.967          47.000                                                                  
G08  21766270.228   114382521.803        2933.597          43.000    21766275.496    89129260.883        2285.874          43.000  
G09  22222269.609   116778814.637        1291.439          42.000    22222271.688    90996488.291        1006.465          41.000  
G16  20085507.445   105550052.989       -1098.631          46.000                                                                  
J02  38896933.092   204404762.738        -784.106          46.000    38896932.932   159276439.182        -610.968          47.000  
G18  24327550.703   127842145.248          -9.398          37.000    24327552.544    99617260.970          -7.612          40.000  
C20  24706420.893   128652816.9732      -2751.511          42.000                                                                  
C09  36820870.537   191735935.288         293.565          45.000    36820863.186   148262358.714         227.143          48.000  
C23  25143629.327   130929478.6622      -2420.246          41.000                                                                  
C19  24956471.857   129954898.2272       -670.987          41.000                                                                  
C10  38448129.309   200209498.972         553.986          39.000    38448126.733   154814673.632         428.049          43.000  
R21  20844324.838   111542192.372        1508.295          50.000    20844325.004    86755038.836        1173.071          50.000  
R08  23532562.716   126015803.879       -4671.834          39.000    23532601.612    98012453.543       -3633.693          43.000  
J03  37737289.688   198310794.609           1.031          38.000    37737297.334   154527925.031           0.586          42.000  
J07  37119242.540   195062936.673        -335.208          39.000    37119242.955   151997093.865        -261.339          46.000  
J04                                                                  36993252.690   151481184.567        -489.124          40.000  
> 2025 11 11 08 02 49.2400000  0 32                     
G28  24494148.140   128717615.966       -3371.171          37.000    24494154.627   100299467.952       -2626.880          38.000  
G26  21827846.577   114706108.515       -2533.767          44.000    21827848.078    89381387.992       -1974.192          43.000  
G27  20173952.501   106014835.534        1351.110          48.000    20173953.406    82608965.426        1052.913          46.000  
G31  21995743.633   115588413.016       -2676.307          45.000    21995743.305    90068892.223       -2085.435          44.000  
G04  20941214.862   110046826.370        -912.042          46.000    20941215.046    85750773.937        -710.675          46.000  
C37  22295629.208   116099191.5152       -859.180          49.000                                                                  
C06  35874435.534   186807601.191          52.478          45.000    35874426.397   144451449.389          40.692          48.000  
C16  36316180.619   189107882.658          59.412          48.000    36316176.675   146230194.445          45.997          48.000  
C28  22660089.891   117997035.201         513.553          48.000                                                                  
C07  37197696.809   193698168.171         550.640          43.000    37197688.870   149779678.774         425.753          47.000  
C27  23529451.609   122524029.110        2513.137          45.000                                                                  
R10  22706974.394   121040952.021       -2618.193          39.000                                                                  
R22  23203142.375   123859952.620        3912.239          43.000    23203171.013    96335639.935        3042.585          42.000  
R12  21744702.395   116156296.579        1675.380          49.000    21744704.659    90343795.433        1302.979          48.000  
R11  20143928.990   107643049.541        -696.695          51.000    20143927.583    83722365.276        -541.979          51.000  
R20  22104351.785   118201903.012       -2050.533          45.000    22104350.624    91934805.616       -1594.755          46.000  
R01  21088014.463   112727521.163       -2927.889          47.000                                                                  
G08  21766247.895   114382404.463        2933.536          43.000    21766253.170    89129169.446        2285.911          43.000  
G09  22222259.770   116778762.951        1291.922          42.000    22222261.856    90996448.025        1006.521          41.000  
G16  20085515.795   105550096.922       -1098.435          46.000                                                                  
J02  38896939.039   204404794.088        -783.862          46.000    38896938.899   159276463.611        -610.797          47.000  
G18  24327550.801   127842145.630          -9.465          37.000    24327552.615    99617261.247          -7.185          39.000  
C20  24706442.014   128652927.0212      -2751.312          42.000                                                                  
C09  36820868.264   191735923.524         293.902          45.000    36820860.913   148262349.627         227.174          48.000  
C23  25143647.938   130929575.4532      -2419.952          41.000                                                                  
C19  24956477.035   129954925.0512       -670.761          41.000                                                                  
C10  38448125.039   200209476.814         553.992          39.000    38448122.464   154814656.491         428.333          43.000  
R21  20844313.550   111542132.034        1508.411          50.000    20844313.723    86754991.908        1173.151          50.000  
R08  23532597.614   126015990.751       -4671.840          39.000    23532636.508    98012598.875       -3633.416          43.000  
J03  37737289.664   198310794.550           1.327          38.000    37737297.335   154527924.994           0.781          42.000  
J07  37119245.086   195062950.068        -335.028          39.000    37119245.502   151997104.305        -261.113          46.000  
J04                                                                  36993257.447   151481204.110        -488.748          40.000  
> 2025 11 11 08 02 49.2800000  0 32                     
G28  24494173.787   128717750.759       -3370.283          37.000    24494180.294   100299573.012       -2626.719          38.000  
G26  21827865.870   114706209.852       -2533.522          44.000    21827867.369    89381466.966       -1974.213          43.000  
G27  20173942.207   106014781.483        1351.228          48.000    20173943.125    82608923.308        1052.968          46.000  
G31  21995764.007   115588520.062       -2676.132          45.000    21995763.668    90068975.642       -2085.427          44.000  
G04  20941221.798   110046862.840        -911.780          46.000    20941221.986    85750802.358        -710.541          46.000  
C37  22295635.825   116099225.8762       -859.013          49.000                                                                  
C06  35874435.149   186807599.082          52.673          45.000    35874426.004   144451447.751          40.930          48.000  
C16  36316180.157   189107880.268          59.714          48.000    36316176.203   146230192.605          46.021          48.000  
C28  22660085.952   117997014.651         513.734          48.000                                                                  
C07  37197692.596   193698146.146         550.728          43.000    37197684.668   149779661.738         425.925          47.000  
C27  23529432.324   122523928.579        2513.284          45.000                                                                  
R10  22706994.038   121041056.753       -2618.160          39.000                                                                  
R22  23203113.040   123859796.121        3912.456          43.000    23203141.688    96335518.217        3042.871          42.000  
R12  21744689.842   116156229.561        1675.447          49.000    21744692.090    90343743.303        1303.181          48.000  
R11  20143934.186   107643077.399        -696.466          51.000    20143932.793    83722386.941        -541.712          51.000  
R20  22104367.151   118201985.024       -2050.355          46.000    22104365.944    91934869.403       -1594.655          46.000  
R01  21088036.365   112727638.267       -2927.733          47.000                                                                  
G08  21766225.574   114382287.098        2933.896          43.000    21766230.848    89129077.987        2286.302          43.000  
G09  22222249.920   116778711.275        1291.952          42.000    22222252.038    90996407.768        1006.438          41.000  
G16  20085524.132   105550140.848       -1098.210          46.000                                                                  
J02  38896945.003   204404825.436        -783.704          46.000    38896944.865   159276488.038        -610.681          47.000  
G18  24327550.896   127842146.012          -9.486          37.000    24327552.690    99617261.525          -6.963          40.000  
C20  24706463.156   128653037.0752      -2751.296          42.000                                                                  
C09  36820865.997   191735911.757         294.143          45.000    36820858.663   148262340.526         227.427          48.000  
C23  25143666.539   130929672.2352      -2419.599          41.000                                                                  
C19  24956482.193   129954951.8682       -670.505          41.000                                                                  
C10  38448120.775   200209454.644         554.226          39.000    38448118.210   154814639.345         428.573          43.000  
R21  20844302.282   111542071.691        1508.563          51.000    20844302.437    86754944.975        1173.303          50.000  
R08  23532632.512   126016177.591       -4671.223          39.000    23532671.390    98012744.199       -3633.145          43.000  
J03  37737289.664   198310794.476           1.773          38.000    37737297.311   154527924.932           1.318          42.000  
J07  37119247.635   195062963.481        -335.254          39.000    37119248.049   151997114.743        -260.968          46.000  
J04                                                                  36993262.217   151481223.673        -488.937          40.000  
> 2025 11 11 08 02 49.3200000  0 32                     
G28  24494199.433   128717885.583       -3370.308          37.000    24494205.960   100299678.093       -2626.914          38.000  
G26  21827885.157   114706311.185       -2533.314          44.000    21827886.665    89381545.937       -1974.247          43.000  
G27  20173931.926   106014727.427        1351.345          48.000    20173932.838    82608881.182        1053.110          46.000  
G31  21995784.368   115588627.113       -2676.198          45.000    21995784.034    90069059.062       -2085.455          44.000  
G04  20941228.727   110046899.320        -911.883          46.000    20941228.926    85750830.782        -710.571          46.000  
C37  22295642.426   116099260.2392       -858.981          49.000                                                                  
C06  35874434.759   186807596.969          52.838          45.000    35874425.614   144451446.121          40.869          48.000  
C16  36316179.680   189107877.880          59.774          48.000    36316175.725   146230190.761          46.108          48.000  
C28  22660082.056   117996994.097         513.864          48.000                                                                  
C07  37197688.370   193698124.118         550.746          43.000    37197680.439   149779644.702         425.967          47.000  
C27  23529413.013   122523828.046        2513.381          45.000                                                                  
R10  22707013.672   121041161.470       -2617.924          40.000                                                                  
R22  23203083.726   123859639.627        3912.435          43.000    23203112.371    96335396.499        3043.050          42.000  
R12  21744677.311   116156162.540        1675.514          49.000    21744679.518    90343691.172        1303.305          48.000  
R11  20143939.397   107643105.260        -696.456          51.000    20143937.992    83722408.608        -541.647          51.000  
R20  22104382.476   118202067.041       -2050.368          46.000    22104381.275    91934933.191       -1594.649          46.000  
R01  21088058.266   112727755.363       -2927.533          47.000                                                                  
G08  21766203.219   114382169.727        2934.240          43.000    21766208.523    89128986.531        2286.406          43.000  
G09  22222240.100   116778659.604        1291.885          42.000    22222242.214    90996367.502        1006.561          41.000  
G16  20085532.516   105550184.772       -1098.076          46.000                                                                  
J02  38896950.955   204404856.779        -783.557          46.000    38896950.821   159276512.461        -610.571          47.000  
G18  24327550.949   127842146.368          -9.049          37.000    24327552.747    99617261.823          -7.272          40.000  
C20  24706484.293   128653147.1272      -2751.306          42.000                                                                  
C09  36820863.748   191735899.996         294.168          45.000    36820856.404   148262331.425         227.534          48.000  
C23  25143685.108   130929769.0162      -2419.413          41.000                                                                  
C19  24956487.351   129954978.6862       -670.389          41.000                                                                  
C10  38448116.504   200209432.477         554.231          39.000    38448113.952   154814622.197         428.707          43.000  
R21  20844291.025   111542011.353        1508.496          51.000    20844291.167    86754898.043        1173.346          50.000  
R08  23532667.410   126016364.444       -4671.195          39.000    23532706.282    98012889.527       -3633.104          43.000  
J03  37737289.656   198310794.445           1.141          38.000    37737297.298   154527924.882           1.387          42.000  
J07  37119250.166   195062976.855        -334.656          39.000    37119250.580   151997125.183        -260.948          46.000  
J04                                                                  36993266.987   151481243.226        -488.921          40.000  
> 2025 11 11 08 02 49.3600000  0 32                     
G28  24494225.111   128718020.448       -3371.144          37.000    24494231.612   100299783.161       -2626.825          38.000  
G26  21827904.445   114706412.527       -2533.431          44.000    21827905.955    89381624.898       -1974.080          43.000  
G27  20173921.637   106014673.382        1351.194          48.000    20173922.551    82608839.073        1052.853          46.000  
G31  21995804.750   115588734.170       -2676.335          45.000    21995804.391    90069142.479       -2085.457          44.000  
G04  20941235.682   110046935.807        -912.097          46.000    20941235.874    85750859.218        -710.822          46.000  
C37  22295649.021   116099294.6062       -859.076          49.000                                                                  
C06  35874434.375   186807594.857          52.850          45.000    35874425.197   144451444.490          40.802          48.000  
C16  36316179.217   189107875.500          59.618          48.000    36316175.245   146230188.919          46.075          48.000  
C28  22660078.102   117996973.557         513.637          48.000                                                                  
C07  37197684.145   193698102.104         550.492          43.000    37197676.208   149779627.676         425.751          47.000  
C27  23529393.682   122523727.518        2513.244          45.000                                                                  
R10  22707033.330   121041266.203       -2618.106          40.000                                                                  
R22  23203054.395   123859483.134        3912.346          43.000    23203083.063    96335274.786        3042.959          42.000  
R12  21744664.754   116156095.515        1675.627          49.000    21744666.961    90343639.042        1303.302          48.000  
R11  20143944.627   107643133.128        -696.589          51.000    20143943.227    83722430.285        -541.810          51.000  
R20  22104397.826   118202149.055       -2050.339          46.000    22104396.635    91934997.000       -1595.045          46.000  
R01  21088080.187   112727872.464       -2927.502          47.000                                                                  
G08  21766180.897   114382052.371        2934.082          43.000    21766186.210    89128895.100        2286.006          43.000  
G09  22222230.273   116778607.929        1291.868          42.000    22222232.393    90996327.251        1006.376          41.000  
G16  20085540.868   105550228.703       -1098.187          46.000                                                                  
J02  38896956.907   204404888.128        -783.636          46.000    38896956.776   159276536.891        -610.700          47.000  
G18  24327551.008   127842146.722          -8.850          37.000    24327552.817    99617262.104          -7.177          40.000  
C20  24706505.426   128653257.1712      -2751.199          42.000                                                                  
C09  36820861.481   191735888.233         294.141          45.000    36820854.146   148262322.336         227.359          48.000  
C23  25143703.673   130929865.8052      -2419.513          41.000                                                                  
C19  24956492.516   129955005.5122       -670.511          41.000                                                                  
C10  38448112.263   200209410.321         554.014          39.000    38448109.751   154814605.060         428.539          43.000  
R21  20844279.762   111541951.021        1508.356          51.000    20844279.887    86754851.116        1173.224          50.000  
R08  23532702.302   126016551.314       -4671.584          39.000    23532741.181    98013034.863       -3633.265          43.000  
J03  37737289.663   198310794.373           1.538          38.000    37737297.298   154527924.841           1.202          42.000  
J07  37119252.732   195062990.255        -334.803          39.000    37119253.124   151997135.620        -260.901          46.000  
J04                                                                  36993271.756   151481262.793        -489.153          40.000  
> 2025 11 11 08 02 49.4000000  0 32                     
G28  24494250.766   128718155.318       -3371.689          37.000    24494257.274   100299888.241       -2627.012          38.000  
G26  21827923.737   114706513.885       -2533.813          44.000    21827925.234    89381703.877       -1974.313          43.000  
G27  20173911.364   106014619.352        1350.815          48.000    20173912.289    82608796.970        1052.580          46.000  
G31  21995825.152   115588841.237       -2676.626          46.000    21995824.780    90069225.902       -2085.563          44.000  
G04  20941242.619   110046972.309        -912.518          46.000    20941242.832    85750887.653        -710.931          46.000  
C37  22295655.595   116099328.9902       -859.480          49.000                                                                  
C06  35874433.970   186807592.760          52.533          45.000    35874424.810   144451442.873          40.503          48.000  
C16  36316178.747   189107873.138          59.175          48.000    36316174.789   146230187.086          45.876          48.000  
C28  22660074.171   117996953.026         513.320          48.000                                                                  
C07  37197679.921   193698080.096         550.198          43.000    37197671.991   149779610.662         425.419          47.000  
C27  23529374.379   122523627.012        2512.776          45.000                                                                  
R10  22707052.989   121041370.954       -2618.558          40.000                                                                  
R22  23203025.070   123859326.658        3911.998          43.000    23203053.739    96335153.085        3042.640          42.000  
R12  21744652.225   116156028.514        1675.202          49.000    21744654.400    90343586.924        1303.042          48.000  
R11  20143949.840   107643161.016        -697.081          51.000    20143948.447    83722451.971        -542.091          51.000  
R20  22104413.175   118202231.096       -2050.838          46.000    22104411.963    91935060.810       -1595.265          46.000  
R01  21088102.094   112727989.582       -2927.834          47.000                                                                  
G08  21766158.575   114381935.030        2933.672          43.000    21766163.865    89128803.668        2285.761          43.000  
G09  22222220.438   116778556.276        1291.438          42.000    22222222.552    90996286.982        1006.569          41.000  
G16  20085549.226   105550272.649       -1098.552          46.000                                                                  
J02  38896962.886   204404919.497        -784.070          46.000    38896962.761   159276561.331        -610.938          47.000  
G18  24327551.063   127842147.091          -9.094          37.000    24327552.908    99617262.415          -7.644          40.000  
C20  24706526.556   128653367.2312      -2751.411          42.000                                                                  
C09  36820859.217   191735876.481         293.881          45.000    36820851.896   148262313.255         227.097          48.000  
C23  25143722.262   130929962.6192      -2420.061          41.000                                                                  
C19  24956497.675   129955032.3512       -670.844          41.000                                                                  
C10  38448107.987   200209388.173         553.731          39.000    38448105.501   154814587.935         428.194          43.000  
R21  20844268.480   111541890.700        1508.063          51.000    20844268.601    86754804.202        1172.919          50.000  
R08  23532737.203   126016738.180       -4671.713          39.000    23532776.098    98013180.202       -3633.419          43.000  
J03  37737289.661   198310794.344           0.965          38.000    37737297.293   154527924.807           0.909          42.000  
J07  37119255.288   195063003.668        -335.203          39.000    37119255.672   151997146.074        -261.195          46.000  
J04                                                                  36993276.510   151481282.352        -489.096          40.000  
> 2025 11 11 08 02 49.4400000  0 32                     
G28  24494276.433   128718290.142       -3371.155          37.000    24494282.954   100299993.308       -2626.835          38.000  
G26  21827943.005   114706615.246       -2534.017          44.000    21827944.530    89381782.864       -1974.584          43.000  
G27  20173901.076   106014565.320        1350.681          48.000    20173902.021    82608754.872        1052.390          46.000  
G31  21995845.527   115588948.309       -2676.812          46.000    21995845.170    90069309.330       -2085.730          44.000  
G04  20941249.532   110047008.799        -912.469          46.000    20941249.787    85750916.088        -710.962          46.000  
C37  22295662.191   116099363.3732       -859.639          49.000                                                                  
C06  35874433.590   186807590.663          52.399          45.000    35874424.424   144451441.257          40.326          48.000  
C16  36316178.283   189107870.771          59.070          48.000    36316174.309   146230185.254          45.776          48.000  
C28  22660070.214   117996932.496         513.194          48.000                                                                  
C07  37197675.705   193698058.079         550.223          43.000    37197667.756   149779593.634         425.522          47.000  
C27  23529355.069   122523526.505        2512.611          45.000                                                                  
R10  22707072.624   121041475.694       -2618.604          40.000                                                                  
R22  23202995.726   123859170.174        3911.995          43.000    23203024.433    96335031.387        3042.411          42.000  
R12  21744639.698   116155961.512        1675.036          49.000    21744641.882    90343534.815        1302.787          48.000  
R11  20143955.053   107643188.893        -697.083          52.000    20143953.658    83722473.652        -542.100          51.000  
R20  22104428.527   118202313.128       -2050.912          46.000    22104427.303    91935124.614       -1595.242          46.000  
R01  21088123.995   112728106.712       -2928.181          47.000                                                                  
G08  21766136.250   114381817.704        2933.212          43.000    21766141.545    89128712.227        2285.865          43.000  
G09  22222210.594   116778504.612        1291.414          42.000    22222212.708    90996246.724        1006.437          41.000  
G16  20085557.587   105550316.602       -1098.824          46.000                                                                  
J02  38896968.831   204404950.855        -784.064          46.000    38896968.732   159276585.771        -611.053          47.000  
G18  24327551.134   127842147.487          -9.708          37.000    24327552.972    99617262.705          -7.478          39.000  
C20  24706547.696   128653477.2982      -2751.633          43.000                                                                  
C09  36820856.969   191735864.739         293.615          45.000    36820849.648   148262304.174         226.968          48.000  
C23  25143740.868   130930059.4302      -2420.249          41.000                                                                  
C19  24956502.819   129955059.1872       -670.939          41.000                                                                  
C10  38448103.733   200209366.025         553.610          39.000    38448101.229   154814570.803         428.183          43.000  
R21  20844257.187   111541830.373        1508.069          51.000    20844257.328    86754757.285        1172.839          50.000  
R08  23532772.086   126016925.053       -4671.892          39.000    23532811.000    98013325.552       -3633.721          43.000  
J03  37737289.667   198310794.294           1.139          38.000    37737297.288   154527924.778           0.718          42.000  
J07  37119257.853   195063017.075        -335.258          39.000    37119258.258   151997156.522        -261.248          46.000  
J04                                                                  36993281.311   151481301.916        -489.138          40.000  
> 2025 11 11 08 02 49.4800000  0 32                     
G28  24494302.092   128718424.990       -3371.194          37.000    24494308.623   100300098.383       -2626.865          38.000  
G26  21827962.293   114706716.613       -2534.237          44.000    21827963.814    89381861.841       -1974.549          43.000  
G27  20173890.787   106014511.284        1350.746          48.000    20173891.707    82608712.769        1052.411          46.000  
G31  21995865.906   115589055.367       -2676.661          46.000    21995865.553    90069392.756       -2085.777          44.000  
G04  20941256.466   110047045.292        -912.427          46.000    20941256.712    85750944.525        -710.999          46.000  
C37  22295668.826   116099397.7522       -859.613          49.000                                                                  
C06  35874433.193   186807588.559          52.472          45.000    35874424.021   144451439.626          40.613          48.000  
C16  36316177.817   189107868.389          59.337          48.000    36316173.868   146230183.418          45.787          48.000  
C28  22660066.265   117996911.963         513.185          48.000                                                                  
C07  37197671.493   193698036.058         550.383          43.000    37197663.527   149779576.610         425.531          47.000  
C27  23529335.764   122523425.991        2512.675          45.000                                                                  
R10  22707092.281   121041580.451       -2618.869          40.000                                                                  
R22  23202966.387   123859013.695        3911.928          43.000    23202995.138    96334909.683        3042.476          42.000  
R12  21744627.145   116155894.501        1675.103          49.000    21744629.326    90343482.698        1302.797          48.000  
R11  20143960.274   107643216.765        -696.956          52.000    20143958.855    83722495.335        -542.143          51.000  
R20  22104443.867   118202395.162       -2050.958          46.000    22104442.644    91935188.417       -1595.167          46.000  
R01  21088145.906   112728223.825       -2928.068          47.000                                                                  
G08  21766113.909   114381700.364        2933.261          43.000    21766119.244    89128620.800        2285.686          43.000  
G09  22222200.777   116778452.948        1291.458          42.000    22222202.873    90996206.456        1006.593          41.000  
G16  20085565.957   105550360.543       -1098.699          46.000                                                                  
J02  38896974.790   204404982.209        -783.960          46.000    38896974.673   159276610.203        -610.931          47.000  
G18  24327551.218   127842147.880          -9.958          37.000    24327553.055    99617263.003          -7.537          39.000  
C20  24706568.844   128653587.3672      -2751.797          42.000                                                                  
C09  36820854.709   191735852.984         293.714          45.000    36820847.385   148262295.083         227.127          48.000  
C23  25143759.464   130930156.2312      -2420.157          41.000                                                                  
C19  24956507.986   129955086.0282       -671.083          41.000                                                                  
C10  38448099.499   200209343.872         553.697          39.000    38448096.969   154814553.676         428.104          43.000  
R21  20844245.906   111541770.048        1508.057          51.000    20844246.053    86754710.362        1172.949          50.000  
R08  23532806.986   126017111.917       -4671.792          39.000    23532845.885    98013470.893       -3633.663          43.000  
J03  37737289.659   198310794.253           1.084          38.000    37737297.293   154527924.749           0.627          42.000  
J07  37119260.402   195063030.488        -335.376          39.000    37119260.806   151997166.965        -261.167          46.000  
J04                                                                  36993286.091   151481321.488        -489.312          40.000  
> 2025 11 11 08 02 49.5200000  0 32                     
G28  24494327.797   128718559.851       -3371.418          37.000    24494334.303   100300203.448       -2626.722          38.000  
G26  21827981.564   114706817.970       -2534.093          44.000    21827983.091    89381940.805       -1974.277          43.000  
G27  20173880.489   106014457.250        1350.766          48.000    20173881.414    82608670.659        1052.600          46.000  
G31  21995886.246   115589162.429       -2676.588          46.000    21995885.922    90069476.180       -2085.699          44.000  
G04  20941263.390   110047081.779        -912.280          46.000    20941263.648    85750972.956        -710.870          46.000  
C37  22295675.449   116099432.1192       -859.346          49.000                                                                  
C06  35874432.809   186807586.461          52.448          45.000    35874423.621   144451437.996          40.717          48.000  
C16  36316177.327   189107866.008          59.462          48.000    36316173.391   146230181.572          46.001          48.000  
C28  22660062.336   117996891.428         513.265          49.000                                                                  
C07  37197667.264   193698014.039         550.426          43.000    37197659.295   149779559.586         425.552          47.000  
C27  23529316.465   122523325.470        2512.891          45.000                                                                  
R10  22707111.906   121041685.183       -2618.506          40.000                                                                  
R22  23202937.038   123858857.205        3912.122          43.000    23202965.807    96334787.978        3042.534          42.000  
R12  21744614.576   116155827.488        1675.216          49.000    21744616.777    90343430.575        1302.905          48.000  
R11  20143965.477   107643244.634        -696.813          52.000    20143964.071    83722517.012        -542.029          51.000  
R20  22104459.214   118202477.193       -2050.879          46.000    22104458.010    91935252.207       -1594.901          46.000  
R01  21088167.816   112728340.941       -2928.001          47.000                                                                  
G08  21766091.557   114381583.013        2933.503          43.000    21766096.900    89128529.351        2286.020          43.000  
G09  22222190.939   116778401.286        1291.520          42.000    22222193.036    90996166.202        1006.418          41.000  
G16  20085574.325   105550404.481       -1098.592          46.000                                                                  
J02  38896980.771   204405013.570        -784.052          46.000    38896980.636   159276634.632        -610.785          47.000  
G18  24327551.262   127842148.261          -9.851          37.000    24327553.118    99617263.297          -7.466          39.000  
C20  24706589.971   128653697.4122      -2751.445          42.000                                                                  
C09  36820852.453   191735841.223         293.928          45.000    36820845.110   148262285.982         227.393          48.000  
C23  25143778.050   130930253.0162      -2419.818          41.000                                                                  
C19  24956513.156   129955112.8572       -670.888          41.000                                                                  
C10  38448095.254   200209321.690         554.333          39.000    38448092.749   154814536.534         428.370          43.000  
R21  20844234.637   111541709.721        1508.118          51.000    20844234.772    86754663.440        1172.974          50.000  
R08  23532841.884   126017298.779       -4671.681          39.000    23532880.770    98013616.227       -3633.435          43.000  
J03  37737289.644   198310794.189           1.531          38.000    37737297.306   154527924.707           0.808          42.000  
J07  37119262.954   195063043.902        -335.469          39.000    37119263.368   151997177.412        -261.180          46.000  
J04                                                                  36993290.876   151481341.034        -488.906          40.000  
> 2025 11 11 08 02 49.5600000  0 32                     
G28  24494353.435   128718694.688       -3371.138          37.000    24494359.960   100300308.508       -2626.585          38.000  
G26  21828000.860   114706919.303       -2533.602          44.000    21828002.379    89382019.769       -1974.092          43.000  
G27  20173870.193   106014403.206        1350.978          48.000    20173871.133    82608628.549        1052.724          46.000  
G31  21995906.603   115589269.485       -2676.473          46.000    21995906.295    90069559.605       -2085.692          44.000  
G04  20941270.324   110047118.267        -912.201          46.000    20941270.609    85751001.391        -710.883          46.000  
C37  22295682.077   116099466.4902       -859.300          49.000                                                                  
C06  35874432.441   186807584.362          52.466          45.000    35874423.183   144451436.369          40.704          48.000  
C16  36316176.855   189107863.629          59.484          48.000    36316172.916   146230179.730          46.050          48.000  
C28  22660058.414   117996870.887         513.417          49.000                                                                  
C07  37197663.040   193697992.021         550.418          43.000    37197655.071   149779542.553         425.738          47.000  
C27  23529297.157   122523224.950        2512.958          45.000                                                                  
R10  22707131.551   121041789.902       -2618.098          40.000                                                                  
R22  23202907.705   123858700.706        3912.389          43.000    23202936.488    96334666.271        3042.621          42.000  
R12  21744602.017   116155760.470        1675.345          49.000    21744604.226    90343378.449        1303.034          48.000  
R11  20143970.691   107643272.503        -696.745          52.000    20143969.300    83722538.688        -541.943          51.000  
R20  22104474.545   118202559.226       -2050.846          46.000    22104473.340    91935316.006       -1594.945          46.000  
R01  21088189.736   112728458.054       -2927.885          47.000                                                                  
G08  21766069.212   114381465.648        2933.893          43.000    21766074.546    89128437.912        2285.979          43.000  
G09  22222181.101   116778349.619        1291.616          42.000    22222183.209    90996125.953        1006.248          41.000  
G16  20085582.677   105550448.413       -1098.378          46.000                                                                  
J02  38896986.700   204405044.920        -783.881          46.000    38896986.593   159276659.060        -610.736          47.000  
G18  24327551.355   127842148.655         -10.018          37.000    24327553.193    99617263.601          -7.598          39.000  
C20  24706611.112   128653807.4542      -2751.147          42.000                                                                  
C09  36820850.190   191735829.466         293.930          45.000    36820842.873   148262276.887         227.405          48.000  
C23  25143796.632   130930349.8142      -2419.850          41.000                                                                  
C19  24956518.323   129955139.6882       -670.810          41.000                                                                  
C10  38448091.002   200209299.533         554.089          39.000    38448088.487   154814519.393         428.505          43.000  
R21  20844223.365   111541649.397        1508.081          51.000    20844223.520    86754616.522        1172.937          50.000  
R08  23532876.776   126017485.634       -4671.434          39.000    23532915.664    98013761.562       -3633.374          43.000  
J03  37737289.621   198310794.124           1.687          38.000    37737297.300   154527924.665           0.967          42.000  
J07  37119265.488   195063057.298        -335.146          39.000    37119265.932   151997187.861        -261.244          46.000  
J04                                                                  36993295.665   151481360.573        -488.549          40.000  
> 2025 11 11 08 02 49.6000000  0 32                     
G28  24494379.088   128718829.517       -3370.939          37.000    24494385.629   100300413.580       -2626.707          38.000  
G26  21828020.141   114707020.643       -2533.472          44.000    21828021.682    89382098.752       -1974.429          43.000  
G27  20173859.899   106014349.171        1350.921          48.000    20173860.854    82608586.435        1052.847          46.000  
G31  21995926.976   115589376.543       -2676.465          46.000    21995926.657    90069643.038       -2085.835          44.000  
G04  20941277.264   110047154.759        -912.286          46.000    20941277.534    85751029.821        -710.754          46.000  
C37  22295688.701   116099500.8602       -859.257          49.000                                                                  
C06  35874432.043   186807582.251          52.661          45.000    35874422.778   144451434.738          40.759          48.000  
C16  36316176.402   189107861.252          59.453          48.000    36316172.452   146230177.891          46.021          48.000  
C28  22660054.465   117996850.347         513.453          49.000                                                                  
C07  37197658.801   193697970.005         550.366          43.000    37197650.826   149779525.527         425.697          47.000  
C27  23529277.834   122523124.431        2512.989          45.000                                                                  
R10  22707151.203   121041894.625       -2618.011          40.000                                                                  
R22  23202878.375   123858544.220        3912.255          43.000    23202907.167    96334544.559        3042.745          42.000  
R12  21744589.473   116155693.454        1675.379          49.000    21744591.707    90343326.327        1303.037          48.000  
R11  20143975.914   107643300.376        -696.777          52.000    20143974.522    83722560.365        -541.912          51.000  
R20  22104489.895   118202641.252       -2050.730          46.000    22104488.701    91935379.809       -1595.044          46.000  
R01  21088211.643   112728575.165       -2927.821          47.000                                                                  
G08  21766046.892   114381348.296        2933.897          43.000    21766052.220    89128346.474        2285.946          43.000  
G09  22222171.281   116778297.960        1291.550          42.000    22222173.381    90996085.700        1006.228          41.000  
G16  20085591.051   105550492.350       -1098.368          46.000                                                                  
J02  38896992.670   204405076.278        -783.942          46.000    38896992.568   159276683.493        -610.828          47.000  
G18  24327551.434   127842149.019          -9.457          37.000    24327553.267    99617263.896          -7.451          39.000  
C20  24706632.246   128653917.5112      -2751.258          42.000                                                                  
C09  36820847.922   191735817.711         293.907          45.000    36820840.631   148262267.795         227.349          48.000  
C23  25143815.241   130930446.6112      -2419.899          41.000                                                                  
C19  24956523.447   129955166.5162       -670.695          41.000                                                                  
C10  38448086.762   200209277.380         553.917          39.000    38448084.257   154814502.258         428.411          43.000  
R21  20844212.096   111541589.074        1508.051          51.000    20844212.248    86754569.604        1172.913          50.000  
R08  23532911.696   126017672.487       -4671.287          39.000    23532950.555    98013906.900       -3633.442          43.000  
J03  37737289.620   198310794.073           1.484          38.000    37737297.289   154527924.637           0.808          42.000  
J07  37119268.059   195063070.697        -334.987          39.000    37119268.496   151997198.304        -261.146          46.000  
J04                                                                  36993300.449   151481380.133        -488.752          40.000  
> 2025 11 11 08 02 49.6400000  0 32                     
G28  24494404.752   128718964.361       -3371.207          37.000    24494411.302   100300518.659       -2626.933          38.000  
G26  21828039.432   114707121.995       -2533.692          44.000    21828040.970    89382177.725       -1974.412          43.000  
G27  20173849.632   106014295.138        1350.834          48.000    20173850.582    82608544.333        1052.653          46.000  
G31  21995947.357   115589483.608       -2676.623          46.000    21995947.027    90069726.462       -2085.749          44.000  
G04  20941284.212   110047191.262        -912.549          46.000    20941284.481    85751058.261        -710.938          46.000  
C37  22295695.287   116099535.2362       -859.355          49.000                                                                  
C06  35874431.647   186807580.155          52.472          45.000    35874422.380   144451433.114          40.656          48.000  
C16  36316175.903   189107858.878          59.366          48.000    36316172.020   146230176.061          45.807          48.000  
C28  22660050.501   117996829.817         513.332          49.000                                                                  
C07  37197654.585   193697947.990         550.349          43.000    37197646.596   149779508.506         425.554          47.000  
C27  23529258.546   122523023.920        2512.809          45.000                                                                  
R10  22707170.861   121041999.370       -2618.424          40.000                                                                  
R22  23202849.057   123858387.737        3912.118          43.000    23202877.846    96334422.856        3042.638          42.000  
R12  21744576.934   116155626.439        1675.385          49.000    21744579.168    90343274.204        1303.044          48.000  
R11  20143981.112   107643328.257        -696.971          52.000    20143979.745    83722582.045        -541.988          51.000  
R20  22104505.234   118202723.284       -2050.792          46.000    22104504.049    91935443.606       -1594.999          46.000  
R01  21088233.531   112728692.281       -2927.872          47.000                                                                  
G08  21766024.566   114381230.955        2933.665          43.000    21766029.893    89128255.033        2285.950          43.000  
G09  22222161.430   116778246.296        1291.563          42.000    22222163.531    90996045.447        1006.237          41.000  
G16  20085599.413   105550536.291       -1098.457          46.000                                                                  
J02  38896998.625   204405107.632        -783.887          46.000    38896998.529   159276707.927        -610.883          47.000  
G18  24327551.500   127842149.393          -9.312          37.000    24327553.350    99617264.198          -7.511          39.000  
C20  24706653.370   128654027.5762      -2751.502          42.000                                                                  
C09  36820845.689   191735805.955         293.907          45.000    36820838.408   148262258.719         227.009          48.000  
C23  25143833.843   130930543.4162      -2420.074          41.000                                                                  
C19  24956528.592   129955193.3502       -670.756          41.000                                                                  
C10  38448082.485   200209255.233         553.658          39.000    38448080.014   154814485.136         428.134          43.000  
R21  20844200.824   111541528.756        1507.941          51.000    20844200.995    86754522.688        1172.888          50.000  
R08  23532946.595   126017859.351       -4671.492          39.000    23532985.468    98014052.233       -3633.362          43.000  
J03  37737289.630   198310794.038           1.079          38.000    37737297.254   154527924.593           0.959          42.000  
J07  37119270.623   195063084.108        -335.154          39.000    37119271.044   151997208.755        -261.257          46.000  
J04                                                                  36993305.227   151481399.715        -489.283          40.000  
> 2025 11 11 08 02 49.6800000  0 32                     
G28  24494430.399   128719099.188       -3370.873          37.000    24494436.954   100300623.718       -2626.616          38.000  
G26  21828058.735   114707223.355       -2533.938          44.000    21828060.263    89382256.709       -1974.572          43.000  
G27  20173839.359   106014241.107        1350.728          48.000    20173840.294    82608502.232        1052.485          46.000  
G31  21995967.724   115589590.671       -2676.632          46.000    21995967.389    90069809.890       -2085.761          44.000  
G04  20941291.154   110047227.755        -912.463          46.000    20941291.422    85751086.707        -711.127          46.000  
C37  22295701.873   116099569.6092       -859.361          49.000                                                                  
C06  35874431.262   186807578.057          52.417          45.000    35874421.965   144451431.494          40.509          48.000  
C16  36316175.410   189107856.505          59.296          48.000    36316171.537   146230174.223          45.865          48.000  
C28  22660046.562   117996809.287         513.224          49.000                                                                  
C07  37197650.338   193697925.970         550.406          43.000    37197642.369   149779491.486         425.465          47.000  
C27  23529239.241   122522923.400        2512.915          45.000                                                                  
R10  22707190.499   121042104.112       -2618.645          40.000                                                                  
R22  23202819.731   123858231.260        3911.913          43.000    23202848.506    96334301.144        3042.738          42.000  
R12  21744564.394   116155559.433        1675.200          49.000    21744566.624    90343222.084        1303.024          48.000  
R11  20143986.309   107643356.129        -696.914          52.000    20143984.974    83722603.727        -542.075          51.000  
R20  22104520.572   118202805.326       -2051.011          46.000    22104519.381    91935507.411       -1595.128          46.000  
R01  21088255.457   112728809.400       -2927.967          47.000                                                                  
G08  21766002.221   114381113.623        2933.407          43.000    21766007.557    89128163.596        2285.919          43.000  
G09  22222151.590   116778194.632        1291.616          42.000    22222153.695    90996005.194        1006.305          41.000  
G16  20085607.787   105550580.240       -1098.697          46.000                                                                  
J02  38897004.560   204405138.987        -783.893          46.000    38897004.487   159276732.359        -610.864          47.000  
G18  24327551.566   127842149.776          -9.432          37.000    24327553.411    99617264.499          -7.567          40.000  
C20  24706674.539   128654137.6382      -2751.534          42.000                                                                  
C09  36820843.433   191735794.203         293.821          45.000    36820836.174   148262249.639         226.926          48.000  
C23  25143852.440   130930640.2132      -2419.972          41.000                                                                  
C19  24956533.733   129955220.1952       -671.022          41.000                                                                  
C10  38448078.255   200209233.070         553.881          39.000    38448075.758   154814468.006         428.147          43.000  
R21  20844189.542   111541468.435        1507.947          51.000    20844189.703    86754475.778        1172.754          50.000  
R08  23532981.501   126018046.218       -4671.658          39.000    23533020.371    98014197.577       -3633.529          43.000  
J03  37737289.616   198310794.008           0.708          38.000    37737297.247   154527924.551           1.008          42.000  
J07  37119273.171   195063097.522        -335.343          39.000    37119273.590   151997219.206        -261.295          46.000  
J04                                                                  36993309.994   151481419.267        -489.001          40.000  
> 2025 11 11 08 02 49.7200000  0 32                     
G28  24494456.084   128719234.022       -3370.845          37.000    24494462.617   100300728.790       -2626.666          38.000  
G26  21828078.037   114707324.709       -2533.952          44.000    21828079.569    89382335.685       -1974.514          43.000  
G27  20173829.063   106014187.073        1350.741          48.000    20173830.014    82608460.140        1052.268          46.000  
G31  21995988.100   115589697.741       -2676.739          46.000    21995987.760    90069893.306       -2085.521          44.000  
G04  20941298.084   110047264.258        -912.561          46.000    20941298.375    85751115.156        -711.261          46.000  
C37  22295708.473   116099603.9962       -859.603          49.000                                                                  
C06  35874430.885   186807575.956          52.435          45.000    35874421.542   144451429.872          40.491          48.000  
C16  36316174.932   189107854.134          59.232          48.000    36316171.077   146230172.394          45.741          48.000  
C28  22660042.597   117996788.765         513.030          49.000                                                                  
C07  37197646.104   193697903.958         550.303          43.000    37197638.128   149779474.467         425.424          47.000  
C27  23529219.925   122522822.887        2512.828          45.000                                                                  
R10  22707210.158   121042208.860       -2618.837          40.000                                                                  
R22  23202790.413   123858074.775        3912.016          43.000    23202819.195    96334179.442        3042.593          42.000  
R12  21744551.843   116155492.431        1675.020          49.000    21744554.071    90343169.970        1302.868          48.000  
R11  20143991.527   107643384.007        -696.969          52.000    20143990.190    83722625.409        -542.093          51.000  
R20  22104535.930   118202887.364       -2051.053          46.000    22104534.741    91935571.233       -1595.461          46.000  
R01  21088277.384   112728926.534       -2928.297          47.000                                                                  
G08  21765979.896   114380996.283        2933.403          43.000    21765985.221    89128072.158        2285.928          43.000  
G09  22222141.767   116778142.986        1291.275          42.000    22222143.855    90995964.944        1006.259          41.000  
G16  20085616.163   105550624.190       -1098.820          46.000                                                                  
J02  38897010.522   204405170.345        -783.966          46.000    38897010.451   159276756.797        -610.962          47.000  
G18  24327551.616   127842150.153          -9.445          37.000    24327553.511    99617264.791          -7.456          40.000  
C20  24706695.686   128654247.7012      -2751.625          42.000                                                                  
C09  36820841.195   191735782.448         293.823          45.000    36820833.897   148262240.543         227.193          48.000  
C23  25143871.034   130930737.0192      -2420.122          41.000                                                                  
C19  24956538.895   129955247.0422       -671.178          41.000                                                                  
C10  38448074.007   200209210.911         553.937          39.000    38448071.485   154814450.871         428.246          43.000  
R21  20844178.279   111541408.121        1507.849          51.000    20844178.426    86754428.865        1172.736          50.000  
R08  23533016.414   126018233.094       -4671.947          39.000    23533055.253    98014342.925       -3633.732          43.000  
J03  37737289.597   198310793.950           1.111          38.000    37737297.242   154527924.513           0.936          42.000  
J07  37119275.719   195063110.926        -335.227          39.000    37119276.140   151997229.646        -261.123          46.000  
J04                                                                  36993314.769   151481438.831        -489.026          40.000  
> 2025 11 11 08 02 49.7600000  0 32                     
G28  24494481.742   128719368.913       -3371.841          37.000    24494488.282   100300833.885       -2627.194          38.000  
G26  21828097.355   114707426.071       -2534.076          44.000    21828098.838    89382414.666       -1974.552          43.000  
G27  20173818.793   106014133.045        1350.662          48.000    20173819.729    82608418.039        1052.365          46.000  
G31  21996008.454   115589804.810       -2676.781          46.000    21996008.145    90069976.744       -2085.829          44.000  
G04  20941305.016   110047300.762        -912.616          46.000    20941305.327    85751143.597        -711.163          46.000  
C37  22295715.073   116099638.3792       -859.636          49.000                                                                  
C06  35874430.500   186807573.854          52.484          45.000    35874421.143   144451428.254          40.424          48.000  
C16  36316174.474   189107851.758          59.315          48.000    36316170.588   146230170.565          45.674          48.000  
C28  22660038.676   117996768.245         512.913          49.000                                                                  
C07  37197641.882   193697881.936         550.460          43.000    37197633.894   149779457.446         425.426          47.000  
C27  23529200.607   122522722.372        2512.866          45.000                                                                  
R10  22707229.794   121042313.610       -2618.925          40.000                                                                  
R22  23202761.103   123857918.283        3912.222          43.000    23202789.859    96334057.737        3042.563          42.000  
R12  21744539.297   116155425.424        1675.047          49.000    21744541.513    90343117.855        1302.832          48.000  
R11  20143996.753   107643411.881        -696.913          52.000    20143995.414    83722647.095        -542.173          51.000  
R20  22104551.273   118202969.408       -2051.158          46.000    22104550.061    91935635.045       -1595.458          46.000  
R01  21088299.285   112729043.660       -2928.268          47.000                                                                  
G08  21765957.559   114380878.955        2933.211          43.000    21765962.888    89127980.745        2285.422          43.000  
G09  22222131.944   116778091.342        1291.083          42.000    22222134.023    90995924.688        1006.316          41.000  
G16  20085624.497   105550668.136       -1098.766          46.000                                                                  
J02  38897016.514   204405201.702        -783.984          46.000    38897016.428   159276781.232        -610.944          47.000  
G18  24327551.714   127842150.559          -9.941          37.000    24327553.594    99617265.097          -7.557          40.000  
C20  24706716.822   128654357.7652      -2751.654          43.000                                                                  
C09  36820838.925   191735770.703         293.669          45.000    36820831.628   148262231.453         227.236          48.000  
C23  25143889.604   130930833.8202      -2420.093          41.000                                                                  
C19  24956544.040   129955273.8942       -671.362          41.000                                                                  
C10  38448069.745   200209188.753         553.943          39.000    38448067.249   154814433.736         428.314          43.000  
R21  20844167.022   111541347.806        1507.825          51.000    20844167.137    86754381.953        1172.754          50.000  
R08  23533051.311   126018419.951       -4671.650          39.000    23533090.155    98014488.265       -3633.669          43.000  
J03  37737289.588   198310793.909           1.033          38.000    37737297.226   154527924.481           0.784          42.000  
J07  37119278.246   195063124.333        -335.187          39.000    37119278.695   151997240.093        -261.145          46.000  
J04                                                                  36993319.549   151481458.389        -488.975          40.000  
> 2025 11 11 08 02 49.8000000  0 32                     
G28  24494507.433   128719503.747       -3371.289          37.000    24494513.926   100300938.965       -2627.165          38.000  
G26  21828116.649   114707527.417       -2533.814          44.000    21828118.113    89382493.640       -1974.438          43.000  
G27  20173808.510   106014079.016        1350.656          48.000    20173809.465    82608375.940        1052.397          46.000  
G31  21996028.841   115589911.877       -2676.746          46.000    21996028.535    90070060.168       -2085.742          44.000  
G04  20941311.942   110047337.262        -912.567          46.000    20941312.251    85751172.036        -711.066          46.000  
C37  22295721.671   116099672.7532       -859.486          49.000                                                                  
C06  35874430.097   186807571.755          52.478          45.000    35874420.720   144451426.632          40.479          48.000  
C16  36316174.016   189107849.384          59.302          48.000    36316170.108   146230168.728          45.790          48.000  
C28  22660034.723   117996747.717         513.044          49.000                                                                  
C07  37197637.657   193697859.925         550.343          43.000    37197629.666   149779440.416         425.626          47.000  
C27  23529181.310   122522621.853        2512.940          45.000                                                                  
R10  22707249.430   121042418.351       -2618.743          40.000                                                                  
R22  23202731.780   123857761.791        3912.320          43.000    23202760.537    96333936.038        3042.458          42.000  
R12  21744526.735   116155358.410        1675.208          49.000    21744528.976    90343065.737        1302.855          48.000  
R11  20144001.949   107643439.759        -696.950          52.000    20144000.642    83722668.775        -542.066          51.000  
R20  22104566.607   118203051.447       -2051.115          46.000    22104565.418    91935698.854       -1595.363          46.000  
R01  21088321.178   112729160.785       -2928.237          47.000                                                                  
G08  21765935.228   114380761.599        2933.623          43.000    21765940.570    89127889.301        2285.775          43.000  
G09  22222122.125   116778039.681        1291.286          42.000    22222124.213    90995884.436        1006.330          41.000  
G16  20085632.849   105550712.082       -1098.715          46.000                                                                  
J02  38897022.459   204405233.055        -783.911          46.000    38897022.395   159276805.665        -610.889          47.000  
G18  24327551.766   127842150.955         -10.043          37.000    24327553.674    99617265.398          -7.590          39.000  
C20  24706737.959   128654467.8332      -2751.714          43.000                                                                  
C09  36820836.646   191735758.942         293.882          45.000    36820829.375   148262222.368         227.148          48.000  
C23  25143908.176   130930930.6292      -2420.256          41.000                                                                  
C19  24956549.193   129955300.7312       -671.141          41.000                                                                  
C10  38448065.483   200209166.591         553.991          39.000    38448062.966   154814416.601         428.344          43.000  
R21  20844155.721   111541287.491        1507.806          51.000    20844155.868    86754335.039        1172.809          50.000  
R08  23533086.198   126018606.822       -4671.730          39.000    23533125.028    98014633.607       -3633.620          43.000  
J03  37737289.553   198310793.849           1.371          38.000    37737297.223   154527924.451           0.718          42.000  
J07  37119280.787   195063137.741        -335.222          39.000    37119281.247   151997250.538        -261.119          46.000  
J04                                                                  36993324.320   151481477.948        -488.951          40.000  
> 2025 11 11 08 02 49.8400000  0 32                     
G28  24494533.083   128719638.598       -3371.240          37.000    24494539.577   100301044.050       -2627.167          38.000  
G26  21828135.928   114707628.765       -2533.679          44.000    21828137.377    89382572.614       -1974.382          43.000  
G27  20173798.220   106014024.990        1350.632          48.000    20173799.189    82608333.839        1052.459          46.000  
G31  21996049.212   115590018.937       -2676.602          46.000    21996048.924    90070143.594       -2085.709          44.000  
G04  20941318.860   110047373.755        -912.414          46.000    20941319.201    85751200.472        -710.992          46.000  
C37  22295728.279   116099707.1212       -859.296          49.000                                                                  
C06  35874429.703   186807569.651          52.576          45.000    35874420.296   144451425.002          40.656          48.000  
C16  36316173.549   189107847.004          59.420          48.000    36316169.631   146230166.885          45.974          48.000  
C28  22660030.776   117996727.183         513.223          49.000                                                                  
C07  37197633.442   193697837.910         550.364          43.000    37197625.435   149779423.385         425.758          47.000  
C27  23529161.994   122522521.338        2512.909          45.000                                                                  
R10  22707269.079   121042523.072       -2618.234          40.000                                                                  
R22  23202702.446   123857605.300        3912.337          43.000    23202731.211    96333814.325        3042.670          42.000  
R12  21744514.192   116155291.394        1675.350          49.000    21744516.429    90343013.616        1302.954          48.000  
R11  20144007.151   107643467.634        -696.938          51.000    20144005.877    83722690.457        -542.054          51.000  
R20  22104581.929   118203133.488       -2051.107          46.000    22104580.754    91935762.661       -1595.258          46.000  
R01  21088343.084   112729277.909       -2928.172          47.000                                                                  
G08  21765912.897   114380644.247        2933.773          43.000    21765918.224    89127797.875        2285.671          43.000  
G09  22222112.293   116777988.028        1291.273          42.000    22222114.383    90995844.186        1006.271          41.000  
G16  20085641.211   105550756.029       -1098.695          46.000                                                                  
J02  38897028.415   204405264.407        -783.838          46.000    38897028.364   159276830.099        -610.864          47.000  
G18  24327551.835   127842151.349         -10.028          37.000    24327553.750    99617265.700          -7.609          39.000  
C20  24706759.069   128654577.8912      -2751.561          43.000                                                                  
C09  36820834.405   191735747.189         293.853          45.000    36820827.137   148262213.277         227.194          48.000  
C23  25143926.763   130931027.4192      -2419.980          41.000                                                                  
C19  24956554.330   129955327.5622       -670.881          41.000                                                                  
C10  38448061.228   200209144.431         553.966          39.000    38448058.740   154814399.467         428.320          43.000  
R21  20844144.443   111541227.173        1507.904          51.000    20844144.600    86754288.127        1172.778          50.000  
R08  23533121.087   126018793.695       -4671.841          39.000    23533159.932    98014778.944       -3633.515          43.000  
J03  37737289.541   198310793.800           1.427          38.000    37737297.211   154527924.412           0.853          42.000  
J07  37119283.335   195063151.142        -335.125          39.000    37119283.818   151997260.983        -261.129          46.000  
J04                                                                  36993329.094   151481497.505        -488.913          40.000  
> 2025 11 11 08 02 49.8800000  0 32                     
G28  24494558.700   128719773.421       -3370.723          37.000    24494565.238   100301149.121       -2626.976          38.000  
G26  21828155.208   114707730.111       -2533.627          44.000    21828156.674    89382651.580       -1974.230          43.000  
G27  20173787.939   106013970.963        1350.620          48.000    20173788.907    82608291.736        1052.514          46.000  
G31  21996069.582   115590126.001       -2676.592          46.000    21996069.291    90070227.017       -2085.659          44.000  
G04  20941325.831   110047410.259        -912.567          46.000    20941326.158    85751228.916        -711.090          46.000  
C37  22295734.834   116099741.4982       -859.363          49.000                                                                  
C06  35874429.271   186807567.547          52.612          45.000    35874419.867   144451423.371          40.771          48.000  
C16  36316173.051   189107844.629          59.385          48.000    36316169.165   146230165.045          46.000          48.000  
C28  22660026.832   117996706.649         513.309          49.000                                                                  
C07  37197629.206   193697815.897         550.285          43.000    37197621.213   149779406.360         425.677          47.000  
C27  23529142.663   122522420.837        2512.613          45.000                                                                  
R10  22707288.713   121042627.802       -2618.151          40.000                                                                  
R22  23202673.141   123857448.815        3912.211          43.000    23202701.898    96333692.619        3042.638          42.000  
R12  21744501.660   116155224.382        1675.332          49.000    21744503.901    90342961.501        1302.894          48.000  
R11  20144012.377   107643495.513        -696.968          51.000    20144011.102    83722712.140        -542.073          51.000  
R20  22104597.252   118203215.534       -2051.170          46.000    22104596.093    91935826.474       -1595.311          46.000  
R01  21088364.979   112729395.027       -2928.033          47.000                                                                  
G08  21765890.609   114380526.910        2933.604          43.000    21765895.898    89127706.438        2285.809          43.000  
G09  22222102.467   116777936.367        1291.401          42.000    22222104.538    90995803.943        1006.064          41.000  
G16  20085649.591   105550799.966       -1098.513          46.000                                                                  
J02  38897034.384   204405295.770        -784.039          46.000    38897034.329   159276854.528        -610.785          47.000  
G18  24327551.913   127842151.719          -9.503          37.000    24327553.808    99617266.003          -7.549          39.000  
C20  24706780.213   128654687.9512      -2751.510          43.000                                                                  
C09  36820832.128   191735735.437         293.798          45.000    36820824.897   148262204.184         227.271          48.000  
C23  25143945.343   130931124.2232      -2420.054          41.000                                                                  
C19  24956559.482   129955354.4032       -670.958          41.000                                                                  
C10  38448056.996   200209122.276         553.874          39.000    38448054.506   154814382.331         428.350          43.000  
R21  20844133.161   111541166.859        1507.843          51.000    20844133.323    86754241.219        1172.711          50.000  
R08  23533155.961   126018980.541       -4671.372          39.000    23533194.808    98014924.273       -3633.330          43.000  
J03  37737289.520   198310793.762           1.137          38.000    37737297.185   154527924.374           0.910          42.000  
J07  37119285.886   195063164.541        -335.024          39.000    37119286.379   151997271.435        -261.272          46.000  
J04                                                                  36993333.874   151481517.063        -488.927          40.000  
> 2025 11 11 08 02 49.9200000  0 32                     
G28  24494584.374   128719908.279       -3371.180          37.000    24494590.905   100301254.192       -2626.842          38.000  
G26  21828174.515   114707831.464       -2533.735          44.000    21828175.957    89382730.555       -1974.333          43.000  
G27  20173777.668   106013916.938        1350.596          48.000    20173778.614    82608249.635        1052.495          46.000  
G31  21996089.944   115590233.072       -2676.737          46.000    21996089.669    90070310.451       -2085.821          44.000  
G04  20941332.798   110047446.768        -912.720          46.000    20941333.095    85751257.367        -711.261          46.000  
C37  22295741.448   116099775.8792       -859.465          49.000                                                                  
C06  35874428.884   186807565.446          52.557          45.000    35874419.434   144451421.749          40.625          48.000  
C16  36316172.573   189107842.260          59.287          48.000    36316168.728   146230163.214          45.839          48.000  
C28  22660022.866   117996686.129         513.116          49.000                                                                  
C07  37197624.995   193697793.887         550.229          43.000    37197616.978   149779389.345         425.452          47.000  
C27  23529123.379   122522320.323        2512.700          45.000                                                                  
R10  22707308.382   121042732.550       -2618.460          40.000                                                                  
R22  23202643.834   123857292.343        3911.920          43.000    23202672.563    96333570.913        3042.581          42.000  
R12  21744489.117   116155157.369        1675.316          49.000    21744491.354    90342909.383        1302.901          48.000  
R11  20144017.615   107643523.393        -697.018          51.000    20144016.307    83722733.822        -542.073          51.000  
R20  22104612.588   118203297.585       -2051.296          46.000    22104611.428    91935890.278       -1595.175          46.000  
R01  21088386.903   112729512.156       -2928.172          47.000                                                                  
G08  21765868.291   114380409.580        2933.351          43.000    21765873.575    89127615.005        2285.793          43.000  
G09  22222092.647   116777884.728        1291.099          42.000    22222094.713    90995763.695        1006.055          41.000  
G16  20085657.940   105550843.918       -1098.704          46.000                                                                  
J02  38897040.351   204405327.131        -784.082          46.000    38897040.304   159276878.967        -610.919          47.000  
G18  24327551.945   127842152.102          -9.473          37.000    24327553.870    99617266.295          -7.438          39.000  
C20  24706801.344   128654798.0122      -2751.527          43.000                                                                  
C09  36820829.866   191735723.691         293.669          45.000    36820822.657   148262195.089         227.362          48.000  
C23  25143963.940   130931221.0232      -2420.054          41.000                                                                  
C19  24956564.633   129955381.2482       -671.104          41.000                                                                  
C10  38448052.738   200209100.133         553.616          39.000    38448050.241   154814365.202         428.283          43.000  
R21  20844121.903   111541106.553        1507.654          51.000    20844122.051    86754194.312        1172.644          50.000  
R08  23533190.856   126019167.413       -4671.613          39.000    23533229.696    98015069.612       -3633.417          43.000  
J03  37737289.516   198310793.711           1.148          38.000    37737297.168   154527924.326           1.151          42.000  
J07  37119288.438   195063177.949        -335.123          39.000    37119288.934   151997281.882        -261.235          46.000  
J04                                                                  36993338.665   151481536.630        -489.110          40.000  
> 2025 11 11 08 02 49.9600000  0 32                     
G28  24494610.044   128720043.145       -3371.566          37.000    24494616.553   100301359.260       -2626.801          38.000  
G26  21828193.799   114707932.828       -2534.005          44.000    21828195.252    89382809.540       -1974.575          43.000  
G27  20173767.391   106013862.916        1350.547          48.000    20173768.311    82608207.545        1052.302          46.000  
G31  21996110.339   115590340.143       -2676.819          46.000    21996110.040    90070393.885       -2085.881          44.000  
G04  20941339.728   110047483.280        -912.836          46.000    20941340.037    85751285.820        -711.359          46.000  
C37  22295748.035   116099810.2662       -859.643          49.000                                                                  
C06  35874428.482   186807563.349          52.411          45.000    35874419.014   144451420.129          40.521          48.000  
C16  36316172.103   189107839.887          59.269          48.000    36316168.253   146230161.380          45.795          48.000  
C28  22660018.930   117996665.606         513.042          49.000                                                                  
C07  37197620.758   193697771.889         549.969          43.000    37197612.763   149779372.332         425.296          47.000  
C27  23529104.067   122522219.816        2512.626          45.000                                                                  
R10  22707328.018   121042837.300       -2618.674          40.000                                                                  
R22  23202614.518   123857135.856        3912.021          43.000    23202643.243    96333449.217        3042.388          42.000  
R12  21744476.576   116155090.364        1675.165          49.000    21744478.809    90342857.264        1302.920          48.000  
R11  20144022.832   107643551.272        -697.017          51.000    20144021.521    83722755.507        -542.116          51.000  
R20  22104627.925   118203379.629       -2051.242          46.000    22104626.774    91935954.097       -1595.391          46.000  
R01  21088408.813   112729629.294       -2928.379          47.000                                                                  
G08  21765845.977   114380292.256        2933.089          43.000    21765851.260    89127523.575        2285.755          43.000  
G09  22222082.841   116777833.081        1291.104          42.000    22222084.887    90995723.451        1006.053          41.000  
G16  20085666.303   105550887.863       -1098.677          46.000                                                                  
J02  38897046.311   204405358.482        -783.899          46.000    38897046.269   159276903.402        -610.944          47.000  
G18  24327551.996   127842152.501          -9.785          37.000    24327553.946    99617266.605          -7.651          39.000  
C20  24706822.476   128654908.0682      -2751.458          43.000                                                                  
C09  36820827.634   191735711.938         293.712          45.000    36820820.418   148262186.003         227.248          48.000  
C23  25143982.539   130931317.8322      -2420.217          41.000                                                                  
C19  24956569.780   129955408.1052       -671.359          41.000                                                                  
C10  38448048.467   200209077.993         553.463          39.000    38448045.975   154814348.076         428.172          43.000  
R21  20844110.640   111541046.245        1507.630          51.000    20844110.777    86754147.406        1172.607          50.000  
R08  23533225.743   126019354.268       -4671.447          39.000    23533264.596    98015214.950       -3633.442          43.000  
J03  37737289.498   198310793.666           1.119          38.000    37737297.177   154527924.295           0.905          42.000  
J07  37119291.003   195063191.377        -335.542          39.000    37119291.448   151997292.334        -261.286          46.000  
J04                                                                  36993343.450   151481556.195        -489.212          40.000  
> 2025 11 11 08 02 50.0000000  0 32                     
G28  24494635.721   128720177.987       -3371.294          37.000    24494642.230   100301464.339       -2626.957          38.000  
G26  21828213.083   114708034.184       -2533.983          44.000    21828214.536    89382888.523       -1974.647          43.000  
G27  20173757.083   106013808.894        1350.541          48.000    20173758.005    82608165.451        1052.279          46.000  
G31  21996130.696   115590447.205       -2676.694          46.000    21996130.420    90070477.326       -2086.012          44.000  
G04  20941346.672   110047519.785        -912.775          46.000    20941346.971    85751314.261        -711.176          46.000  
C37  22295754.635   116099844.6472       -859.594          49.000                                                                  
C06  35874428.076   186807561.256          52.283          45.000    35874418.627   144451418.508          40.491          48.000  
C16  36316171.667   189107837.512          59.310          48.000    36316167.781   146230159.541          45.876          48.000  
C28  22660014.978   117996645.085         512.981          49.000                                                                  
C07  37197616.532   193697749.865         550.333          43.000    37197608.545   149779355.317         425.275          47.000  
C27  23529084.779   122522119.303        2512.732          45.000                                                                  
R10  22707347.654   121042942.026       -2618.360          40.000                                                                  
R22  23202585.204   123856979.372        3912.065          43.000    23202613.908    96333327.511        3042.465          42.000  
R12  21744464.023   116155023.358        1675.130          49.000    21744466.244    90342805.147        1302.913          48.000  
R11  20144028.050   107643579.149        -696.986          51.000    20144026.753    83722777.190        -542.109          51.000  
R20  22104643.274   118203461.673       -2051.175          46.000    22104642.111    91936017.915       -1595.485          46.000  
R01  21088430.717   112729746.424       -2928.359          47.000                                                                  
G08  21765823.649   114380174.920        2933.216          43.000    21765828.916    89127432.135        2285.927          43.000  
G09  22222072.980   116777781.420        1291.364          42.000    22222075.046    90995683.196        1006.246          41.000  
G16  20085674.668   105550931.816       -1098.823          46.000                                                                  
J02  38897052.267   204405389.831        -783.771          46.000    38897052.227   159276927.831        -610.797          47.000  
G18  24327552.062   127842152.908         -10.132          38.000    24327554.030    99617266.935          -8.140          39.000  
C20  24706843.611   128655018.1332      -2751.564          43.000                                                                  
C09  36820825.353   191735700.190         293.667          45.000    36820818.166   148262176.922         227.058          48.000  
C23  25144001.144   130931414.6322      -2420.102          41.000                                                                  
C19  24956574.958   129955434.9592       -671.442          41.000                                                                  
C10  38448044.220   200209055.839         553.674          39.000    38448041.715   154814330.950         428.104          43.000  
R21  20844099.360   111540985.934        1507.678          51.000    20844099.497    86754100.497        1172.662          50.000  
R08  23533260.614   126019541.121       -4671.305          39.000    23533299.475    98015360.298       -3633.646          43.000  
J03  37737289.482   198310793.599           1.528          38.000    37737297.166   154527924.264           0.785          42.000  
J07  37119293.550   195063204.778        -335.336          39.000    37119293.984   151997302.777        -261.168          46.000  
J04                                                                  36993348.230   151481575.767        -489.268          40.000  
> 2025 11 11 08 02 50.0400000  0 32                     
G28  24494661.391   128720312.808       -3370.753          37.000    24494667.882   100301569.419       -2627.079          38.000  
G26  21828232.373   114708135.543       -2534.034          44.000    21828233.825    89382967.500       -1974.563          43.000  
G27  20173746.785   106013754.873        1350.486          48.000    20173747.732    82608123.358        1052.280          46.000  
G31  21996151.067   115590554.281       -2676.897          46.000    21996150.788    90070560.749       -2085.736          44.000  
G04  20941353.630   110047556.290        -912.708          46.000    20941353.901    85751342.703        -711.108          46.000  
C37  22295761.260   116099879.0272       -859.574          49.000                                                                  
C06  35874427.670   186807559.147          52.551          45.000    35874418.230   144451416.883          40.570          48.000  
C16  36316171.224   189107835.129          59.489          48.000    36316167.302   146230157.704          45.880          48.000  
C28  22660011.041   117996624.562         512.995          49.000                                                                  
C07  37197612.311   193697727.838         550.574          43.000    37197604.305   149779338.288         425.527          47.000  
C27  23529065.512   122522018.791        2512.769          45.000                                                                  
R10  22707367.299   121043046.770       -2618.541          40.000                                                                  
R22  23202555.899   123856822.884        3912.134          43.000    23202584.580    96333205.805        3042.533          42.000  
R12  21744451.481   116154956.346        1675.203          49.000    21744453.669    90342753.025        1302.998          48.000  
R11  20144033.272   107643607.028        -696.979          51.000    20144031.965    83722798.876        -542.166          51.000  
R20  22104658.622   118203543.715       -2051.077          46.000    22104657.453    91936081.729       -1595.455          46.000  
R01  21088452.594   112729863.549       -2928.244          47.000                                                                  
G08  21765801.319   114380057.566        2933.595          43.000    21765806.587    89127340.711        2285.712          43.000  
G09  22222063.140   116777729.774        1291.224          42.000    22222065.223    90995642.949        1006.199          41.000  
G16  20085683.006   105550975.766       -1098.821          46.000                                                                  
J02  38897058.250   204405421.190        -783.893          46.000    38897058.173   159276952.268        -610.895          47.000  
G18  24327552.133   127842153.314         -10.214          38.000    24327554.094    99617267.229          -7.736          39.000  
C20  24706864.742   128655128.2022      -2751.767          42.000                                                                  
C09  36820823.112   191735688.426         293.929          45.000    36820815.891   148262167.835         227.075          48.000  
C23  25144019.725   130931511.4282      -2419.966          41.000                                                                  
C19  24956580.108   129955461.8042       -671.301          41.000                                                                  
C10  38448039.969   200209033.665         554.173          39.000    38448037.477   154814313.827         428.013          43.000  
R21  20844088.088   111540925.628        1507.617          51.000    20844088.206    86754053.590        1172.644          50.000  
R08  23533295.512   126019727.997       -4671.676          39.000    23533334.389    98015505.639       -3633.657          43.000  
J03  37737289.472   198310793.565           1.115          38.000    37737297.160   154527924.230           0.801          42.000  
J07  37119296.107   195063218.190        -335.402          39.000    37119296.523   151997313.224        -261.191          46.000  
J04                                                                  36993353.002   151481595.324        -489.065          40.000  
> 2025 11 11 08 02 50.0800000  0 32                     
G28  24494687.045   128720447.664       -3371.111          37.000    24494693.530   100301674.498       -2627.086          38.000  
G26  21828251.658   114708236.908       -2534.168          44.000    21828253.113    89383046.477       -1974.503          43.000  
G27  20173736.508   106013700.856        1350.406          48.000    20173737.434    82608081.260        1052.381          46.000  
G31  21996171.446   115590661.368       -2677.196          46.000    21996171.154    90070644.182       -2085.744          44.000  
G04  20941360.582   110047592.800        -912.768          46.000    20941360.849    85751371.157        -711.304          46.000  
C37  22295767.857   116099913.4042       -859.517          49.000                                                                  
C06  35874427.235   186807557.054          52.411          45.000    35874417.835   144451415.259          40.613          48.000  
C16  36316170.766   189107832.768          59.186          48.000    36316166.874   146230155.873          45.768          48.000  
C28  22660007.109   117996604.050         512.819          49.000                                                                  
C07  37197608.054   193697705.832         550.357          43.000    37197600.095   149779321.259         425.692          47.000  
C27  23529046.207   122521918.289        2512.608          45.000                                                                  
R10  22707386.956   121043151.525       -2618.806          40.000                                                                  
R22  23202526.610   123856666.410        3911.928          43.000    23202555.260    96333084.109        3042.397          42.000  
R12  21744438.945   116154889.346        1675.034          49.000    21744441.119    90342700.917        1302.780          48.000  
R11  20144038.495   107643634.912        -697.086          51.000    20144037.187    83722820.568        -542.289          51.000  
R20  22104673.960   118203625.773       -2051.365          46.000    22104672.790    91936145.550       -1595.517          46.000  
R01  21088474.507   112729980.688       -2928.433          47.000                                                                  
G08  21765779.022   114379940.238        2933.352          43.000    21765784.275    89127249.283        2285.635          43.000  
G09  22222053.333   116777678.130        1291.043          42.000    22222055.412    90995602.717        1005.865          41.000  
G16  20085691.366   105551019.722       -1098.926          46.000                                                                  
J02  38897064.217   204405452.553        -784.039          46.000    38897064.149   159276976.702        -610.901          47.000  
G18  24327552.200   127842153.709         -10.061          38.000    24327554.174    99617267.539          -7.743          40.000  
C20  24706885.888   128655238.2732      -2751.852          42.000                                                                  
C09  36820820.859   191735676.673         293.844          45.000    36820813.615   148262158.749         227.099          48.000  
C23  25144038.302   130931608.2422      -2420.228          41.000                                                                  
C19  24956585.228   129955488.6552       -671.319          41.000                                                                  
C10  38448035.737   200209011.516         553.918          39.000    38448033.203   154814296.692         428.179          43.000  
R21  20844076.797   111540865.327        1507.507          51.000    20844076.931    86754006.694        1172.449          50.000  
R08  23533330.402   126019914.883       -4672.076          39.000    23533369.284    98015650.983       -3633.644          43.000  
J03  37737289.477   198310793.541           0.627          38.000    37737297.152   154527924.197           0.829          42.000  
J07  37119298.661   195063231.587        -335.065          39.000    37119299.082   151997323.675        -261.268          46.000  
J04                                                                  36993357.780   151481614.891        -489.139          40.000  
> 2025 11 11 08 02 50.1200000  0 32                     
G28  24494712.706   128720582.540       -3371.681          37.000    24494719.204   100301779.587       -2627.231          38.000  
G26  21828270.947   114708338.262       -2533.992          44.000    21828272.392    89383125.465       -1974.673          43.000  
G27  20173726.247   106013646.845        1350.263          48.000    20173727.122    82608039.170        1052.293          46.000  
G31  21996191.834   115590768.431       -2676.855          46.000    21996191.523    90070727.615       -2085.771          44.000  
G04  20941367.551   110047629.314        -912.866          46.000    20941367.808    85751399.611        -711.377          46.000  
C37  22295774.435   116099947.7942       -859.690          49.000                                                                  
C06  35874426.835   186807554.958          52.386          45.000    35874417.424   144451413.639          40.546          48.000  
C16  36316170.299   189107830.406          59.027          48.000    36316166.443   146230154.044          45.687          48.000  
C28  22660003.176   117996583.531         512.893          49.000                                                                  
C07  37197603.829   193697683.821         550.274          43.000    37197595.910   149779304.241         425.546          47.000  
C27  23529026.903   122521817.787        2512.516          45.000                                                                  
R10  22707406.607   121043256.271       -2618.743          40.000                                                                  
R22  23202497.288   123856509.928        3912.004          43.000    23202525.953    96332962.411        3042.392          42.000  
R12  21744426.411   116154822.345        1674.960          49.000    21744428.568    90342648.804        1302.740          48.000  
R11  20144043.703   107643662.799        -697.191          51.000    20144042.407    83722842.255        -542.250          51.000  
R20  22104689.322   118203707.837       -2051.626          46.000    22104688.133    91936209.373       -1595.592          46.000  
R01  21088496.412   112730097.826       -2928.485          47.000                                                                  
G08  21765756.712   114379822.906        2933.284          43.000    21765761.940    89127157.859        2285.556          43.000  
G09  22222043.514   116777626.488        1291.006          42.000    22222045.597    90995562.474        1005.942          41.000  
G16  20085699.721   105551063.677       -1098.924          46.000                                                                  
J02  38897070.187   204405483.923        -784.228          46.000    38897070.113   159277001.141        -610.980          47.000  
G18  24327552.287   127842154.081          -9.553          38.000    24327554.251    99617267.863          -8.062          40.000  
C20  24706907.012   128655348.3482      -2751.901          42.000                                                                  
C09  36820818.580   191735664.932         293.597          45.000    36820811.357   148262149.666         227.035          48.000  
C23  25144056.905   130931705.0532      -2420.301          41.000                                                                  
C19  24956590.383   129955515.4992       -671.210          41.000                                                                  
C10  38448031.489   200208989.359         553.955          39.000    38448028.964   154814279.564         428.179          43.000  
R21  20844065.526   111540805.023        1507.526          51.000    20844065.673    86753959.797        1172.375          50.000  
R08  23533365.313   126020101.766       -4672.153          39.000    23533404.178    98015796.336       -3633.767          43.000  
J03  37737289.470   198310793.504           0.720          38.000    37737297.134   154527924.169           0.740          42.000  
J07  37119301.213   195063245.016        -335.511          39.000    37119301.627   151997334.126        -261.307          46.000  
J04                                                                  36993362.570   151481634.454        -489.079          40.000  
> 2025 11 11 08 02 50.1600000  0 32                     
G28  24494738.395   128720717.402       -3371.744          37.000    24494744.859   100301884.639       -2626.610          38.000  
G26  21828290.241   114708439.604       -2533.652          44.000    21828291.676    89383204.440       -1974.499          43.000  
G27  20173715.963   106013592.825        1350.383          48.000    20173716.856    82607997.079        1052.281          46.000  
G31  21996212.222   115590875.505       -2676.823          46.000    21996211.907    90070811.044       -2085.719          44.000  
G04  20941374.503   110047665.825        -912.823          46.000    20941374.754    85751428.058        -711.255          46.000  
C37  22295781.074   116099982.1702       -859.527          49.000                                                                  
C06  35874426.409   186807552.853          52.545          45.000    35874417.017   144451412.004          40.778          48.000  
C16  36316169.858   189107828.026          59.307          48.000    36316166.003   146230152.208          45.784          48.000  
C28  22659999.233   117996563.011         512.964          49.000                                                                  
C07  37197599.602   193697661.820         550.078          43.000    37197591.655   149779287.216         425.604          47.000  
C27  23529007.605   122521717.274        2512.677          45.000                                                                  
R10  22707426.252   121043361.011       -2618.589          40.000                                                                  
R22  23202467.958   123856353.443        3912.066          43.000    23202496.663    96332840.697        3042.723          42.000  
R12  21744413.878   116154755.335        1675.109          49.000    21744416.042    90342596.683        1302.922          49.000  
R11  20144048.907   107643690.673        -696.965          51.000    20144047.637    83722863.936        -542.094          51.000  
R20  22104704.686   118203789.886       -2051.422          46.000    22104703.459    91936273.189       -1595.498          46.000  
R01  21088518.322   112730214.961       -2928.424          47.000                                                                  
G08  21765734.379   114379705.573        2933.273          43.000    21765739.609    89127066.423        2285.748          43.000  
G09  22222033.689   116777574.848        1290.984          42.000    22222035.770    90995522.228        1006.061          41.000  
G16  20085708.086   105551107.623       -1098.740          46.000                                                                  
J02  38897076.146   204405515.275        -783.960          46.000    38897076.094   159277025.569        -610.779          47.000  
G18  24327552.353   127842154.484          -9.885          38.000    24327554.320    99617268.173          -7.935          39.000  
C20  24706928.144   128655458.4132      -2751.730          42.000                                                                  
C09  36820816.327   191735653.177         293.733          45.000    36820809.124   148262140.581         227.077          48.000  
C23  25144075.501   130931801.8502      -2420.064          41.000                                                                  
C19  24956595.515   129955542.3382       -671.023          41.000                                                                  
C10  38448027.234   200208967.205         553.856          39.000    38448024.709   154814262.432         428.253          43.000  
R21  20844054.236   111540744.714        1507.660          51.000    20844054.407    86753912.885        1172.662          50.000  
R08  23533400.199   126020288.625       -4671.740          39.000    23533439.070    98015941.667       -3633.415          43.000  
J03  37737289.449   198310793.456           1.003          38.000    37737297.140   154527924.130           0.881          42.000  
J07  37119303.768   195063258.409        -335.091          39.000    37119304.161   151997344.574        -261.251          46.000  
J04                                                                  36993367.336   151481654.015        -489.056          40.000  
> 2025 11 11 08 02 50.2000000  0 32                     
G28  24494764.084   128720852.243       -3371.345          37.000    24494770.520   100301989.723       -2626.841          38.000  
G26  21828309.524   114708540.953       -2533.642          44.000    21828310.957    89383283.405       -1974.254          43.000  
G27  20173705.685   106013538.798        1350.589          48.000    20173706.562    82607954.982        1052.349          46.000  
G31  21996232.589   115590982.565       -2676.566          46.000    21996232.281    90070894.468       -2085.592          44.000  
G04  20941381.427   110047702.334        -912.762          46.000    20941381.680    85751456.506        -711.218          46.000  
C37  22295787.705   116100016.5412       -859.356          49.000                                                                  
C06  35874425.978   186807550.744          52.698          45.000    35874416.603   144451410.375          40.796          48.000  
C16  36316169.414   189107825.642          59.504          48.000    36316165.566   146230150.360          46.053          48.000  
C28  22659995.285   117996542.483         513.140          49.000                                                                  
C07  37197595.350   193697639.796         550.397          43.000    37197587.429   149779270.194         425.552          47.000  
C27  23528988.304   122521616.756        2512.843          45.000                                                                  
R10  22707445.899   121043465.738       -2618.227          40.000                                                                  
R22  23202438.654   123856196.943        3912.415          43.000    23202467.344    96332718.980        3042.907          42.000  
R12  21744401.322   116154688.312        1675.440          49.000    21744403.512    90342544.558        1303.089          49.000  
R11  20144054.125   107643718.544        -696.817          51.000    20144052.874    83722885.607        -541.840          51.000  
R20  22104720.045   118203871.923       -2051.085          46.000    22104718.785    91936337.002       -1595.382          46.000  
R01  21088540.210   112730332.085       -2928.239          47.000                                                                  
G08  21765712.056   114379588.233        2933.420          43.000    21765717.278    89126974.987        2285.831          43.000  
G09  22222023.851   116777523.187        1291.358          42.000    22222025.919    90995481.982        1006.164          41.000  
G16  20085716.446   105551151.562       -1098.528          46.000                                                                  
J02  38897082.097   204405546.620        -783.704          46.000    38897082.053   159277050.000        -610.773          47.000  
G18  24327552.415   127842154.889         -10.050          38.000    24327554.396    99617268.458          -7.391          39.000  
C20  24706949.263   128655568.4612      -2751.330          42.000                                                                  
C09  36820814.054   191735641.407         294.084          45.000    36820806.858   148262131.482         227.338          48.000  
C23  25144094.080   130931898.6382      -2419.782          41.000                                                                  
C19  24956600.673   129955569.1842       -671.080          41.000                                                                  
C10  38448022.987   200208945.062         553.560          39.000    38448020.443   154814245.292         428.432          43.000  
R21  20844042.984   111540684.406        1507.703          51.000    20844043.110    86753865.974        1172.760          50.000  
R08  23533435.093   126020475.454       -4670.983          39.000    23533473.960    98016086.987       -3633.021          43.000  
J03  37737289.443   198310793.363           1.951          38.000    37737297.119   154527924.076           1.248          42.000  
J07  37119306.311   195063271.815        -335.055          39.000    37119306.702   151997355.012        -261.031          46.000  
J04                                                                  36993372.114   151481673.561        -488.734          40.000  
> 2025 11 11 08 02 50.2400000  0 32                     
G28  24494789.753   128720987.067       -3370.789          37.000    24494796.174   100302094.784       -2626.650          38.000  
G26  21828328.810   114708642.300       -2533.617          44.000    21828330.240    89383362.373       -1974.163          43.000  
G27  20173695.403   106013484.771        1350.674          48.000    20173696.285    82607912.881        1052.455          46.000  
G31  21996252.958   115591089.623       -2676.425          46.000    21996252.651    90070977.898       -2085.647          44.000  
G04  20941388.394   110047738.834        -912.579          46.000    20941388.623    85751484.952        -711.176          46.000  
C37  22295794.302   116100050.9142       -859.288          49.000                                                                  
C06  35874425.559   186807548.629          52.844          45.000    35874416.182   144451408.749          40.729          48.000  
C16  36316168.963   189107823.260          59.569          48.000    36316165.081   146230148.521          46.046          48.000  
C28  22659991.337   117996521.954         513.219          49.000                                                                  
C07  37197591.136   193697617.769         550.644          43.000    37197583.182   149779253.165         425.655          47.000  
C27  23528969.019   122521516.240        2512.866          45.000                                                                  
R10  22707465.551   121043570.466       -2618.060          40.000                                                                  
R22  23202409.327   123856040.456        3912.318          43.000    23202438.040    96332597.273        3042.812          42.000  
R12  21744388.781   116154621.292        1675.536          49.000    21744390.977    90342492.432        1303.146          49.000  
R11  20144059.348   107643746.419        -696.831          52.000    20144058.102    83722907.282        -541.799          51.000  
R20  22104735.384   118203953.974       -2051.149          46.000    22104734.124    91936400.822       -1595.484          46.000  
R01  21088562.119   112730449.213       -2928.185          47.000                                                                  
G08  21765689.715   114379470.895        2933.469          43.000    21765694.950    89126883.548        2285.958          43.000  
G09  22222014.015   116777471.528        1291.505          42.000    22222016.100    90995441.726        1006.372          41.000  
G16  20085724.821   105551195.507       -1098.531          46.000                                                                  
J02  38897088.043   204405577.962        -783.533          46.000    38897088.022   159277074.424        -610.651          47.000  
G18  24327552.459   127842155.262          -9.485          38.000    24327554.475    99617268.756          -7.338          39.000  
C20  24706970.400   128655678.5152      -2751.269          42.000                                                                  
C09  36820811.790   191735629.648         294.104          45.000    36820804.629   148262122.385         227.436          48.000  
C23  25144112.662   130931995.4452      -2419.977          41.000                                                                  
C19  24956605.820   129955596.0372       -671.284          41.000                                                                  
C10  38448018.724   200208922.888         554.061          39.000    38448016.205   154814228.145         428.671          43.000  
R21  20844031.709   111540624.095        1507.751          51.000    20844031.843    86753819.071        1172.644          50.000  
R08  23533469.984   126020662.302       -4670.924          39.000    23533508.827    98016232.306       -3632.832          43.000  
J03  37737289.436   198310793.310           1.715          38.000    37737297.100   154527924.037           1.133          42.000  
J07  37119308.864   195063285.220        -335.080          39.000    37119309.257   151997365.452        -260.986          46.000  
J04                                                                  36993376.896   151481693.108        -488.666          40.000  
> 2025 11 11 08 02 50.2800000  0 32                     
G28  24494815.393   128721121.904       -3370.748          37.000    24494821.833   100302199.866       -2626.956          38.000  
G26  21828348.108   114708743.655       -2533.791          44.000    21828349.519    89383441.351       -1974.298          43.000  
G27  20173685.152   106013430.751        1350.585          48.000    20173686.006    82607870.789        1052.341          46.000  
G31  21996273.325   115591196.682       -2676.392          46.000    21996273.021    90071061.323       -2085.616          44.000  
G04  20941395.351   110047775.336        -912.531          46.000    20941395.575    85751513.393        -711.072          46.000  
C37  22295800.926   116100085.2882       -859.292          49.000                                                                  
C06  35874425.146   186807546.531          52.582          45.000    35874415.752   144451407.115          40.826          48.000  
C16  36316168.523   189107820.879          59.542          48.000    36316164.621   146230146.672          46.213          48.000  
C28  22659987.387   117996501.428         513.191          49.000                                                                  
C07  37197586.927   193697595.743         550.719          43.000    37197578.955   149779236.133         425.774          47.000  
C27  23528949.718   122521415.713        2513.063          45.000                                                                  
R10  22707485.197   121043675.198       -2618.138          40.000                                                                  
R22  23202380.011   123855883.962        3912.342          43.000    23202408.723    96332475.553        3042.985          42.000  
R12  21744376.240   116154554.280        1675.423          49.000    21744378.421    90342440.313        1303.063          49.000  
R11  20144064.548   107643774.289        -696.783          52.000    20144063.309    83722928.964        -541.950          51.000  
R20  22104750.710   118204036.024       -2051.210          46.000    22104749.494    91936464.634       -1595.395          46.000  
R01  21088584.027   112730566.341       -2928.184          47.000                                                                  
G08  21765667.379   114379353.555        2933.506          43.000    21765672.632    89126792.115        2285.889          43.000  
G09  22222004.200   116777419.880        1291.366          42.000    22222006.286    90995401.479        1006.276          41.000  
G16  20085733.182   105551239.451       -1098.539          46.000                                                                  
J02  38897094.005   204405609.307        -783.563          46.000    38897093.991   159277098.846        -610.571          47.000  
G18  24327552.500   127842155.644          -9.399          38.000    24327554.543    99617269.075          -7.738          40.000  
C20  24706991.532   128655788.5692      -2751.258          42.000                                                                  
C09  36820809.526   191735617.882         294.184          45.000    36820802.356   148262113.290         227.448          48.000  
C23  25144131.248   130932092.2342      -2419.790          41.000                                                                  
C19  24956610.992   129955622.8752       -671.059          41.000                                                                  
C10  38448014.449   200208900.735         553.930          39.000    38448011.954   154814211.006         428.621          43.000  
R21  20844020.424   111540563.788        1507.690          51.000    20844020.584    86753772.165        1172.644          50.000  
R08  23533504.873   126020849.171       -4671.451          39.000    23533543.746    98016377.643       -3633.130          43.000  
J03  37737289.434   198310793.271           1.233          38.000    37737297.095   154527924.009           0.813          42.000  
J07  37119311.425   195063298.601        -334.676          39.000    37119311.811   151997375.889        -260.919          46.000  
J04                                                                  36993381.694   151481712.668        -488.874          40.000  
> 2025 11 11 08 02 50.3200000  0 32                     
G28  24494841.041   128721256.743       -3370.863          37.000    24494847.491   100302304.941       -2627.004          38.000  
G26  21828367.390   114708845.002       -2533.772          44.000    21828368.796    89383520.331       -1974.484          43.000  
G27  20173674.872   106013376.727        1350.585          48.000    20173675.757    82607828.688        1052.441          46.000  
G31  21996293.700   115591303.751       -2676.564          46.000    21996293.390    90071144.757       -2085.754          44.000  
G04  20941402.321   110047811.847        -912.714          46.000    20941402.493    85751541.837        -711.090          46.000  
C37  22295807.504   116100119.1631       -859.326          49.000                                                                  
C06  35874424.715   186807544.423          52.673          45.000    35874415.352   144451405.494          40.619          48.000  
C16  36316168.102   189107818.494          59.606          48.000    36316164.149   146230144.835          46.047          48.000  
C28  22659983.436   117996480.906         513.074          49.000                                                                  
C07  37197582.708   193697573.725         550.567          43.000    37197574.742   149779219.108         425.661          47.000  
C27  23528930.401   122521315.203        2512.846          45.000                                                                  
R10  22707504.868   121043779.923       -2618.138          40.000                                                                  
R22  23202350.697   123855727.463        3912.478          43.000    23202379.401    96332353.835        3042.976          42.000  
R12  21744363.694   116154487.259        1675.492          49.000    21744365.871    90342388.190        1303.027          49.000  
R11  20144069.766   107643802.162        -696.809          52.000    20144068.543    83722950.646        -542.037          51.000  
R20  22104766.068   118204118.077       -2051.307          46.000    22104764.840    91936528.446       -1595.371          46.000  
R01  21088605.926   112730683.463       -2928.086          47.000                                                                  
G08  21765645.044   114379236.204        2933.691          43.000    21765650.301    89126700.685        2285.810          43.000  
G09  22221994.368   116777368.237        1291.153          42.000    22221996.441    90995361.236        1006.148          41.000  
G16  20085741.549   105551283.397       -1098.616          46.000                                                                  
J02  38897099.989   204405640.655        -783.649          46.000    38897099.943   159277123.274        -610.687          47.000  
G18  24327552.568   127842156.039          -9.666          38.000    24327554.598    99617269.374          -7.650          39.000  
C20  24707012.665   128655898.1311      -2751.420          42.000                                                                  
C09  36820807.276   191735606.119         294.160          45.000    36820800.105   148262104.187         227.513          48.000  
C23  25144149.858   130932189.015       -2419.584          42.000                                                                  
C19  24956616.120   129955649.2111       -670.967          41.000                                                                  
C10  38448010.199   200208878.564         554.170          39.000    38448007.693   154814193.876         428.361          43.000  
R21  20844009.141   111540503.480        1507.678          51.000    20844009.315    86753725.260        1172.620          50.000  
R08  23533539.767   126021036.031       -4671.548          39.000    23533578.633    98016522.968       -3633.143          43.000  
J03  37737289.414   198310793.217           1.250          38.000    37737297.067   154527923.961           1.033          42.000  
J07  37119313.975   195063312.009        -334.985          39.000    37119314.360   151997386.334        -261.072          46.000  
J04                                                                  36993386.467   151481732.228        -489.023          40.000  
> 2025 11 11 08 02 50.3600000  0 32                     
G28  24494866.711   128721391.616       -3371.495          37.000    24494873.150   100302410.017       -2627.063          38.000  
G26  21828386.668   114708946.348       -2533.698          44.000    21828388.076    89383599.300       -1974.329          43.000  
G27  20173664.608   106013322.708        1350.460          48.000    20173665.486    82607786.595        1052.354          46.000  
G31  21996314.079   115591410.825       -2676.751          46.000    21996313.763    90071228.185       -2085.740          44.000  
G04  20941409.295   110047848.360        -912.836          46.000    20941409.432    85751570.289        -711.267          46.000  
C37  22295814.070   116100153.542        -859.436          49.000                                                                  
C06  35874424.296   186807542.316          52.673          45.000    35874414.958   144451403.862          40.729          48.000  
C16  36316167.655   189107816.116          59.503          48.000    36316163.720   146230142.995          45.995          48.000  
C28  22659979.484   117996460.384         513.011          49.000                                                                  
C07  37197578.477   193697551.706         550.502          43.000    37197570.502   149779202.079         425.674          47.000  
C27  23528911.077   122521214.688        2512.810          45.000                                                                  
R10  22707524.489   121043884.653       -2618.216          40.000                                                                  
R22  23202321.372   123855570.976        3912.258          43.000    23202350.101    96332232.132        3042.689          42.000  
R12  21744351.157   116154420.248        1675.332          49.000    21744353.312    90342336.068        1303.028          49.000  
R11  20144074.961   107643830.038        -696.877          52.000    20144073.769    83722972.333        -542.155          51.000  
R20  22104781.446   118204200.127       -2051.301          46.000    22104780.179    91936592.265       -1595.489          46.000  
R01  21088627.834   112730800.605       -2928.382          47.000                                                                  
G08  21765622.721   114379118.860        2933.672          43.000    21765627.980    89126609.256        2285.712          43.000  
G09  22221984.535   116777316.594        1291.053          42.000    22221986.613    90995320.997        1005.975          41.000  
G16  20085749.885   105551327.344       -1098.686          46.000                                                                  
J02  38897105.971   204405672.008        -783.801          46.000    38897105.922   159277147.706        -610.791          47.000  
G18  24327552.636   127842156.451         -10.118          38.000    24327554.673    99617269.672          -7.588          40.000  
C20  24707033.781   128656008.187       -2751.419          43.000                                                                  
C09  36820805.010   191735594.362         294.018          45.000    36820797.835   148262095.095         227.379          48.000  
C23  25144168.431   130932285.822       -2419.939          42.000                                                                  
C19  24956621.274   129955676.068        -671.308          41.000                                                                  
C10  38448005.935   200208856.408         553.997          39.000    38448003.442   154814176.748         428.195          43.000  
R21  20843997.877   111540443.178        1507.568          51.000    20843998.034    86753678.356        1172.577          50.000  
R08  23533574.671   126021222.889       -4671.541          39.000    23533613.533    98016668.316       -3633.556          43.000  
J03  37737289.397   198310793.166           1.248          38.000    37737297.042   154527923.911           1.196          42.000  
J07  37119316.508   195063325.406        -334.978          39.000    37119316.912   151997396.781        -261.180          46.000  
J04                                                                  36993391.252   151481751.791        -489.121          40.000  
> 2025 11 11 08 02 50.4000000  0 32                     
G28  24494892.356   128721526.432       -3370.857          37.000    24494898.812   100302515.102       -2627.128          38.000  
G26  21828405.962   114709047.697       -2533.725          44.000    21828407.352    89383678.265       -1974.194          43.000  
G27  20173654.312   106013268.683        1350.535          48.000    20173655.211    82607744.509        1052.180          46.000  
G31  21996334.435   115591517.892       -2676.755          46.000    21996334.146    90071311.607       -2085.636          44.000  
G04  20941416.220   110047884.866        -912.762          46.000    20941416.367    85751598.738        -711.334          46.000  
C37  22295820.706   116100187.912        -859.332          49.000                                                                  
C06  35874423.863   186807540.206          52.765          45.000    35874414.557   144451402.229          40.790          48.000  
C16  36316167.214   189107813.736          59.478          48.000    36316163.280   146230141.151          46.035          48.000  
C28  22659975.553   117996439.856         513.096          49.000                                                                  
C07  37197574.217   193697529.685         550.470          43.000    37197566.263   149779185.051         425.641          47.000  
C27  23528891.776   122521114.174        2512.798          45.000                                                                  
R10  22707544.122   121043989.394       -2618.436          40.000                                                                  
R22  23202292.060   123855414.484        3912.247          43.000    23202320.793    96332110.434        3042.442          42.000  
R12  21744338.587   116154353.228        1675.406          49.000    21744340.772    90342283.946        1303.015          49.000  
R11  20144080.186   107643857.912        -696.889          52.000    20144078.990    83722994.012        -542.048          51.000  
R20  22104796.790   118204282.173       -2051.250          46.000    22104795.526    91936656.087       -1595.610          46.000  
R01  21088649.758   112730917.743       -2928.490          47.000                                                                  
G08  21765600.399   114379001.521        2933.559          43.000    21765605.669    89126517.829        2285.637          43.000  
G09  22221974.680   116777264.948        1291.056          42.000    22221976.763    90995280.744        1006.190          41.000  
G16  20085758.250   105551371.294       -1098.774          46.000                                                                  
J02  38897111.950   204405703.354        -783.704          46.000    38897111.875   159277172.131        -610.712          47.000  
G18  24327552.722   127842156.848         -10.063          38.000    24327554.733    99617269.995          -7.939          39.000  
C20  24707054.910   128656118.255       -2751.642          43.000                                                                  
C09  36820802.774   191735582.601         294.000          45.000    36820795.567   148262086.004         227.283          48.000  
C23  25144186.997   130932382.628       -2420.123          42.000                                                                  
C19  24956626.434   129955702.910        -671.231          41.000                                                                  
C10  38448001.675   200208834.228         554.367          39.000    38447999.193   154814159.613         428.264          43.000  
R21  20843986.581   111540382.871        1507.617          51.000    20843986.768    86753631.455        1172.498          50.000  
R08  23533609.563   126021409.737       -4671.313          39.000    23533648.417    98016813.644       -3633.388          43.000  
J03  37737289.367   198310793.100           1.534          38.000    37737297.028   154527923.859           1.327          42.000  
J07  37119319.091   195063338.810        -335.067          39.000    37119319.466   151997407.219        -261.069          46.000  
J04                                                                  36993396.021   151481771.347        -488.977          40.000  
> 2025 11 11 08 02 50.4400000  0 32                     
G28  24494918.003   128721661.264       -3370.767          37.000    24494924.479   100302620.173       -2626.890          38.000  
G26  21828425.265   114709149.057       -2533.920          44.000    21828426.643    89383757.241       -1974.351          43.000  
G27  20173644.028   106013214.664        1350.442          48.000    20173644.930    82607702.414        1052.250          46.000  
G31  21996354.810   115591624.956       -2676.722          46.000    21996354.529    90071395.040       -2085.768          44.000  
G04  20941423.170   110047921.380        -912.872          46.000    20941423.314    85751627.191        -711.407          46.000  
C37  22295827.284   116100222.292        -859.481          49.000                                                                  
C06  35874423.458   186807538.092          52.869          45.000    35874414.178   144451400.600          40.723          48.000  
C16  36316166.773   189107811.357          59.437          48.000    36316162.857   146230139.310          46.022          48.000  
C28  22659971.627   117996419.335         513.038          49.000                                                                  
C07  37197569.967   193697507.664         550.458          43.000    37197562.035   149779168.028         425.539          47.000  
C27  23528872.481   122521013.653        2512.921          45.000                                                                  
R10  22707563.770   121044094.140       -2618.687          40.000                                                                  
R22  23202262.758   123855257.996        3912.160          43.000    23202291.487    96331988.717        3042.661          42.000  
R12  21744326.045   116154286.216        1675.293          49.000    21744328.234    90342231.821        1303.062          49.000  
R11  20144085.434   107643885.789        -696.945          52.000    20144084.211    83723015.689        -541.998          51.000  
R20  22104812.133   118204364.236       -2051.522          46.000    22104810.892    91936719.908       -1595.617          46.000  
R01  21088671.658   112731034.876       -2928.450          47.000                                                                  
G08  21765578.072   114378884.191        2933.310          43.000    21765583.331    89126426.384        2285.947          43.000  
G09  22221964.820   116777213.287        1291.365          42.000    22221966.970    90995240.493        1006.260          41.000  
G16  20085766.606   105551415.238       -1098.722          46.000                                                                  
J02  38897117.917   204405734.710        -783.893          46.000    38897117.850   159277196.558        -610.700          47.000  
G18  24327552.781   127842157.229          -9.751          38.000    24327554.810    99617270.297          -7.751          39.000  
C20  24707076.031   128656228.320       -2751.716          43.000                                                                  
C09  36820800.536   191735570.838         294.013          45.000    36820793.323   148262076.915         227.182          48.000  
C23  25144205.604   130932479.429       -2420.157          42.000                                                                  
C19  24956631.567   129955729.755        -671.211          41.000                                                                  
C10  38447997.422   200208812.070         554.063          39.000    38447994.932   154814142.482         428.196          43.000  
R21  20843975.314   111540322.570        1507.507          51.000    20843975.504    86753584.553        1172.473          50.000  
R08  23533644.432   126021596.595       -4671.356          39.000    23533683.313    98016958.980       -3633.425          43.000  
J03  37737289.351   198310793.061           1.143          38.000    37737297.020   154527923.820           1.113          42.000  
J07  37119321.645   195063352.216        -335.210          39.000    37119322.019   151997417.663        -261.115          46.000  
J04                                                                  36993400.788   151481790.888        -488.669          40.000  
> 2025 11 11 08 02 50.4800000  0 32                     
G28  24494943.655   128721796.131       -3371.395          37.000    24494950.137   100302725.234       -2626.499          38.000  
G26  21828444.553   114709250.405       -2533.784          44.000    21828445.917    89383836.222       -1974.538          43.000  
G27  20173633.772   106013160.648        1350.362          48.000    20173634.623    82607660.325        1052.175          46.000  
G31  21996375.212   115591732.037       -2676.987          46.000    21996374.891    90071478.473       -2085.836          44.000  
G04  20941430.123   110047957.887        -912.768          46.000    20941430.260    85751655.645        -711.444          46.000  
C37  22295833.873   116100256.669        -859.492          49.000                                                                  
C06  35874423.026   186807535.992          52.649          45.000    35874413.833   144451398.979          40.570          48.000  
C16  36316166.349   189107808.983          59.370          48.000    36316162.417   146230137.473          45.930          48.000  
C28  22659967.680   117996398.818         512.893          49.000                                                                  
C07  37197565.730   193697485.651         550.365          43.000    37197557.806   149779150.999         425.625          47.000  
C27  23528853.156   122520913.142        2512.798          45.000                                                                  
R10  22707583.418   121044198.877       -2618.599          40.000                                                                  
R22  23202233.430   123855101.502        3912.248          43.000    23202262.120    96331867.006        3042.693          42.000  
R12  21744313.506   116154219.205        1675.252          49.000    21744315.690    90342179.701        1303.016          49.000  
R11  20144090.657   107643913.666        -696.957          52.000    20144089.433    83723037.372        -542.048          51.000  
R20  22104827.467   118204446.290       -2051.489          46.000    22104826.258    91936783.729       -1595.587          46.000  
R01  21088693.576   112731152.010       -2928.428          47.000                                                                  
G08  21765555.778   114378766.862        2933.146          43.000    21765561.006    89126334.956        2285.799          43.000  
G09  22221955.013   116777161.646        1291.149          42.000    22221957.147    90995200.257        1006.028          41.000  
G16  20085774.989   105551459.190       -1098.809          46.000                                                                  
J02  38897123.868   204405766.058        -783.789          46.000    38897123.829   159277220.985        -610.663          47.000  
G18  24327552.851   127842157.625          -9.849          38.000    24327554.889    99617270.604          -7.726          39.000  
C20  24707097.162   128656338.378       -2751.668          43.000                                                                  
C09  36820798.280   191735559.074         294.046          45.000    36820791.068   148262067.820         227.278          48.000  
C23  25144224.200   130932576.214       -2419.822          42.000                                                                  
C19  24956636.723   129955756.608        -671.346          41.000                                                                  
C10  38447993.166   200208789.922         553.718          39.000    38447990.687   154814125.353         428.172          43.000  
R21  20843964.045   111540262.267        1507.501          51.000    20843964.211    86753537.649        1172.534          50.000  
R08  23533679.325   126021783.437       -4671.135          39.000    23533718.203    98017104.320       -3633.504          43.000  
J03  37737289.335   198310793.006           1.208          38.000    37737297.024   154527923.787           0.846          42.000  
J07  37119324.178   195063365.611        -335.050          39.000    37119324.561   151997428.100        -261.010          46.000  
J04                                                                  36993405.550   151481810.456        -488.979          40.000  
> 2025 11 11 08 02 50.5200000  0 32                     
G28  24494969.341   128721930.971       -3371.252          37.000    24494975.778   100302830.283       -2626.216          38.000  
G26  21828463.841   114709351.754       -2533.766          44.000    21828465.205    89383915.199       -1974.546          43.000  
G27  20173623.491   106013106.634        1350.307          48.000    20173624.331    82607618.233        1052.232          46.000  
G31  21996395.585   115591839.106       -2676.916          46.000    21996395.278    90071561.910       -2085.918          44.000  
G04  20941437.079   110047994.401        -912.848          46.000    20941437.200    85751684.099        -711.432          46.000  
C37  22295840.491   116100291.047        -859.497          49.000                                                                  
C06  35874422.600   186807533.884          52.667          45.000    35874413.426   144451397.352          40.588          48.000  
C16  36316165.898   189107806.599          59.506          48.000    36316161.964   146230135.640          45.822          48.000  
C28  22659963.742   117996378.300         512.890          49.000                                                                  
C07  37197561.494   193697463.635         550.361          43.000    37197553.586   149779133.974         425.619          47.000  
C27  23528833.878   122520812.623        2512.890          45.000                                                                  
R10  22707603.065   121044303.599       -2618.229          40.000                                                                  
R22  23202204.085   123854945.018        3912.111          43.000    23202232.802    96331745.288        3042.893          42.000  
R12  21744300.955   116154152.196        1675.189          49.000    21744303.152    90342127.577        1303.048          49.000  
R11  20144095.872   107643941.538        -696.869          52.000    20144094.650    83723059.052        -542.029          51.000  
R20  22104842.806   118204528.339       -2051.356          46.000    22104841.601    91936847.543       -1595.423          46.000  
R01  21088715.493   112731269.145       -2928.413          47.000                                                                  
G08  21765533.440   114378649.522        2933.313          43.000    21765538.679    89126243.527        2285.713          43.000  
G09  22221945.199   116777110.003        1291.054          42.000    22221947.316    90995160.016        1006.006          41.000  
G16  20085783.355   105551503.136       -1098.745          46.000                                                                  
J02  38897129.813   204405797.401        -783.655          46.000    38897129.808   159277245.418        -610.767          47.000  
G18  24327552.935   127842158.048         -10.425          38.000    24327554.976    99617270.916          -7.784          39.000  
C20  24707118.299   128656448.435       -2751.526          42.000                                                                  
C09  36820795.999   191735547.313         293.992          45.000    36820788.816   148262058.727         227.299          48.000  
C23  25144242.788   130932673.008       -2419.868          42.000                                                                  
C19  24956641.851   129955783.466        -671.498          41.000                                                                  
C10  38447988.909   200208767.774         553.560          39.000    38447986.431   154814108.208         428.468          43.000  
R21  20843952.789   111540201.967        1507.458          51.000    20843952.934    86753490.745        1172.552          50.000  
R08  23533714.218   126021970.293       -4671.290          39.000    23533753.085    98017249.657       -3633.504          43.000  
J03  37737289.309   198310792.930           1.706          38.000    37737297.014   154527923.757           0.680          42.000  
J07  37119326.722   195063379.013        -335.096          39.000    37119327.112   151997438.540        -260.999          46.000  
J04                                                                  36993410.336   151481830.017        -489.048          40.000  
> 2025 11 11 08 02 50.5600000  0 32                     
G28  24494995.021   128722065.811       -3371.071          37.000    24495001.434   100302935.341       -2626.312          38.000  
G26  21828483.108   114709453.096       -2533.604          44.000    21828484.494    89383994.165       -1974.329          43.000  
G27  20173613.194   106013052.610        1350.470          48.000    20173614.038    82607576.134        1052.401          46.000  
G31  21996415.936   115591946.157       -2676.513          46.000    21996415.651    90071645.329       -2085.664          44.000  
G04  20941444.027   110048030.906        -912.732          46.000    20941444.116    85751712.547        -711.279          46.000  
C37  22295847.073   116100325.415        -859.304          49.000                                                                  
C06  35874422.195   186807531.767          52.856          45.000    35874413.048   144451395.713          40.869          48.000  
C16  36316165.463   189107804.201          59.833          48.000    36316161.514   146230133.793          46.024          48.000  
C28  22659959.811   117996357.768         513.152          49.000                                                                  
C07  37197557.271   193697441.604         550.624          43.000    37197549.347   149779116.939         425.772          47.000  
C27  23528814.572   122520712.109        2512.865          45.000                                                                  
R10  22707622.720   121044408.327       -2618.149          40.000                                                                  
R22  23202174.758   123854788.523        3912.268          43.000    23202203.472    96331623.564        3043.109          42.000  
R12  21744288.410   116154085.173        1675.427          49.000    21744290.596    90342075.445        1303.196          49.000  
R11  20144101.079   107643969.407        -696.764          52.000    20144099.855    83723080.729        -541.974          51.000  
R20  22104858.150   118204610.401       -2051.493          46.000    22104856.953    91936911.364       -1595.485          46.000  
R01  21088737.395   112731386.273       -2928.279          47.000                                                                  
G08  21765511.098   114378532.174        2933.589          43.000    21765516.352    89126152.099        2285.665          43.000  
G09  22221935.376   116777058.360        1291.012          42.000    22221937.487    90995119.780        1005.906          41.000  
G16  20085791.690   105551547.076       -1098.587          46.000                                                                  
J02  38897135.763   204405828.735        -783.405          46.000    38897135.768   159277269.837        -610.577          47.000  
G18  24327552.980   127842158.419          -9.757          37.000    24327555.040    99617271.220          -7.662          40.000  
C20  24707139.429   128656558.499       -2751.592          42.000                                                                  
C09  36820793.744   191735535.550         294.013          45.000    36820786.561   148262049.618         227.605          48.000  
C23  25144261.368   130932769.789       -2419.616          42.000                                                                  
C19  24956647.016   129955810.310        -671.318          41.000                                                                  
C10  38447984.653   200208745.603         554.018          39.000    38447982.203   154814091.061         428.658          43.000  
R21  20843941.537   111540141.659        1507.605          51.000    20843941.669    86753443.843        1172.546          50.000  
R08  23533749.107   126022157.156       -4671.480          39.000    23533787.979    98017394.979       -3633.196          43.000  
J03  37737289.306   198310792.886           1.443          38.000    37737297.015   154527923.710           0.886          42.000  
J07  37119329.278   195063392.403        -334.904          39.000    37119329.655   151997448.976        -260.916          46.000  
J04                                                                  36993415.118   151481849.564        -488.813          40.000  
> 2025 11 11 08 02 50.6000000  0 32                     
G28  24495020.687   128722200.664       -3371.239          37.000    24495027.093   100303040.416       -2626.702          38.000  
G26  21828502.405   114709554.435       -2533.484          44.000    21828503.774    89384073.123       -1974.063          43.000  
G27  20173602.899   106012998.579        1350.725          48.000    20173603.752    82607534.033        1052.524          46.000  
G31  21996436.303   115592053.212       -2676.379          46.000    21996436.022    90071728.750       -2085.538          44.000  
G04  20941450.957   110048067.414        -912.714          46.000    20941451.061    85751740.986        -711.060          46.000  
C37  22295853.697   116100359.775        -859.063          49.000                                                                  
C06  35874421.822   186807529.650          52.972          45.000    35874412.652   144451394.075          40.948          48.000  
C16  36316165.032   189107801.801          60.032          48.000    36316161.067   146230131.932          46.396          48.000  
C28  22659955.874   117996337.245         513.110          49.000                                                                  
C07  37197553.019   193697419.578         550.664          43.000    37197545.110   149779099.903         425.852          47.000  
C27  23528795.262   122520611.586        2513.020          45.000                                                                  
R10  22707642.361   121044513.059       -2618.223          40.000                                                                  
R22  23202145.424   123854632.011        3912.666          43.000    23202174.136    96331501.845        3043.031          42.000  
R12  21744275.848   116154018.140        1675.735          49.000    21744278.027    90342023.318        1303.180          49.000  
R11  20144106.317   107643997.268        -696.591          52.000    20144105.040    83723102.398        -541.788          51.000  
R20  22104873.505   118204692.443       -2051.219          46.000    22104872.301    91936975.181       -1595.488          46.000  
R01  21088759.299   112731503.398       -2928.165          47.000                                                                  
G08  21765488.764   114378414.828        2933.694          43.000    21765494.021    89126060.652        2286.000          43.000  
G09  22221925.566   116777006.710        1291.144          42.000    22221927.681    90995079.535        1006.029          42.000  
G16  20085800.067   105551591.015       -1098.502          46.000                                                                  
J02  38897141.708   204405860.075        -783.411          46.000    38897141.719   159277294.257        -610.492          47.000  
G18  24327553.074   127842158.808          -9.747          37.000    24327555.121    99617271.518          -7.487          40.000  
C20  24707160.592   128656668.548       -2751.351          42.000                                                                  
C09  36820791.491   191735523.773         294.287          45.000    36820784.300   148262040.511         227.688          48.000  
C23  25144279.976   130932866.576       -2419.631          42.000                                                                  
C19  24956652.149   129955837.141        -670.937          41.000                                                                  
C10  38447980.409   200208723.422         554.473          39.000    38447977.942   154814073.914         428.712          43.000  
R21  20843930.262   111540081.354        1507.617          51.000    20843930.406    86753396.938        1172.601          50.000  
R08  23533784.012   126022343.992       -4671.073          39.000    23533822.895    98017540.291       -3632.889          43.000  
J03  37737289.277   198310792.802           1.916          38.000    37737296.974   154527923.658           1.147          42.000  
J07  37119331.833   195063405.800        -334.967          39.000    37119332.210   151997459.410        -260.826          46.000  
J04                                                                  36993419.890   151481869.112        -488.726          40.000  
> 2025 11 11 08 02 50.6400000  0 32                     
G28  24495046.349   128722335.488       -3370.958          37.000    24495052.758   100303145.505       -2627.225          38.000  
G26  21828521.665   114709655.772       -2533.413          44.000    21828523.053    89384152.102       -1974.319          43.000  
G27  20173592.653   106012944.558        1350.629          48.000    20173593.460    82607491.936        1052.485          46.000  
G31  21996456.693   115592160.267       -2676.340          46.000    21996456.394    90071812.179       -2085.632          44.000  
G04  20941457.903   110048103.920        -912.671          46.000    20941458.022    85751769.428        -711.035          46.000  
C37  22295860.303   116100394.144        -859.134          49.000                                                                  
C06  35874421.399   186807527.543          52.753          45.000    35874412.227   144451392.433          41.058          48.000  
C16  36316164.577   189107799.416          59.828          48.000    36316160.615   146230130.082          46.370          48.000  
C28  22659951.933   117996316.713         513.235          49.000                                                                  
C07  37197548.812   193697397.552         550.640          43.000    37197540.884   149779082.871         425.817          47.000  
C27  23528775.950   122520511.063        2513.056          45.000                                                                  
R10  22707661.994   121044617.775       -2618.004          40.000                                                                  
R22  23202116.095   123854475.513        3912.619          43.000    23202144.829    96331380.136        3042.800          42.000  
R12  21744263.297   116153951.111        1675.776          49.000    21744265.480    90341971.195        1303.106          49.000  
R11  20144111.525   107644025.136        -696.636          52.000    20144110.245    83723124.072        -541.808          51.000  
R20  22104888.860   118204774.492       -2051.191          46.000    22104887.630    91937038.996       -1595.416          46.000  
R01  21088781.237   112731620.525       -2928.143          47.000                                                                  
G08  21765466.427   114378297.476        2933.830          43.000    21765471.702    89125969.213        2286.060          43.000  
G09  22221915.749   116776955.042        1291.579          42.000    22221917.850    90995039.270        1006.438          41.000  
G16  20085808.414   105551634.956       -1098.485          46.000                                                                  
J02  38897147.682   204405891.415        -783.459          46.000    38897147.684   159277318.673        -610.400          47.000  
G18  24327553.149   127842159.187          -9.572          37.000    24327555.203    99617271.813          -7.406          40.000  
C20  24707181.700   128656778.598       -2751.288          42.000                                                                  
C09  36820789.222   191735511.996         294.431          45.000    36820782.027   148262031.403         227.745          48.000  
C23  25144298.538   130932963.372       -2419.807          42.000                                                                  
C19  24956657.296   129955863.980        -670.954          41.000                                                                  
C10  38447976.156   200208701.237         554.674          39.000    38447973.683   154814056.770         428.656          43.000  
R21  20843918.987   111540021.046        1507.678          51.000    20843919.116    86753350.036        1172.558          50.000  
R08  23533818.884   126022530.840       -4671.105          39.000    23533857.799    98017685.615       -3632.964          43.000  
J03  37737289.276   198310792.746           1.576          38.000    37737296.937   154527923.607           1.237          42.000  
J07  37119334.371   195063419.182        -334.667          39.000    37119334.741   151997469.844        -260.825          46.000  
J04                                                                  36993424.669   151481888.651        -488.551          40.000  
> 2025 11 11 08 02 50.6800000  0 32                     
G28  24495072.016   128722470.326       -3370.941          37.000    24495078.431   100303250.585       -2627.279          38.000  
G26  21828540.963   114709757.127       -2533.732          44.000    21828542.340    89384231.066       -1974.191          43.000  
G27  20173582.383   106012890.543        1350.436          48.000    20173583.173    82607449.851        1052.235          46.000  
G31  21996477.058   115592267.336       -2676.577          46.000    21996476.744    90071895.600       -2085.577          44.000  
G04  20941464.859   110048140.430        -912.726          46.000    20941464.964    85751797.877        -711.176          46.000  
C37  22295866.848   116100428.514        -859.200          49.000                                                                  
C06  35874420.975   186807525.433          52.740          45.000    35874411.861   144451390.801          40.875          48.000  
C16  36316164.116   189107797.045          59.438          48.000    36316160.185   146230128.239          46.191          48.000  
C28  22659947.997   117996296.196         513.005          49.000                                                                  
C07  37197544.615   193697375.525         550.645          43.000    37197536.688   149779065.844         425.708          47.000  
C27  23528756.654   122520410.547        2512.907          45.000                                                                  
R10  22707681.632   121044722.502       -2618.123          40.000                                                                  
R22  23202086.792   123854319.021        3912.406          43.000    23202115.513    96331258.424        3042.745          42.000  
R12  21744250.741   116153884.095        1675.514          49.000    21744252.941    90341919.063        1303.211          49.000  
R11  20144116.758   107644053.013        -696.855          52.000    20144115.461    83723145.752        -541.933          51.000  
R20  22104904.213   118204856.549       -2051.337          46.000    22104902.996    91937102.819       -1595.541          46.000  
R01  21088803.150   112731737.661       -2928.314          47.000                                                                  
G08  21765444.117   114378180.143        2933.473          43.000    21765449.383    89125877.789        2285.746          43.000  
G09  22221905.914   116776903.403        1291.230          42.000    22221908.024    90994999.025        1006.289          41.000  
G16  20085816.772   105551678.896       -1098.473          46.000                                                                  
J02  38897153.648   204405922.765        -783.698          46.000    38897153.660   159277343.099        -610.577          47.000  
G18  24327553.204   127842159.592          -9.890          37.000    24327555.265    99617272.124          -7.677          40.000  
C20  24707202.827   128656888.656       -2751.355          42.000                                                                  
C09  36820786.970   191735500.236         294.155          45.000    36820779.789   148262022.308         227.498          48.000  
C23  25144317.119   130933060.164       -2419.860          42.000                                                                  
C19  24956662.448   129955890.825        -671.075          41.000                                                                  
C10  38447971.899   200208679.063         554.499          39.000    38447969.429   154814039.643         428.286          43.000  
R21  20843907.743   111539960.746        1507.544          51.000    20843907.838    86753303.133        1172.577          50.000  
R08  23533853.772   126022717.700       -4671.383          39.000    23533892.689    98017830.937       -3632.978          43.000  
J03  37737289.288   198310792.688           1.430          38.000    37737296.937   154527923.558           1.220          42.000  
J07  37119336.904   195063432.575        -334.731          39.000    37119337.288   151997480.280        -260.873          46.000  
J04                                                                  36993429.457   151481908.226        -489.051          40.000  
> 2025 11 11 08 02 50.7200000  0 32                     
G28  24495097.703   128722605.175       -3371.102          37.000    24495104.098   100303355.648       -2626.948          38.000  
G26  21828560.233   114709858.476       -2533.772          44.000    21828561.613    89384310.034       -1974.173          43.000  
G27  20173572.125   106012836.523        1350.456          48.000    20173572.880    82607407.759        1052.205          46.000  
G31  21996497.441   115592374.414       -2676.871          46.000    21996497.101    90071979.027       -2085.663          44.000  
G04  20941471.811   110048176.947        -912.903          46.000    20941471.921    85751826.336        -711.438          46.000  
C37  22295873.439   116100462.891        -859.359          49.000                                                                  
C06  35874420.586   186807523.320          52.759          45.000    35874411.457   144451389.178          40.619          48.000  
C16  36316163.669   189107794.665          59.388          48.000    36316159.780   146230126.402          45.974          48.000  
C28  22659944.088   117996275.677         512.938          49.000                                                                  
C07  37197540.395   193697353.505         550.503          43.000    37197532.460   149779048.817         425.657          47.000  
C27  23528737.348   122520310.034        2512.784          45.000                                                                  
R10  22707701.255   121044827.236       -2618.287          40.000                                                                  
R22  23202057.459   123854162.519        3912.506          43.000    23202086.204    96331136.722        3042.509          42.000  
R12  21744238.200   116153817.078        1675.405          49.000    21744240.399    90341866.934        1303.223          49.000  
R11  20144121.958   107644080.887        -696.904          52.000    20144120.685    83723167.435        -542.076          51.000  
R20  22104919.579   118204938.613       -2051.528          46.000    22104918.343    91937166.645       -1595.675          46.000  
R01  21088825.054   112731854.799       -2928.451          47.000                                                                  
G08  21765421.789   114378062.812        2933.255          43.000    21765427.077    89125786.360        2285.658          43.000  
G09  22221896.090   116776851.768        1290.931          42.000    22221898.207    90994958.787        1006.042          42.000  
G16  20085825.141   105551722.848       -1098.713          46.000                                                                  
J02  38897159.606   204405954.110        -783.691          46.000    38897159.625   159277367.520        -610.565          47.000  
G18  24327553.267   127842159.998         -10.101          37.000    24327555.343    99617272.433          -7.770          40.000  
C20  24707223.960   128656998.722       -2751.566          42.000                                                                  
C09  36820784.711   191735488.474         294.062          45.000    36820777.522   148262013.214         227.350          48.000  
C23  25144335.732   130933156.972       -2420.195          42.000                                                                  
C19  24956667.603   129955917.690        -671.480          41.000                                                                  
C10  38447967.652   200208656.911         553.962          39.000    38447965.140   154814022.500         428.379          43.000  
R21  20843896.482   111539900.445        1507.507          51.000    20843896.591    86753256.233        1172.491          50.000  
R08  23533888.673   126022904.553       -4671.370          39.000    23533927.578    98017976.272       -3633.261          43.000  
J03  37737289.295   198310792.634           1.346          38.000    37737296.929   154527923.506           1.231          42.000  
J07  37119339.463   195063445.975        -334.861          39.000    37119339.842   151997490.720        -260.990          46.000  
J04                                                                  36993434.228   151481927.783        -489.052          40.000  
> 2025 11 11 08 02 50.7600000  0 32                     
G28  24495123.359   128722740.001       -3370.775          37.000    24495129.758   100303460.726       -2626.959          38.000  
G26  21828579.514   114709959.829       -2533.888          44.000    21828580.903    89384389.017       -1974.422          43.000  
G27  20173561.838   106012782.511        1350.307          48.000    20173562.599    82607365.668        1052.207          46.000  
G31  21996517.799   115592481.483       -2676.857          46.000    21996517.468    90072062.458       -2085.792          44.000  
G04  20941478.745   110048213.463        -912.952          46.000    20941478.865    85751854.795        -711.572          46.000  
C37  22295880.019   116100497.272        -859.523          49.000                                                                  
C06  35874420.178   186807521.207          52.765          45.000    35874411.077   144451387.541          40.784          48.000  
C16  36316163.235   189107792.279          59.487          48.000    36316159.338   146230124.562          45.922          48.000  
C28  22659940.155   117996255.159         512.870          49.000                                                                  
C07  37197536.177   193697331.484         550.461          43.000    37197528.224   149779031.794         425.543          47.000  
C27  23528718.028   122520209.521        2512.773          45.000                                                                  
R10  22707720.890   121044931.966       -2618.317          40.000                                                                  
R22  23202028.140   123854006.014        3912.567          43.000    23202056.887    96331015.005        3042.742          42.000  
R12  21744225.666   116153750.066        1675.272          49.000    21744227.863    90341814.815        1303.024          49.000  
R11  20144127.164   107644108.758        -696.852          52.000    20144125.890    83723189.115        -542.081          51.000  
R20  22104934.897   118205020.675       -2051.608          46.000    22104933.688    91937230.474       -1595.760          46.000  
R01  21088846.972   112731971.940       -2928.594          47.000                                                                  
G08  21765399.459   114377945.473        2933.316          43.000    21765404.747    89125694.920        2285.824          43.000  
G09  22221886.265   116776800.128        1290.898          42.000    22221888.386    90994918.547        1005.957          42.000  
G16  20085833.525   105551766.797       -1098.805          46.000                                                                  
J02  38897165.555   204405985.453        -783.649          46.000    38897165.591   159277391.942        -610.584          47.000  
G18  24327553.336   127842160.379          -9.678          37.000    24327555.423    99617272.746          -7.885          40.000  
C20  24707245.103   128657108.781       -2751.575          42.000                                                                  
C09  36820782.442   191735476.703         294.218          45.000    36820775.282   148262004.129         227.100          48.000  
C23  25144354.310   130933253.760       -2419.987          42.000                                                                  
C19  24956672.754   129955944.529        -671.260          42.000                                                                  
C10  38447963.395   200208634.766         553.582          39.000    38447960.887   154814005.353         428.552          43.000  
R21  20843885.223   111539840.145        1507.458          51.000    20843885.323    86753209.333        1172.473          50.000  
R08  23533923.564   126023091.397       -4671.259          39.000    23533962.455    98018121.604       -3633.334          43.000  
J03  37737289.294   198310792.595           0.987          38.000    37737296.916   154527923.459           1.187          42.000  
J07  37119342.019   195063459.366        -334.808          39.000    37119342.397   151997501.163        -261.085          46.000  
J04                                                                  36993438.991   151481947.336        -488.944          40.000  
> 2025 11 11 08 02 50.8000000  0 32                     
G28  24495149.030   128722874.864       -3371.356          37.000    24495155.415   100303565.792       -2626.775          38.000  
G26  21828598.787   114710061.168       -2533.673          44.000    21828600.201    89384467.989       -1974.378          43.000  
G27  20173551.538   106012728.493        1350.364          48.000    20173552.319    82607323.579        1052.157          46.000  
G31  21996538.155   115592588.549       -2676.777          46.000    21996537.850    90072145.893       -2085.938          44.000  
G04  20941485.697   110048249.983        -913.074          46.000    20941485.818    85751883.249        -711.481          46.000  
C37  22295886.628   116100531.642        -859.410          49.000                                                                  
C06  35874419.763   186807519.099          52.692          45.000    35874410.689   144451385.906          40.839          48.000  
C16  36316162.782   189107789.897          59.496          48.000    36316158.856   146230122.720          45.955          48.000  
C28  22659936.199   117996234.639         512.897          49.000                                                                  
C07  37197531.945   193697309.457         550.586          43.000    37197524.005   149779014.760         425.694          47.000  
C27  23528698.712   122520108.999        2512.940          45.000                                                                  
R10  22707740.556   121045036.690       -2618.208          40.000                                                                  
R22  23201998.819   123853849.525        3912.305          43.000    23202027.568    96330893.285        3042.891          42.000  
R12  21744213.113   116153683.048        1675.325          49.000    21744215.328    90341762.694        1302.957          49.000  
R11  20144132.357   107644136.626        -696.753          52.000    20144131.100    83723210.791        -541.980          51.000  
R20  22104950.216   118205102.730       -2051.507          46.000    22104949.042    91937294.295       -1595.680          46.000  
R01  21088868.863   112732089.072       -2928.472          47.000                                                                  
G08  21765377.130   114377828.138        2933.300          43.000    21765382.404    89125603.482        2285.916          43.000  
G09  22221876.444   116776748.475        1291.132          42.000    22221878.557    90994878.311        1005.846          42.000  
G16  20085841.869   105551810.738       -1098.652          46.000                                                                  
J02  38897171.503   204406016.792        -783.527          46.000    38897171.547   159277416.368        -610.663          47.000  
G18  24327553.394   127842160.763          -9.590          37.000    24327555.496    99617273.061          -7.964          39.000  
C20  24707266.244   128657218.830       -2751.411          42.000                                                                  
C09  36820780.180   191735464.940         294.108          45.000    36820773.016   148261995.024         227.365          48.000  
C23  25144372.924   130933350.541       -2419.687          42.000                                                                  
C19  24956677.906   129955971.369        -671.124          42.000                                                                  
C10  38447959.162   200208612.614         553.590          39.000    38447956.623   154813988.208         428.595          43.000  
R21  20843873.965   111539779.845        1507.452          51.000    20843874.069    86753162.436        1172.394          50.000  
R08  23533958.463   126023278.250       -4671.352          39.000    23533997.358    98018266.923       -3633.143          43.000  
J03  37737289.281   198310792.527           1.341          38.000    37737296.912   154527923.417           1.066          42.000  
J07  37119344.576   195063472.759        -334.814          39.000    37119344.952   151997511.594        -260.933          46.000  
J04                                                                  36993443.761   151481966.887        -488.876          40.000  
> 2025 11 11 08 02 50.8400000  0 32                     
G28  24495174.700   128723009.703       -3371.140          37.000    24495181.069   100303670.857       -2626.683          38.000  
G26  21828618.064   114710162.517       -2533.708          44.000    21828619.481    89384546.955       -1974.269          43.000  
G27  20173541.274   106012674.483        1350.227          48.000    20173542.034    82607281.491        1052.126          46.000  
G31  21996558.525   115592695.616       -2676.757          46.000    21996558.189    90072229.320       -2085.823          44.000  
G04  20941492.655   110048286.507        -913.202          46.000    20941492.792    85751911.705        -711.487          46.000  
C37  22295893.255   116100566.012        -859.321          49.000                                                                  
C06  35874419.353   186807516.984          52.783          45.000    35874410.282   144451384.277          40.753          48.000  
C16  36316162.333   189107787.511          59.568          48.000    36316158.405   146230120.875          46.036          48.000  
C28  22659932.269   117996214.120         512.910          49.000                                                                  
C07  37197527.703   193697287.437         550.554          43.000    37197519.777   149778997.737         425.604          47.000  
C27  23528679.407   122520008.486        2512.872          45.000                                                                  
R10  22707760.204   121045141.432       -2618.496          40.000                                                                  
R22  23201969.501   123853693.039        3912.120          43.000    23201998.264    96330771.577        3042.727          42.000  
R12  21744200.555   116153616.032        1675.328          49.000    21744202.790    90341710.568        1303.047          49.000  
R11  20144137.558   107644164.502        -696.884          52.000    20144136.319    83723232.470        -542.006          51.000  
R20  22104965.565   118205184.793       -2051.598          46.000    22104964.391    91937358.122       -1595.718          46.000  
R01  21088890.785   112732206.211       -2928.516          47.000                                                                  
G08  21765354.765   114377710.789        2933.572          43.000    21765360.050    89125512.057        2285.731          43.000  
G09  22221866.608   116776696.849        1290.786          42.000    22221868.727    90994838.076        1005.759          41.000  
G16  20085850.232   105551854.693       -1098.842          46.000                                                                  
J02  38897177.453   204406048.128        -783.472          46.000    38897177.510   159277440.793        -610.663          47.000  
G18  24327553.457   127842161.177         -10.128          37.000    24327555.570    99617273.379          -8.108          39.000  
C20  24707287.369   128657328.897       -2751.642          42.000                                                                  
C09  36820777.918   191735453.183         293.934          45.000    36820770.743   148261985.919         227.548          48.000  
C23  25144391.511   130933447.335       -2419.797          42.000                                                                  
C19  24956683.041   129955998.233        -671.494          41.000                                                                  
C10  38447954.884   200208590.424         554.350          39.000    38447952.386   154813971.080         428.305          43.000  
R21  20843862.694   111539719.559        1507.166          51.000    20843862.813    86753115.544        1172.278          50.000  
R08  23533993.363   126023465.102       -4671.346          39.000    23534032.254    98018412.263       -3633.420          43.000  
J03  37737289.261   198310792.463           1.510          38.000    37737296.908   154527923.378           0.955          42.000  
J07  37119347.118   195063486.166        -335.107          39.000    37119347.495   151997522.039        -261.069          46.000  
J04                                                                  36993448.545   151481986.437        -488.805          40.000  
> 2025 11 11 08 02 50.8800000  0 32                     
G28  24495200.357   128723144.546       -3371.172          37.000    24495206.726   100303775.944       -2626.952          38.000  
G26  21828637.387   114710263.881       -2534.008          44.000    21828638.750    89384625.939       -1974.505          43.000  
G27  20173531.006   106012620.490        1349.868          48.000    20173531.776    82607239.416        1051.897          46.000  
G31  21996578.892   115592802.700       -2677.076          46.000    21996578.571    90072312.764       -2086.047          44.000  
G04  20941499.623   110048323.038        -913.342          46.000    20941499.742    85751940.165        -711.578          46.000  
C37  22295899.816   116100600.404        -859.699          49.000                                                                  
C06  35874418.952   186807514.890          52.441          45.000    35874409.904   144451382.655          40.546          48.000  
C16  36316161.832   189107785.138          59.384          48.000    36316157.962   146230119.035          45.975          48.000  
C28  22659928.335   117996193.624         512.506          49.000                                                                  
C07  37197523.464   193697265.427         550.303          43.000    37197515.541   149778980.724         425.335          47.000  
C27  23528660.091   122519907.985        2512.570          45.000                                                                  
R10  22707779.856   121045246.180       -2618.777          40.000                                                                  
R22  23201940.157   123853536.553        3912.029          43.000    23201968.961    96330649.879        3042.435          42.000  
R12  21744188.004   116153549.035        1675.003          49.000    21744190.264    90341658.456        1302.818          49.000  
R11  20144142.791   107644192.393        -697.225          52.000    20144141.533    83723254.157        -542.155          51.000  
R20  22104980.927   118205266.865       -2051.809          46.000    22104979.767    91937421.967       -1596.031          46.000  
R01  21088912.689   112732323.366       -2928.820          47.000                                                                  
G08  21765332.462   114377593.483        2932.927          43.000    21765337.737    89125420.643        2285.395          43.000  
G09  22221856.805   116776645.219        1290.676          42.000    22221858.907    90994797.855        1005.533          41.000  
G16  20085858.587   105551898.653       -1099.041          46.000                                                                  
J02  38897183.414   204406079.490        -783.905          46.000    38897183.478   159277465.229        -610.870          47.000  
G18  24327553.537   127842161.584         -10.254          37.000    24327555.652    99617273.722          -8.594          39.000  
C20  24707308.502   128657438.980       -2752.014          42.000                                                                  
C09  36820775.648   191735441.426         293.860          45.000    36820768.502   148261976.828         227.373          48.000  
C23  25144410.093   130933544.147       -2420.219          42.000                                                                  
C19  24956688.178   129956025.104        -671.756          42.000                                                                  
C10  38447950.640   200208568.270         554.033          39.000    38447948.130   154813953.958         428.053          43.000  
R21  20843851.427   111539659.282        1506.873          51.000    20843851.553    86753068.663        1172.021          50.000  
R08  23534028.257   126023651.962       -4671.537          39.000    23534067.141    98018557.606       -3633.617          43.000  
J03  37737289.275   198310792.409           1.407          38.000    37737296.877   154527923.343           0.824          42.000  
J07  37119349.672   195063499.567        -335.141          39.000    37119350.050   151997532.485        -261.190          46.000  
J04                                                                  36993453.328   151482006.001        -488.978          40.000  
> 2025 11 11 08 02 50.9200000  0 32                     
G28  24495226.027   128723279.394       -3371.259          37.000    24495232.393   100303881.018       -2626.895          38.000  
G26  21828656.665   114710365.242       -2534.124          44.000    21828658.032    89384704.926       -1974.707          43.000  
G27  20173520.711   106012566.494        1349.766          48.000    20173521.509    82607197.347        1051.676          46.000  
G31  21996599.269   115592909.783       -2677.156          46.000    21996598.961    90072396.207       -2086.117          44.000  
G04  20941506.533   110048359.566        -913.293          46.000    20941506.677    85751968.633        -711.737          46.000  
C37  22295906.404   116100634.797        -859.886          49.000                                                                  
C06  35874418.545   186807512.795          52.319          45.000    35874409.499   144451381.034          40.466          48.000  
C16  36316161.370   189107782.760          59.362          48.000    36316157.509   146230117.205          45.814          48.000  
C28  22659924.422   117996173.122         512.443          49.000                                                                  
C07  37197519.259   193697243.426         550.033          43.000    37197511.314   149778963.709         425.271          47.000  
C27  23528640.793   122519807.486        2512.423          45.000                                                                  
R10  22707799.494   121045350.922       -2618.704          40.000                                                                  
R22  23201910.827   123853380.074        3911.920          43.000    23201939.658    96330528.178        3042.471          42.000  
R12  21744175.452   116153482.030        1674.987          49.000    21744177.730    90341606.336        1302.891          49.000  
R11  20144148.025   107644220.285        -697.371          52.000    20144146.736    83723275.850        -542.341          51.000  
R20  22104996.268   118205348.953       -2052.156          46.000    22104995.112    91937485.818       -1596.301          46.000  
R01  21088934.613   112732440.530       -2929.098          47.000                                                                  
G08  21765310.159   114377476.169        2932.752          43.000    21765315.417    89125329.228        2285.247          43.000  
G09  22221846.982   116776593.590        1290.651          42.000    22221849.086    90994757.624        1005.578          41.000  
G16  20085866.949   105551942.620       -1099.212          46.000                                                                  
J02  38897189.386   204406110.851        -784.082          46.000    38897189.445   159277489.659        -610.840          47.000  
G18  24327553.607   127842162.018         -10.696          37.000    24327555.736    99617274.050          -8.563          39.000  
C20  24707329.615   128657549.057       -2752.079          43.000                                                                  
C09  36820773.378   191735429.678         293.698          45.000    36820766.281   148261967.741         227.191          48.000  
C23  25144428.684   130933640.968       -2420.558          42.000                                                                  
C19  24956693.342   129956051.970        -671.777          42.000                                                                  
C10  38447946.395   200208546.126         553.645          39.000    38447943.860   154813936.826         428.098          43.000  
R21  20843840.165   111539599.002        1506.842          51.000    20843840.291    86753021.782        1171.936          50.000  
R08  23534063.131   126023838.827       -4671.634          39.000    23534102.031    98018702.940       -3633.523          43.000  
J03  37737289.273   198310792.368           1.037          38.000    37737296.856   154527923.303           0.898          42.000  
J07  37119352.234   195063512.977        -335.292          39.000    37119352.602   151997542.940        -261.399          46.000  
J04                                                                  36993458.102   151482025.572        -489.229          40.000  
> 2025 11 11 08 02 50.9600000  0 32                     
G28  24495251.695   128723414.275       -3371.834          37.000    24495258.055   100303986.088       -2626.759          38.000  
G26  21828675.969   114710466.595       -2533.973          44.000    21828677.327    89384783.900       -1974.495          43.000  
G27  20173510.433   106012512.485        1350.018          48.000    20173511.236    82607155.263        1051.909          46.000  
G31  21996619.634   115593016.852       -2676.931          46.000    21996619.324    90072479.645       -2086.034          44.000  
G04  20941513.488   110048396.092        -913.220          46.000    20941513.634    85751997.090        -711.572          46.000  
C37  22295913.033   116100669.175        -859.659          49.000                                                                  
C06  35874418.163   186807510.680          52.661          45.000    35874409.127   144451379.405          40.619          48.000  
C16  36316160.898   189107780.395          59.169          48.000    36316157.038   146230115.358          46.027          48.000  
C28  22659920.487   117996152.621         512.436          49.000                                                                  
C07  37197515.029   193697221.406         550.284          43.000    37197507.102   149778946.683         425.475          47.000  
C27  23528621.509   122519706.979        2512.542          45.000                                                                  
R10  22707819.129   121045455.645       -2618.276          40.000                                                                  
R22  23201881.495   123853223.571        3912.383          43.000    23201910.346    96330406.477        3042.434          42.000  
R12  21744162.912   116153415.011        1675.287          49.000    21744165.169    90341554.218        1302.899          49.000  
R11  20144153.240   107644248.157        -697.039          52.000    20144151.941    83723297.534        -542.251          51.000  
R20  22105011.609   118205431.020       -2051.923          46.000    22105010.436    91937549.652       -1596.117          46.000  
R01  21088956.524   112732557.675       -2928.867          47.000                                                                  
G08  21765287.832   114377358.834        2933.029          43.000    21765293.086    89125237.802        2285.413          43.000  
G09  22221837.145   116776541.955        1290.810          42.000    22221839.263    90994717.393        1005.638          41.000  
G16  20085875.287   105551986.574       -1099.020          46.000                                                                  
J02  38897195.348   204406142.200        -783.887          46.000    38897195.388   159277514.083        -610.693          47.000  
G18  24327553.686   127842162.443         -10.800          37.000    24327555.815    99617274.347          -7.876          39.000  
C20  24707350.773   128657659.122       -2751.826          43.000                                                                  
C09  36820771.147   191735417.910         293.998          45.000    36820764.010   148261958.652         227.179          48.000  
C23  25144447.275   130933737.766       -2420.251          42.000                                                                  
C19  24956698.485   129956078.824        -671.531          42.000                                                                  
C10  38447942.136   200208523.961         553.937          39.000    38447939.624   154813919.689         428.277          43.000  
R21  20843828.909   111539538.711        1507.117          51.000    20843829.021    86752974.895        1172.052          50.000  
R08  23534098.046   126024025.681       -4671.479          39.000    23534136.915    98018848.276       -3633.454          43.000  
J03  37737289.255   198310792.322           0.999          38.000    37737296.854   154527923.262           0.970          42.000  
J07  37119354.775   195063526.364        -334.903          39.000    37119355.142   151997553.380        -261.198          46.000  
J04                                                                  36993462.885   151482045.118        -488.934          40.000  
> 2025 11 11 08 02 51.0000000  0 32                     
G28  24495277.355   128723549.130       -3371.738          37.000    24495283.710   100304091.163       -2626.840          38.000  
G26  21828695.247   114710567.931       -2533.594          44.000    21828696.608    89384862.866       -1974.219          43.000  
G27  20173500.136   106012458.463        1350.428          48.000    20173500.937    82607113.170        1052.189          46.000  
G31  21996640.008   115593123.914       -2676.667          46.000    21996639.704    90072563.074       -2085.812          44.000  
G04  20941520.442   110048432.604        -912.921          46.000    20941520.583    85752025.546        -711.469          46.000  
C37  22295919.643   116100703.539        -859.249          49.000                                                                  
C06  35874417.779   186807508.556          53.015          45.000    35874408.747   144451377.764          40.930          48.000  
C16  36316160.443   189107778.000          59.604          48.000    36316156.570   146230113.515          46.110          48.000  
C28  22659916.530   117996132.098         512.844          49.000                                                                  
C07  37197510.809   193697199.376         550.597          43.000    37197502.869   149778929.643         425.859          47.000  
C27  23528602.197   122519606.456        2512.917          45.000                                                                  
R10  22707838.767   121045560.364       -2617.969          40.000                                                                  
R22  23201852.160   123853067.070        3912.529          43.000    23201881.020    96330284.754        3042.845          42.000  
R12  21744150.374   116153347.978        1675.701          49.000    21744152.623    90341502.093        1303.064          49.000  
R11  20144158.464   107644276.017        -696.610          52.000    20144157.158    83723319.207        -541.958          51.000  
R20  22105026.949   118205513.078       -2051.606          46.000    22105025.779    91937613.467       -1595.603          46.000  
R01  21088978.452   112732674.796       -2928.315          47.000                                                                  
G08  21765265.497   114377241.482        2933.551          43.000    21765270.756    89125146.350        2285.996          43.000  
G09  22221827.324   116776490.309        1291.030          42.000    22221829.431    90994677.139        1006.133          41.000  
G16  20085883.652   105552030.517       -1098.731          46.000                                                                  
J02  38897201.306   204406173.529        -783.398          46.000    38897201.364   159277538.497        -610.425          47.000  
G18  24327553.767   127842162.824         -10.054          37.000    24327555.896    99617274.649          -7.521          39.000  
C20  24707371.885   128657769.171       -2751.375          43.000                                                                  
C09  36820768.887   191735406.128         294.406          45.000    36820761.739   148261949.550         227.432          48.000  
C23  25144465.882   130933834.546       -2419.733          42.000                                                                  
C19  24956703.663   129956105.670        -671.257          42.000                                                                  
C10  38447937.883   200208501.807         553.819          39.000    38447935.355   154813902.540         428.616          43.000  
R21  20843817.640   111539478.405        1507.532          51.000    20843817.730    86752927.991        1172.449          50.000  
R08  23534132.938   126024212.517       -4671.041          39.000    23534171.789    98018993.594       -3633.091          43.000  
J03  37737289.229   198310792.250           1.538          38.000    37737296.825   154527923.215           1.095          42.000  
J07  37119357.318   195063539.769        -334.996          39.000    37119357.697   151997563.806        -260.809          46.000  
J04                                                                  36993467.650   151482064.665        -488.796          40.000  
> 2025 11 11 08 02 51.0400000  0 32                     
G28  24495303.018   128723683.961       -3371.188          37.000    24495309.366   100304196.223       -2626.611          38.000  
G26  21828714.534   114710669.266       -2533.410          44.000    21828715.892    89384941.831       -1974.111          43.000  
G27  20173489.840   106012404.442        1350.574          48.000    20173490.668    82607071.072        1052.455          46.000  
G31  21996660.375   115593230.968       -2676.443          46.000    21996660.067    90072646.483       -2085.367          44.000  
G04  20941527.385   110048469.125        -912.958          46.000    20941527.542    85752054.000        -711.340          46.000  
C37  22295926.227   116100737.898        -858.988          49.000                                                                  
C06  35874417.405   186807506.432          53.198          45.000    35874408.351   144451376.120          41.125          48.000  
C16  36316159.986   189107775.598          59.944          48.000    36316156.085   146230111.667          46.202          48.000  
C28  22659912.609   117996111.571         513.132          49.000                                                                  
C07  37197506.600   193697177.338         550.897          43.000    37197498.632   149778912.601         426.075          47.000  
C27  23528582.895   122519505.935        2513.046          45.000                                                                  
R10  22707858.410   121045665.112       -2618.402          40.000                                                                  
R22  23201822.834   123852910.559        3912.757          43.000    23201851.682    96330163.028        3043.117          42.000  
R12  21744137.826   116153280.948        1675.839          49.000    21744140.065    90341449.955        1303.360          49.000  
R11  20144163.692   107644303.873        -696.365          52.000    20144162.378    83723340.880        -541.811          51.000  
R20  22105042.290   118205595.133       -2051.379          46.000    22105041.101    91937677.280       -1595.316          46.000  
R01  21089000.366   112732791.928       -2928.229          47.000                                                                  
G08  21765243.168   114377124.141        2933.576          43.000    21765248.449    89125054.916        2286.011          43.000  
G09  22221817.490   116776438.667        1291.090          42.000    22221819.598    90994636.888        1006.283          41.000  
G16  20085892.007   105552074.455       -1098.509          46.000                                                                  
J02  38897207.271   204406204.855        -783.154          46.000    38897207.316   159277562.918        -610.461          47.000  
G18  24327553.834   127842163.205          -9.662          37.000    24327555.975    99617274.945          -7.308          39.000  
C20  24707393.047   128657879.215       -2751.089          43.000                                                                  
C09  36820766.613   191735394.348         294.528          45.000    36820759.472   148261940.437         227.725          48.000  
C23  25144484.462   130933931.330       -2419.538          42.000                                                                  
C19  24956708.829   129956132.512        -671.056          42.000                                                                  
C10  38447933.636   200208479.639         554.085          39.000    38447931.059   154813885.391         428.750          43.000  
R21  20843806.378   111539418.105        1507.581          51.000    20843806.459    86752881.087        1172.650          50.000  
R08  23534167.826   126024399.347       -4670.778          39.000    23534206.682    98019138.910       -3632.902          43.000  
J03  37737289.187   198310792.167           2.021          38.000    37737296.817   154527923.166           1.176          42.000  
J07  37119359.848   195063553.142        -334.522          39.000    37119360.226   151997574.235        -260.695          46.000  
J04                                                                  36993472.427   151482084.213        -488.668          40.000  
> 2025 11 11 08 02 51.0800000  0 32                     
G28  24495328.661   128723818.752       -3370.151          37.000    24495335.026   100304301.294       -2626.712          38.000  
G26  21828733.825   114710770.612       -2533.504          44.000    21828735.168    89385020.799       -1974.145          43.000  
G27  20173479.577   106012350.438        1350.272          48.000    20173480.392    82607028.985        1052.339          46.000  
G31  21996680.752   115593338.042       -2676.711          46.000    21996680.431    90072729.913       -2085.602          44.000  
G04  20941534.351   110048505.641        -912.897          46.000    20941534.480    85752082.449        -711.200          46.000  
C37  22295932.839   116100772.268        -859.081          49.000                                                                  
C06  35874417.022   186807504.326          52.856          45.000    35874407.940   144451374.487          40.961          48.000  
C16  36316159.506   189107773.208          59.867          48.000    36316155.603   146230109.816          46.289          48.000  
C28  22659908.656   117996091.048         513.176          49.000                                                                  
C07  37197502.339   193697155.322         550.587          43.000    37197494.384   149778895.570         425.931          47.000  
C27  23528563.604   122519405.411        2513.168          45.000                                                                  
R10  22707878.054   121045769.839       -2618.313          40.000                                                                  
R22  23201793.519   123852754.067        3912.441          43.000    23201822.358    96330041.312        3043.070          41.000  
R12  21744125.266   116153213.926        1675.714          49.000    21744127.520    90341397.832        1303.191          49.000  
R11  20144168.920   107644331.738        -696.456          52.000    20144167.615    83723362.553        -541.782          51.000  
R20  22105057.645   118205677.202       -2051.542          46.000    22105056.466    91937741.108       -1595.510          46.000  
R01  21089022.300   112732909.072       -2928.448          47.000                                                                  
G08  21765220.832   114377006.798        2933.594          43.000    21765226.123    89124963.497        2285.661          43.000  
G09  22221807.658   116776387.030        1290.990          42.000    22221809.791    90994596.667        1005.762          41.000  
G16  20085900.379   105552118.404       -1098.626          46.000                                                                  
J02  38897213.217   204406236.191        -783.246          46.000    38897213.267   159277587.336        -610.431          47.000  
G18  24327553.915   127842163.610          -9.880          37.000    24327556.063    99617275.242          -7.239          39.000  
C20  24707414.169   128657989.274       -2751.254          43.000                                                                  
C09  36820764.372   191735382.585         294.249          45.000    36820757.188   148261931.336         227.649          48.000  
C23  25144503.051   130934028.124       -2419.664          42.000                                                                  
C19  24956713.978   129956159.371        -671.278          42.000                                                                  
C10  38447929.378   200208457.484         553.973          39.000    38447926.810   154813868.254         428.558          43.000  
R21  20843795.140   111539357.814        1507.410          51.000    20843795.189    86752834.190        1172.552          50.000  
R08  23534202.704   126024586.200       -4671.082          39.000    23534241.578    98019284.237       -3633.057          43.000  
J03  37737289.175   198310792.116           1.658          38.000    37737296.802   154527923.121           1.134          42.000  
J07  37119362.403   195063566.538        -334.707          39.000    37119362.773   151997584.669        -260.749          46.000  
J04                                                                  36993477.201   151482103.753        -488.518          40.000  
> 2025 11 11 08 02 51.1200000  0 32                     
G28  24495354.326   128723953.575       -3370.233          37.000    24495360.700   100304406.374       -2626.908          38.000  
G26  21828753.092   114710871.963       -2533.704          44.000    21828754.481    89385099.772       -1974.260          43.000  
G27  20173469.299   106012296.431        1350.173          48.000    20173470.109    82606986.902        1052.133          46.000  
G31  21996701.123   115593445.116       -2676.852          46.000    21996700.807    90072813.344       -2085.739          44.000  
G04  20941541.271   110048542.162        -912.982          46.000    20941541.431    85752110.910        -711.395          46.000  
C37  22295939.424   116100806.640        -859.207          49.000                                                                  
C06  35874416.641   186807502.211          52.863          45.000    35874407.540   144451372.858          40.808          48.000  
C16  36316159.019   189107770.825          59.662          48.000    36316155.139   146230107.967          46.276          48.000  
C28  22659904.701   117996070.532         513.038          49.000                                                                  
C07  37197498.072   193697133.303         550.479          43.000    37197490.152   149778878.546         425.698          47.000  
C27  23528544.286   122519304.895        2513.012          45.000                                                                  
R10  22707897.711   121045874.552       -2617.984          40.000                                                                  
R22  23201764.201   123852597.566        3912.436          43.000    23201793.010    96329919.602        3042.888          42.000  
R12  21744112.706   116153146.913        1675.443          49.000    21744114.980    90341345.714        1303.007          49.000  
R11  20144174.120   107644359.608        -696.639          52.000    20144172.853    83723384.229        -541.852          51.000  
R20  22105073.000   118205759.276       -2051.750          46.000    22105071.808    91937804.942       -1595.753          46.000  
R01  21089044.212   112733026.216       -2928.580          47.000                                                                  
G08  21765198.503   114376889.458        2933.529          43.000    21765203.778    89124872.059        2285.788          43.000  
G09  22221797.828   116776335.386        1291.080          42.000    22221799.970    90994556.436        1005.685          41.000  
G16  20085908.762   105552162.354       -1098.716          46.000                                                                  
J02  38897219.187   204406267.538        -783.545          46.000    38897219.223   159277611.758        -610.529          47.000  
G18  24327554.002   127842164.012          -9.978          37.000    24327556.143    99617275.572          -7.891          39.000  
C20  24707435.301   128658099.336       -2751.443          43.000                                                                  
C09  36820762.121   191735370.824         294.075          45.000    36820754.904   148261922.238         227.514          48.000  
C23  25144521.646   130934124.916       -2419.740          42.000                                                                  
C19  24956719.134   129956186.228        -671.395          42.000                                                                  
C10  38447925.103   200208435.304         554.374          39.000    38447922.544   154813851.126         428.293          43.000  
R21  20843783.873   111539297.529        1507.190          51.000    20843783.939    86752787.298        1172.375          50.000  
R08  23534237.606   126024773.059       -4671.403          39.000    23534276.473    98019429.571       -3633.329          43.000  
J03  37737289.147   198310792.050           1.667          38.000    37737296.804   154527923.061           1.387          42.000  
J07  37119364.953   195063579.936        -334.873          39.000    37119365.313   151997595.106        -260.882          46.000  
J04                                                                  36993481.960   151482123.304        -488.586          40.000  
> 2025 11 11 08 02 51.1600000  0 32                     
G28  24495379.977   128724088.415       -3370.712          37.000    24495386.351   100304511.445       -2626.849          38.000  
G26  21828772.376   114710973.312       -2533.793          44.000    21828773.767    89385178.752       -1974.462          43.000  
G27  20173459.011   106012242.426        1350.087          48.000    20173459.848    82606944.825        1051.902          46.000  
G31  21996721.492   115593552.189       -2676.919          46.000    21996721.193    90072896.783       -2085.958          44.000  
G04  20941548.236   110048578.688        -913.135          46.000    20941548.386    85752139.374        -711.572          46.000  
C37  22295945.997   116100841.023        -859.502          49.000                                                                  
C06  35874416.246   186807500.093          52.911          45.000    35874407.119   144451371.223          40.796          48.000  
C16  36316158.526   189107768.442          59.546          48.000    36316154.665   146230106.125          46.121          48.000  
C28  22659900.760   117996050.020         512.858          49.000                                                                  
C07  37197493.838   193697111.281         550.481          43.000    37197485.903   149778861.524         425.541          47.000  
C27  23528524.977   122519204.384        2512.827          45.000                                                                  
R10  22707917.363   121045979.269       -2617.926          40.000                                                                  
R22  23201734.863   123852441.072        3912.312          43.000    23201763.706    96329797.896        3042.683          42.000  
R12  21744100.171   116153079.904        1675.233          49.000    21744102.436    90341293.588        1303.057          49.000  
R11  20144179.335   107644387.483        -696.850          52.000    20144178.101    83723405.908        -541.946          51.000  
R20  22105088.346   118205841.349       -2051.843          46.000    22105087.159    91937868.784       -1596.020          46.000  
R01  21089066.133   112733143.369       -2928.781          47.000                                                                  
G08  21765176.166   114376772.121        2933.445          43.000    21765181.431    89124780.633        2285.675          43.000  
G09  22221787.999   116776283.738        1291.194          42.000    22221790.136    90994516.184        1006.029          41.000  
G16  20085917.126   105552206.301       -1098.722          46.000                                                                  
J02  38897225.159   204406298.880        -783.624          46.000    38897225.177   159277636.177        -610.516          47.000  
G18  24327554.090   127842164.411         -10.026          37.000    24327556.225    99617275.905          -8.290          39.000  
C20  24707456.423   128658209.404       -2751.656          43.000                                                                  
C09  36820759.876   191735359.058         294.075          45.000    36820752.621   148261913.140         227.464          48.000  
C23  25144540.236   130934221.696       -2419.600          42.000                                                                  
C19  24956724.292   129956213.098        -671.629          42.000                                                                  
C10  38447920.844   200208413.114         554.735          39.000    38447918.301   154813833.994         428.239          43.000  
R21  20843772.611   111539237.243        1507.117          51.000    20843772.683    86752740.409        1172.247          50.000  
R08  23534272.495   126024959.902       -4671.266          39.000    23534311.353    98019574.900       -3633.310          43.000  
J03  37737289.130   198310792.001           1.316          38.000    37737296.791   154527923.011           1.366          42.000  
J07  37119367.519   195063593.340        -335.069          39.000    37119367.862   151997605.546        -260.990          46.000  
J04                                                                  36993486.724   151482142.869        -488.966          40.000  
> 2025 11 11 08 02 51.2000000  0 32                     
G28  24495405.663   128724223.275       -3371.310          37.000    24495412.021   100304616.503       -2626.494          38.000  
G26  21828791.665   114711074.660       -2533.781          44.000    21828793.046    89385257.716       -1974.289          43.000  
G27  20173448.743   106012188.415        1350.188          48.000    20173449.554    82606902.744        1051.906          46.000  
G31  21996741.854   115593659.259       -2676.857          46.000    21996741.549    90072980.218       -2086.031          44.000  
G04  20941555.174   110048615.208        -913.074          46.000    20941555.339    85752167.837        -711.609          46.000  
C37  22295952.594   116100875.401        -859.527          49.000                                                                  
C06  35874415.829   186807497.982          52.808          45.000    35874406.708   144451369.593          40.723          48.000  
C16  36316158.059   189107766.052          59.651          48.000    36316154.192   146230104.282          46.056          48.000  
C28  22659896.805   117996029.514         512.645          49.000                                                                  
C07  37197489.644   193697089.258         550.529          43.000    37197481.690   149778844.489         425.706          47.000  
C27  23528505.667   122519103.873        2512.711          45.000                                                                  
R10  22707937.019   121046083.991       -2618.059          40.000                                                                  
R22  23201705.523   123852284.568        3912.450          43.000    23201734.372    96329676.174        3042.877          42.000  
R12  21744087.617   116153012.886        1675.285          49.000    21744089.889    90341241.461        1303.096          49.000  
R11  20144184.555   107644415.358        -696.923          52.000    20144183.320    83723427.587        -541.995          51.000  
R20  22105103.680   118205923.417       -2051.801          46.000    22105102.471    91937932.620       -1596.032          46.000  
R01  21089088.052   112733260.504       -2928.580          47.000                                                                  
G08  21765153.847   114376654.785        2933.396          43.000    21765159.098    89124689.204        2285.667          43.000  
G09  22221778.175   116776232.121        1290.671          42.000    22221780.309    90994475.957        1005.775          41.000  
G16  20085925.505   105552250.250       -1098.746          46.000                                                                  
J02  38897231.112   204406330.219        -783.563          46.000    38897231.156   159277660.600        -610.565          47.000  
G18  24327554.164   127842164.806          -9.922          37.000    24327556.323    99617276.224          -8.181          39.000  
C20  24707477.571   128658319.464       -2751.610          43.000                                                                  
C09  36820757.612   191735347.281         294.300          45.000    36820750.366   148261904.039         227.487          48.000  
C23  25144558.806   130934318.480       -2419.618          42.000                                                                  
C19  24956729.448   129956239.945        -671.392          42.000                                                                  
C10  38447916.589   200208390.960         554.178          39.000    38447914.055   154813816.860         428.258          43.000  
R21  20843761.345   111539176.949        1507.233          51.000    20843761.409    86752693.527        1172.046          50.000  
R08  23534307.388   126025146.752       -4671.278          39.000    23534346.261    98019720.228       -3633.253          43.000  
J03  37737289.107   198310791.936           1.488          38.000    37737296.776   154527922.969           1.160          42.000  
J07  37119370.077   195063606.724        -334.771          39.000    37119370.415   151997615.981        -260.921          46.000  
J04                                                                  36993491.484   151482162.440        -489.325          40.000  
> 2025 11 11 08 02 51.2400000  0 32                     
G28  24495431.322   128724358.125       -3371.338          37.000    24495437.661   100304721.561       -2626.365          38.000  
G26  21828810.945   114711176.001       -2533.650          44.000    21828812.346    89385336.693       -1974.420          43.000  
G27  20173438.470   106012134.408        1350.150          48.000    20173439.282    82606860.662        1051.938          46.000  
G31  21996762.236   115593766.322       -2676.749          46.000    21996761.915    90073063.643       -2085.838          44.000  
G04  20941562.117   110048651.734        -913.171          46.000    20941562.270    85752196.301        -711.652          46.000  
C37  22295959.200   116100909.768        -859.345          49.000                                                                  
C06  35874415.437   186807495.877          52.600          45.000    35874406.293   144451367.956          40.826          48.000  
C16  36316157.606   189107763.662          59.669          48.000    36316153.716   146230102.442          45.961          48.000  
C28  22659892.869   117996009.006         512.599          49.000                                                                  
C07  37197485.413   193697067.236         550.509          43.000    37197477.468   149778827.456         425.796          47.000  
C27  23528486.359   122519003.366        2512.613          45.000                                                                  
R10  22707956.671   121046188.729       -2618.408          40.000                                                                  
R22  23201676.202   123852128.069        3912.450          43.000    23201705.045    96329554.444        3043.151          42.000  
R12  21744075.070   116152945.861        1675.485          49.000    21744077.327    90341189.331        1303.187          49.000  
R11  20144189.762   107644443.231        -696.915          52.000    20144188.535    83723449.258        -541.864          51.000  
R20  22105119.038   118206005.486       -2051.788          46.000    22105117.819    91937996.456       -1596.040          46.000  
R01  21089109.951   112733377.639       -2928.448          47.000                                                                  
G08  21765131.532   114376537.458        2933.195          43.000    21765136.746    89124597.776        2285.676          43.000  
G09  22221768.351   116776180.492        1290.562          42.000    22221770.478    90994435.716        1005.833          41.000  
G16  20085933.850   105552294.203       -1098.827          46.000                                                                  
J02  38897237.073   204406361.560        -783.582          46.000    38897237.113   159277685.020        -610.547          47.000  
G18  24327554.221   127842165.223         -10.303          37.000    24327556.405    99617276.551          -8.241          39.000  
C20  24707498.702   128658429.534       -2751.750          43.000                                                                  
C09  36820755.373   191735335.499         294.491          45.000    36820748.094   148261894.936         227.575          48.000  
C23  25144577.385   130934415.269       -2419.723          42.000                                                                  
C19  24956734.602   129956266.799        -671.396          42.000                                                                  
C10  38447912.323   200208368.812         553.704          39.000    38447909.798   154813799.718         428.412          44.000  
R21  20843750.096   111539116.660        1507.190          51.000    20843750.120    86752646.642        1172.034          50.000  
R08  23534342.259   126025333.606       -4671.352          39.000    23534381.151    98019865.549       -3633.112          43.000  
J03  37737289.087   198310791.885           1.349          38.000    37737296.777   154527922.926           1.047          42.000  
J07  37119372.600   195063620.120        -334.867          39.000    37119372.944   151997626.413        -260.864          46.000  
J04                                                                  36993496.249   151482182.000        -489.316          40.000  
> 2025 11 11 08 02 51.2800000  0 32                     
G28  24495456.973   128724492.980       -3371.494          37.000    24495463.317   100304826.633       -2626.594          38.000  
G26  21828830.238   114711277.362       -2533.924          44.000    21828831.662    89385415.678       -1974.633          43.000  
G27  20173428.197   106012080.418        1349.796          48.000    20173429.022    82606818.579        1051.994          46.000  
G31  21996782.639   115593873.397       -2676.838          46.000    21996782.283    90073147.073       -2085.827          44.000  
G04  20941569.070   110048688.266        -913.354          46.000    20941569.211    85752224.769        -711.762          46.000  
C37  22295965.796   116100944.151        -859.525          49.000                                                                  
C06  35874415.028   186807493.770          52.588          45.000    35874405.906   144451366.323          40.796          48.000  
C16  36316157.125   189107761.285          59.457          48.000    36316153.237   146230100.606          45.852          48.000  
C28  22659888.947   117995988.507         512.424          49.000                                                                  
C07  37197481.177   193697045.218         550.452          43.000    37197473.226   149778810.435         425.581          47.000  
C27  23528467.069   122518902.856        2512.614          45.000                                                                  
R10  22707976.308   121046293.477       -2618.737          40.000                                                                  
R22  23201646.865   123851971.578        3912.275          43.000    23201675.721    96329432.718        3043.172          42.000  
R12  21744062.534   116152878.851        1675.332          49.000    21744064.801    90341137.205        1303.139          49.000  
R11  20144194.981   107644471.111        -697.026          52.000    20144193.763    83723470.941        -542.020          51.000  
R20  22105134.390   118206087.560       -2051.871          46.000    22105133.159    91938060.278       -1595.732          46.000  
R01  21089131.891   112733494.804       -2928.910          47.000                                                                  
G08  21765109.212   114376420.140        2932.947          43.000    21765114.414    89124506.356        2285.520          43.000  
G09  22221758.536   116776128.856        1290.737          42.000    22221760.639    90994395.492        1005.557          41.000  
G16  20085942.213   105552338.164       -1099.033          46.000                                                                  
J02  38897243.026   204406392.904        -783.667          46.000    38897243.082   159277709.447        -610.687          47.000  
G18  24327554.306   127842165.631         -10.311          37.000    24327556.471    99617276.858          -7.920          39.000  
C20  24707519.841   128658539.600       -2751.768          43.000                                                                  
C09  36820753.114   191735323.740         294.191          45.000    36820745.825   148261885.836         227.525          48.000  
C23  25144595.978   130934512.072       -2420.045          42.000                                                                  
C19  24956739.758   129956293.662        -671.579          41.000                                                                  
C10  38447908.099   200208346.649         553.817          39.000    38447905.546   154813782.580         428.436          44.000  
R21  20843738.859   111539056.379        1507.044          51.000    20843738.863    86752599.763        1171.912          49.000  
R08  23534377.154   126025520.476       -4671.684          39.000    23534416.027    98020010.876       -3633.156          43.000  
J03  37737289.073   198310791.842           1.083          38.000    37737296.767   154527922.875           1.105          42.000  
J07  37119375.155   195063633.520        -334.964          39.000    37119375.515   151997636.859        -261.065          46.000  
J04                                                                  36993501.036   151482201.546        -488.972          40.000  
> 2025 11 11 08 02 51.3200000  0 32                     
G28  24495482.632   128724627.824       -3371.382          37.000    24495488.984   100304931.740       -2627.388          38.000  
G26  21828849.535   114711378.738       -2534.356          44.000    21828850.961    89385494.676       -1974.945          43.000  
G27  20173417.940   106012026.440        1349.406          48.000    20173418.754    82606776.514        1051.664          46.000  
G31  21996802.997   115593980.490       -2677.258          45.000    21996802.677    90073230.532       -2086.331          44.000  
G04  20941576.039   110048724.821        -913.812          46.000    20941576.150    85752253.244        -711.938          46.000  
C37  22295972.386   116100978.548        -859.929          49.000                                                                  
C06  35874414.645   186807491.679          52.252          45.000    35874405.495   144451364.702          40.546          48.000  
C16  36316156.659   189107758.919          59.139          48.000    36316152.791   146230098.783          45.570          48.000  
C28  22659884.986   117995968.018         512.168          49.000                                                                  
C07  37197476.924   193697023.223         549.992          43.000    37197469.013   149778793.428         425.226          47.000  
C27  23528447.757   122518802.365        2512.319          45.000                                                                  
R10  22707995.946   121046398.234       -2619.039          40.000                                                                  
R22  23201617.557   123851815.101        3911.896          43.000    23201646.412    96329311.018        3042.679          42.000  
R12  21744050.006   116152811.854        1674.976          49.000    21744052.247    90341085.094        1302.851          49.000  
R11  20144200.198   107644499.009        -697.424          52.000    20144198.978    83723492.642        -542.461          51.000  
R20  22105149.729   118206169.659       -2052.347          46.000    22105148.515    91938124.129       -1596.118          46.000  
R01  21089153.794   112733611.983       -2929.417          47.000                                                                  
G08  21765086.871   114376302.838        2932.539          43.000    21765092.074    89124414.940        2285.374          43.000  
G09  22221748.719   116776077.255        1290.199          42.000    22221750.803    90994355.279        1005.290          41.000  
G16  20085950.588   105552382.149       -1099.565          46.000                                                                  
J02  38897249.010   204406424.273        -784.143          46.000    38897249.048   159277733.884        -610.931          47.000  
G18  24327554.389   127842166.064         -10.796          37.000    24327556.555    99617277.173          -7.894          39.000  
C20  24707540.951   128658649.686       -2752.102          43.000                                                                  
C09  36820750.839   191735312.004         293.582          45.000    36820743.569   148261876.757         227.112          48.000  
C23  25144614.567   130934608.900       -2420.672          42.000                                                                  
C19  24956744.924   129956320.542        -672.004          42.000                                                                  
C10  38447903.850   200208324.505         553.578          39.000    38447901.301   154813765.457         428.140          44.000  
R21  20843727.592   111538996.125        1506.451          51.000    20843727.607    86752552.894        1171.710          49.000  
R08  23534412.037   126025707.351       -4671.954          39.000    23534450.933    98020156.223       -3633.543          43.000  
J03  37737289.069   198310791.788           1.210          38.000    37737296.750   154527922.844           0.781          42.000  
J07  37119377.695   195063646.945        -335.505          39.000    37119378.068   151997647.313        -261.321          46.000  
J04                                                                  36993505.796   151482221.112        -489.082          40.000  
> 2025 11 11 08 02 51.3600000  0 32                     
G28  24495508.291   128724762.694       -3371.661          37.000    24495514.631   100305036.850       -2627.852          38.000  
G26  21828868.821   114711480.112       -2534.524          44.000    21828870.264    89385573.663       -1974.900          43.000  
G27  20173407.676   106011972.463        1349.243          48.000    20173408.496    82606734.458        1051.368          46.000  
G31  21996823.394   115594087.598       -2677.672          45.000    21996823.055    90073313.986       -2086.479          44.000  
G04  20941582.985   110048761.378        -914.063          46.000    20941583.084    85752281.733        -712.262          46.000  
C37  22295978.996   116101012.959        -860.308          49.000                                                                  
C06  35874414.255   186807489.591          52.118          45.000    35874405.113   144451363.094          40.204          48.000  
C16  36316156.190   189107756.562          58.823          48.000    36316152.292   146230096.956          45.536          48.000  
C28  22659881.053   117995947.529         512.074          49.000                                                                  
C07  37197472.691   193697001.238         549.579          43.000    37197464.788   149778776.423         425.043          47.000  
C27  23528428.446   122518701.877        2512.123          45.000                                                                  
R10  22708015.599   121046502.984       -2618.957          40.000                                                                  
R22  23201588.237   123851658.636        3911.520          43.000    23201617.101    96329189.334        3042.166          42.000  
R12  21744037.475   116152744.868        1674.642          49.000    21744039.712    90341032.991        1302.559          49.000  
R11  20144205.414   107644526.904        -697.512          52.000    20144204.197    83723514.343        -542.637          51.000  
R20  22105165.091   118206251.769       -2052.780          46.000    22105163.880    91938188.002       -1596.719          46.000  
R01  21089175.706   112733729.166       -2929.696          47.000                                                                  
G08  21765064.560   114376185.535        2932.388          43.000    21765069.728    89124323.532        2285.178          43.000  
G09  22221738.902   116776025.650        1289.965          42.000    22221740.988    90994315.074        1005.009          41.000  
G16  20085958.945   105552426.133       -1099.744          46.000                                                                  
J02  38897254.987   204406455.635        -784.186          46.000    38897255.026   159277758.324        -611.090          47.000  
G18  24327554.479   127842166.504         -11.104          38.000    24327556.641    99617277.539          -8.763          39.000  
C20  24707562.082   128658759.780       -2752.369          43.000                                                                  
C09  36820748.582   191735300.274         293.168          45.000    36820741.290   148261867.684         226.783          48.000  
C23  25144633.186   130934705.726       -2420.857          42.000                                                                  
C19  24956750.073   129956347.441        -672.479          41.000                                                                  
C10  38447899.596   200208302.376         553.173          39.000    38447897.031   154813748.336         428.006          44.000  
R21  20843716.360   111538935.875        1506.116          51.000    20843716.349    86752506.026        1171.625          49.000  
R08  23534446.936   126025894.220       -4671.959          39.000    23534485.821    98020301.572       -3633.801          43.000  
J03  37737289.047   198310791.768           0.634          38.000    37737296.755   154527922.820           0.527          42.000  
J07  37119380.245   195063660.352        -335.434          39.000    37119380.619   151997657.772        -261.525          46.000  
J04                                                                  36993510.575   151482240.685        -489.293          40.000  
> 2025 11 11 08 02 51.4000000  0 32                     
G28  24495533.936   128724897.547       -3371.520          37.000    24495540.289   100305141.931       -2627.473          38.000  
G26  21828888.097   114711581.472       -2534.268          44.000    21828889.541    89385652.642       -1974.644          43.000  
G27  20173397.405   106011918.476        1349.397          48.000    20173398.228    82606692.394        1051.416          46.000  
G31  21996843.794   115594194.693       -2677.610          45.000    21996843.419    90073397.427       -2086.317          44.000  
G04  20941589.925   110048797.925        -913.916          46.000    20941590.035    85752310.212        -712.164          46.000  
C37  22295985.619   116101047.352        -860.115          49.000                                                                  
C06  35874413.866   186807487.494          52.271          45.000    35874404.714   144451361.477          40.240          48.000  
C16  36316155.721   189107754.194          58.948          48.000    36316151.821   146230095.115          45.844          48.000  
C28  22659877.130   117995927.026         512.353          49.000                                                                  
C07  37197468.473   193696979.226         549.913          43.000    37197460.572   149778759.404         425.251          47.000  
C27  23528409.174   122518601.378        2512.279          45.000                                                                  
R10  22708035.255   121046607.719       -2618.618          40.000                                                                  
R22  23201558.909   123851502.149        3911.818          43.000    23201587.793    96329067.632        3042.284          42.000  
R12  21744024.951   116152677.863        1674.846          49.000    21744027.171    90340980.882        1302.538          49.000  
R11  20144210.606   107644554.790        -697.341          52.000    20144209.386    83723536.033        -542.459          51.000  
R20  22105180.445   118206333.865       -2052.658          46.000    22105179.206    91938251.860       -1596.708          46.000  
R01  21089197.623   112733846.335       -2929.525          47.000                                                                  
G08  21765042.249   114376068.217        2932.656          43.000    21765047.403    89124232.129        2285.019          43.000  
G09  22221729.074   116775974.036        1290.118          42.000    22221731.184    90994274.860        1005.098          41.000  
G16  20085967.316   105552470.097       -1099.423          46.000                                                                  
J02  38897260.937   204406486.985        -783.923          46.000    38897261.008   159277782.757        -610.962          47.000  
G18  24327554.533   127842166.898         -10.430          38.000    24327556.732    99617277.884          -8.881          39.000  
C20  24707583.203   128658869.865       -2752.323          43.000                                                                  
C09  36820746.335   191735288.518         293.474          45.000    36820739.025   148261858.596         226.954          48.000  
C23  25144651.794   130934802.526       -2420.394          42.000                                                                  
C19  24956755.246   129956374.317        -672.268          41.000                                                                  
C10  38447895.343   200208280.215         553.644          39.000    38447892.755   154813731.209         428.100          44.000  
R21  20843705.101   111538875.618        1506.189          51.000    20843705.080    86752459.150        1171.790          49.000  
R08  23534481.835   126026081.069       -4671.470          39.000    23534520.704    98020446.916       -3633.781          43.000  
J03  37737289.041   198310791.717           0.900          38.000    37737296.735   154527922.792           0.555          42.000  
J07  37119382.812   195063673.743        -335.031          39.000    37119383.163   151997668.222        -261.412          46.000  
J04                                                                  36993515.357   151482260.249        -489.216          40.000  
> 2025 11 11 08 02 51.4400000  0 32                     
G28  24495559.616   128725032.394       -3371.249          37.000    24495565.938   100305247.011       -2627.190          38.000  
G26  21828907.381   114711682.819       -2533.883          44.000    21828908.823    89385731.610       -1974.327          43.000  
G27  20173387.121   106011864.486        1349.578          48.000    20173387.956    82606650.327        1051.517          46.000  
G31  21996864.161   115594301.771       -2677.201          45.000    21996863.797    90073480.855       -2085.905          44.000  
G04  20941596.860   110048834.463        -913.666          46.000    20941596.978    85752338.691        -712.079          46.000  
C37  22295992.220   116101081.735        -859.776          49.000                                                                  
C06  35874413.459   186807485.384          52.582          45.000    35874404.307   144451359.849          40.479          48.000  
C16  36316155.252   189107751.815          59.231          48.000    36316151.366   146230093.276          45.951          48.000  
C28  22659873.179   117995906.528         512.389          49.000                                                                  
C07  37197464.236   193696957.211         550.215          43.000    37197456.344   149778742.379         425.475          47.000  
C27  23528389.881   122518500.878        2512.402          45.000                                                                  
R10  22708054.886   121046712.437       -2618.146          40.000                                                                  
R22  23201529.606   123851345.667        3911.931          43.000    23201558.468    96328945.930        3042.456          42.000  
R12  21744012.402   116152610.859        1674.966          49.000    21744014.605    90340928.773        1302.579          49.000  
R11  20144215.829   107644582.676        -697.248          52.000    20144214.588    83723557.720        -542.303          51.000  
R20  22105195.800   118206415.943       -2052.251          46.000    22105194.569    91938315.689       -1596.118          46.000  
R01  21089219.517   112733963.493       -2929.190          47.000                                                                  
G08  21765019.913   114375950.879        2933.172          43.000    21765025.085    89124140.714        2285.178          43.000  
G09  22221719.240   116775922.406        1290.458          42.000    22221721.346    90994234.620        1005.686          41.000  
G16  20085975.675   105552514.051       -1099.027          46.000                                                                  
J02  38897266.860   204406518.337        -783.850          46.000    38897266.971   159277807.187        -610.840          47.000  
G18  24327554.626   127842167.318         -10.454          38.000    24327556.827    99617278.232          -8.918          39.000  
C20  24707604.355   128658979.942       -2752.100          43.000                                                                  
C09  36820744.065   191735276.754         293.851          45.000    36820736.759   148261849.502         227.169          48.000  
C23  25144670.400   130934899.312       -2419.891          42.000                                                                  
C19  24956760.391   129956401.173        -671.772          41.000                                                                  
C10  38447891.079   200208258.055         553.877          39.000    38447888.499   154813714.091         427.946          44.000  
R21  20843693.841   111538815.351        1506.458          51.000    20843693.799    86752412.272        1171.881          49.000  
R08  23534516.712   126026267.916       -4671.200          39.000    23534555.616    98020592.253       -3633.583          43.000  
J03  37737289.020   198310791.653           1.360          38.000    37737296.692   154527922.766           0.514          42.000  
J07  37119385.377   195063687.169        -335.490          39.000    37119385.719   151997678.668        -261.275          46.000  
J04                                                                  36993520.114   151482279.806        -489.089          40.000  
> 2025 11 11 08 02 51.4800000  0 32                     
G28  24495585.279   128725167.301       -3372.247          37.000    24495591.607   100305352.109       -2627.361          38.000  
G26  21828926.675   114711784.218       -2534.656          44.000    21828928.117    89385810.613       -1974.834          43.000  
G27  20173376.857   106011810.527        1349.099          48.000    20173377.692    82606608.280        1051.231          46.000  
G31  21996884.542   115594408.887       -2677.685          45.000    21996884.195    90073564.327       -2086.492          44.000  
G04  20941603.847   110048871.032        -914.154          46.000    20941603.951    85752367.184        -712.323          46.000  
C37  22295998.800   116101116.144        -860.101          49.000                                                                  
C06  35874413.068   186807483.309          52.045          45.000    35874403.915   144451358.244          40.155          48.000  
C16  36316154.791   189107749.466          58.886          48.000    36316150.887   146230091.455          45.626          48.000  
C28  22659869.261   117995886.070         511.652          49.000                                                                  
C07  37197460.017   193696935.229         549.702          43.000    37197452.117   149778725.382         425.082          47.000  
C27  23528370.574   122518400.412        2511.792          45.000                                                                  
R10  22708074.550   121046817.237       -2619.422          40.000                                                                  
R22  23201500.329   123851189.221        3911.271          43.000    23201529.117    96328824.252        3042.070          41.000  
R12  21743999.860   116152543.887        1674.463          49.000    21744002.052    90340876.671        1302.477          49.000  
R11  20144221.038   107644610.595        -697.821          52.000    20144219.806    83723579.431        -542.658          51.000  
R20  22105211.148   118206498.070       -2052.923          46.000    22105209.910    91938379.553       -1596.415          46.000  
R01  21089241.437   112734080.683       -2929.590          47.000                                                                  
G08  21764997.588   114375833.582        2932.648          43.000    21765002.775    89124049.310        2285.055          43.000  
G09  22221709.449   116775870.826        1289.817          42.000    22221711.521    90994194.419        1005.276          41.000  
G16  20085984.051   105552558.043       -1099.566          46.000                                                                  
J02  38897272.837   204406549.718        -784.375          46.000    38897272.931   159277831.639        -611.218          47.000  
G18  24327554.716   127842167.786         -11.423          37.000    24327556.891    99617278.574          -8.807          39.000  
C20  24707625.478   128659090.029       -2752.202          43.000                                                                  
C09  36820741.787   191735265.024         293.427          45.000    36820734.498   148261840.432         226.880          48.000  
C23  25144688.996   130934996.134       -2420.291          42.000                                                                  
C19  24956765.553   129956428.077        -672.362          41.000                                                                  
C10  38447886.845   200208235.943         553.081          39.000    38447884.244   154813696.984         427.669          44.000  
R21  20843682.590   111538755.109        1506.152          51.000    20843682.559    86752365.421        1171.405          49.000  
R08  23534551.631   126026454.803       -4671.868          39.000    23534590.511    98020737.610       -3633.885          43.000  
J03  37737289.018   198310791.631           0.742          38.000    37737296.701   154527922.758           0.213          42.000  
J07  37119387.931   195063700.597        -335.783          39.000    37119388.271   151997689.135        -261.614          46.000  
J04                                                                  36993524.910   151482299.392        -489.509          40.000  
> 2025 11 11 08 02 51.5200000  0 32                     
G28  24495610.956   128725302.192       -3372.428          37.000    24495617.286   100305457.238       -2628.080          38.000  
G26  21828945.963   114711885.611       -2534.927          44.000    21828947.429    89385889.635       -1975.425          43.000  
G27  20173366.608   106011756.569        1348.904          48.000    20173367.434    82606566.235        1051.066          46.000  
G31  21996904.929   115594515.995       -2677.780          45.000    21996904.563    90073647.789       -2086.611          44.000  
G04  20941610.809   110048907.609        -914.453          46.000    20941610.893    85752395.681        -712.494          46.000  
C37  22296005.419   116101150.564        -860.442          49.000                                                                  
C06  35874412.671   186807481.233          51.862          45.000    35874403.490   144451356.640          40.051          48.000  
C16  36316154.327   189107747.121          58.612          48.000    36316150.420   146230089.643          45.347          48.000  
C28  22659865.299   117995865.618         511.220          49.000                                                                  
C07  37197455.804   193696913.255         549.313          43.000    37197447.899   149778708.386         424.876          47.000  
C27  23528351.284   122518299.943        2511.609          45.000                                                                  
R10  22708094.209   121046922.027       -2619.856          40.000                                                                  
R22  23201471.005   123851032.762        3911.271          43.000    23201499.827    96328702.573        3041.898          41.000  
R12  21743987.322   116152476.913        1674.262          49.000    21743989.522    90340824.577        1302.314          49.000  
R11  20144226.262   107644638.512        -698.034          52.000    20144225.024    83723601.145        -542.886          51.000  
R20  22105226.534   118206580.200       -2053.324          46.000    22105225.265    91938443.433       -1596.884          46.000  
R01  21089263.360   112734197.882       -2929.958          47.000                                                                  
G08  21764975.293   114375716.298        2932.153          43.000    21764980.468    89123957.917        2284.832          43.000  
G09  22221699.658   116775819.240        1289.552          42.000    22221701.701    90994154.227        1004.910          41.000  
G16  20085992.456   105552602.050       -1100.121          46.000                                                                  
J02  38897278.829   204406581.101        -784.643          46.000    38897278.885   159277856.090        -611.322          48.000  
G18  24327554.809   127842168.248         -11.792          37.000    24327556.979    99617278.920          -8.749          39.000  
C20  24707646.605   128659200.136       -2752.598          43.000                                                                  
C09  36820739.544   191735253.291         293.295          45.000    36820732.241   148261831.355         226.854          48.000  
C23  25144707.585   130935092.969       -2420.748          42.000                                                                  
C19  24956770.715   129956454.984        -672.692          41.000                                                                  
C10  38447882.596   200208213.818         552.948          39.000    38447879.976   154813679.880         427.566          44.000  
R21  20843671.339   111538694.864        1506.079          51.000    20843671.298    86752318.569        1171.210          49.000  
R08  23534586.523   126026641.703       -4672.483          39.000    23534625.425    98020882.968       -3633.988          43.000  
J03  37737289.039   198310791.597           0.646          38.000    37737296.699   154527922.743           0.212          42.000  
J07  37119390.482   195063714.031        -335.908          39.000    37119390.830   151997699.604        -261.807          46.000  
J04                                                                  36993529.679   151482318.986        -489.827          40.000  
> 2025 11 11 08 02 51.5600000  0 32                     
G28  24495636.599   128725437.079       -3372.466          37.000    24495642.945   100305562.322       -2627.561          38.000  
G26  21828965.258   114711986.979       -2534.530          44.000    21828966.700    89385968.624       -1975.084          43.000  
G27  20173356.308   106011702.588        1349.281          48.000    20173357.163    82606524.175        1051.299          46.000  
G31  21996925.294   115594623.085       -2677.454          45.000    21996924.925    90073731.238       -2086.402          44.000  
G04  20941617.767   110048944.165        -914.160          46.000    20941617.853    85752424.165        -712.256          46.000  
C37  22296012.032   116101184.958        -860.127          49.000                                                                  
C06  35874412.287   186807479.137          52.185          45.000    35874403.047   144451355.017          40.399          48.000  
C16  36316153.870   189107744.751          58.969          48.000    36316149.956   146230087.815          45.503          48.000  
C28  22659861.348   117995845.136         511.639          49.000                                                                  
C07  37197451.575   193696891.253         549.744          43.000    37197443.659   149778691.379         424.999          47.000  
C27  23528331.982   122518199.448        2512.073          45.000                                                                  
R10  22708113.856   121047026.772       -2619.169          40.000                                                                  
R22  23201441.656   123850876.273        3911.959          43.000    23201470.501    96328580.869        3042.312          41.000  
R12  21743974.747   116152409.901        1674.875          49.000    21743976.978    90340772.465        1302.596          49.000  
R11  20144231.515   107644666.400        -697.519          52.000    20144230.239    83723622.839        -542.546          51.000  
R20  22105241.892   118206662.302       -2052.951          46.000    22105240.624    91938507.299       -1596.846          46.000  
R01  21089285.317   112734315.061       -2929.711          47.000                                                                  
G08  21764952.967   114375598.990        2932.421          43.000    21764958.147    89123866.504        2285.117          43.000  
G09  22221689.847   116775767.629        1289.974          42.000    22221691.882    90994114.024        1004.971          41.000  
G16  20086000.829   105552646.030       -1099.848          46.000                                                                  
J02  38897284.787   204406612.453        -784.113          46.000    38897284.858   159277880.519        -610.968          48.000  
G18  24327554.889   127842168.674         -11.272          37.000    24327557.043    99617279.236          -8.204          39.000  
C20  24707667.757   128659310.237       -2752.636          43.000                                                                  
C09  36820737.295   191735241.541         293.543          45.000    36820729.984   148261822.265         227.088          48.000  
C23  25144726.187   130935189.778       -2420.441          42.000                                                                  
C19  24956775.875   129956481.884        -672.672          41.000                                                                  
C10  38447878.339   200208191.664         553.499          39.000    38447875.687   154813662.745         428.116          44.000  
R21  20843660.070   111538634.600        1506.427          51.000    20843660.023    86752271.701        1171.490          49.000  
R08  23534621.432   126026828.581       -4672.251          39.000    23534660.308    98021028.298       -3633.500          43.000  
J03  37737289.035   198310791.553           0.908          38.000    37737296.673   154527922.697           0.813          42.000  
J07  37119393.034   195063727.434        -335.346          39.000    37119393.376   151997710.045        -261.337          46.000  
J04                                                                  36993534.456   151482338.551        -489.427          40.000  
