     3.04           OBSERVATION DATA    M: Mixed            RINEX VERSION / TYPE
RTKCONV 2.4.3 b34                       20251111 081146 UTC PGM / RUN BY / DATE 
format: u-blox UBX                                          COMMENT             
log: D:\GPdata\11_11\fingure_mix_11_11_1.ubx                COMMENT             
                                                            MARKER NAME         
                                                            MARKER NUMBER       
                                                            MARKER TYPE         
                                                            OBSERVER / AGENCY   
                                                            REC # / TYPE / VERS 
                                                            ANT # / TYPE        
        0.0000        0.0000        0.0000                  APPROX POSITION XYZ 
        0.0000        0.0000        0.0000                  ANTENNA: DELTA H/E/N
G    8 C1C L1C D1C S1C C2L L2L D2L S2L                      SYS / # / OBS TYPES 
R    8 C1C L1C D1C S1C C2C L2C D2C S2C                      SYS / # / OBS TYPES 
J    8 C1C L1C D1C S1C C2L L2L D2L S2L                      SYS / # / OBS TYPES 
C    8 C2I L2I D2I S2I C7I L7I D7I S7I                      SYS / # / OBS TYPES 
  2025    11    11    08    03   31.8800000     GPS         TIME OF FIRST OBS   
  2025    11    11    08    03   49.2800000     GPS         TIME OF LAST OBS    
G L1C                                                       SYS / PHASE SHIFT   
G L2L  0.00000                                              SYS / PHASE SHIFT   
R L1C                                                       SYS / PHASE SHIFT   
R L2C                                                       SYS / PHASE SHIFT   
J L1C                                                       SYS / PHASE SHIFT   
J L2L  0.00000                                              SYS / PHASE SHIFT   
C L2I                                                       SYS / PHASE SHIFT   
C L7I                                                       SYS / PHASE SHIFT   
  8 R05  1 R12  6 R14 -7 R15  0 R16 -1 R24  2 R25  4 R26 -3 GLONASS SLOT / FRQ #
 C1C    0.000 C1P    0.000 C2C    0.000 C2P    0.000        GLONASS COD/PHS/BIS 
                                                            END OF HEADER       
> 2025 11 11 08 03 31.8800000  0 32                     
G28  24521541.973                1      -3380.308          37.000    24521547.317                       -2634.135          37.000  
G26  21848436.456                1      -2540.721          44.000    21848437.707    89465700.3241      -1979.554          43.000  
G27  20163108.561                1       1322.078          48.000    20163109.825    82564562.4341       1030.121          46.000  
G31  22017522.370                1      -2691.058          45.000    22017521.709    90158072.6291      -2097.212          43.000  
G04  20948739.935                1       -942.242          46.000    20948739.823    85781588.5791       -734.161          46.000  
C37  22302704.561                1       -868.308          49.000                                                                  
C06  35874015.507                1         50.519          45.000    35874006.359   144449758.4401         38.885          48.000  
C16  36315704.660                1         57.275          48.000    36315700.687   146228279.2851         44.209          48.000  
C28  22655983.961                1        489.757          49.000                                                                  
C07  37193213.797                1        544.882          43.000    37193205.235   149761627.3291        421.245          47.000  
C27  23508922.570                1       2501.470          46.000                                                                  
R10  22727939.664                1      -2622.761          40.000                                                                  
R22  23171897.616                1       3910.148          44.000    23171924.871    96205940.8361       3041.055          42.000  
R12  21731352.457                1       1670.031          49.000    21731354.530    90288330.4341       1298.982          48.000  
R11  20149528.595                1       -706.313          51.000    20149527.684    83745640.2151       -549.468          51.000  
R20  22120845.348                1      -2085.824          45.000    22120845.599    92003403.5111      -1622.169          47.000  
R01  21111483.490                1      -2956.071          47.000                                                                  
G08  21742514.506                1       2916.682          43.000    21742519.263    89031986.7901       2272.612          42.000  
G09  22211890.745                1       1264.689          42.000    22211892.030    90953987.0401        985.114          41.000  
G16  20094495.106                1      -1114.567          46.000                                                                  
J02  38903299.076                1       -783.301          46.000    38903299.060   159302507.5051       -610.291          47.000  
G18  24327729.054                1        -34.078          38.000    24327730.187    99617990.8901        -26.274          39.000  
C20  24729023.760                1      -2763.097          42.000                                                                  
C09  36818464.783                1        293.728          45.000    36818457.237   148252671.4091        227.198          48.000  
C23  25163487.329                1      -2425.025          42.000                                                                  
C19  24962068.118                1       -694.420          41.000                                                                  
C10  38443610.272                1        549.324          39.000    38443607.118   154796477.4811        424.757          43.000  
R21  20832434.645                1       1473.609          50.000    20832434.801    86705552.3121       1146.149          50.000  
R08  23569795.325                1      -4671.114          40.000    23569834.383    98167531.3731      -3633.234          40.000  
J03  37737287.995                1         -0.511          37.000    37737296.016   154527922.5041         -0.581          43.000  
J07  37121972.015                1       -336.234          39.000    37121972.250   152008270.6641       -262.217          47.000  
J04                                                                  36998364.489   151502115.2631       -491.434          39.000  
> 2025 11 11 08 03 31.9200000  0 32                     
G28  24521567.711                       -3380.846          37.000    24521573.056   100411741.729       -2634.482          37.000  
G26  21848455.793   114814411.0521      -2541.390          44.000    21848457.071    89465779.538       -1980.272          43.000  
G27  20163098.532   105957798.6651       1321.772          48.000    20163099.758    82564521.224        1029.925          46.000  
G31  22017542.858   115702968.9561      -2691.534          45.000    22017542.207    90158156.531       -2097.754          43.000  
G04  20948747.114   110086409.5401       -942.511          46.000    20948747.012    85781617.959        -734.674          46.000  
C37  22302711.222                        -868.823          49.000                                                                  
C06  35874015.111                          50.275          45.000    35874005.943   144449756.891          38.501          48.000  
C16  36315704.199                          56.814          48.000    36315700.221   146228277.526          43.778          48.000  
C28  22655980.182                         489.428          49.000                                                                  
C07  37193209.621                         544.653          43.000    37193201.077   149761610.488         420.817          47.000  
C27  23508903.356                        2501.161          46.000                                                                  
R10  22727959.369                       -2623.407          40.000                                                                  
R22  23171868.304                        3909.717          44.000    23171895.559    96205819.191        3040.871          42.000  
R12  21731339.937                        1669.651          49.000    21731342.021    90288278.491        1298.443          48.000  
R11  20149533.886                        -706.701          51.000    20149532.967    83745662.196        -549.776          51.000  
R20  22120860.961                       -2086.144          45.000    22120861.217    92003468.410       -1622.603          47.000  
R01  21111505.618                       -2956.654          47.000                                                                  
G08  21742492.325                        2916.308          43.000    21742497.048    89031895.902        2272.053          42.000  
G09  22211881.124                        1264.281          42.000    22211882.422    90953947.628         984.910          41.000  
G16  20094503.569                       -1114.854          46.000                                                                  
J02  38903305.041   204438248.3801       -783.606          46.000    38903305.037   159302531.928        -610.724          47.000  
G18  24327729.329                         -34.746          38.000    24327730.468    99617991.982         -27.184          39.000  
C20  24729044.973                       -2763.732          42.000                                                                  
C09  36818462.553                         293.262          45.000    36818454.999   148252662.334         226.766          48.000  
C23  25163505.963                       -2425.620          42.000                                                                  
C19  24962073.462                        -695.030          41.000                                                                  
C10  38443606.044                         549.125          39.000    38443602.918   154796460.505         424.244          43.000  
R21  20832423.607                        1473.352          50.000    20832423.812    86705506.471        1145.801          50.000  
R08  23569830.236                       -4671.583          40.000    23569869.276    98167676.698       -3633.433          40.000  
J03  37737288.007                          -0.782          37.000    37737296.035   154527922.520          -0.758          43.000  
J07  37121974.605                        -337.308          39.000    37121974.801   152008281.168        -262.762          47.000  
J04                                                                  36998369.279   151502134.918        -491.604          39.000  
> 2025 11 11 08 03 31.9600000  0 32                     
G28  24521593.424                       -3380.561          37.000    24521598.788   100411847.069       -2634.021          37.000  
G26  21848475.121   114814512.672       -2541.047          44.000    21848476.417    89465858.724       -1980.086          43.000  
G27  20163088.471   105957745.755        1322.210          48.000    20163089.674    82564479.999        1030.244          46.000  
G31  22017563.323   115703076.593       -2691.349          45.000    22017562.687    90158240.385       -2097.058          43.000  
G04  20948754.301   110086447.207        -942.120          46.000    20948754.165    85781647.312        -734.308          46.000  
C37  22302717.904   116136106.0461       -868.498          49.000                                                                  
C06  35874014.716   186805410.3201         50.592          45.000    35874005.557   144449755.303          39.185          48.000  
C16  36315703.756                          57.258          48.000    36315699.776   146228275.743          44.067          48.000  
C28  22655976.437                         489.819          49.000                                                                  
C07  37193205.419                         545.215          43.000    37193196.896   149761593.611         421.391          47.000  
C27  23508884.128                        2501.535          46.000                                                                  
R10  22727979.044                       -2623.011          40.000                                                                  
R22  23171838.985                        3910.217          44.000    23171866.256    96205697.531        3041.132          42.000  
R12  21731327.420                        1670.068          49.000    21731329.521    90288226.520        1298.794          48.000  
R11  20149539.179                        -706.269          51.000    20149538.250    83745684.151        -549.320          51.000  
R20  22120876.549                       -2085.631          45.000    22120876.819    92003533.293       -1622.461          47.000  
R01  21111527.731                       -2956.316          47.000                                                                  
G08  21742470.107   114257452.8741       2916.433          43.000    21742474.846    89031804.969        2272.693          42.000  
G09  22211871.510                        1264.617          42.000    22211872.801    90953908.195         985.336          41.000  
G16  20094512.052                       -1114.329          46.000                                                                  
J02  38903310.990   204438279.689        -783.197          46.000    38903310.997   159302556.331        -610.461          47.000  
G18  24327729.594                         -34.440          38.000    24327730.713    99617993.039         -26.948          39.000  
C20  24729066.189   128770733.2481      -2763.626          42.000                                                                  
C09  36818460.273                         293.439          45.000    36818452.743   148252653.237         227.026          48.000  
C23  25163524.591                       -2425.426          42.000                                                                  
C19  24962078.785                        -694.561          41.000                                                                  
C10  38443601.829                         549.603          39.000    38443598.718   154796443.504         424.587          43.000  
R21  20832412.552                        1473.749          50.000    20832412.816    86705460.609        1146.130          50.000  
R08  23569865.117                       -4671.171          40.000    23569904.170    98167822.010       -3633.232          40.000  
J03  37737288.006                          -0.476          37.000    37737296.026   154527922.522          -0.458          43.000  
J07  37121977.142                        -336.421          39.000    37121977.359   152008291.645        -262.416          47.000  
J04                                                                  36998374.085   151502154.568        -491.523          39.000  
> 2025 11 11 08 03 32.0000000  0 32                     
G28  24521619.153                       -3379.794          37.000    24521624.489   100411952.393       -2633.455          37.000  
G26  21848494.452   114814614.266       -2540.344          44.000    21848495.748    89465937.898       -1979.708          43.000  
G27  20163078.412   105957692.837        1322.697          48.000    20163079.622    82564438.765        1030.644          46.000  
G31  22017583.778   115703184.207       -2690.769          45.000    22017583.161    90158324.229       -2096.415          43.000  
G04  20948761.454   110086484.870        -941.766          46.000    20948761.341    85781676.660        -733.911          46.000  
C37  22302724.579   116136140.749        -867.953          49.000                                                                  
C06  35874014.306   186805408.267          51.093          45.000    35874005.153   144449753.713          39.624          48.000  
C16  36315703.289   189105398.9851         57.787          48.000    36315699.300   146228273.942          44.618          48.000  
C28  22655972.675   117975597.4121        490.185          49.000                                                                  
C07  37193201.213                         545.619          43.000    37193192.687   149761576.720         421.967          47.000  
C27  23508864.893   122416830.0121       2502.017          46.000                                                                  
R10  22727998.721                       -2622.404          40.000                                                                  
R22  23171809.679                        3910.935          44.000    23171836.942    96205575.842        3041.874          42.000  
R12  21731314.882   116084783.8021       1670.541          49.000    21731316.997    90288174.536        1299.280          48.000  
R11  20149544.436   107673059.1221       -705.775          51.000    20149543.525    83745706.099        -548.909          51.000  
R20  22120892.138                       -2085.346          45.000    22120892.391    92003598.160       -1622.025          47.000  
R01  21111549.852   112853332.1331      -2955.762          47.000                                                                  
G08  21742447.887   114257336.167        2917.184          43.000    21742452.640    89031714.040        2273.070          42.000  
G09  22211861.869                        1265.310          42.000    22211863.141    90953868.733         986.127          41.000  
G16  20094520.517   105597419.3721      -1113.730          46.000                                                                  
J02  38903316.968   204438310.991        -782.758          46.000    38903316.953   159302580.720        -609.973          47.000  
G18  24327729.839                         -33.660          38.000    24327730.968    99617994.056         -26.079          39.000  
C20  24729087.421   128770843.750       -2763.023          42.000                                                                  
C09  36818457.990   191723372.1401        294.133          45.000    36818450.452   148252644.125         227.518          48.000  
C23  25163543.224   131033176.8691      -2424.813          42.000                                                                  
C19  24962084.104                        -693.816          41.000                                                                  
C10  38443597.610                         549.843          39.000    38443594.516   154796426.493         425.026          43.000  
R21  20832401.528   111478389.7791       1474.188          50.000    20832401.795    86705414.738        1146.551          50.000  
R08  23569900.001                       -4670.442          40.000    23569939.080    98167967.296       -3632.560          40.000  
J03  37737288.010                          -0.028          37.000    37737296.043   154527922.525          -0.277          43.000  
J07  37121979.684                        -335.782          39.000    37121979.906   152008302.101        -261.787          47.000  
J04                                                                  36998378.875   151502174.197        -491.083          39.000  
> 2025 11 11 08 03 32.0400000  0 32                     
G28  24521644.893                       -3379.641          37.000    24521650.230   100412057.724       -2633.304          37.000  
G26  21848513.779   114814715.859       -2539.909          44.000    21848515.085    89466017.063       -1979.318          43.000  
G27  20163068.334   105957639.921        1322.900          48.000    20163069.551    82564397.531        1030.841          46.000  
G31  22017604.253   115703291.815       -2690.333          45.000    22017603.653    90158408.081       -2096.247          43.000  
G04  20948768.614   110086522.528        -941.467          46.000    20948768.506    85781706.001        -733.588          46.000  
C37  22302731.240   116136175.443        -867.452          49.000                                                                  
C06  35874013.890   186805406.213          51.355          45.000    35874004.735   144449752.124          39.795          48.000  
C16  36315702.833   189105396.656          58.174          48.000    36315698.861   146228272.140          44.960          48.000  
C28  22655968.906   117975577.793         490.422          49.000                                                                  
C07  37193197.026   193674736.2591        545.901          43.000    37193188.481   149761559.831         422.240          47.000  
C27  23508845.678   122416729.920        2502.287          46.000                                                                  
R10  22728018.397                       -2622.103          40.000                                                                  
R22  23171780.360                        3911.310          44.000    23171807.621    96205454.171        3041.913          42.000  
R12  21731302.352   116084716.965        1670.858          49.000    21731304.477    90288122.547        1299.625          48.000  
R11  20149549.702   107673087.337        -705.411          51.000    20149548.816    83745728.045        -548.675          51.000  
R20  22120907.737   118290430.9891      -2084.976          45.000    22120907.977    92003663.018       -1621.601          47.000  
R01  21111571.970   112853450.345       -2955.433          47.000                                                                  
G08  21742425.673   114257219.471        2917.429          43.000    21742430.431    89031623.107        2273.267          42.000  
G09  22211852.228   116724068.8011       1265.568          42.000    22211853.500    90953829.282         986.340          41.000  
G16  20094528.988   105597463.915       -1113.510          46.000                                                                  
J02  38903322.923   204438342.287        -782.422          46.000    38903322.909   159302605.101        -609.576          47.000  
G18  24327730.084                         -32.992          38.000    24327731.202    99617995.080         -25.649          39.000  
C20  24729108.661   128770954.250       -2762.604          42.000                                                                  
C09  36818455.722   191723360.344         294.731          45.000    36818448.205   148252635.015         227.704          48.000  
C23  25163561.845   131033273.852       -2424.578          42.000                                                                  
C19  24962089.444   129984152.0751       -693.547          41.000                                                                  
C10  38443593.392   200185879.1461        549.923          39.000    38443590.289   154796409.481         425.309          43.000  
R21  20832390.512   111478330.801        1474.426          50.000    20832390.770    86705368.863        1146.838          50.000  
R08  23569934.867                       -4670.130          40.000    23569973.973    98168112.598       -3632.487          40.000  
J03  37737287.995                           0.287          37.000    37737296.035   154527922.507           0.223          43.000  
J07  37121982.227                        -335.760          39.000    37121982.443   152008312.558        -261.467          47.000  
J04                                                                  36998383.682   151502193.822        -490.732          39.000  
> 2025 11 11 08 03 32.0800000  0 32                     
G28  24521670.627                       -3379.726          37.000    24521675.952   100412163.067       -2633.505          37.000  
G26  21848533.121   114814817.464       -2539.948          44.000    21848534.426    89466096.234       -1979.253          43.000  
G27  20163058.265   105957587.011        1322.847          48.000    20163059.500    82564356.292        1030.974          46.000  
G31  22017624.730   115703399.431       -2690.311          45.000    22017624.156    90158491.940       -2096.329          43.000  
G04  20948775.760   110086560.193        -941.541          46.000    20948775.691    85781735.350        -733.636          46.000  
C37  22302737.874   116136210.150        -867.524          49.000                                                                  
C06  35874013.470   186805404.168          51.257          45.000    35874004.335   144449750.542          39.673          48.000  
C16  36315702.364   189105394.340          58.064          48.000    36315698.418   146228270.342          45.037          48.000  
C28  22655965.145   117975558.174         490.499          49.000                                                                  
C07  37193192.813   193674714.429         545.892          43.000    37193184.283   149761542.954         422.088          47.000  
C27  23508826.461   122416629.827        2502.389          46.000                                                                  
R10  22728038.076   121153245.0791      -2622.079          40.000                                                                  
R22  23171751.067   123692406.9181       3911.173          44.000    23171778.304    96205332.514        3041.561          42.000  
R12  21731289.854   116084650.123        1671.059          49.000    21731291.973    90288070.562        1299.702          48.000  
R11  20149555.007   107673115.565        -705.539          51.000    20149554.092    83745749.999        -548.734          51.000  
R20  22120923.342   118290514.389       -2084.915          45.000    22120923.569    92003727.888       -1621.632          47.000  
R01  21111594.089   112853568.555       -2955.251          47.000                                                                  
G08  21742403.473   114257102.789        2917.234          43.000    21742408.222    89031532.181        2273.218          42.000  
G09  22211842.587   116724018.194        1265.399          42.000    22211843.865    90953789.847         986.104          41.000  
G16  20094537.464   105597508.466       -1113.620          46.000                                                                  
J02  38903328.870   204438373.583        -782.312          46.000    38903328.860   159302629.494        -609.637          47.000  
G18  24327730.346                         -33.000          38.000    24327731.453    99617996.117         -25.745          39.000  
C20  24729129.880   128771064.753       -2762.480          42.000                                                                  
C09  36818453.431   191723348.564         294.695          45.000    36818445.967   148252625.906         227.758          48.000  
C23  25163580.453   131033370.828       -2424.414          42.000                                                                  
C19  24962094.790   129984179.838        -693.830          41.000                                                                  
C10  38443589.119   200185857.141         550.131          39.000    38443586.046   154796392.471         425.332          43.000  
R21  20832379.504   111478271.831        1474.371          50.000    20832379.756    86705322.995        1146.820          50.000  
R08  23569969.769                       -4669.898          40.000    23570008.865    98168257.891       -3632.341          40.000  
J03  37737287.982   198310790.6711          0.291          37.000    37737296.018   154527922.501           0.267          43.000  
J07  37121984.768   195077347.3571       -335.674          39.000    37121985.026   152008323.026        -261.531          47.000  
J04                                                                  36998388.479   151502213.455        -490.688          39.000  
> 2025 11 11 08 03 32.1200000  0 32                     
G28  24521696.352                       -3380.115          37.000    24521701.691   100412268.428       -2633.861          37.000  
G26  21848552.483   114814919.091       -2540.469          44.000    21848553.767    89466175.413       -1979.385          43.000  
G27  20163048.186   105957534.112        1322.553          48.000    20163049.440    82564315.076        1030.566          46.000  
G31  22017645.233   115703507.060       -2690.619          45.000    22017644.617    90158575.811       -2096.632          43.000  
G04  20948782.951   110086597.873        -941.919          46.000    20948782.875    85781764.709        -733.881          46.000  
C37  22302744.526   116136244.879        -867.998          49.000                                                                  
C06  35874013.056   186805402.131          51.001          45.000    35874003.944   144449748.969          39.398          48.000  
C16  36315701.923   189105392.034          57.814          48.000    36315697.981   146228268.558          44.775          48.000  
C28  22655961.372   117975538.571         490.228          49.000                                                                  
C07  37193188.613   193674692.621         545.439          43.000    37193180.090   149761526.089         421.751          47.000  
C27  23508807.197   122416529.755        2501.987          46.000                                                                  
R10  22728057.744   121153349.982       -2622.493          40.000                                                                  
R22  23171721.756   123692250.500        3910.654          44.000    23171749.009    96205210.860        3041.319          42.000  
R12  21731277.352   116084583.312        1670.563          49.000    21731279.471    90288018.594        1299.378          48.000  
R11  20149560.283   107673143.805        -705.877          51.000    20149559.371    83745771.963        -548.978          51.000  
R20  22120938.930   118290597.814       -2085.382          45.000    22120939.162    92003792.758       -1621.698          47.000  
R01  21111616.216   112853686.798       -2955.771          47.000                                                                  
G08  21742381.266   114256986.124        2916.829          43.000    21742386.027    89031441.262        2273.023          42.000  
G09  22211832.962   116723967.601        1264.992          42.000    22211834.259    90953750.433         985.578          41.000  
G16  20094545.952   105597553.032       -1114.027          46.000                                                                  
J02  38903334.837   204438404.900        -782.709          46.000    38903334.819   159302653.895        -609.888          47.000  
G18  24327730.626                         -34.286          38.000    24327731.708    99617997.169         -26.112          39.000  
C20  24729151.131   128771175.278       -2762.906          42.000                                                                  
C09  36818451.177   191723336.803         294.286          45.000    36818443.712   148252616.815         227.424          48.000  
C23  25163599.053   131033467.819       -2424.618          42.000                                                                  
C19  24962100.115   129984207.616        -694.269          41.000                                                                  
C10  38443584.890   200185835.166         549.643          39.000    38443581.813   154796375.474         425.022          43.000  
R21  20832368.479   111478212.878        1473.962          50.000    20832368.741    86705277.145        1146.429          50.000  
R08  23570004.643   126216310.0841      -4670.308          40.000    23570043.751    98168403.202       -3632.644          40.000  
J03  37737287.972   198310790.670           0.067          37.000    37737296.012   154527922.502           0.089          43.000  
J07  37121987.343   195077360.816        -336.216          39.000    37121987.581   152008333.499        -261.717          47.000  
J04                                                                  36998393.273   151502233.105        -491.025          39.000  
> 2025 11 11 08 03 32.1600000  0 32                     
G28  24521722.098   128862512.4461      -3380.396          37.000    24521727.422   100412373.794       -2634.182          37.000  
G26  21848571.836   114815020.730       -2540.943          44.000    21848573.108    89466254.621       -1979.977          43.000  
G27  20163038.124   105957481.229        1322.132          48.000    20163039.382    82564273.876        1030.033          46.000  
G31  22017665.731   115703614.714       -2691.210          45.000    22017665.101    90158659.696       -2097.069          43.000  
G04  20948790.136   110086635.568        -942.365          46.000    20948790.059    85781794.086        -734.338          46.000  
C37  22302751.194   116136279.623        -868.523          49.000                                                                  
C06  35874012.641   186805400.113          50.513          45.000    35874003.569   144449747.410          39.020          48.000  
C16  36315701.485   189105389.743          57.416          48.000    36315697.569   146228266.792          44.303          48.000  
C28  22655957.619   117975518.989         489.691          49.000                                                                  
C07  37193184.446   193674670.826         544.977          43.000    37193175.908   149761509.232         421.428          47.000  
C27  23508787.993   122416429.702        2501.402          46.000                                                                  
R10  22728077.411   121153454.913       -2623.147          40.000                                                                  
R22  23171692.431   123692094.094        3910.128          44.000    23171719.717    96205089.217        3041.022          42.000  
R12  21731264.862   116084516.515        1670.027          49.000    21731266.969    90287966.640        1298.930          48.000  
R11  20149565.573   107673172.066        -706.442          51.000    20149564.658    83745793.941        -549.382          51.000  
R20  22120954.551   118290681.251       -2085.821          45.000    22120954.760    92003857.658       -1622.302          47.000  
R01  21111638.351   112853805.056       -2956.354          47.000                                                                  
G08  21742359.067   114256869.478        2916.234          43.000    21742363.832    89031350.366        2272.517          42.000  
G09  22211823.348   116723917.035        1264.293          42.000    22211824.636    90953711.031         985.068          41.000  
G16  20094554.433   105597597.618       -1114.559          46.000                                                                  
J02  38903340.793   204438436.238        -783.337          46.000    38903340.764   159302678.313        -610.339          47.000  
G18  24327730.908                         -34.358          38.000    24327731.968    99617998.252         -26.906          39.000  
C20  24729172.370   128771285.820       -2763.444          42.000                                                                  
C09  36818448.887   191723325.064         293.636          45.000    36818441.466   148252607.728         227.154          48.000  
C23  25163617.669   131033564.817       -2424.903          42.000                                                                  
C19  24962105.471   129984235.397        -694.613          41.000                                                                  
C10  38443580.671   200185813.204         549.102          39.000    38443577.607   154796358.487         424.665          43.000  
R21  20832357.480   111478153.941        1473.438          50.000    20832357.738    86705231.308        1145.953          50.000  
R08  23570039.525   126216496.926       -4670.850          40.000    23570078.657    98168548.523       -3632.995          40.000  
J03  37737287.984   198310790.694          -0.444          37.000    37737296.029   154527922.531          -0.559          43.000  
J07  37121989.919   195077374.272        -336.447          39.000    37121990.146   152008343.987        -262.119          47.000  
J04                                                                  36998398.061   151502252.760        -491.325          39.000  
> 2025 11 11 08 03 32.2000000  0 32                     
G28  24521747.834   128862647.643       -3380.171          37.000    24521753.156   100412479.145       -2634.070          37.000  
G26  21848591.188   114815122.372       -2541.198          44.000    21848592.474    89466333.817       -1980.075          43.000  
G27  20163028.098   105957428.355        1321.769          48.000    20163029.306    82564232.677        1029.821          46.000  
G31  22017686.213   115703722.370       -2691.517          45.000    22017685.607    90158743.590       -2097.411          43.000  
G04  20948797.311   110086673.280        -942.865          46.000    20948797.251    85781823.467        -734.644          46.000  
C37  22302757.868   116136314.372        -868.849          49.000                                                                  
C06  35874012.250   186805398.093          50.348          45.000    35874003.181   144449745.854          38.800          48.000  
C16  36315701.019   189105387.463          56.986          48.000    36315697.120   146228265.030          43.973          48.000  
C28  22655953.861   117975499.416         489.262          49.000                                                                  
C07  37193180.282   193674649.027         544.815          43.000    37193171.735   149761492.384         421.117          47.000  
C27  23508768.800   122416329.651        2501.122          46.000                                                                  
R10  22728097.072   121153559.836       -2623.313          40.000                                                                  
R22  23171663.127   123691937.692        3909.916          44.000    23171690.414    96204967.561        3041.157          42.000  
R12  21731252.351   116084449.727        1669.613          49.000    21731254.482    90287914.699        1298.507          48.000  
R11  20149570.858   107673200.327        -706.679          51.000    20149569.927    83745815.924        -549.652          51.000  
R20  22120970.176   118290764.705       -2086.350          45.000    22120970.366    92003922.566       -1622.748          47.000  
R01  21111660.472   112853923.324       -2956.801          47.000                                                                  
G08  21742336.857   114256752.808        2916.385          43.000    21742341.637    89031259.477        2272.160          42.000  
G09  22211813.722   116723866.465        1264.035          42.000    22211815.004    90953671.631         984.807          41.000  
G16  20094562.905   105597642.210       -1114.927          46.000                                                                  
J02  38903346.740   204438467.568        -783.459          46.000    38903346.763   159302702.732        -610.559          47.000  
G18  24327731.149   127843092.7111        -34.498          38.000    24327732.212    99617999.352         -27.568          39.000  
C20  24729193.595   128771396.362       -2763.660          42.000                                                                  
C09  36818446.635   191723313.322         293.389          45.000    36818439.225   148252598.648         226.918          48.000  
C23  25163636.293   131033661.840       -2425.473          42.000                                                                  
C19  24962110.795   129984263.191        -694.948          41.000                                                                  
C10  38443576.462   200185791.240         548.950          39.000    38443573.395   154796341.508         424.383          43.000  
R21  20832346.504   111478095.015        1473.035          50.000    20832346.755    86705185.476        1145.703          50.000  
R08  23570074.409   126216683.791       -4671.562          40.000    23570113.560    98168693.867       -3633.598          40.000  
J03  37737287.980   198310790.731          -0.943          37.000    37737296.028   154527922.552          -0.688          43.000  
J07  37121992.493   195077387.735        -336.650          39.000    37121992.711   152008354.489        -262.549          47.000  
J04                                                                  36998402.859   151502272.430        -491.732          39.000  
> 2025 11 11 08 03 32.2400000  0 32                     
G28  24521773.554   128862782.866       -3380.493          37.000    24521778.895   100412584.518       -2634.352          37.000  
G26  21848610.531   114815224.011       -2541.200          44.000    21848611.822    89466413.013       -1980.020          43.000  
G27  20163018.043   105957375.488        1321.550          48.000    20163019.243    82564191.478        1029.776          46.000  
G31  22017706.682   115703830.033       -2691.747          45.000    22017706.071    90158827.480       -2097.454          43.000  
G04  20948804.495   110086710.981        -942.798          46.000    20948804.418    85781852.842        -734.601          46.000  
C37  22302764.552   116136349.112        -868.771          49.000                                                                  
C06  35874011.825   186805396.084          50.104          45.000    35874002.803   144449744.292          38.861          48.000  
C16  36315700.596   189105385.185          56.792          48.000    36315696.676   146228263.271          43.828          48.000  
C28  22655950.115   117975479.835         489.268          49.000                                                                  
C07  37193176.111   193674627.233         544.742          43.000    37193167.557   149761475.533         421.070          47.000  
C27  23508749.594   122416229.600        2501.075          46.000                                                                  
R10  22728116.732   121153664.741       -2623.039          40.000                                                                  
R22  23171633.822   123691781.287        3909.948          44.000    23171661.114    96204845.912        3041.146          42.000  
R12  21731239.843   116084382.935        1669.537          49.000    21731241.983    90287862.748        1298.514          48.000  
R11  20149576.153   107673228.588        -706.724          51.000    20149575.198    83745837.904        -549.685          51.000  
R20  22120985.761   118290848.155       -2086.471          45.000    22120985.983    92003987.473       -1622.890          47.000  
R01  21111682.613   112854041.588       -2956.877          47.000                                                                  
G08  21742314.644   114256636.148        2916.366          43.000    21742319.437    89031168.581        2272.146          42.000  
G09  22211804.099   116723815.884        1264.196          42.000    22211805.367    90953632.227         984.827          41.000  
G16  20094571.377   105597686.798       -1114.946          46.000                                                                  
J02  38903352.687   204438498.907        -783.594          46.000    38903352.745   159302727.150        -610.626          47.000  
G18  24327731.378   127843094.084         -34.525          38.000    24327732.486    99618000.416         -27.207          39.000  
C20  24729214.829   128771506.910       -2763.835          42.000                                                                  
C09  36818444.404   191723301.585         293.259          45.000    36818436.979   148252589.566         226.926          48.000  
C23  25163654.930   131033758.875       -2425.959          42.000                                                                  
C19  24962116.158   129984290.978        -694.938          41.000                                                                  
C10  38443572.256   200185769.281         548.804          39.000    38443569.179   154796324.523         424.454          43.000  
R21  20832335.493   111478036.085        1473.016          50.000    20832335.728    86705139.641        1145.648          50.000  
R08  23570109.307   126216870.630       -4671.305          40.000    23570148.456    98168839.184       -3633.304          40.000  
J03  37737287.965   198310790.761          -0.947          38.000    37737296.037   154527922.573          -0.704          43.000  
J07  37121995.048   195077401.191        -336.601          39.000    37121995.298   152008364.986        -262.623          47.000  
J04                                                                  36998407.674   151502292.098        -491.860          39.000  
> 2025 11 11 08 03 32.2800000  0 32                     
G28  24521799.299   128862918.096       -3380.700          37.000    24521804.648   100412689.888       -2634.391          37.000  
G26  21848629.879   114815325.641       -2541.000          44.000    21848631.154    89466492.213       -1980.075          43.000  
G27  20163007.984   105957322.606        1321.754          48.000    20163009.180    82564150.269        1029.984          46.000  
G31  22017727.165   115703937.685       -2691.610          45.000    22017726.564    90158911.363       -2097.273          43.000  
G04  20948811.665   110086748.676        -942.602          46.000    20948811.587    85781882.222        -734.613          46.000  
C37  22302771.205   116136383.847        -868.572          49.000                                                                  
C06  35874011.431   186805394.061          50.281          45.000    35874002.411   144449742.731          38.898          48.000  
C16  36315700.160   189105382.900          56.870          48.000    36315696.240   146228261.490          44.180          48.000  
C28  22655946.374   117975460.256         489.281          49.000                                                                  
C07  37193171.933   193674605.436         544.769          43.000    37193163.362   149761458.673         421.257          47.000  
C27  23508730.385   122416129.543        2501.250          46.000                                                                  
R10  22728136.420   121153769.661       -2623.099          40.000                                                                  
R22  23171604.522   123691624.879        3910.043          44.000    23171631.807    96204724.273        3040.973          42.000  
R12  21731227.341   116084316.127        1669.873          49.000    21731229.470    90287810.782        1298.860          48.000  
R11  20149581.464   107673256.840        -706.528          51.000    20149580.489    83745859.880        -549.551          51.000  
R20  22121001.380   118290931.593       -2086.250          45.000    22121001.595    92004052.375       -1622.765          47.000  
R01  21111704.744   112854159.842       -2956.667          47.000                                                                  
G08  21742292.436   114256519.502        2916.118          43.000    21742297.230    89031077.680        2272.288          42.000  
G09  22211794.474   116723765.300        1264.381          42.000    22211795.728    90953592.798         985.355          41.000  
G16  20094579.852   105597731.374       -1114.693          46.000                                                                  
J02  38903358.630   204438530.239        -783.484          46.000    38903358.707   159302751.559        -610.425          47.000  
G18  24327731.640   127843095.441         -34.188          38.000    24327732.742    99618001.460         -26.520          39.000  
C20  24729236.075   128771617.447       -2763.703          42.000                                                                  
C09  36818442.156   191723289.841         293.385          45.000    36818434.728   148252580.479         227.031          47.000  
C23  25163673.570   131033855.891       -2425.756          42.000                                                                  
C19  24962121.512   129984318.772        -695.006          41.000                                                                  
C10  38443568.020   200185747.297         549.281          39.000    38443564.945   154796307.534         424.622          43.000  
R21  20832324.450   111477977.145        1473.254          50.000    20832324.705    86705093.802        1145.776          50.000  
R08  23570144.194   126217057.476       -4671.223          40.000    23570183.361    98168984.500       -3633.063          40.000  
J03  37737287.956   198310790.779          -0.732          38.000    37737296.042   154527922.595          -0.647          43.000  
J07  37121997.617   195077414.664        -336.774          39.000    37121997.861   152008375.478        -262.495          47.000  
J04                                                                  36998412.493   151502311.756        -491.686          39.000  
> 2025 11 11 08 03 32.3200000  0 32                     
G28  24521825.046   128863053.301       -3380.428          37.000    24521830.380   100412795.242       -2634.121          37.000  
G26  21848649.194   114815427.278       -2540.971          44.000    21848650.520    89466571.403       -1979.895          43.000  
G27  20162997.911   105957269.728        1321.849          48.000    20162999.120    82564109.071        1029.916          46.000  
G31  22017747.627   115704045.331       -2691.399          45.000    22017747.039    90158995.244       -2097.109          43.000  
G04  20948818.832   110086786.374        -942.505          46.000    20948818.773    85781911.596        -734.473          46.000  
C37  22302777.874   116136418.578        -868.405          49.000                                                                  
C06  35874011.050   186805392.041          50.372          45.000    35874002.055   144449741.167          38.983          48.000  
C16  36315699.753   189105380.603          57.175          48.000    36315695.809   146228259.715          44.304          48.000  
C28  22655942.608   117975440.673         489.432          49.000                                                                  
C07  37193167.736   193674583.636         544.881          43.000    37193159.192   149761441.819         421.291          47.000  
C27  23508711.150   122416029.491        2501.256          46.000                                                                  
R10  22728156.108   121153874.584       -2623.134          40.000                                                                  
R22  23171575.200   123691468.456        3910.386          44.000    23171602.492    96204602.626        3041.063          42.000  
R12  21731214.823   116084249.319        1670.061          49.000    21731216.959    90287758.827        1298.884          48.000  
R11  20149586.751   107673285.092        -706.396          51.000    20149585.772    83745881.858        -549.526          51.000  
R20  22121017.006   118291015.030       -2086.052          45.000    22121017.214    92004117.274       -1622.629          47.000  
R01  21111726.859   112854278.096       -2956.494          47.000                                                                  
G08  21742270.242   114256402.852        2916.125          43.000    21742275.019    89030986.776        2272.455          42.000  
G09  22211784.825   116723714.709        1264.651          42.000    22211786.108    90953553.379         985.477          41.000  
G16  20094588.328   105597775.948       -1114.469          46.000                                                                  
J02  38903364.603   204438561.569        -783.362          46.000    38903364.672   159302775.969        -610.315          47.000  
G18  24327731.909   127843096.826         -34.480          38.000    24327732.986    99618002.517         -26.366          39.000  
C20  24729257.311   128771727.983       -2763.535          42.000                                                                  
C09  36818439.871   191723278.080         293.809          45.000    36818432.472   148252571.392         227.084          47.000  
C23  25163692.212   131033952.905       -2425.546          42.000                                                                  
C19  24962126.843   129984346.553        -694.786          41.000                                                                  
C10  38443563.787   200185725.330         549.231          39.000    38443560.711   154796290.538         424.837          43.000  
R21  20832313.423   111477918.209        1473.316          50.000    20832313.681    86705047.959        1145.966          50.000  
R08  23570179.089   126217244.317       -4671.144          40.000    23570218.231    98169129.829       -3633.199          40.000  
J03  37737287.969   198310790.800          -0.637          38.000    37737296.050   154527922.607          -0.450          43.000  
J07  37122000.155   195077428.119        -336.553          39.000    37122000.425   152008385.959        -262.232          47.000  
J04                                                                  36998417.292   151502331.408        -491.442          39.000  
> 2025 11 11 08 03 32.3600000  0 32                     
G28  24521850.784   128863188.525       -3380.540          37.000    24521856.117   100412900.596       -2633.982          37.000  
G26  21848668.542   114815528.913       -2540.932          44.000    21848669.864    89466650.593       -1979.771          43.000  
G27  20162987.824   105957216.846        1321.973          48.000    20162989.050    82564067.855        1030.241          46.000  
G31  22017768.122   115704152.976       -2691.217          45.000    22017767.524    90159079.117       -2096.866          43.000  
G04  20948825.983   110086824.071        -942.468          46.000    20948825.947    85781940.970        -734.406          46.000  
C37  22302784.548   116136453.317        -868.434          49.000                                                                  
C06  35874010.638   186805390.022          50.409          45.000    35874001.681   144449739.602          39.081          48.000  
C16  36315699.325   189105378.300          57.480          48.000    36315695.385   146228257.937          44.432          48.000  
C28  22655938.866   117975421.089         489.553          49.000                                                                  
C07  37193163.561   193674561.830         545.028          43.000    37193155.019   149761424.960         421.394          47.000  
C27  23508691.953   122415929.432        2501.374          46.000                                                                  
R10  22728175.789   121153979.495       -2622.930          40.000                                                                  
R22  23171545.885   123691312.049        3910.297          44.000    23171573.165    96204480.984        3041.038          42.000  
R12  21731202.317   116084182.514        1670.096          49.000    21731204.426    90287706.866        1298.980          48.000  
R11  20149592.042   107673313.350        -706.447          51.000    20149591.066    83745903.833        -549.426          51.000  
R20  22121032.602   118291098.473       -2086.079          45.000    22121032.822    92004182.172       -1622.492          47.000  
R01  21111748.964   112854396.342       -2956.242          47.000                                                                  
G08  21742248.051   114256286.201        2916.185          43.000    21742252.809    89030895.877        2272.509          42.000  
G09  22211775.191   116723664.139        1264.376          42.000    22211776.489    90953513.974         985.228          41.000  
G16  20094596.801   105597820.531       -1114.501          46.000                                                                  
J02  38903370.581   204438592.896        -783.221          46.000    38903370.625   159302800.384        -610.339          47.000  
G18  24327732.182   127843098.196         -34.418          38.000    24327733.261    99618003.596         -26.689          39.000  
C20  24729278.557   128771838.520       -2763.477          42.000                                                                  
C09  36818437.598   191723266.313         294.128          45.000    36818430.186   148252562.311         227.045          48.000  
C23  25163710.844   131034049.913       -2425.288          42.000                                                                  
C19  24962132.178   129984374.340        -694.687          41.000                                                                  
C10  38443559.578   200185703.364         549.156          39.000    38443556.528   154796273.548         424.818          43.000  
R21  20832302.424   111477859.272        1473.383          50.000    20832302.661    86705002.119        1145.972          50.000  
R08  23570213.979   126217431.161       -4671.144          40.000    23570253.107    98169275.139       -3632.872          40.000  
J03  37737287.974   198310790.825          -0.649          38.000    37737296.055   154527922.621          -0.323          43.000  
J07  37122002.720   195077441.578        -336.462          39.000    37122002.970   152008396.436        -261.970          47.000  
J04                                                                  36998422.094   151502351.061        -491.303          39.000  
> 2025 11 11 08 03 32.4000000  0 32                     
G28  24521876.500   128863323.741       -3380.559          37.000    24521881.864   100413005.982       -2634.458          37.000  
G26  21848687.890   114815630.555       -2541.045          44.000    21848689.218    89466729.798       -1980.039          43.000  
G27  20162977.761   105957163.973        1321.861          48.000    20162978.992    82564026.656        1030.108          46.000  
G31  22017788.618   115704260.627       -2691.248          45.000    22017788.004    90159163.007       -2097.086          43.000  
G04  20948833.152   110086861.780        -942.670          46.000    20948833.131    85781970.351        -734.515          46.000  
C37  22302791.205   116136488.064        -868.633          49.000                                                                  
C06  35874010.237   186805388.005          50.397          45.000    35874001.248   144449738.040          39.050          48.000  
C16  36315698.880   189105376.006          57.450          48.000    36315694.976   146228256.171          44.254          48.000  
C28  22655935.110   117975401.514         489.437          49.000                                                                  
C07  37193159.364   193674540.038         544.865          43.000    37193150.835   149761408.103         421.412          47.000  
C27  23508672.720   122415829.374        2501.416          46.000                                                                  
R10  22728195.475   121154084.415       -2623.034          40.000                                                                  
R22  23171516.576   123691155.639        3910.253          44.000    23171543.869    96204359.342        3041.007          42.000  
R12  21731189.822   116084115.717        1669.975          49.000    21731191.914    90287654.912        1298.903          48.000  
R11  20149597.354   107673341.616        -706.627          51.000    20149596.378    83745925.815        -549.539          51.000  
R20  22121048.199   118291181.918       -2086.140          45.000    22121048.437    92004247.075       -1622.547          47.000  
R01  21111771.077   112854514.611       -2956.539          47.000                                                                  
G08  21742225.853   114256169.549        2916.244          43.000    21742230.611    89030804.966        2272.699          42.000  
G09  22211765.567   116723613.575        1264.089          42.000    22211766.872    90953474.568         985.107          41.000  
G16  20094605.288   105597865.119       -1114.658          46.000                                                                  
J02  38903376.523   204438624.229        -783.295          46.000    38903376.589   159302824.801        -610.406          47.000  
G18  24327732.423   127843099.553         -34.127          38.000    24327733.524    99618004.674         -26.935          39.000  
C20  24729299.779   128771949.055       -2763.412          42.000                                                                  
C09  36818435.331   191723254.575         293.722          45.000    36818427.878   148252553.223         227.143          47.000  
C23  25163729.483   131034146.915       -2425.088          42.000                                                                  
C19  24962137.498   129984402.133        -694.800          41.000                                                                  
C10  38443555.381   200185681.392         549.212          39.000    38443552.319   154796256.564         424.663          43.000  
R21  20832291.433   111477800.349        1473.157          50.000    20832291.654    86704956.291        1145.764          50.000  
R08  23570248.883   126217617.999       -4670.971          40.000    23570287.986    98169420.464       -3633.015          40.000  
J03  37737287.986   198310790.849          -0.623          38.000    37737296.058   154527922.641          -0.441          43.000  
J07  37122005.291   195077455.036        -336.462          39.000    37122005.520   152008406.924        -262.109          47.000  
J04                                                                  36998426.890   151502370.717        -491.342          39.000  
> 2025 11 11 08 03 32.4400000  0 32                     
G28  24521902.225   128863458.978       -3380.826          37.000    24521907.591   100413111.357       -2634.478          37.000  
G26  21848707.227   114815732.205       -2541.252          44.000    21848708.551    89466809.006       -1980.250          43.000  
G27  20162967.724   105957111.112        1321.568          48.000    20162968.942    82563985.465        1029.834          46.000  
G31  22017809.116   115704368.287       -2691.443          45.000    22017808.487    90159246.902       -2097.333          43.000  
G04  20948840.344   110086899.492        -942.859          46.000    20948840.311    85781999.735        -734.644          46.000  
C37  22302797.861   116136522.820        -868.906          49.000                                                                  
C06  35874009.860   186805385.987          50.391          45.000    35874000.872   144449736.489          38.831          48.000  
C16  36315698.443   189105373.728          57.111          48.000    36315694.543   146228254.409          44.058          48.000  
C28  22655931.338   117975381.948         489.197          49.000                                                                  
C07  37193155.165   193674518.256         544.611          43.000    37193146.662   149761391.251         421.367          47.000  
C27  23508653.502   122415729.333        2501.089          46.000                                                                  
R10  22728215.161   121154189.342       -2623.191          40.000                                                                  
R22  23171487.248   123690999.249        3909.823          44.000    23171514.599    96204237.695        3041.114          42.000  
R12  21731177.336   116084048.928        1669.748          49.000    21731179.397    90287602.965        1298.714          48.000  
R11  20149602.672   107673369.887        -706.806          51.000    20149601.675    83745947.803        -549.681          51.000  
R20  22121063.823   118291265.377       -2086.410          45.000    22121064.029    92004311.985       -1622.684          47.000  
R01  21111793.202   112854632.880       -2956.728          47.000                                                                  
G08  21742203.652   114256052.894        2916.268          43.000    21742208.420    89030714.075        2272.433          42.000  
G09  22211755.957   116723563.012        1263.935          42.000    22211757.254    90953435.170         984.932          41.000  
G16  20094613.771   105597909.713       -1114.863          46.000                                                                  
J02  38903382.493   204438655.568        -783.447          46.000    38903382.551   159302849.217        -610.431          47.000  
G18  24327732.668   127843100.952         -34.703          38.000    24327733.769    99618005.741         -26.837          39.000  
C20  24729321.022   128772059.610       -2763.803          42.000                                                                  
C09  36818433.073   191723242.842         293.425          45.000    36818425.613   148252544.145         226.991          47.000  
C23  25163748.117   131034243.937       -2425.381          42.000                                                                  
C19  24962142.834   129984429.929        -694.902          41.000                                                                  
C10  38443551.121   200185659.457         548.583          39.000    38443548.081   154796239.587         424.454          43.000  
R21  20832280.418   111477741.431        1472.943          50.000    20832280.645    86704910.463        1145.654          50.000  
R08  23570283.769   126217804.851       -4671.212          40.000    23570322.891    98169565.800       -3633.348          40.000  
J03  37737288.009   198310790.883          -0.781          38.000    37737296.070   154527922.663          -0.504          43.000  
J07  37122007.851   195077468.507        -336.669          39.000    37122008.073   152008417.421        -262.350          47.000  
J04                                                                  36998431.691   151502390.390        -491.667          39.000  
> 2025 11 11 08 03 32.4800000  0 32                     
G28  24521927.970   128863594.207       -3380.830          37.000    24521933.316   100413216.718       -2634.161          37.000  
G26  21848726.563   114815833.857       -2541.369          44.000    21848727.896    89466888.221       -1980.438          43.000  
G27  20162957.692   105957058.252        1321.403          48.000    20162958.880    82563944.281        1029.574          46.000  
G31  22017829.608   115704475.951       -2691.608          45.000    22017828.990    90159330.797       -2097.457          43.000  
G04  20948847.520   110086937.210        -943.036          46.000    20948847.494    85782029.127        -734.839          46.000  
C37  22302804.551   116136557.572        -868.929          49.000                                                                  
C06  35874009.474   186805383.981          50.171          45.000    35874000.506   144449734.934          38.812          48.000  
C16  36315698.015   189105371.459          56.788          48.000    36315694.118   146228252.648          43.945          48.000  
C28  22655927.567   117975362.382         489.074          49.000                                                                  
C07  37193150.958   193674496.473         544.490          43.000    37193142.466   149761374.410         421.110          47.000  
C27  23508634.301   122415629.287        2501.047          46.000                                                                  
R10  22728234.824   121154294.278       -2623.424          40.000                                                                  
R22  23171457.927   123690842.852        3909.802          44.000    23171485.291    96204116.064        3040.826          42.000  
R12  21731164.831   116083982.148        1669.501          49.000    21731166.922    90287551.024        1298.517          48.000  
R11  20149607.935   107673398.155        -706.817          51.000    20149606.961    83745969.789        -549.717          51.000  
R20  22121079.438   118291348.839       -2086.638          45.000    22121079.641    92004376.896       -1622.803          47.000  
R01  21111815.332   112854751.159       -2956.971          47.000                                                                  
G08  21742181.460   114255936.260        2915.968          43.000    21742186.225    89030623.188        2272.166          42.000  
G09  22211746.341   116723512.460        1263.733          42.000    22211747.638    90953395.777         984.737          41.000  
G16  20094622.258   105597954.303       -1114.861          46.000                                                                  
J02  38903388.456   204438686.912        -783.624          46.000    38903388.518   159302873.639        -610.565          47.000  
G18  24327732.905   127843102.336         -34.751          38.000    24327734.037    99618006.832         -27.153          39.000  
C20  24729342.247   128772170.171       -2764.076          42.000                                                                  
C09  36818430.825   191723231.114         293.188          45.000    36818423.349   148252535.075         226.779          47.000  
C23  25163766.741   131034340.970       -2425.756          42.000                                                                  
C19  24962148.178   129984457.728        -694.990          41.000                                                                  
C10  38443546.921   200185637.485         548.974          39.000    38443543.843   154796222.615         424.251          43.000  
R21  20832269.409   111477682.517        1472.778          50.000    20832269.664    86704864.640        1145.508          50.000  
R08  23570318.654   126217991.698       -4671.236          40.000    23570357.774    98169711.131       -3633.384          40.000  
J03  37737288.020   198310790.915          -0.791          38.000    37737296.078   154527922.694          -0.765          43.000  
J07  37122010.384   195077481.982        -336.886          39.000    37122010.616   152008427.923        -262.560          47.000  
J04                                                                  36998436.495   151502410.052        -491.628          39.000  
> 2025 11 11 08 03 32.5200000  0 32                     
G28  24521953.693   128863729.424       -3380.556          37.000    24521959.050   100413322.098       -2634.329          37.000  
G26  21848745.910   114815935.506       -2541.360          44.000    21848747.253    89466967.432       -1980.434          43.000  
G27  20162947.643   105957005.400        1321.219          48.000    20162948.845    82563903.091        1029.603          46.000  
G31  22017850.120   115704583.626       -2691.872          45.000    22017849.488    90159414.701       -2097.650          43.000  
G04  20948854.663   110086974.928        -943.091          46.000    20948854.663    85782058.517        -734.857          46.000  
C37  22302811.229   116136592.322        -868.881          49.000                                                                  
C06  35874009.087   186805381.978          50.006          45.000    35874000.114   144449733.383          38.727          48.000  
C16  36315697.632   189105369.183          56.747          48.000    36315693.695   146228250.893          43.815          48.000  
C28  22655923.826   117975342.823         488.907          49.000                                                                  
C07  37193146.773   193674474.681         544.636          43.000    37193138.296   149761357.568         420.973          47.000  
C27  23508615.079   122415529.249        2500.881          46.000                                                                  
R10  22728254.520   121154399.201       -2623.331          40.000                                                                  
R22  23171428.623   123690686.461        3909.717          44.000    23171455.975    96203994.421        3040.915          42.000  
R12  21731152.347   116083915.361        1669.491          49.000    21731154.436    90287499.078        1298.525          48.000  
R11  20149613.211   107673426.426        -706.859          51.000    20149612.259    83745991.775        -549.722          51.000  
R20  22121095.039   118291432.301       -2086.672          45.000    22121095.236    92004441.817       -1623.006          47.000  
R01  21111837.472   112854869.441       -2957.123          47.000                                                                  
G08  21742159.252   114255819.615        2915.946          43.000    21742164.037    89030532.293        2272.220          42.000  
G09  22211736.721   116723461.889        1264.030          42.000    22211738.002    90953356.383         984.700          41.000  
G16  20094630.739   105597998.903       -1115.015          46.000                                                                  
J02  38903394.424   204438718.260        -783.765          46.000    38903394.489   159302898.062        -610.596          47.000  
G18  24327733.173   127843103.725         -34.863          38.000    24327734.297    99618007.915         -27.209          39.000  
C20  24729363.477   128772280.721       -2764.006          42.000                                                                  
C09  36818428.592   191723219.382         293.138          45.000    36818421.119   148252525.998         226.785          47.000  
C23  25163785.379   131034438.004       -2425.966          42.000                                                                  
C19  24962153.518   129984485.537        -695.205          41.000                                                                  
C10  38443542.721   200185615.527         548.900          39.000    38443539.649   154796205.643         424.204          43.000  
R21  20832258.403   111477623.605        1472.699          50.000    20832258.645    86704818.822        1145.392          50.000  
R08  23570353.541   126218178.547       -4671.267          40.000    23570392.671    98169856.466       -3633.469          40.000  
J03  37737288.023   198310790.945          -0.771          38.000    37737296.090   154527922.725          -0.855          43.000  
J07  37122012.946   195077495.462        -337.059          39.000    37122013.185   152008438.421        -262.591          47.000  
J04                                                                  36998441.300   151502429.717        -491.665          39.000  
> 2025 11 11 08 03 32.5600000  0 32                     
G28  24521979.425   128863864.658       -3380.704          37.000    24521984.767   100413427.466       -2634.243          37.000  
G26  21848765.271   114816037.152       -2541.265          44.000    21848766.608    89467046.631       -1980.208          43.000  
G27  20162937.571   105956952.540        1321.321          48.000    20162938.771    82563861.907        1029.555          46.000  
G31  22017870.596   115704691.292       -2691.811          45.000    22017869.980    90159498.591       -2097.460          43.000  
G04  20948861.846   110087012.643        -943.024          46.000    20948861.811    85782087.902        -734.760          46.000  
C37  22302817.889   116136627.079        -868.942          49.000                                                                  
C06  35874008.684   186805379.974          50.018          45.000    35873999.752   144449731.829          38.800          48.000  
C16  36315697.215   189105366.907          56.783          48.000    36315693.274   146228249.129          43.914          48.000  
C28  22655920.097   117975323.253         489.064          49.000                                                                  
C07  37193142.613   193674452.890         544.714          43.000    37193134.117   149761340.717         421.120          47.000  
C27  23508595.856   122415429.209        2500.901          46.000                                                                  
R10  22728274.205   121154504.117       -2623.021          40.000                                                                  
R22  23171399.310   123690530.058        3909.937          44.000    23171426.682    96203872.783        3040.923          42.000  
R12  21731139.836   116083848.568        1669.662          49.000    21731141.919    90287447.127        1298.635          48.000  
R11  20149618.500   107673454.695        -706.795          51.000    20149617.545    83746013.759        -549.659          51.000  
R20  22121110.648   118291515.761       -2086.646          45.000    22121110.840    92004506.730       -1622.940          47.000  
R01  21111859.589   112854987.715       -2957.037          47.000                                                                  
G08  21742137.048   114255702.961        2916.169          43.000    21742141.843    89030441.413        2272.010          42.000  
G09  22211727.097   116723411.327        1264.049          42.000    22211728.365    90953316.976         984.907          41.000  
G16  20094639.231   105598043.503       -1115.081          46.000                                                                  
J02  38903400.359   204438749.595        -783.575          46.000    38903400.437   159302922.479        -610.510          47.000  
G18  24327733.427   127843105.119         -34.958          38.000    24327734.544    99618008.998         -27.202          39.000  
C20  24729384.681   128772391.271       -2763.908          42.000                                                                  
C09  36818426.354   191723207.637         293.428          45.000    36818418.881   148252516.920         226.848          47.000  
C23  25163804.020   131034535.022       -2425.721          42.000                                                                  
C19  24962158.847   129984513.347        -695.341          41.000                                                                  
C10  38443538.509   200185593.561         549.092          39.000    38443535.454   154796188.666         424.328          43.000  
R21  20832247.404   111477564.688        1472.791          50.000    20832247.639    86704773.001        1145.404          50.000  
R08  23570388.451   126218365.414       -4671.648          40.000    23570427.547    98170001.793       -3633.364          40.000  
J03  37737288.011   198310790.976          -0.731          38.000    37737296.079   154527922.755          -0.864          43.000  
J07  37122015.498   195077508.925        -336.813          39.000    37122015.760   152008448.919        -262.560          47.000  
J04                                                                  36998446.089   151502449.377        -491.626          39.000  
> 2025 11 11 08 03 32.6000000  0 32                     
G28  24522005.169   128863999.890       -3380.776          37.000    24522010.506   100413532.842       -2634.388          37.000  
G26  21848784.578   114816138.791       -2541.096          44.000    21848785.957    89467125.827       -1980.008          43.000  
G27  20162927.490   105956899.675        1321.490          48.000    20162928.716    82563820.711        1029.736          46.000  
G31  22017891.072   115704798.952       -2691.658          45.000    22017890.464    90159582.481       -2097.364          43.000  
G04  20948869.011   110087050.358        -942.969          46.000    20948868.970    85782117.286        -734.650          46.000  
C37  22302824.586   116136661.823        -868.728          49.000                                                                  
C06  35874008.303   186805377.958          50.256          45.000    35873999.384   144449730.268          38.947          48.000  
C16  36315696.779   189105364.614          57.096          48.000    36315692.863   146228247.353          44.220          48.000  
C28  22655916.362   117975303.682         489.185          49.000                                                                  
C07  37193138.433   193674431.095         544.822          43.000    37193129.924   149761323.860         421.312          47.000  
C27  23508576.659   122415329.165        2500.969          46.000                                                                  
R10  22728293.889   121154609.042       -2623.043          40.000                                                                  
R22  23171370.004   123690373.648        3910.166          44.000    23171397.374    96203751.135        3041.116          42.000  
R12  21731127.325   116083781.779        1669.667          49.000    21731129.403    90287395.176        1298.698          48.000  
R11  20149623.797   107673482.960        -706.689          51.000    20149622.852    83746035.743        -549.622          51.000  
R20  22121126.259   118291599.221       -2086.605          45.000    22121126.457    92004571.639       -1622.828          47.000  
R01  21111881.718   112855105.980       -2956.817          47.000                                                                  
G08  21742114.866   114255586.321        2916.048          43.000    21742119.644    89030350.519        2272.168          42.000  
G09  22211717.479   116723360.764        1264.063          42.000    22211718.751    90953277.582         984.818          41.000  
G16  20094647.700   105598088.095       -1114.943          46.000                                                                  
J02  38903406.316   204438780.928        -783.405          46.000    38903406.407   159302946.903        -610.596          47.000  
G18  24327733.710   127843106.491         -34.617          38.000    24327734.799    99618010.062         -26.801          39.000  
C20  24729405.911   128772501.817       -2763.742          42.000                                                                  
C09  36818424.117   191723195.891         293.583          45.000    36818416.631   148252507.840         226.921          47.000  
C23  25163822.650   131034632.026       -2425.313          42.000                                                                  
C19  24962164.193   129984541.137        -694.990          41.000                                                                  
C10  38443534.279   200185571.617         548.752          39.000    38443531.236   154796171.675         424.599          43.000  
R21  20832236.366   111477505.767        1472.931          50.000    20832236.618    86704727.170        1145.605          50.000  
R08  23570423.342   126218552.275       -4671.652          40.000    23570462.432    98170147.117       -3633.197          40.000  
J03  37737288.016   198310791.008          -0.724          38.000    37737296.080   154527922.774          -0.626          43.000  
J07  37122018.055   195077522.387        -336.632          39.000    37122018.311   152008459.406        -262.343          47.000  
J04                                                                  36998450.911   151502469.053        -491.845          39.000  
> 2025 11 11 08 03 32.6400000  0 32                     
G28  24522030.907   128864135.121       -3380.858          37.000    24522036.244   100413638.192       -2633.992          37.000  
G26  21848803.913   114816240.432       -2541.021          44.000    21848805.276    89467205.032       -1980.052          43.000  
G27  20162917.408   105956846.809        1321.595          48.000    20162918.634    82563779.513        1029.878          46.000  
G31  22017911.556   115704906.616       -2691.620          45.000    22017910.955    90159666.373       -2097.348          43.000  
G04  20948876.189   110087088.071        -942.853          46.000    20948876.143    85782146.679        -734.790          46.000  
C37  22302831.256   116136696.568        -868.614          49.000                                                                  
C06  35874007.921   186805375.936          50.488          45.000    35873998.990   144449728.710          38.971          48.000  
C16  36315696.378   189105362.332          57.097          48.000    36315692.470   146228245.589          44.167          48.000  
C28  22655912.606   117975284.111         489.235          49.000                                                                  
C07  37193134.240   193674409.312         544.652          43.000    37193125.764   149761307.011         421.284          47.000  
C27  23508557.455   122415229.115        2501.148          46.000                                                                  
R10  22728313.570   121154713.965       -2623.065          40.000                                                                  
R22  23171340.701   123690217.246        3910.095          44.000    23171368.094    96203629.508        3040.822          42.000  
R12  21731114.798   116083714.982        1669.831          49.000    21731116.913    90287343.230        1298.639          48.000  
R11  20149629.093   107673511.226        -706.671          51.000    20149628.145    83746057.730        -549.659          51.000  
R20  22121141.854   118291682.678       -2086.527          45.000    22121142.061    92004636.548       -1622.785          47.000  
R01  21111903.843   112855224.251       -2956.786          47.000                                                                  
G08  21742092.643   114255469.670        2916.174          43.000    21742097.449    89030259.629        2272.216          42.000  
G09  22211707.864   116723310.211        1263.881          42.000    22211709.134    90953238.183         984.878          41.000  
G16  20094656.176   105598132.684       -1114.813          46.000                                                                  
J02  38903412.271   204438812.266        -783.423          46.000    38903412.383   159302971.320        -610.510          47.000  
G18  24327733.983   127843107.888         -34.894          38.000    24327735.039    99618011.146         -26.932          39.000  
C20  24729427.130   128772612.372       -2763.816          42.000                                                                  
C09  36818421.853   191723184.139         293.754          45.000    36818414.372   148252498.760         226.964          47.000  
C23  25163841.297   131034729.050       -2425.491          42.000                                                                  
C19  24962169.556   129984568.935        -694.935          41.000                                                                  
C10  38443530.082   200185549.658         548.851          39.000    38443526.983   154796154.696         424.499          43.000  
R21  20832225.334   111477446.853        1472.876          50.000    20832225.580    86704681.346        1145.624          50.000  
R08  23570458.232   126218739.112       -4671.171          40.000    23570497.318    98170292.442       -3633.124          40.000  
J03  37737288.016   198310791.041          -0.776          38.000    37737296.106   154527922.788          -0.426          43.000  
J07  37122020.618   195077535.849        -336.506          39.000    37122020.879   152008469.898        -262.295          47.000  
J04                                                                  36998455.706   151502488.734        -492.017          39.000  
> 2025 11 11 08 03 32.6800000  0 32                     
G28  24522056.639   128864270.343       -3380.710          37.000    24522061.984   100413743.572       -2634.282          37.000  
G26  21848823.247   114816342.074       -2540.998          44.000    21848824.634    89467284.236       -1980.107          43.000  
G27  20162907.361   105956793.946        1321.563          48.000    20162908.585    82563738.329        1029.659          46.000  
G31  22017932.044   115705014.274       -2691.499          45.000    22017931.436    90159750.268       -2097.394          43.000  
G04  20948883.352   110087125.783        -942.804          46.000    20948883.324    85782176.067        -734.784          46.000  
C37  22302837.936   116136731.314        -868.613          49.000                                                                  
C06  35874007.552   186805373.919          50.470          45.000    35873998.606   144449727.160          38.831          48.000  
C16  36315695.976   189105360.046          57.111          48.000    36315692.074   146228243.828          44.065          48.000  
C28  22655908.832   117975264.545         489.163          49.000                                                                  
C07  37193130.054   193674387.527         544.591          43.000    37193121.574   149761290.162         421.225          47.000  
C27  23508538.231   122415129.068        2501.185          46.000                                                                  
R10  22728333.244   121154818.901       -2623.293          40.000                                                                  
R22  23171311.393   123690060.847        3909.995          44.000    23171338.785    96203507.871        3040.810          42.000  
R12  21731102.288   116083648.189        1669.853          49.000    21731104.402    90287291.279        1298.683          48.000  
R11  20149634.386   107673539.491        -706.640          51.000    20149633.449    83746079.717        -549.684          51.000  
R20  22121157.472   118291766.146       -2086.656          45.000    22121157.657    92004701.456       -1622.722          47.000  
R01  21111925.951   112855342.531       -2956.942          47.000                                                                  
G08  21742070.459   114255353.033        2915.976          43.000    21742075.253    89030168.733        2272.303          42.000  
G09  22211698.242   116723259.653        1263.872          42.000    22211699.500    90953198.790         984.827          41.000  
G16  20094664.679   105598177.274       -1114.776          46.000                                                                  
J02  38903418.244   204438843.604        -783.423          46.000    38903418.356   159302995.739        -610.492          47.000  
G18  24327734.259   127843109.285         -35.012          38.000    24327735.283    99618012.237         -27.214          39.000  
C20  24729448.363   128772722.928       -2763.935          42.000                                                                  
C09  36818419.606   191723172.401         293.602          45.000    36818412.101   148252489.682         226.956          47.000  
C23  25163859.930   131034826.074       -2425.581          42.000                                                                  
C19  24962174.902   129984596.742        -695.059          41.000                                                                  
C10  38443525.880   200185527.690         549.055          39.000    38443522.792   154796137.716         424.474          43.000  
R21  20832214.299   111477387.935        1472.919          50.000    20832214.583    86704635.525        1145.551          50.000  
R08  23570493.132   126218925.954       -4671.037          40.000    23570532.201    98170437.775       -3633.216          40.000  
J03  37737288.020   198310791.065          -0.616          38.000    37737296.120   154527922.812          -0.538          43.000  
J07  37122023.206   195077549.319        -336.585          39.000    37122023.468   152008480.391        -262.324          47.000  
J04                                                                  36998460.511   151502508.399        -491.763          39.000  
> 2025 11 11 08 03 32.7200000  0 32                     
G28  24522082.369   128864405.555       -3380.370          37.000    24522087.721   100413848.953       -2634.546          37.000  
G26  21848842.585   114816443.721       -2541.126          44.000    21848843.984    89467363.445       -1980.212          43.000  
G27  20162897.303   105956741.082        1321.613          48.000    20162898.523    82563697.138        1029.722          46.000  
G31  22017952.510   115705121.927       -2691.347          45.000    22017951.928    90159834.156       -2097.317          43.000  
G04  20948890.533   110087163.502        -942.932          46.000    20948890.495    85782205.461        -734.863          46.000  
C37  22302844.625   116136766.062        -868.686          49.000                                                                  
C06  35874007.171   186805371.908          50.342          45.000    35873998.209   144449725.602          38.873          48.000  
C16  36315695.534   189105357.761          57.122          48.000    36315691.637   146228242.061          44.119          48.000  
C28  22655905.088   117975244.977         489.177          49.000                                                                  
C07  37193125.871   193674365.726         544.881          43.000    37193117.396   149761273.315         421.187          47.000  
C27  23508519.008   122415029.021        2501.190          46.000                                                                  
R10  22728352.906   121154923.822       -2623.132          40.000                                                                  
R22  23171282.084   123689904.443        3910.007          44.000    23171309.483    96203386.229        3040.942          42.000  
R12  21731089.784   116083581.393        1669.868          49.000    21731091.901    90287239.326        1298.769          48.000  
R11  20149639.663   107673567.756        -706.603          51.000    20149638.730    83746101.698        -549.609          51.000  
R20  22121173.077   118291849.606       -2086.568          45.000    22121173.258    92004766.373       -1622.881          47.000  
R01  21111948.089   112855460.805       -2956.910          47.000                                                                  
G08  21742048.276   114255236.394        2915.929          43.000    21742053.041    89030077.840        2272.315          42.000  
G09  22211688.603   116723209.088        1264.027          42.000    22211689.866    90953159.390         984.884          41.000  
G16  20094673.151   105598221.870       -1114.852          46.000                                                                  
J02  38903424.220   204438874.940        -783.398          46.000    38903424.311   159303020.156        -610.468          47.000  
G18  24327734.535   127843110.660         -34.697          38.000    24327735.546    99618013.313         -27.047          39.000  
C20  24729469.599   128772833.481       -2763.921          42.000                                                                  
C09  36818417.339   191723160.660         293.534          45.000    36818409.827   148252480.607         226.892          47.000  
C23  25163878.565   131034923.086       -2425.397          42.000                                                                  
C19  24962180.243   129984624.544        -695.045          41.000                                                                  
C10  38443521.684   200185505.738         548.900          39.000    38443518.596   154796120.729         424.622          43.000  
R21  20832203.279   111477329.020        1472.894          50.000    20832203.568    86704589.703        1145.526          50.000  
R08  23570528.026   126219112.815       -4671.353          40.000    23570567.078    98170583.102       -3633.204          40.000  
J03  37737288.033   198310791.081          -0.363          38.000    37737296.126   154527922.839          -0.640          43.000  
J07  37122025.765   195077562.784        -336.588          39.000    37122026.043   152008490.889        -262.402          47.000  
J04                                                                  36998465.293   151502528.041        -491.264          39.000  
> 2025 11 11 08 03 32.7600000  0 32                     
G28  24522108.100   128864540.801       -3380.862          37.000    24522113.441   100413954.318       -2634.358          37.000  
G26  21848861.936   114816545.367       -2541.164          44.000    21848863.332    89467442.645       -1980.126          43.000  
G27  20162887.256   105956688.221        1321.538          48.000    20162888.470    82563655.946        1029.748          46.000  
G31  22017973.014   115705229.591       -2691.508          45.000    22017972.417    90159918.040       -2097.210          43.000  
G04  20948897.722   110087201.221        -942.975          46.000    20948897.670    85782234.851        -734.833          46.000  
C37  22302851.279   116136800.810        -868.731          49.000                                                                  
C06  35874006.783   186805369.902          50.165          45.000    35873997.825   144449724.044          38.922          48.000  
C16  36315695.110   189105355.477          57.087          48.000    36315691.210   146228240.292          44.205          48.000  
C28  22655901.343   117975225.418         489.018          49.000                                                                  
C07  37193121.678   193674343.928         544.945          43.000    37193113.221   149761256.465         421.219          47.000  
C27  23508499.765   122414928.978        2501.085          46.000                                                                  
R10  22728372.589   121155028.754       -2623.299          40.000                                                                  
R22  23171252.770   123689748.041        3910.007          44.000    23171280.188    96203264.587        3040.959          42.000  
R12  21731077.278   116083514.600        1669.839          49.000    21731079.404    90287187.379        1298.702          48.000  
R11  20149644.948   107673596.023        -706.660          51.000    20149644.004    83746123.682        -549.610          51.000  
R20  22121188.713   118291933.071       -2086.628          45.000    22121188.838    92004831.297       -1623.077          47.000  
R01  21111970.208   112855579.072       -2956.779          47.000                                                                  
G08  21742026.090   114255119.752        2915.953          43.000    21742030.842    89029986.955        2272.149          42.000  
G09  22211678.975   116723158.533        1263.896          42.000    22211680.234    90953119.986         985.012          41.000  
G16  20094681.639   105598266.467       -1114.938          46.000                                                                  
J02  38903430.179   204438906.277        -783.441          46.000    38903430.258   159303044.572        -610.413          47.000  
G18  24327734.793   127843112.034         -34.407          38.000    24327735.822    99618014.393         -27.028          39.000  
C20  24729490.855   128772944.016       -2763.574          42.000                                                                  
C09  36818415.076   191723148.920         293.457          45.000    36818407.577   148252471.532         226.861          47.000  
C23  25163897.173   131035020.107       -2425.466          42.000                                                                  
C19  24962185.581   129984652.358        -695.327          41.000                                                                  
C10  38443517.460   200185483.780         548.906          39.000    38443514.387   154796103.748         424.554          43.000  
R21  20832192.276   111477270.113        1472.711          50.000    20832192.592    86704543.880        1145.526          50.000  
R08  23570562.915   126219299.665       -4671.346          40.000    23570601.954    98170728.422       -3633.118          40.000  
J03  37737288.055   198310791.121          -0.731          38.000    37737296.140   154527922.860          -0.607          43.000  
J07  37122028.322   195077576.258        -336.738          39.000    37122028.613   152008501.386        -262.452          47.000  
J04                                                                  36998470.093   151502547.694        -491.171          39.000  
> 2025 11 11 08 03 32.8000000  0 32                     
G28  24522133.845   128864676.029       -3380.830          37.000    24522139.173   100414059.710       -2634.706          37.000  
G26  21848881.280   114816647.030       -2541.502          44.000    21848882.671    89467521.856       -1980.257          43.000  
G27  20162877.220   105956635.383        1321.077          48.000    20162878.431    82563614.769        1029.492          46.000  
G31  22017993.509   115705337.279       -2692.059          45.000    22017992.903    90160001.945       -2097.488          43.000  
G04  20948904.909   110087238.956        -943.335          46.000    20948904.853    85782264.257        -735.101          46.000  
C37  22302857.909   116136835.572        -868.987          49.000                                                                  
C06  35874006.412   186805367.895          50.134          45.000    35873997.455   144449722.498          38.678          48.000  
C16  36315694.655   189105353.204          56.855          48.000    36315690.780   146228238.537          43.986          48.000  
C28  22655897.614   117975205.867         488.779          49.000                                                                  
C07  37193117.487   193674322.146         544.679          43.000    37193109.037   149761239.618         421.149          47.000  
C27  23508480.548   122414828.941        2500.882          46.000                                                                  
R10  22728392.267   121155133.695       -2623.571          40.000                                                                  
R22  23171223.447   123689591.657        3909.653          44.000    23171250.881    96203142.952        3040.866          42.000  
R12  21731064.785   116083447.819        1669.591          49.000    21731066.932    90287135.439        1298.505          48.000  
R11  20149650.230   107673624.298        -706.860          51.000    20149649.307    83746145.675        -549.803          51.000  
R20  22121204.335   118292016.544       -2086.814          45.000    22121204.431    92004896.227       -1623.297          47.000  
R01  21111992.352   112855697.357       -2957.041          47.000                                                                  
G08  21742003.901   114255003.130        2915.636          43.000    21742008.643    89029896.076        2271.941          42.000  
G09  22211669.354   116723107.964        1264.076          42.000    22211670.612    90953080.589         984.918          41.000  
G16  20094690.135   105598311.075       -1115.168          46.000                                                                  
J02  38903436.151   204438937.622        -783.643          46.000    38903436.210   159303068.998        -610.632          47.000  
G18  24327735.052   127843113.429         -34.681          38.000    24327736.101    99618015.487         -27.295          39.000  
C20  24729512.084   128773054.576       -2763.883          42.000                                                                  
C09  36818412.806   191723137.195         293.180          45.000    36818405.345   148252462.458         226.815          47.000  
C23  25163915.799   131035117.144       -2425.808          42.000                                                                  
C19  24962190.906   129984680.173        -695.464          41.000                                                                  
C10  38443513.243   200185461.829         548.752          39.000    38443510.167   154796086.778         424.301          43.000  
R21  20832181.272   111477211.209        1472.546          50.000    20832181.577    86704498.071        1145.264          50.000  
R08  23570597.795   126219486.514       -4671.252          40.000    23570636.835    98170873.766       -3633.520          40.000  
J03  37737288.067   198310791.164          -1.055          38.000    37737296.151   154527922.901          -0.977          43.000  
J07  37122030.888   195077589.741        -337.069          39.000    37122031.190   152008511.884        -262.504          47.000  
J04                                                                  36998474.890   151502567.378        -491.810          39.000  
> 2025 11 11 08 03 32.8400000  0 32                     
G28  24522159.585   128864811.284       -3381.268          37.000    24522164.917   100414165.080       -2634.542          37.000  
G26  21848900.633   114816748.690       -2541.589          44.000    21848902.025    89467601.077       -1980.500          43.000  
G27  20162867.186   105956582.549        1320.764          48.000    20162868.385    82563573.598        1029.251          46.000  
G31  22018014.016   115705444.966       -2692.292          45.000    22018013.392    90160085.861       -2097.850          43.000  
G04  20948912.077   110087276.690        -943.487          46.000    20948912.030    85782293.664        -735.254          46.000  
C37  22302864.583   116136870.346        -869.332          49.000                                                                  
C06  35874006.041   186805365.902          49.847          45.000    35873997.091   144449720.957          38.507          48.000  
C16  36315694.225   189105350.946          56.481          48.000    36315690.355   146228236.789          43.727          48.000  
C28  22655893.861   117975186.319         488.613          49.000                                                                  
C07  37193113.314   193674300.385         544.159          43.000    37193104.879   149761222.788         420.850          47.000  
C27  23508461.323   122414728.918        2500.574          46.000                                                                  
R10  22728411.973   121155238.629       -2623.500          40.000                                                                  
R22  23171194.149   123689435.277        3909.444          44.000    23171221.584    96203021.324        3040.661          42.000  
R12  21731052.283   116083381.053        1669.187          49.000    21731054.443    90287083.506        1298.301          48.000  
R11  20149655.529   107673652.584        -707.144          51.000    20149654.620    83746167.679        -550.082          51.000  
R20  22121219.946   118292100.030       -2087.153          45.000    22121220.068    92004961.163       -1623.462          47.000  
R01  21112014.483   112855815.669       -2957.638          47.000                                                                  
G08  21741981.719   114254886.502        2915.599          43.000    21741986.457    89029805.203        2271.810          42.000  
G09  22211659.771   116723057.436        1263.474          42.000    22211661.022    90953041.224         984.319          41.000  
G16  20094698.641   105598355.695       -1115.502          46.000                                                                  
J02  38903442.128   204438968.970        -783.777          46.000    38903442.186   159303093.435        -610.944          47.000  
G18  24327735.331   127843114.842         -35.138          38.000    24327736.386    99618016.590         -27.562          39.000  
C20  24729533.305   128773165.145       -2764.212          42.000                                                                  
C09  36818410.577   191723125.479         292.911          45.000    36818403.121   148252453.393         226.621          47.000  
C23  25163934.432   131035214.187       -2426.078          42.000                                                                  
C19  24962196.237   129984708.000        -695.714          41.000                                                                  
C10  38443509.033   200185439.893         548.439          39.000    38443505.947   154796069.817         424.000          43.000  
R21  20832170.267   111477152.321        1472.205          50.000    20832170.588    86704452.268        1145.044          50.000  
R08  23570632.675   126219673.378       -4671.518          40.000    23570671.734    98171019.104       -3633.549          40.000  
J03  37737288.061   198310791.210          -1.227          38.000    37737296.182   154527922.940          -1.117          43.000  
J07  37122033.466   195077603.220        -337.131          39.000    37122033.779   152008522.394        -262.713          47.000  
J04                                                                  36998479.701   151502587.073        -492.386          39.000  
> 2025 11 11 08 03 32.8800000  0 32                     
G28  24522185.358   128864946.536       -3381.432          37.000    24522190.643   100414270.456       -2634.449          37.000  
G26  21848919.976   114816850.358       -2541.799          44.000    21848921.366    89467680.299       -1980.629          43.000  
G27  20162857.106   105956529.714        1320.706          48.000    20162858.333    82563532.428        1029.130          46.000  
G31  22018034.488   115705552.644       -2692.208          45.000    22018033.900    90160169.780       -2098.094          43.000  
G04  20948919.250   110087314.433        -943.646          46.000    20948919.224    85782323.067        -735.217          46.000  
C37  22302871.280   116136905.117        -869.419          49.000                                                                  
C06  35874005.656   186805363.910          49.719          45.000    35873996.725   144449719.417          38.416          48.000  
C16  36315693.797   189105348.684          56.392          48.000    36315689.941   146228235.038          43.687          48.000  
C28  22655890.100   117975166.781         488.423          49.000                                                                  
C07  37193109.126   193674278.611         544.125          43.000    37193100.702   149761205.958         420.691          47.000  
C27  23508442.131   122414628.899        2500.373          46.000                                                                  
R10  22728431.670   121155343.567       -2623.529          40.000                                                                  
R22  23171164.856   123689278.884        3909.610          44.000    23171192.281    96202899.701        3040.520          42.000  
R12  21731039.788   116083314.285        1669.050          49.000    21731041.922    90287031.575        1298.193          48.000  
R11  20149660.804   107673680.873        -707.315          51.000    20149659.925    83746189.680        -550.116          51.000  
R20  22121235.572   118292183.515       -2087.266          45.000    22121235.674    92005026.090       -1623.343          47.000  
R01  21112036.602   112855933.972       -2957.775          47.000                                                                  
G08  21741959.504   114254769.875        2915.581          43.000    21741964.255    89029714.328        2271.785          42.000  
G09  22211650.142   116723006.901        1263.252          42.000    22211651.406    90953001.841         984.357          41.000  
G16  20094707.128   105598400.305       -1115.467          46.000                                                                  
J02  38903448.090   204439000.328        -783.966          46.000    38903448.143   159303117.868        -610.986          47.000  
G18  24327735.586   127843116.251         -35.322          38.000    24327736.653    99618017.696         -27.719          39.000  
C20  24729554.533   128773275.719       -2764.385          42.000                                                                  
C09  36818408.349   191723113.752         292.960          45.000    36818400.865   148252444.326         226.576          47.000  
C23  25163953.050   131035311.231       -2426.162          42.000                                                                  
C19  24962201.567   129984735.820        -695.678          41.000                                                                  
C10  38443504.804   200185417.941         548.576          39.000    38443501.725   154796052.859         423.835          44.000  
R21  20832159.270   111477093.436        1472.021          50.000    20832159.571    86704406.473        1144.800          50.000  
R08  23570667.567   126219860.242       -4671.690          40.000    23570706.625    98171164.454       -3633.788          40.000  
J03  37737288.082   198310791.263          -1.391          38.000    37737296.207   154527922.978          -1.097          43.000  
J07  37122036.016   195077616.716        -337.380          39.000    37122036.335   152008532.903        -262.784          47.000  
J04                                                                  36998484.521   151502606.748        -492.260          39.000  
> 2025 11 11 08 03 32.9200000  0 32                     
G28  24522211.091   128865081.760       -3380.991          37.000    24522216.403   100414375.857       -2634.915          37.000  
G26  21848939.318   114816952.020       -2541.722          44.000    21848940.706    89467759.513       -1980.514          43.000  
G27  20162847.035   105956476.872        1320.865          48.000    20162848.274    82563491.252        1029.207          46.000  
G31  22018054.967   115705660.320       -2692.052          45.000    22018054.385    90160253.677       -2097.739          43.000  
G04  20948926.422   110087352.171        -943.585          46.000    20948926.398    85782352.470        -735.162          46.000  
C37  22302877.971   116136939.880        -869.290          49.000                                                                  
C06  35874005.278   186805361.907          49.884          45.000    35873996.373   144449717.867          38.605          48.000  
C16  36315693.361   189105346.416          56.489          48.000    36315689.509   146228233.282          43.765          48.000  
C28  22655886.334   117975147.230         488.562          49.000                                                                  
C07  37193104.955   193674256.844         544.049          43.000    37193096.532   149761189.119         420.806          47.000  
C27  23508422.939   122414528.863        2500.652          46.000                                                                  
R10  22728451.360   121155448.511       -2623.596          40.000                                                                  
R22  23171135.543   123689122.497        3909.591          44.000    23171162.963    96202778.080        3040.430          42.000  
R12  21731027.280   116083247.507        1669.226          49.000    21731029.420    90286979.635        1298.312          48.000  
R11  20149666.095   107673709.156        -707.243          51.000    20149665.206    83746211.676        -550.033          51.000  
R20  22121251.176   118292266.997       -2087.223          45.000    22121251.274    92005091.020       -1623.322          47.000  
R01  21112058.742   112856052.260       -2957.530          47.000                                                                  
G08  21741937.305   114254653.250        2915.600          43.000    21741942.071    89029623.448        2271.880          42.000  
G09  22211640.518   116722956.361        1263.241          42.000    22211641.803    90952962.469         984.270          41.000  
G16  20094715.614   105598444.924       -1115.545          46.000                                                                  
J02  38903454.032   204439031.687        -784.064          46.000    38903454.089   159303142.298        -610.870          47.000  
G18  24327735.887   127843117.678         -35.632          38.000    24327736.914    99618018.781         -27.377          39.000  
C20  24729575.783   128773386.293       -2764.445          42.000                                                                  
C09  36818406.071   191723102.019         293.157          45.000    36818398.608   148252435.256         226.619          47.000  
C23  25163971.688   131035408.262       -2425.974          42.000                                                                  
C19  24962206.907   129984763.644        -695.698          41.000                                                                  
C10  38443500.588   200185395.994         548.539          39.000    38443497.486   154796035.888         424.059          44.000  
R21  20832148.250   111477034.546        1472.076          50.000    20832148.574    86704360.665        1145.001          50.000  
R08  23570702.502   126220047.105       -4671.688          40.000    23570741.518    98171309.790       -3633.577          40.000  
J03  37737288.090   198310791.305          -1.224          38.000    37737296.230   154527923.004          -0.847          43.000  
J07  37122038.577   195077630.198        -337.289          39.000    37122038.893   152008543.407        -262.715          47.000  
J04                                                                  36998489.331   151502626.415        -491.965          39.000  
> 2025 11 11 08 03 32.9600000  0 32                     
G28  24522236.838   128865217.010       -3381.158          37.000    24522242.146   100414481.243       -2634.841          37.000  
G26  21848958.659   114817053.668       -2541.432          44.000    21848960.070    89467838.727       -1980.379          43.000  
G27  20162836.977   105956424.023        1321.121          48.000    20162838.223    82563450.074        1029.333          46.000  
G31  22018075.438   115705767.997       -2691.987          45.000    22018074.874    90160337.591       -2097.816          43.000  
G04  20948933.603   110087389.907        -943.494          46.000    20948933.572    85782381.873        -735.132          46.000  
C37  22302884.667   116136974.640        -869.115          49.000                                                                  
C06  35874004.900   186805359.900          50.122          45.000    35873996.006   144449716.315          38.763          48.000  
C16  36315692.957   189105344.144          56.652          48.000    36315689.085   146228231.525          43.860          48.000  
C28  22655882.567   117975127.680         488.658          49.000                                                                  
C07  37193100.768   193674235.056         544.453          43.000    37193092.315   149761172.278         420.942          47.000  
C27  23508403.750   122414428.833        2500.720          46.000                                                                  
R10  22728471.052   121155553.447       -2623.493          40.000                                                                  
R22  23171106.244   123688966.111        3909.611          44.000    23171133.658    96202656.442        3040.730          42.000  
R12  21731014.812   116083180.721        1669.491          49.000    21731016.918    90286927.696        1298.412          48.000  
R11  20149671.370   107673737.432        -707.024          51.000    20149670.495    83746233.669        -549.914          51.000  
R20  22121266.784   118292350.471       -2087.004          45.000    22121266.879    92005155.946       -1623.251          47.000  
R01  21112080.854   112856170.544       -2957.280          47.000                                                                  
G08  21741915.100   114254536.614        2915.796          43.000    21741919.880    89029532.569        2271.928          42.000  
G09  22211630.894   116722905.812        1263.505          42.000    22211632.165    90952923.070         984.702          41.000  
G16  20094724.098   105598489.535       -1115.413          46.000                                                                  
J02  38903459.996   204439063.031        -783.758          46.000    38903460.050   159303166.720        -610.638          47.000  
G18  24327736.177   127843119.080         -35.319          38.000    24327737.186    99618019.868         -27.263          39.000  
C20  24729597.016   128773496.854       -2764.215          42.000                                                                  
C09  36818403.822   191723090.286         293.287          45.000    36818396.352   148252426.182         226.766          47.000  
C23  25163990.301   131035505.290       -2425.814          42.000                                                                  
C19  24962212.278   129984791.450        -695.379          41.000                                                                  
C10  38443496.359   200185374.050         548.571          39.000    38443493.258   154796018.903         424.491          44.000  
R21  20832137.230   111476975.642        1472.406          50.000    20832137.559    86704314.860        1145.081          50.000  
R08  23570737.402   126220233.965       -4671.608          40.000    23570776.412    98171455.119       -3633.336          40.000  
J03  37737288.095   198310791.336          -0.913          38.000    37737296.236   154527923.034          -0.779          43.000  
J07  37122041.148   195077643.656        -336.728          39.000    37122041.436   152008553.905        -262.544          46.000  
J04                                                                  36998494.129   151502646.087        -491.861          39.000  
> 2025 11 11 08 03 33.0000000  0 32                     
G28  24522262.569   128865352.230       -3380.763          37.000    24522267.886   100414586.621       -2634.658          37.000  
G26  21848977.990   114817155.316       -2541.274          44.000    21848979.412    89467917.929       -1980.107          43.000  
G27  20162826.927   105956371.174        1321.207          48.000    20162828.160    82563408.897        1029.413          46.000  
G31  22018095.923   115705875.671       -2691.917          45.000    22018095.381    90160421.488       -2097.548          43.000  
G04  20948940.777   110087427.640        -943.372          46.000    20948940.746    85782411.275        -735.089          46.000  
C37  22302891.309   116137009.389        -868.822          49.000                                                                  
C06  35874004.536   186805357.896          50.110          45.000    35873995.638   144449714.762          38.806          48.000  
C16  36315692.518   189105341.859          56.971          48.000    36315688.658   146228229.767          43.925          48.000  
C28  22655878.824   117975108.123         488.855          49.000                                                                  
C07  37193096.591   193674213.269         544.640          43.000    37193088.133   149761155.427         421.177          47.000  
C27  23508384.527   122414328.790        2500.997          46.000                                                                  
R10  22728490.747   121155658.388       -2623.545          40.000                                                                  
R22  23171076.933   123688809.709        3909.865          44.000    23171104.348    96202534.801        3040.978          42.000  
R12  21731002.309   116083113.934        1669.641          49.000    21731004.427    90286875.746        1298.631          48.000  
R11  20149676.642   107673765.705        -706.882          51.000    20149675.780    83746255.658        -549.779          51.000  
R20  22121282.406   118292433.947       -2086.936          45.000    22121282.486    92005220.870       -1623.155          47.000  
R01  21112102.972   112856288.840       -2957.324          47.000                                                                  
G08  21741892.908   114254419.972        2915.973          43.000    21741897.670    89029441.690        2271.947          42.000  
G09  22211621.281   116722855.264        1263.605          42.000    22211622.553    90952883.673         984.875          41.000  
G16  20094732.595   105598534.133       -1115.102          46.000                                                                  
J02  38903465.972   204439094.374        -783.600          46.000    38903466.021   159303191.136        -610.425          47.000  
G18  24327736.407   127843120.465         -34.873          38.000    24327737.438    99618020.948         -27.072          39.000  
C20  24729618.253   128773607.406       -2763.882          42.000                                                                  
C09  36818401.575   191723078.553         293.348          45.000    36818394.110   148252417.109         226.795          47.000  
C23  25164008.929   131035602.323       -2425.832          42.000                                                                  
C19  24962217.613   129984819.260        -695.267          41.000                                                                  
C10  38443492.131   200185352.088         548.910          39.000    38443489.028   154796001.919         424.668          44.000  
R21  20832126.214   111476916.744        1472.473          50.000    20832126.550    86704269.045        1145.276          50.000  
R08  23570772.298   126220420.823       -4671.559          40.000    23570811.304    98171600.461       -3633.504          40.000  
J03  37737288.108   198310791.371          -0.802          38.000    37737296.246   154527923.053          -0.566          43.000  
J07  37122043.695   195077657.128        -336.727          39.000    37122043.999   152008564.408        -262.527          47.000  
J04                                                                  36998498.925   151502665.747        -491.608          39.000  
> 2025 11 11 08 03 33.0400000  0 32                     
G28  24522288.292   128865487.474       -3381.005          37.000    24522293.605   100414691.987       -2634.310          37.000  
G26  21848997.355   114817256.978       -2541.444          44.000    21848998.783    89467997.146       -1980.259          43.000  
G27  20162816.899   105956318.337        1320.999          48.000    20162818.118    82563367.727        1029.301          46.000  
G31  22018116.426   115705983.352       -2691.963          45.000    22018115.878    90160505.386       -2097.451          43.000  
G04  20948947.956   110087465.381        -943.481          46.000    20948947.938    85782440.689        -735.315          46.000  
C37  22302897.985   116137044.152        -868.963          49.000                                                                  
C06  35874004.152   186805355.896          50.031          45.000    35873995.261   144449713.215          38.702          48.000  
C16  36315692.098   189105339.584          56.954          48.000    36315688.233   146228228.003          44.010          48.000  
C28  22655875.049   117975088.577         488.718          49.000                                                                  
C07  37193092.398   193674191.485         544.646          43.000    37193083.963   149761138.585         421.107          47.000  
C27  23508365.311   122414228.764        2500.799          46.000                                                                  
R10  22728510.434   121155763.324       -2623.494          40.000                                                                  
R22  23171047.627   123688653.326        3909.646          44.000    23171075.053    96202413.165        3040.963          42.000  
R12  21730989.813   116083047.151        1669.636          49.000    21730991.904    90286823.805        1298.580          48.000  
R11  20149681.916   107673793.987        -706.977          51.000    20149681.071    83746277.660        -549.967          51.000  
R20  22121298.031   118292517.434       -2087.093          45.000    22121298.107    92005285.806       -1623.319          47.000  
R01  21112125.103   112856407.130       -2957.286          47.000                                                                  
G08  21741870.712   114254303.355        2915.607          43.000    21741875.471    89029350.806        2272.036          42.000  
G09  22211611.682   116722804.732        1263.393          42.000    22211612.943    90952844.297         984.560          41.000  
G16  20094741.094   105598578.740       -1115.129          46.000                                                                  
J02  38903471.938   204439125.715        -783.466          46.000    38903471.989   159303215.565        -610.620          47.000  
G18  24327736.686   127843121.865         -34.937          38.000    24327737.729    99618022.057         -27.460          39.000  
C20  24729639.485   128773717.976       -2764.046          42.000                                                                  
C09  36818399.304   191723066.823         293.271          45.000    36818391.849   148252408.045         226.642          47.000  
C23  25164027.563   131035699.360       -2425.924          42.000                                                                  
C19  24962222.969   129984847.089        -695.549          41.000                                                                  
C10  38443487.927   200185330.129         548.982          39.000    38443484.800   154795984.949         424.407          44.000  
R21  20832115.211   111476857.855        1472.302          50.000    20832115.528    86704223.239        1145.203          50.000  
R08  23570807.187   126220607.686       -4671.577          40.000    23570846.198    98171745.799       -3633.473          40.000  
J03  37737288.116   198310791.424          -1.063          38.000    37737296.257   154527923.093          -0.836          43.000  
J07  37122046.257   195077670.619        -337.074          39.000    37122046.581   152008574.920        -262.724          47.000  
J04                                                                  36998503.728   151502685.431        -491.944          39.000  
> 2025 11 11 08 03 33.0800000  0 32                     
G28  24522314.042   128865622.733       -3381.376          37.000    24522319.350   100414797.382       -2634.635          37.000  
G26  21849016.696   114817358.650       -2541.763          44.000    21849018.125    89468076.375       -1980.613          43.000  
G27  20162806.840   105956265.509        1320.733          48.000    20162808.085    82563326.561        1029.146          46.000  
G31  22018136.925   115706091.037       -2692.073          45.000    22018136.384    90160589.300       -2097.722          43.000  
G04  20948955.156   110087503.125        -943.616          46.000    20948955.117    85782470.103        -735.400          46.000  
C37  22302904.634   116137078.929        -869.290          49.000                                                                  
C06  35874003.778   186805353.906          49.774          45.000    35873994.898   144449711.679          38.458          48.000  
C16  36315691.643   189105337.330          56.556          48.000    36315687.792   146228226.254          43.829          48.000  
C28  22655871.268   117975069.038         488.522          49.000                                                                  
C07  37193088.215   193674169.725         544.176          43.000    37193079.777   149761121.749         420.946          47.000  
C27  23508346.075   122414128.745        2500.528          46.000                                                                  
R10  22728530.114   121155868.268       -2623.550          40.000                                                                  
R22  23171018.311   123688496.947        3909.479          44.000    23171045.748    96202291.542        3040.688          42.000  
R12  21730977.306   116082980.390        1669.221          49.000    21730979.408    90286771.867        1298.487          48.000  
R11  20149687.215   107673822.275        -707.164          51.000    20149686.392    83746299.663        -550.090          51.000  
R20  22121313.652   118292600.930       -2087.322          45.000    22121313.748    92005350.740       -1623.417          47.000  
R01  21112147.214   112856525.438       -2957.560          47.000                                                                  
G08  21741848.552   114254186.748        2915.249          43.000    21741853.270    89029259.936        2271.810          42.000  
G09  22211602.088   116722754.206        1263.147          42.000    22211603.322    90952804.935         984.128          41.000  
G16  20094749.579   105598623.355       -1115.298          46.000                                                                  
J02  38903477.915   204439157.067        -783.673          46.000    38903477.944   159303239.999        -610.828          47.000  
G18  24327736.976   127843123.277         -35.192          38.000    24327738.007    99618023.151         -27.469          39.000  
C20  24729660.695   128773828.547       -2764.207          42.000                                                                  
C09  36818397.034   191723055.103         293.069          45.000    36818389.570   148252398.980         226.574          47.000  
C23  25164046.186   131035796.392       -2425.848          42.000                                                                  
C19  24962228.306   129984874.925        -695.830          41.000                                                                  
C10  38443483.697   200185308.204         548.396          39.000    38443480.608   154795967.988         424.087          44.000  
R21  20832104.220   111476798.979        1471.973          50.000    20832104.527    86704177.443        1144.952          50.000  
R08  23570842.083   126220794.544       -4671.509          40.000    23570881.098    98171891.133       -3633.380          40.000  
J03  37737288.125   198310791.467          -1.037          38.000    37737296.277   154527923.137          -1.076          43.000  
J07  37122048.831   195077684.109        -337.278          39.000    37122049.153   152008585.430        -262.792          47.000  
J04                                                                  36998508.532   151502705.113        -492.075          39.000  
> 2025 11 11 08 03 33.1200000  0 32                     
G28  24522339.769   128865757.980       -3381.366          37.000    24522345.091   100414902.757       -2634.459          37.000  
G26  21849036.040   114817460.324       -2541.909          44.000    21849037.471    89468155.589       -1980.524          43.000  
G27  20162796.755   105956212.680        1320.661          48.000    20162798.027    82563285.393        1029.154          46.000  
G31  22018157.417   115706198.722       -2692.136          45.000    22018156.874    90160673.214       -2097.888          43.000  
G04  20948962.335   110087540.874        -943.793          46.000    20948962.297    85782499.514        -735.327          46.000  
C37  22302911.283   116137113.703        -869.419          49.000                                                                  
C06  35874003.405   186805351.910          49.799          45.000    35873994.529   144449710.140          38.428          48.000  
C16  36315691.175   189105335.069          56.460          48.000    36315687.327   146228224.500          43.809          48.000  
C28  22655867.480   117975049.503         488.360          49.000                                                                  
C07  37193084.033   193674147.949         544.260          43.000    37193075.602   149761104.919         420.769          47.000  
C27  23508326.866   122414028.727        2500.412          46.000                                                                  
R10  22728549.790   121155973.205       -2623.500          40.000                                                                  
R22  23170989.044   123688340.560        3909.562          44.000    23171016.459    96202169.922        3040.452          42.000  
R12  21730964.799   116082913.619        1669.162          49.000    21730966.916    90286719.939        1298.246          48.000  
R11  20149692.527   107673850.561        -707.194          51.000    20149691.688    83746321.666        -550.145          51.000  
R20  22121329.267   118292684.429       -2087.505          45.000    22121329.380    92005415.682       -1623.580          47.000  
R01  21112169.333   112856643.743       -2957.652          47.000                                                                  
G08  21741826.345   114254070.128        2915.333          43.000    21741831.095    89029169.066        2271.726          42.000  
G09  22211592.476   116722703.683        1262.993          42.000    22211593.723    90952765.562         984.185          41.000  
G16  20094758.090   105598667.974       -1115.465          46.000                                                                  
J02  38903483.913   204439188.427        -783.954          46.000    38903483.931   159303264.434        -610.944          47.000  
G18  24327737.271   127843124.700         -35.509          38.000    24327738.277    99618024.252         -27.570          39.000  
C20  24729681.929   128773939.121       -2764.291          42.000                                                                  
C09  36818394.789   191723043.377         293.060          45.000    36818387.339   148252389.913         226.583          47.000  
C23  25164064.793   131035893.434       -2425.992          42.000                                                                  
C19  24962233.632   129984902.754        -695.821          41.000                                                                  
C10  38443479.472   200185286.272         548.151          39.000    38443476.399   154795951.034         423.817          44.000  
R21  20832093.234   111476740.096        1471.960          50.000    20832093.514    86704131.650        1144.794          50.000  
R08  23570876.972   126220981.406       -4671.484          40.000    23570915.983    98172036.463       -3633.263          40.000  
J03  37737288.147   198310791.523          -1.292          38.000    37737296.281   154527923.178          -1.148          43.000  
J07  37122051.399   195077697.597        -337.302          39.000    37122051.723   152008595.938        -262.764          47.000  
J04                                                                  36998513.340   151502724.789        -492.040          39.000  
> 2025 11 11 08 03 33.1600000  0 32                     
G28  24522365.494   128865893.218       -3381.089          37.000    24522370.830   100415008.162       -2634.906          37.000  
G26  21849055.372   114817561.982       -2541.692          44.000    21849056.830    89468234.811       -1980.571          43.000  
G27  20162786.687   105956159.837        1320.931          48.000    20162787.979    82563244.215        1029.341          46.000  
G31  22018177.891   115706306.401       -2692.075          45.000    22018177.356    90160757.117       -2097.726          43.000  
G04  20948969.516   110087578.610        -943.573          46.000    20948969.473    85782528.923        -735.260          46.000  
C37  22302917.994   116137148.467        -869.267          49.000                                                                  
C06  35874003.037   186805349.906          50.000          45.000    35873994.165   144449708.590          38.605          48.000  
C16  36315690.719   189105332.793          56.703          48.000    36315686.884   146228222.749          43.752          48.000  
C28  22655863.761   117975029.961         488.416          49.000                                                                  
C07  37193079.870   193674126.188         544.051          43.000    37193071.387   149761088.087         420.742          47.000  
C27  23508307.669   122413928.700        2500.536          46.000                                                                  
R10  22728569.468   121156078.149       -2623.629          40.000                                                                  
R22  23170959.716   123688184.165        3909.767          44.000    23170987.166    96202048.288        3040.654          42.000  
R12  21730952.302   116082846.839        1669.312          49.000    21730954.402    90286668.005        1298.247          48.000  
R11  20149697.830   107673878.843        -707.137          51.000    20149696.995    83746343.662        -550.007          51.000  
R20  22121344.874   118292767.912       -2087.297          45.000    22121344.982    92005480.616       -1623.509          47.000  
R01  21112191.452   112856762.042       -2957.578          47.000                                                                  
G08  21741804.149   114253953.498        2915.540          43.000    21741808.892    89029078.206        2271.551          42.000  
G09  22211582.858   116722653.135        1263.383          42.000    22211584.082    90952726.189         984.229          41.000  
G16  20094766.593   105598712.589       -1115.445          46.000                                                                  
J02  38903489.873   204439219.777        -783.856          46.000    38903489.898   159303288.863        -610.852          47.000  
G18  24327737.508   127843126.092         -35.143          38.000    24327738.550    99618025.350         -27.531          39.000  
C20  24729703.148   128774049.682       -2764.117          42.000                                                                  
C09  36818392.556   191723031.637         293.310          45.000    36818385.085   148252380.843         226.678          47.000  
C23  25164083.401   131035990.459       -2425.750          42.000                                                                  
C19  24962238.973   129984930.582        -695.770          41.000                                                                  
C10  38443475.239   200185264.317         548.560          39.000    38443472.169   154795934.065         424.010          44.000  
R21  20832082.245   111476681.207        1472.101          50.000    20832082.519    86704085.851        1144.879          50.000  
R08  23570911.865   126221168.265       -4671.422          40.000    23570950.862    98172181.800       -3633.400          40.000  
J03  37737288.163   198310791.570          -1.257          38.000    37737296.290   154527923.202          -0.808          43.000  
J07  37122053.936   195077711.065        -336.921          39.000    37122054.260   152008606.433        -262.530          47.000  
J04                                                                  36998518.132   151502744.455        -491.804          39.000  
> 2025 11 11 08 03 33.2000000  0 32                     
G28  24522391.240   128866028.469       -3381.150          37.000    24522396.544   100415113.516       -2634.279          37.000  
G26  21849074.708   114817663.632       -2541.414          44.000    21849076.163    89468314.018       -1980.346          43.000  
G27  20162776.626   105956106.992        1321.091          48.000    20162777.926    82563203.037        1029.440          46.000  
G31  22018198.373   115706414.076       -2691.926          45.000    22018197.836    90160841.026       -2097.746          43.000  
G04  20948976.685   110087616.347        -943.463          46.000    20948976.644    85782558.324        -735.120          46.000  
C37  22302924.653   116137183.217        -868.928          49.000                                                                  
C06  35874002.674   186805347.902          50.061          45.000    35873993.784   144449707.032          38.879          48.000  
C16  36315690.245   189105330.508          56.989          48.000    36315686.433   146228220.984          43.998          48.000  
C28  22655860.019   117975010.399         488.835          49.000                                                                  
C07  37193075.678   193674104.393         544.569          43.000    37193067.201   149761071.238         421.026          47.000  
C27  23508288.460   122413828.663        2500.807          46.000                                                                  
R10  22728589.141   121156183.079       -2623.378          40.000                                                                  
R22  23170930.410   123688027.760        3910.077          44.000    23170957.860    96201926.651        3040.834          42.000  
R12  21730939.789   116082780.051        1669.560          49.000    21730941.866    90286616.065        1298.381          48.000  
R11  20149703.107   107673907.118        -706.969          51.000    20149702.281    83746365.651        -549.802          51.000  
R20  22121360.500   118292851.395       -2087.155          46.000    22121360.594    92005545.548       -1623.397          47.000  
R01  21112213.559   112856880.336       -2957.427          47.000                                                                  
G08  21741781.945   114253836.867        2915.728          43.000    21741786.680    89028987.311        2272.021          42.000  
G09  22211573.232   116722602.587        1263.622          42.000    22211574.458    90952686.785         984.865          41.000  
G16  20094775.044   105598757.199       -1115.339          46.000                                                                  
J02  38903495.842   204439251.114        -783.588          46.000    38903495.865   159303313.288        -610.724          47.000  
G18  24327737.785   127843127.516         -35.516          38.000    24327738.831    99618026.446         -27.418          39.000  
C20  24729724.370   128774160.237       -2763.926          42.000                                                                  
C09  36818390.317   191723019.905         293.311          45.000    36818382.836   148252371.767         226.812          47.000  
C23  25164102.062   131036087.489       -2425.728          42.000                                                                  
C19  24962244.298   129984958.379        -695.195          41.000                                                                  
C10  38443471.041   200185242.368         548.739          39.000    38443467.941   154795917.091         424.213          44.000  
R21  20832071.218   111476622.310        1472.333          50.000    20832071.493    86704040.044        1145.062          50.000  
R08  23570946.758   126221355.124       -4671.429          40.000    23570985.755    98172327.138       -3633.486          40.000  
J03  37737288.164   198310791.590          -0.802          38.000    37737296.299   154527923.230          -0.709          43.000  
J07  37122056.507   195077724.540        -336.816          39.000    37122056.814   152008616.922        -262.302          47.000  
J04                                                                  36998522.929   151502764.127        -491.789          39.000  
> 2025 11 11 08 03 33.2400000  0 32                     
G28  24522416.976   128866163.701       -3380.924          37.000    24522422.292   100415218.925       -2634.865          37.000  
G26  21849094.040   114817765.306       -2541.737          44.000    21849095.505    89468393.234       -1980.406          43.000  
G27  20162766.587   105956054.174        1320.610          48.000    20162767.874    82563161.883        1028.990          46.000  
G31  22018218.870   115706521.767       -2692.217          45.000    22018218.331    90160924.930       -2097.690          43.000  
G04  20948983.847   110087654.104        -943.854          46.000    20948983.836    85782587.742        -735.370          46.000  
C37  22302931.305   116137217.995        -869.281          49.000                                                                  
C06  35874002.293   186805345.915          49.762          45.000    35873993.402   144449705.499          38.507          48.000  
C16  36315689.789   189105328.248          56.676          48.000    36315685.997   146228219.235          43.806          48.000  
C28  22655856.254   117974990.874         488.334          49.000                                                                  
C07  37193071.510   193674082.636         544.058          43.000    37193063.014   149761054.410         420.785          47.000  
C27  23508269.244   122413728.643        2500.578          46.000                                                                  
R10  22728608.815   121156288.031       -2623.705          40.000                                                                  
R22  23170901.121   123687871.390        3909.508          44.000    23170928.559    96201805.033        3040.528          42.000  
R12  21730927.280   116082713.285        1669.266          49.000    21730929.355    90286564.136        1298.235          48.000  
R11  20149708.384   107673935.418        -707.387          51.000    20149707.592    83746387.654        -550.015          51.000  
R20  22121376.109   118292934.895       -2087.445          46.000    22121376.202    92005610.494       -1623.604          47.000  
R01  21112235.692   112856998.643       -2957.613          47.000                                                                  
G08  21741759.745   114253720.257        2915.414          43.000    21741764.506    89028896.434        2271.947          42.000  
G09  22211563.608   116722552.057        1263.358          42.000    22211564.825    90952647.407         984.647          41.000  
G16  20094783.528   105598801.826       -1115.638          46.000                                                                  
J02  38903501.823   204439282.478        -784.003          46.000    38903501.845   159303337.716        -610.718          47.000  
G18  24327738.088   127843128.936         -35.590          38.000    24327739.085    99618027.559         -27.727          39.000  
C20  24729745.595   128774270.814       -2764.246          42.000                                                                  
C09  36818388.048   191723008.191         292.942          45.000    36818380.600   148252362.701         226.682          47.000  
C23  25164120.673   131036184.539       -2426.094          42.000                                                                  
C19  24962249.635   129984986.217        -695.701          41.000                                                                  
C10  38443466.813   200185220.429         548.521          39.000    38443463.714   154795900.121         424.231          44.000  
R21  20832060.220   111476563.442        1471.857          50.000    20832060.489    86703994.250        1144.885          50.000  
R08  23570981.641   126221542.003       -4671.861          40.000    23571020.672    98172472.486       -3633.695          40.000  
J03  37737288.178   198310791.650          -1.309          38.000    37737296.299   154527923.281          -1.132          43.000  
J07  37122059.092   195077738.047        -337.432          39.000    37122059.368   152008627.437        -262.666          47.000  
J04                                                                  36998527.752   151502783.822        -492.170          39.000  
> 2025 11 11 08 03 33.2800000  0 32                     
G28  24522442.727   128866298.979       -3381.565          37.000    24522448.025   100415324.343       -2635.361          37.000  
G26  21849113.397   114817866.987       -2542.031          44.000    21849114.869    89468472.476       -1980.896          43.000  
G27  20162756.545   105956001.366        1320.233          48.000    20162757.821    82563120.736        1028.676          46.000  
G31  22018239.369   115706629.476       -2692.657          45.000    22018238.833    90161008.861       -2098.171          43.000  
G04  20948991.038   110087691.875        -944.244          46.000    20948991.037    85782617.176        -735.791          46.000  
C37  22302937.992   116137252.786        -869.679          49.000                                                                  
C06  35874001.932   186805343.944          49.298          45.000    35873993.022   144449703.970          38.239          48.000  
C16  36315689.338   189105326.008          56.168          48.000    36315685.550   146228217.504          43.380          48.000  
C28  22655852.504   117974971.359         487.927          49.000                                                                  
C07  37193067.337   193674060.881         543.849          43.000    37193058.832   149761037.593         420.481          47.000  
C27  23508250.029   122413628.637        2500.252          46.000                                                                  
R10  22728628.506   121156392.985       -2623.838          40.000                                                                  
R22  23170871.849   123687715.028        3909.106          44.000    23170899.271    96201683.433        3040.089          42.000  
R12  21730914.790   116082646.531        1668.919          49.000    21730916.866    90286512.215        1298.044          48.000  
R11  20149713.694   107673963.727        -707.727          51.000    20149712.885    83746409.668        -550.300          51.000  
R20  22121391.756   118293018.417       -2087.969          45.000    22121391.828    92005675.453       -1623.923          47.000  
R01  21112257.844   112857116.967       -2957.999          47.000                                                                  
G08  21741737.550   114253603.660        2915.017          43.000    21741742.326    89028805.593        2271.275          42.000  
G09  22211553.997   116722501.544        1262.926          42.000    22211555.213    90952608.059         983.953          41.000  
G16  20094792.050   105598846.465       -1115.984          46.000                                                                  
J02  38903507.782   204439313.848        -784.277          46.000    38903507.807   159303362.161        -611.060          47.000  
G18  24327738.354   127843130.362         -35.684          38.000    24327739.349    99618028.674         -27.925          39.000  
C20  24729766.840   128774381.416       -2764.834          42.000                                                                  
C09  36818385.806   191722996.489         292.574          45.000    36818378.354   148252353.648         226.418          47.000  
C23  25164139.314   131036281.603       -2426.544          42.000                                                                  
C19  24962254.986   129985014.073        -696.278          41.000                                                                  
C10  38443462.616   200185198.497         548.337          39.000    38443459.516   154795883.165         424.003          44.000  
R21  20832049.211   111476504.580        1471.552          50.000    20832049.479    86703948.468        1144.580          50.000  
R08  23571016.547   126221728.873       -4671.834          40.000    23571055.567    98172617.826       -3633.583          40.000  
J03  37737288.196   198310791.709          -1.407          38.000    37737296.295   154527923.327          -1.228          43.000  
J07  37122061.672   195077751.540        -337.541          39.000    37122061.928   152008637.963        -263.054          47.000  
J04                                                                  36998532.564   151502803.518        -492.443          39.000  
> 2025 11 11 08 03 33.3200000  0 32                     
G28  24522468.464   128866434.243       -3381.626          37.000    24522473.773   100415429.721       -2634.819          37.000  
G26  21849132.734   114817968.662       -2541.977          44.000    21849134.219    89468551.697       -1980.746          43.000  
G27  20162746.491   105955948.552        1320.175          48.000    20162747.747    82563079.568        1028.947          46.000  
G31  22018259.844   115706737.171       -2692.606          45.000    22018259.342    90161092.787       -2098.240          43.000  
G04  20948998.240   110087729.638        -944.244          46.000    20948998.215    85782646.596        -735.687          46.000  
C37  22302944.685   116137287.563        -869.604          49.000                                                                  
C06  35874001.564   186805341.951          49.561          45.000    35873992.650   144449702.432          38.287          48.000  
C16  36315688.910   189105323.753          56.178          48.000    36315685.088   146228215.761          43.394          48.000  
C28  22655848.764   117974951.826         488.089          49.000                                                                  
C07  37193063.165   193674039.119         543.916          43.000    37193054.634   149761020.758         420.667          47.000  
C27  23508230.839   122413528.620        2500.322          46.000                                                                  
R10  22728648.197   121156497.931       -2623.812          40.000                                                                  
R22  23170842.554   123687558.659        3909.042          44.000    23170869.971    96201561.809        3040.374          42.000  
R12  21730902.283   116082579.766        1668.970          49.000    21730904.366    90286460.279        1298.241          48.000  
R11  20149718.990   107673992.015        -707.467          51.000    20149718.152    83746431.675        -550.285          51.000  
R20  22121407.377   118293101.920       -2087.838          45.000    22121407.454    92005740.399       -1623.842          47.000  
R01  21112279.983   112857235.279       -2957.979          47.000                                                                  
G08  21741715.381   114253487.041        2915.252          43.000    21741720.143    89028714.726        2271.425          42.000  
G09  22211544.388   116722451.031        1262.764          42.000    22211545.618    90952568.698         983.848          41.000  
G16  20094800.491   105598891.088       -1115.806          46.000                                                                  
J02  38903513.757   204439345.204        -784.076          46.000    38903513.786   159303386.598        -611.035          47.000  
G18  24327738.618   127843131.803         -36.014          38.000    24327739.608    99618029.764         -27.540          39.000  
C20  24729788.059   128774491.990       -2764.613          42.000                                                                  
C09  36818383.589   191722984.768         292.760          45.000    36818376.108   148252344.586         226.453          47.000  
C23  25164157.964   131036378.657       -2426.530          42.000                                                                  
C19  24962260.338   129985041.922        -696.445          41.000                                                                  
C10  38443458.398   200185176.552         548.511          39.000    38443455.304   154795866.202         424.010          44.000  
R21  20832038.206   111476445.709        1471.588          50.000    20832038.478    86703902.684        1144.519          50.000  
R08  23571051.437   126221915.744       -4671.809          40.000    23571090.453    98172763.162       -3633.478          40.000  
J03  37737288.202   198310791.757          -1.289          38.000    37737296.301   154527923.369          -1.192          43.000  
J07  37122064.259   195077765.036        -337.570          39.000    37122064.497   152008648.477        -263.036          47.000  
J04                                                                  36998537.357   151502823.189        -492.111          39.000  
> 2025 11 11 08 03 33.3600000  0 32                     
G28  24522494.199   128866569.489       -3381.320          37.000    24522499.511   100415535.102       -2634.601          37.000  
G26  21849152.082   114818070.318       -2541.605          44.000    21849153.587    89468630.909       -1980.453          43.000  
G27  20162736.429   105955895.715        1320.639          48.000    20162737.695    82563038.400        1029.115          46.000  
G31  22018280.345   115706844.853       -2692.289          45.000    22018279.815    90161176.688       -2097.812          43.000  
G04  20949005.418   110087767.381        -943.823          46.000    20949005.389    85782676.007        -735.413          46.000  
C37  22302951.360   116137322.322        -869.197          49.000                                                                  
C06  35874001.192   186805339.947          49.963          45.000    35873992.260   144449700.882          38.611          48.000  
C16  36315688.444   189105321.471          56.730          48.000    36315684.656   146228214.000          43.745          48.000  
C28  22655845.028   117974932.283         488.384          49.000                                                                  
C07  37193058.979   193674017.336         544.349          43.000    37193050.443   149761003.912         421.000          47.000  
C27  23508211.626   122413428.588        2500.655          46.000                                                                  
R10  22728667.889   121156602.870       -2623.652          40.000                                                                  
R22  23170813.253   123687402.267        3909.519          44.000    23170840.673    96201440.173        3040.747          42.000  
R12  21730889.794   116082512.982        1669.381          49.000    21730891.862    90286408.337        1298.456          48.000  
R11  20149724.295   107674020.292        -707.062          51.000    20149723.463    83746453.670        -550.035          51.000  
R20  22121422.973   118293185.407       -2087.457          45.000    22121423.065    92005805.338       -1623.618          47.000  
R01  21112302.103   112857353.584       -2957.761          47.000                                                                  
G08  21741693.185   114253370.417        2915.469          43.000    21741697.953    89028623.843        2271.828          42.000  
G09  22211534.762   116722400.485        1263.325          42.000    22211535.988    90952529.311         984.366          41.000  
G16  20094808.999   105598935.697       -1115.375          46.000                                                                  
J02  38903519.708   204439376.549        -783.746          46.000    38903519.749   159303411.023        -610.779          47.000  
G18  24327738.876   127843133.192         -35.211          38.000    24327739.860    99618030.879         -27.732          39.000  
C20  24729809.283   128774602.560       -2764.387          42.000                                                                  
C09  36818381.345   191722973.024         293.311          45.000    36818373.840   148252335.517         226.606          47.000  
C23  25164176.591   131036475.693       -2426.159          42.000                                                                  
C19  24962265.695   129985069.746        -695.976          41.000                                                                  
C10  38443454.171   200185154.603         548.665          39.000    38443451.084   154795849.230         424.183          44.000  
R21  20832027.204   111476386.830        1471.814          50.000    20832027.473    86703856.891        1144.666          50.000  
R08  23571086.334   126222102.595       -4671.389          40.000    23571125.340    98172908.509       -3633.601          40.000  
J03  37737288.192   198310791.793          -0.978          38.000    37737296.303   154527923.390          -0.753          43.000  
J07  37122066.836   195077778.511        -337.108          39.000    37122067.080   152008658.978        -262.740          47.000  
J04                                                                  36998542.147   151502842.857        -491.869          39.000  
> 2025 11 11 08 03 33.4000000  0 32                     
G28  24522519.940   128866704.709       -3380.699          37.000    24522525.266   100415640.489       -2634.611          37.000  
G26  21849171.432   114818171.968       -2541.273          44.000    21849172.925    89468710.118       -1980.262          43.000  
G27  20162726.355   105955842.872        1321.005          48.000    20162727.645    82562997.224        1029.364          46.000  
G31  22018300.820   115706952.527       -2691.963          45.000    22018300.307    90161260.586       -2097.512          43.000  
G04  20949012.604   110087805.111        -943.378          46.000    20949012.580    85782705.412        -735.150          46.000  
C37  22302958.062   116137357.072        -868.826          49.000                                                                  
C06  35874000.800   186805337.936          50.232          45.000    35873991.871   144449699.327          38.837          48.000  
C16  36315687.993   189105319.183          57.114          48.000    36315684.225   146228212.233          44.055          48.000  
C28  22655841.273   117974912.734         488.679          49.000                                                                  
C07  37193054.770   193673995.544         544.746          43.000    37193046.269   149760987.070         421.097          47.000  
C27  23508192.409   122413328.550        2500.925          46.000                                                                  
R10  22728687.569   121156707.793       -2623.260          40.000                                                                  
R22  23170783.937   123687245.860        3910.021          44.000    23170811.370    96201318.523        3041.160          42.000  
R12  21730877.266   116082446.197        1669.602          49.000    21730879.353    90286356.394        1298.579          48.000  
R11  20149729.573   107674048.562        -706.785          51.000    20149728.746    83746475.663        -549.863          51.000  
R20  22121438.581   118293268.893       -2087.251          45.000    22121438.675    92005870.273       -1623.427          47.000  
R01  21112324.234   112857471.874       -2957.399          47.000                                                                  
G08  21741670.979   114253253.779        2915.842          43.000    21741675.762    89028532.964        2271.935          42.000  
G09  22211525.136   116722349.944        1263.556          42.000    22211526.342    90952489.917         984.751          41.000  
G16  20094817.484   105598980.305       -1115.160          46.000                                                                  
J02  38903525.657   204439407.883        -783.392          46.000    38903525.743   159303435.442        -610.510          47.000  
G18  24327739.151   127843134.592         -34.918          38.000    24327740.128    99618031.980         -27.631          39.000  
C20  24729830.531   128774713.111       -2763.956          42.000                                                                  
C09  36818379.075   191722961.273         293.709          45.000    36818371.573   148252326.433         226.969          47.000  
C23  25164195.201   131036572.714       -2425.695          42.000                                                                  
C19  24962271.043   129985097.553        -695.493          41.000                                                                  
C10  38443449.980   200185132.642         548.947          39.000    38443446.847   154795832.261         424.238          44.000  
R21  20832016.202   111476327.940        1472.137          50.000    20832016.454    86703811.087        1144.983          50.000  
R08  23571121.228   126222289.457       -4671.459          40.000    23571160.231    98173053.859       -3633.730          40.000  
J03  37737288.195   198310791.836          -0.997          38.000    37737296.293   154527923.412          -0.574          43.000  
J07  37122069.386   195077791.958        -336.346          39.000    37122069.628   152008669.472        -262.453          47.000  
J04                                                                  36998546.938   151502862.525        -491.733          39.000  
> 2025 11 11 08 03 33.4400000  0 32                     
G28  24522545.688   128866839.932       -3380.438          37.000    24522550.997   100415745.861       -2634.373          37.000  
G26  21849190.746   114818273.611       -2541.025          44.000    21849192.273    89468789.326       -1980.174          43.000  
G27  20162716.273   105955790.027        1321.193          48.000    20162717.620    82562956.054        1029.354          46.000  
G31  22018321.312   115707060.191       -2691.642          45.000    22018320.779    90161344.483       -2097.363          43.000  
G04  20949019.776   110087842.843        -943.237          46.000    20949019.777    85782734.817        -735.046          46.000  
C37  22302964.703   116137391.833        -868.880          49.000                                                                  
C06  35874000.417   186805335.918          50.494          45.000    35873991.441   144449697.770          38.977          48.000  
C16  36315687.504   189105316.904          57.148          48.000    36315683.800   146228210.467          44.194          48.000  
C28  22655837.532   117974893.182         488.831          48.000                                                                  
C07  37193050.580   193673973.751         544.913          43.000    37193042.101   149760970.221         421.219          47.000  
C27  23508173.173   122413228.523        2500.800          46.000                                                                  
R10  22728707.245   121156812.728       -2623.239          40.000                                                                  
R22  23170754.620   123687089.455        3910.208          44.000    23170782.052    96201196.886        3041.093          42.000  
R12  21730864.748   116082379.409        1669.727          49.000    21730866.880    90286304.453        1298.559          48.000  
R11  20149734.858   107674076.839        -706.782          51.000    20149734.035    83746497.653        -549.752          51.000  
R20  22121454.192   118293352.384       -2087.231          45.000    22121454.292    92005935.210       -1623.380          47.000  
R01  21112346.346   112857590.162       -2957.159          47.000                                                                  
G08  21741648.794   114253137.160        2915.707          43.000    21741653.552    89028442.074        2272.217          42.000  
G09  22211515.504   116722299.405        1263.560          42.000    22211516.719    90952450.550         984.393          41.000  
G16  20094825.988   105599024.911       -1115.083          46.000                                                                  
J02  38903531.594   204439439.214        -783.197          46.000    38903531.705   159303459.855        -610.303          47.000  
G18  24327739.399   127843135.988         -34.772          38.000    24327740.396    99618033.066         -27.247          39.000  
C20  24729851.750   128774823.680       -2764.053          42.000                                                                  
C09  36818376.808   191722949.542         293.515          45.000    36818369.322   148252317.350         227.128          47.000  
C23  25164213.832   131036669.722       -2425.290          42.000                                                                  
C19  24962276.411   129985125.382        -695.588          41.000                                                                  
C10  38443445.763   200185110.709         548.470          39.000    38443442.646   154795815.282         424.428          44.000  
R21  20832005.180   111476269.050        1472.284          50.000    20832005.438    86703765.284        1145.117          50.000  
R08  23571156.094   126222476.308       -4671.237          40.000    23571195.142    98173199.177       -3633.219          40.000  
J03  37737288.202   198310791.871          -0.905          38.000    37737296.268   154527923.433          -0.446          43.000  
J07  37122071.945   195077805.420        -336.342          39.000    37122072.190   152008679.960        -262.216          47.000  
J04                                                                  36998551.737   151502882.194        -491.720          39.000  
> 2025 11 11 08 03 33.4800000  0 32                     
G28  24522571.449   128866975.181       -3380.819          37.000    24522576.713   100415851.243       -2634.498          37.000  
G26  21849210.114   114818375.274       -2541.309          44.000    21849211.632    89468868.542       -1980.300          43.000  
G27  20162706.249   105955737.195        1320.990          48.000    20162707.582    82562914.881        1029.346          46.000  
G31  22018341.806   115707167.872       -2691.850          45.000    22018341.278    90161428.389       -2097.507          43.000  
G04  20949026.961   110087880.593        -943.579          46.000    20949026.955    85782764.233        -735.266          46.000  
C37  22302971.386   116137426.600        -869.012          49.000                                                                  
C06  35874000.008   186805333.913          50.311          45.000    35873991.051   144449696.215          38.953          48.000  
C16  36315687.029   189105314.634          56.940          48.000    36315683.355   146228208.714          43.986          48.000  
C28  22655833.771   117974873.637         488.723          48.000                                                                  
C07  37193046.393   193673951.979         544.584          43.000    37193037.919   149760953.381         421.099          47.000  
C27  23508153.971   122413128.494        2500.732          46.000                                                                  
R10  22728726.928   121156917.679       -2623.573          40.000                                                                  
R22  23170725.321   123686933.065        3909.948          44.000    23170752.731    96201075.255        3040.911          42.000  
R12  21730852.265   116082312.635        1669.529          49.000    21730854.376    90286252.514        1298.516          48.000  
R11  20149740.141   107674105.123        -706.984          51.000    20149739.344    83746519.650        -549.835          51.000  
R20  22121469.821   118293435.879       -2087.308          45.000    22121469.903    92006000.147       -1623.380          47.000  
R01  21112368.473   112857708.464       -2957.335          47.000                                                                  
G08  21741626.597   114253020.545        2915.466          43.000    21741631.358    89028351.211        2271.834          42.000  
G09  22211505.883   116722248.883        1263.214          42.000    22211507.108    90952411.181         984.201          41.000  
G16  20094834.478   105599069.527       -1115.285          46.000                                                                  
J02  38903537.570   204439470.565        -783.557          46.000    38903537.667   159303484.281        -610.480          47.000  
G18  24327739.684   127843137.419         -35.374          38.000    24327740.662    99618034.157         -27.203          39.000  
C20  24729873.000   128774934.243       -2764.011          42.000                                                                  
C09  36818374.549   191722937.815         293.303          45.000    36818367.070   148252308.272         227.065          47.000  
C23  25164232.445   131036766.759       -2425.573          42.000                                                                  
C19  24962281.751   129985153.197        -695.452          41.000                                                                  
C10  38443441.558   200185088.766         548.465          39.000    38443438.449   154795798.304         424.483          44.000  
R21  20831994.197   111476210.169        1472.162          50.000    20831994.432    86703719.481        1145.123          50.000  
R08  23571190.980   126222663.155       -4671.103          40.000    23571230.046    98173344.498       -3632.986          40.000  
J03  37737288.225   198310791.904          -0.852          38.000    37737296.282   154527923.470          -0.710          43.000  
J07  37122074.500   195077818.900        -336.718          39.000    37122074.757   152008690.464        -262.394          47.000  
J04                                                                  36998556.551   151502901.877        -492.009          39.000  
> 2025 11 11 08 03 33.5200000  0 32                     
G28  24522597.179   128867110.425       -3381.006          37.000    24522602.439   100415956.615       -2634.470          37.000  
G26  21849229.458   114818476.944       -2541.650          44.000    21849230.971    89468947.775       -1980.679          43.000  
G27  20162696.204   105955684.372        1320.673          48.000    20162697.533    82562873.718        1029.141          46.000  
G31  22018362.302   115707275.563       -2692.177          45.000    22018361.774    90161512.297       -2097.673          43.000  
G04  20949034.169   110087918.346        -943.799          46.000    20949034.148    85782793.648        -735.364          46.000  
C37  22302978.064   116137461.362        -869.052          49.000                                                                  
C06  35873999.640   186805331.910          50.159          45.000    35873990.651   144449694.674          38.684          48.000  
C16  36315686.561   189105312.358          56.869          48.000    36315682.908   146228206.955          43.950          48.000  
C28  22655830.024   117974854.102         488.454          48.000                                                                  
C07  37193042.202   193673930.206         544.379          43.000    37193033.701   149760936.544         420.978          47.000  
C27  23508134.777   122413028.467        2500.664          46.000                                                                  
R10  22728746.627   121157022.625       -2623.692          40.000                                                                  
R22  23170696.013   123686776.685        3909.612          44.000    23170723.445    96200953.638        3040.550          42.000  
R12  21730839.757   116082245.857        1669.429          49.000    21730841.883    90286200.579        1298.388          48.000  
R11  20149745.438   107674133.406        -707.077          51.000    20149744.663    83746541.651        -549.972          51.000  
R20  22121485.448   118293519.376       -2087.418          46.000    22121485.533    92006065.091       -1623.537          47.000  
R01  21112390.596   112857826.780       -2957.733          47.000                                                                  
G08  21741604.400   114252903.919        2915.512          43.000    21741609.161    89028260.342        2271.705          42.000  
G09  22211496.273   116722198.353        1263.172          42.000    22211497.477    90952371.803         984.288          41.000  
G16  20094843.002   105599114.145       -1115.421          46.000                                                                  
J02  38903543.554   204439501.918        -783.771          46.000    38903543.631   159303508.711        -610.693          47.000  
G18  24327739.935   127843138.831         -35.342          38.000    24327740.931    99618035.259         -27.377          39.000  
C20  24729894.234   128775044.820       -2764.311          42.000                                                                  
C09  36818372.304   191722926.075         293.430          45.000    36818364.794   148252299.207         226.766          47.000  
C23  25164251.077   131036863.793       -2425.765          42.000                                                                  
C19  24962287.098   129985181.038        -695.877          41.000                                                                  
C10  38443437.341   200185066.809         548.731          39.000    38443434.245   154795781.333         424.333          44.000  
R21  20831983.218   111476151.292        1471.991          50.000    20831983.432    86703673.689        1144.916          50.000  
R08  23571225.865   126222849.999       -4671.056          40.000    23571264.951    98173489.829       -3633.148          40.000  
J03  37737288.248   198310791.942          -0.884          38.000    37737296.291   154527923.515          -1.046          43.000  
J07  37122077.048   195077832.380        -336.943          39.000    37122077.301   152008700.968        -262.551          47.000  
J04                                                                  36998561.350   151502921.549        -491.976          39.000  
> 2025 11 11 08 03 33.5600000  0 32                     
G28  24522622.910   128867245.678       -3381.328          37.000    24522628.173   100416061.995       -2634.542          37.000  
G26  21849248.808   114818578.605       -2541.654          44.000    21849250.329    89469026.990       -1980.579          43.000  
G27  20162686.171   105955631.558        1320.344          48.000    20162687.502    82562832.567        1028.843          46.000  
G31  22018382.817   115707383.259       -2692.470          45.000    22018382.283    90161596.220       -2098.026          43.000  
G04  20949041.337   110087956.104        -944.025          46.000    20949041.337    85782823.071        -735.590          46.000  
C37  22302984.712   116137496.136        -869.276          49.000                                                                  
C06  35873999.249   186805329.925          49.719          45.000    35873990.237   144449693.135          38.446          48.000  
C16  36315686.129   189105310.096          56.622          48.000    36315682.471   146228205.205          43.779          48.000  
C28  22655826.273   117974834.576         488.179          48.000                                                                  
C07  37193038.023   193673908.441         544.106          43.000    37193029.526   149760919.712         420.812          47.000  
C27  23508115.555   122412928.442        2500.584          46.000                                                                  
R10  22728766.309   121157127.554       -2623.448          40.000                                                                  
R22  23170666.715   123686620.301        3909.502          44.000    23170694.149    96200832.015        3040.472          42.000  
R12  21730827.264   116082179.089        1669.216          49.000    21730829.373    90286148.639        1298.391          48.000  
R11  20149750.742   107674161.696        -707.257          51.000    20149749.950    83746563.658        -550.177          51.000  
R20  22121501.078   118293602.885       -2087.694          46.000    22121501.149    92006130.043       -1623.774          47.000  
R01  21112412.747   112857945.093       -2957.891          47.000                                                                  
G08  21741582.188   114252787.300        2915.449          43.000    21741586.962    89028169.474        2271.645          42.000  
G09  22211486.665   116722147.834        1263.004          42.000    22211487.880    90952332.439         984.098          41.000  
G16  20094851.498   105599158.767       -1115.582          46.000                                                                  
J02  38903549.521   204439533.273        -783.936          46.000    38903549.572   159303533.141        -610.779          47.000  
G18  24327740.213   127843140.255         -35.593          37.000    24327741.204    99618036.396         -28.112          39.000  
C20  24729915.451   128775155.390       -2764.312          42.000                                                                  
C09  36818370.046   191722914.354         293.152          45.000    36818362.543   148252290.151         226.425          47.000  
C23  25164269.718   131036960.830       -2425.891          42.000                                                                  
C19  24962292.455   129985208.874        -695.974          41.000                                                                  
C10  38443433.116   200185044.877         548.385          39.000    38443430.030   154795764.361         424.297          44.000  
R21  20831972.234   111476092.423        1471.722          50.000    20831972.429    86703627.903        1144.666          50.000  
R08  23571260.766   126223036.865       -4671.488          40.000    23571299.829    98173635.176       -3633.593          40.000  
J03  37737288.261   198310792.004          -1.401          38.000    37737296.318   154527923.549          -0.978          43.000  
J07  37122079.625   195077845.880        -337.416          39.000    37122079.863   152008711.483        -262.827          47.000  
J04                                                                  36998566.164   151502941.209        -491.694          39.000  
> 2025 11 11 08 03 33.6000000  0 32                     
G28  24522648.667   128867380.941       -3381.598          37.000    24522653.912   100416167.396       -2634.927          38.000  
G26  21849268.155   114818680.278       -2541.859          44.000    21849269.680    89469106.212       -1980.699          43.000  
G27  20162676.112   105955578.743        1320.242          48.000    20162677.471    82562791.416        1028.703          46.000  
G31  22018403.318   115707490.952       -2692.511          45.000    22018402.773    90161680.139       -2098.121          43.000  
G04  20949048.536   110087993.877        -944.373          46.000    20949048.528    85782852.499        -735.760          46.000  
C37  22302991.379   116137530.917        -869.548          49.000                                                                  
C06  35873998.855   186805327.937          49.579          45.000    35873989.878   144449691.599          38.318          48.000  
C16  36315685.667   189105307.838          56.414          48.000    36315682.017   146228203.459          43.600          48.000  
C28  22655822.526   117974815.047         488.095          48.000                                                                  
C07  37193033.819   193673886.671         544.101          43.000    37193025.375   149760902.881         420.713          47.000  
C27  23508096.324   122412828.426        2500.381          46.000                                                                  
R10  22728786.008   121157232.489       -2623.307          40.000                                                                  
R22  23170637.427   123686463.917        3909.499          44.000    23170664.871    96200710.387        3040.549          42.000  
R12  21730814.746   116082112.324        1669.082          49.000    21730816.869    90286096.714        1298.151          48.000  
R11  20149756.045   107674189.991        -707.410          51.000    20149755.260    83746585.665        -550.262          51.000  
R20  22121516.696   118293686.396       -2087.814          45.000    22121516.769    92006194.995       -1623.892          47.000  
R01  21112434.884   112858063.410       -2958.017          47.000                                                                  
G08  21741559.986   114252670.687        2915.321          43.000    21741564.767    89028078.608        2271.563          42.000  
G09  22211477.060   116722097.306        1263.087          42.000    22211478.269    90952293.067         984.119          41.000  
G16  20094859.998   105599203.396       -1115.767          46.000                                                                  
J02  38903555.481   204439564.626        -783.948          46.000    38903555.520   159303557.576        -610.913          47.000  
G18  24327740.478   127843141.686         -35.913          37.000    24327741.480    99618037.503         -27.988          39.000  
C20  24729936.689   128775265.962       -2764.363          42.000                                                                  
C09  36818367.793   191722902.631         293.028          45.000    36818360.297   148252281.082         226.521          47.000  
C23  25164288.353   131037057.882       -2426.236          42.000                                                                  
C19  24962297.788   129985236.702        -695.912          41.000                                                                  
C10  38443428.900   200185022.928         548.515          39.000    38443425.835   154795747.405         423.952          44.000  
R21  20831961.234   111476033.560        1471.509          50.000    20831961.423    86703582.127        1144.360          50.000  
R08  23571295.665   126223223.740       -4671.851          40.000    23571334.744    98173780.522       -3633.776          40.000  
J03  37737288.293   198310792.053          -1.458          38.000    37737296.315   154527923.582          -0.880          43.000  
J07  37122082.198   195077859.360        -337.252          39.000    37122082.441   152008721.995        -262.917          47.000  
J04                                                                  36998570.968   151502960.884        -491.862          39.000  
> 2025 11 11 08 03 33.6400000  0 32                     
G28  24522674.408   128867516.204       -3381.735          37.000    24522679.645   100416272.802       -2635.238          38.000  
G26  21849287.497   114818781.951       -2541.949          44.000    21849289.037    89469185.436       -1980.740          43.000  
G27  20162666.076   105955525.940        1319.997          48.000    20162667.418    82562750.269        1028.587          46.000  
G31  22018423.822   115707598.656       -2692.684          45.000    22018423.276    90161764.075       -2098.476          43.000  
G04  20949055.702   110088031.649        -944.476          46.000    20949055.687    85782881.932        -735.901          46.000  
C37  22302998.055   116137565.703        -869.738          49.000                                                                  
C06  35873998.475   186805325.956          49.396          45.000    35873989.492   144449690.068          38.171          48.000  
C16  36315685.204   189105305.591          56.147          48.000    36315681.564   146228201.713          43.536          48.000  
C28  22655818.764   117974795.536         487.725          48.000                                                                  
C07  37193029.639   193673864.920         543.806          43.000    37193021.170   149760886.052         420.640          47.000  
C27  23508077.097   122412728.424        2500.037          46.000                                                                  
R10  22728805.683   121157337.448       -2623.755          40.000                                                                  
R22  23170608.135   123686307.549        3909.188          44.000    23170635.566    96200588.770        3040.400          42.000  
R12  21730802.260   116082045.562        1668.964          49.000    21730804.380    90286044.792        1297.983          48.000  
R11  20149761.353   107674218.295        -707.651          51.000    20149760.560    83746607.677        -550.347          51.000  
R20  22121532.315   118293769.925       -2088.214          45.000    22121532.405    92006259.956       -1624.106          47.000  
R01  21112457.027   112858181.735       -2958.193          47.000                                                                  
G08  21741537.799   114252554.096        2914.820          42.000    21741542.565    89027987.746        2271.470          42.000  
G09  22211467.453   116722046.791        1262.908          42.000    22211468.665    90952253.716         983.815          41.000  
G16  20094868.499   105599248.034       -1116.014          46.000                                                                  
J02  38903561.478   204439595.990        -784.149          46.000    38903561.477   159303582.018        -611.096          47.000  
G18  24327740.767   127843143.130         -36.218          37.000    24327741.743    99618038.622         -28.071          39.000  
C20  24729957.901   128775376.541       -2764.524          42.000                                                                  
C09  36818365.521   191722890.916         292.837          45.000    36818358.033   148252272.023         226.422          47.000  
C23  25164307.012   131037154.932       -2426.383          42.000                                                                  
C19  24962303.123   129985264.556        -696.283          41.000                                                                  
C10  38443424.685   200185001.001         548.207          39.000    38443421.617   154795730.452         423.793          44.000  
R21  20831950.252   111475974.709        1471.210          50.000    20831950.440    86703536.352        1144.238          50.000  
R08  23571330.576   126223410.630       -4672.273          40.000    23571369.638    98173925.876       -3633.916          40.000  
J03  37737288.293   198310792.095          -1.334          38.000    37737296.315   154527923.625          -1.039          43.000  
J07  37122084.773   195077872.866        -337.568          39.000    37122085.019   152008732.507        -262.978          47.000  
J04                                                                  36998575.781   151502980.594        -492.537          39.000  
> 2025 11 11 08 03 33.6800000  0 32                     
G28  24522700.144   128867651.473       -3381.866          37.000    24522705.407   100416378.215       -2635.470          38.000  
G26  21849306.831   114818883.635       -2542.165          44.000    21849308.383    89469264.668       -1980.823          43.000  
G27  20162656.019   105955473.130        1320.057          48.000    20162657.368    82562709.120        1028.577          46.000  
G31  22018444.334   115707706.364       -2692.790          45.000    22018443.781    90161847.998       -2098.319          43.000  
G04  20949062.890   110088069.417        -944.409          46.000    20949062.860    85782911.367        -735.968          46.000  
C37  22303004.749   116137600.488        -869.774          49.000                                                                  
C06  35873998.085   186805323.973          49.384          45.000    35873989.077   144449688.536          38.171          48.000  
C16  36315684.782   189105303.339          56.101          48.000    36315681.085   146228199.976          43.387          48.000  
C28  22655814.998   117974776.025         487.640          48.000                                                                  
C07  37193025.461   193673843.163         543.742          43.000    37193016.997   149760869.239         420.344          47.000  
C27  23508057.903   122412628.419        2499.965          46.000                                                                  
R10  22728825.355   121157442.408       -2624.063          40.000                                                                  
R22  23170578.869   123686151.179        3909.123          44.000    23170606.278    96200467.147        3040.496          43.000  
R12  21730789.764   116081978.805        1668.849          49.000    21730791.891    90285992.874        1297.835          48.000  
R11  20149766.655   107674246.604        -707.803          51.000    20149765.860    83746629.691        -550.414          51.000  
R20  22121547.937   118293853.445       -2088.179          45.000    22121548.023    92006324.928       -1624.375          47.000  
R01  21112479.175   112858300.072       -2958.465          47.000                                                                  
G08  21741515.638   114252437.502        2914.662          42.000    21741520.368    89027896.896        2271.243          42.000  
G09  22211457.855   116721996.297        1262.412          42.000    22211459.057    90952214.353         983.887          41.000  
G16  20094876.986   105599292.680       -1116.215          46.000                                                                  
J02  38903567.421   204439627.352        -784.186          46.000    38903567.425   159303606.452        -611.029          47.000  
G18  24327741.025   127843144.571         -36.238          37.000    24327742.026    99618039.737         -28.009          39.000  
C20  24729979.132   128775487.153       -2765.140          42.000                                                                  
C09  36818363.294   191722879.203         292.709          45.000    36818355.745   148252262.964         226.382          47.000  
C23  25164325.658   131037251.990       -2426.540          42.000                                                                  
C19  24962308.479   129985292.419        -696.649          41.000                                                                  
C10  38443420.470   200184979.077         547.999          39.000    38443417.393   154795713.490         423.881          44.000  
R21  20831939.244   111475915.859        1471.094          50.000    20831939.433    86703490.580        1144.202          50.000  
R08  23571365.470   126223597.511       -4672.283          40.000    23571404.522    98174071.222       -3633.810          40.000  
J03  37737288.330   198310792.170          -1.846          38.000    37737296.325   154527923.673          -1.201          43.000  
J07  37122087.336   195077886.380        -337.884          39.000    37122087.589   152008743.020        -262.945          47.000  
J04                                                                  36998580.584   151503000.277        -492.323          39.000  
> 2025 11 11 08 03 33.7200000  0 32                     
G28  24522725.888   128867786.729       -3381.686          37.000    24522731.154   100416483.594       -2634.912          38.000  
G26  21849326.198   114818985.322       -2542.268          44.000    21849327.738    89469343.903       -1980.921          43.000  
G27  20162645.980   105955420.317        1320.208          48.000    20162647.315    82562667.972        1028.610          46.000  
G31  22018464.822   115707814.064       -2692.673          45.000    22018464.257    90161931.909       -2097.957          43.000  
G04  20949070.064   110088107.181        -944.250          46.000    20949070.069    85782940.797        -735.870          46.000  
C37  22303011.463   116137635.270        -869.679          49.000                                                                  
C06  35873997.701   186805321.989          49.445          45.000    35873988.661   144449686.988          38.507          48.000  
C16  36315684.351   189105301.070          56.464          48.000    36315680.640   146228198.236          43.403          48.000  
C28  22655811.237   117974756.496         487.964          48.000                                                                  
C07  37193021.271   193673821.383         544.211          43.000    37193012.815   149760852.410         420.506          47.000  
C27  23508038.704   122412528.405        2500.145          46.000                                                                  
R10  22728845.047   121157547.374       -2624.232          40.000                                                                  
R22  23170549.579   123685994.805        3909.207          44.000    23170576.981    96200345.520        3040.614          43.000  
R12  21730777.271   116081912.043        1668.915          49.000    21730779.395    90285940.947        1297.982          48.000  
R11  20149771.957   107674274.903        -707.670          51.000    20149771.149    83746651.696        -550.269          51.000  
R20  22121563.559   118293936.965       -2088.106          45.000    22121563.641    92006389.890       -1624.271          47.000  
R01  21112501.305   112858418.397       -2958.346          47.000                                                                  
G08  21741493.441   114252320.893        2914.884          42.000    21741498.181    89027806.044        2271.209          42.000  
G09  22211448.244   116721945.785        1262.540          42.000    22211449.429    90952174.989         984.006          41.000  
G16  20094885.496   105599337.306       -1115.913          46.000                                                                  
J02  38903573.389   204439658.711        -784.094          46.000    38903573.407   159303630.886        -610.919          47.000  
G18  24327741.315   127843145.991         -35.851          37.000    24327742.301    99618040.845         -27.842          39.000  
C20  24730000.374   128775597.739       -2764.944          42.000                                                                  
C09  36818361.055   191722867.490         292.700          45.000    36818353.500   148252253.901         226.457          47.000  
C23  25164344.305   131037349.040       -2426.420          42.000                                                                  
C19  24962313.825   129985320.264        -696.418          41.000                                                                  
C10  38443416.258   200184957.148         548.094          39.000    38443413.184   154795696.539         423.790          44.000  
R21  20831928.252   111475857.000        1471.283          50.000    20831928.397    86703444.801        1144.342          50.000  
R08  23571400.356   126223784.376       -4671.912          40.000    23571439.401    98174216.555       -3633.421          40.000  
J03  37737288.351   198310792.219          -1.518          38.000    37737296.328   154527923.715          -1.160          43.000  
J07  37122089.876   195077899.846        -337.183          39.000    37122090.154   152008753.530        -262.837          47.000  
J04                                                                  36998585.372   151503019.965        -492.286          39.000  
> 2025 11 11 08 03 33.7600000  0 32                     
G28  24522751.640   128867921.980       -3381.445          37.000    24522756.885   100416588.983       -2634.728          38.000  
G26  21849345.548   114819086.988       -2541.920          44.000    21849347.078    89469423.107       -1980.420          43.000  
G27  20162635.926   105955367.497        1320.407          48.000    20162637.249    82562626.812        1028.873          46.000  
G31  22018485.301   115707921.749       -2692.321          45.000    22018484.750    90162015.814       -2097.671          43.000  
G04  20949077.222   110088144.940        -944.049          46.000    20949077.266    85782970.218        -735.632          46.000  
C37  22303018.148   116137670.042        -869.447          49.000                                                                  
C06  35873997.317   186805319.987          49.847          45.000    35873988.263   144449685.444          38.611          48.000  
C16  36315683.909   189105298.804          56.603          47.000    36315680.196   146228196.482          43.672          48.000  
C28  22655807.467   117974736.959         488.292          48.000                                                                  
C07  37193017.103   193673799.622         544.137          43.000    37193008.646   149760835.572         420.770          47.000  
C27  23508019.500   122412428.387        2500.343          46.000                                                                  
R10  22728864.731   121157652.331       -2624.156          40.000                                                                  
R22  23170520.275   123685838.422        3909.476          44.000    23170547.715    96200223.897        3040.613          43.000  
R12  21730764.778   116081845.268        1669.198          49.000    21730766.897    90285889.009        1298.278          48.000  
R11  20149777.253   107674303.192        -707.382          51.000    20149776.441    83746673.698        -550.114          51.000  
R20  22121579.169   118294020.471       -2087.800          45.000    22121579.255    92006454.838       -1623.918          47.000  
R01  21112523.436   112858536.710       -2958.013          47.000                                                                  
G08  21741471.265   114252204.277        2915.258          42.000    21741475.977    89027715.174        2271.555          42.000  
G09  22211438.646   116721895.272        1262.694          42.000    22211439.825    90952135.634         983.904          41.000  
G16  20094893.966   105599381.930       -1115.683          46.000                                                                  
J02  38903579.353   204439690.067        -783.978          46.000    38903579.366   159303655.318        -610.846          47.000  
G18  24327741.566   127843147.401         -35.491          37.000    24327742.581    99618041.958         -27.804          39.000  
C20  24730021.605   128775708.311       -2764.539          42.000                                                                  
C09  36818358.825   191722855.761         293.013          45.000    36818351.243   148252244.829         226.667          47.000  
C23  25164362.949   131037446.079       -2426.125          42.000                                                                  
C19  24962319.180   129985348.103        -696.136          41.000                                                                  
C10  38443412.059   200184935.199         548.513          39.000    38443408.991   154795679.571         424.024          44.000  
R21  20831917.239   111475798.135        1471.497          50.000    20831917.393    86703399.014        1144.586          50.000  
R08  23571435.255   126223971.243       -4671.733          40.000    23571474.304    98174361.899       -3633.452          40.000  
J03  37737288.344   198310792.250          -0.977          38.000    37737296.316   154527923.754          -1.044          43.000  
J07  37122092.437   195077913.324        -336.963          39.000    37122092.714   152008764.036        -262.723          47.000  
J04                                                                  36998590.175   151503039.641        -491.978          39.000  
> 2025 11 11 08 03 33.8000000  0 32                     
G28  24522777.368   128868057.233       -3381.343          37.000    24522782.604   100416694.372       -2634.636          38.000  
G26  21849364.898   114819188.648       -2541.590          44.000    21849366.418    89469502.337       -1980.599          43.000  
G27  20162625.867   105955314.683        1320.386          48.000    20162627.214    82562585.655        1028.914          46.000  
G31  22018505.798   115708029.445       -2692.349          45.000    22018505.225    90162099.737       -2097.869          43.000  
G04  20949084.406   110088182.707        -944.165          46.000    20949084.461    85782999.645        -735.657          46.000  
C37  22303024.829   116137704.814        -869.315          49.000                                                                  
C06  35873996.923   186805317.993          49.939          45.000    35873987.879   144449683.905          38.519          48.000  
C16  36315683.489   189105296.545          56.522          47.000    36315679.778   146228194.723          43.920          48.000  
C28  22655803.718   117974717.441         488.084          48.000                                                                  
C07  37193012.928   193673777.858         544.081          43.000    37193004.484   149760818.741         420.805          47.000  
C27  23508000.281   122412328.372        2500.354          46.000                                                                  
R10  22728884.398   121157757.275       -2623.883          40.000                                                                  
R22  23170490.969   123685682.036        3909.642          44.000    23170518.409    96200102.273        3040.556          43.000  
R12  21730752.275   116081778.499        1669.224          49.000    21730754.417    90285837.082        1298.245          48.000  
R11  20149782.550   107674331.482        -707.259          51.000    20149781.745    83746695.712        -550.277          51.000  
R20  22121594.763   118294103.988       -2087.845          45.000    22121594.874    92006519.791       -1623.860          47.000  
R01  21112545.560   112858655.018       -2957.783          47.000                                                                  
G08  21741449.049   114252087.656        2915.523          42.000    21741453.798    89027624.305        2271.714          42.000  
G09  22211429.039   116721844.757        1262.794          42.000    22211430.200    90952096.274         983.938          41.000  
G16  20094902.465   105599426.561       -1115.740          46.000                                                                  
J02  38903585.314   204439721.425        -783.966          46.000    38903585.330   159303679.749        -610.773          47.000  
G18  24327741.842   127843148.843         -35.844          37.000    24327742.842    99618043.067         -27.762          39.000  
C20  24730042.825   128775818.883       -2764.337          42.000                                                                  
C09  36818356.561   191722844.040         293.033          45.000    36818348.997   148252235.770         226.571          47.000  
C23  25164381.590   131037543.116       -2425.992          42.000                                                                  
C19  24962324.549   129985375.949        -696.113          41.000                                                                  
C10  38443407.854   200184913.252         548.666          39.000    38443404.770   154795662.606         424.091          44.000  
R21  20831906.250   111475739.279        1471.429          50.000    20831906.413    86703353.240        1144.434          50.000  
R08  23571470.143   126224158.122       -4671.938          40.000    23571509.190    98174507.238       -3633.435          40.000  
J03  37737288.353   198310792.305          -1.129          38.000    37737296.308   154527923.790          -0.970          43.000  
J07  37122095.008   195077926.819        -337.240          39.000    37122095.261   152008774.545        -262.727          47.000  
J04                                                                  36998594.965   151503059.322        -491.952          39.000  
> 2025 11 11 08 03 33.8400000  0 32                     
G28  24522803.109   128868192.495       -3381.504          37.000    24522808.356   100416799.773       -2634.884          38.000  
G26  21849384.253   114819290.329       -2541.845          44.000    21849385.764    89469581.572       -1980.850          43.000  
G27  20162615.841   105955261.895        1319.850          48.000    20162617.184    82562544.525        1028.402          46.000  
G31  22018526.288   115708137.157       -2692.729          45.000    22018525.721    90162183.677       -2098.356          43.000  
G04  20949091.601   110088220.494        -944.617          46.000    20949091.658    85783029.089        -736.005          46.000  
C37  22303031.486   116137739.610        -869.737          49.000                                                                  
C06  35873996.528   186805316.015          49.585          45.000    35873987.483   144449682.387          38.068          48.000  
C16  36315683.036   189105294.298          56.237          47.000    36315679.335   146228192.981          43.710          48.000  
C28  22655799.956   117974697.938         487.677          48.000                                                                  
C07  37193008.762   193673756.101         543.928          43.000    37193000.297   149760801.922         420.551          47.000  
C27  23507981.076   122412228.378        2499.934          46.000                                                                  
R10  22728904.102   121157862.234       -2623.993          40.000                                                                  
R22  23170461.667   123685525.666        3909.327          44.000    23170489.099    96199980.667        3040.189          43.000  
R12  21730739.783   116081711.748        1668.902          49.000    21730741.919    90285785.161        1298.065          48.000  
R11  20149787.841   107674359.797        -707.735          51.000    20149787.048    83746717.734        -550.526          51.000  
R20  22121610.373   118294187.523       -2088.262          45.000    22121610.481    92006584.759       -1624.123          47.000  
R01  21112567.688   112858773.362       -2958.334          47.000                                                                  
G08  21741426.878   114251971.073        2914.876          42.000    21741431.605    89027533.450        2271.502          42.000  
G09  22211419.422   116721794.246        1262.711          42.000    22211420.584    90952056.919         983.827          41.000  
G16  20094910.969   105599471.206       -1116.065          46.000                                                                  
J02  38903591.295   204439752.790        -784.113          46.000    38903591.310   159303704.197        -611.115          47.000  
G18  24327742.131   127843150.301         -36.361          37.000    24327743.101    99618044.198         -28.186          39.000  
C20  24730064.062   128775929.487       -2764.837          42.000                                                                  
C09  36818354.276   191722832.334         292.742          45.000    36818346.768   148252226.716         226.383          47.000  
C23  25164400.232   131037640.179       -2426.426          42.000                                                                  
C19  24962329.884   129985403.806        -696.317          41.000                                                                  
C10  38443403.627   200184891.338         548.091          39.000    38443400.565   154795645.663         423.684          44.000  
R21  20831895.281   111475680.443        1470.984          50.000    20831895.428    86703307.479        1144.073          50.000  
R08  23571505.046   126224345.003       -4672.124          40.000    23571544.098    98174652.600       -3633.891          40.000  
J03  37737288.368   198310792.366          -1.393          38.000    37737296.308   154527923.845          -1.282          43.000  
J07  37122097.579   195077940.333        -337.729          39.000    37122097.827   152008785.069        -263.040          47.000  
J04                                                                  36998599.783   151503079.010        -492.100          39.000  
> 2025 11 11 08 03 33.8800000  0 32                     
G28  24522828.852   128868327.807       -3382.491          37.000    24522834.106   100416905.206       -2635.536          38.000  
G26  21849403.597   114819392.055       -2542.837          44.000    21849405.135    89469660.836       -1981.462          43.000  
G27  20162605.782   105955209.136        1319.039          48.000    20162607.155    82562503.411        1027.826          46.000  
G31  22018546.793   115708244.909       -2693.614          45.000    22018546.243    90162267.648       -2099.133          43.000  
G04  20949098.797   110088258.311        -945.374          46.000    20949098.864    85783058.561        -736.694          46.000  
C37  22303038.138   116137774.440        -870.558          49.000                                                                  
C06  35873996.147   186805314.069          48.810          45.000    35873987.110   144449680.878          37.677          48.000  
C16  36315682.623   189105292.086          55.474          47.000    36315678.883   146228191.274          42.944          48.000  
C28  22655796.194   117974678.466         486.923          48.000                                                                  
C07  37193004.570   193673734.375         543.298          43.000    37192996.140   149760785.129         419.926          47.000  
C27  23507961.852   122412128.414        2499.190          46.000                                                                  
R10  22728923.815   121157967.227       -2624.697          40.000                                                                  
R22  23170432.397   123685369.340        3908.345          44.000    23170459.817    96199859.077        3039.750          42.000  
R12  21730727.303   116081645.034        1668.060          49.000    21730729.428    90285733.268        1297.494          48.000  
R11  20149793.165   107674388.140        -708.454          51.000    20149792.370    83746739.779        -551.077          51.000  
R20  22121626.000   118294271.092       -2089.049          45.000    22121626.104    92006649.742       -1624.534          47.000  
R01  21112589.823   112858891.739       -2959.200          47.000                                                                  
G08  21741404.691   114251854.521        2913.953          42.000    21741409.427    89027442.619        2270.957          42.000  
G09  22211409.826   116721743.791        1261.636          42.000    22211410.953    90952017.605         983.083          41.000  
G16  20094919.478   105599515.884       -1116.854          46.000                                                                  
J02  38903597.291   204439784.190        -784.833          46.000    38903597.289   159303728.666        -611.676          47.000  
G18  24327742.400   127843151.783         -37.021          37.000    24327743.384    99618045.344         -28.633          39.000  
C20  24730085.323   128776040.115       -2765.553          42.000                                                                  
C09  36818352.005   191722820.654         292.135          45.000    36818344.542   148252217.685         225.871          47.000  
C23  25164418.873   131037737.277       -2427.299          42.000                                                                  
C19  24962335.256   129985431.713        -697.340          41.000                                                                  
C10  38443399.432   200184869.455         547.236          39.000    38443396.354   154795628.730         423.322          44.000  
R21  20831884.298   111475621.636        1470.221          50.000    20831884.440    86703261.739        1143.506          50.000  
R08  23571539.968   126224531.906       -4672.616          40.000    23571578.999    98174797.970       -3634.260          40.000  
J03  37737288.385   198310792.469          -2.323          38.000    37737296.326   154527923.923          -1.868          43.000  
J07  37122100.155   195077953.868        -338.363          39.000    37122100.421   152008795.614        -263.570          47.000  
J04                                                                  36998604.589   151503098.734        -492.883          39.000  
> 2025 11 11 08 03 33.9200000  0 32                     
G28  24522854.607   128868463.118       -3382.953          37.000    24522859.870   100417010.644       -2635.955          38.000  
G26  21849422.940   114819493.777       -2543.268          44.000    21849424.486    89469740.111       -1981.956          43.000  
G27  20162595.758   105955156.376        1318.742          48.000    20162597.113    82562462.303        1027.484          46.000  
G31  22018567.303   115708352.659       -2693.963          45.000    22018566.741    90162351.603       -2099.208          43.000  
G04  20949106.014   110088296.127        -945.654          46.000    20949106.045    85783088.022        -736.786          46.000  
C37  22303044.811   116137809.259        -870.730          49.000                                                                  
C06  35873995.765   186805312.126          48.425          45.000    35873986.722   144449679.373          37.476          48.000  
C16  36315682.210   189105289.874          55.128          47.000    36315678.417   146228189.562          42.645          48.000  
C28  22655792.440   117974659.001         486.470          48.000                                                                  
C07  37193000.394   193673712.668         542.692          43.000    37192991.956   149760768.339         419.634          47.000  
C27  23507942.658   122412028.442        2499.034          46.000                                                                  
R10  22728943.520   121158072.229       -2625.173          40.000                                                                  
R22  23170403.113   123685213.017        3907.887          44.000    23170430.517    96199737.489        3039.538          42.000  
R12  21730714.821   116081578.319        1667.688          49.000    21730716.951    90285681.380        1297.128          48.000  
R11  20149798.481   107674416.489        -708.863          51.000    20149797.687    83746761.825        -551.295          51.000  
R20  22121641.641   118294354.670       -2089.567          45.000    22121641.739    92006714.751       -1625.174          47.000  
R01  21112611.987   112859010.124       -2959.753          47.000                                                                  
G08  21741382.518   114251737.969        2913.581          42.000    21741387.250    89027351.814        2270.242          42.000  
G09  22211400.213   116721693.336        1261.191          42.000    22211401.353    90951978.285         982.838          41.000  
G16  20094927.970   105599560.566       -1117.251          46.000                                                                  
J02  38903603.272   204439815.591        -785.168          46.000    38903603.273   159303753.137        -611.932          47.000  
G18  24327742.695   127843153.250         -37.094          37.000    24327743.673    99618046.507         -29.075          39.000  
C20  24730106.561   128776150.760       -2766.180          42.000                                                                  
C09  36818349.769   191722808.978         291.769          45.000    36818342.306   148252208.661         225.516          47.000  
C23  25164437.523   131037834.375       -2427.695          42.000                                                                  
C19  24962340.588   129985459.605        -697.574          41.000                                                                  
C10  38443395.247   200184847.584         546.624          39.000    38443392.140   154795611.811         422.898          44.000  
R21  20831873.314   111475562.828        1469.934          50.000    20831873.471    86703216.006        1143.195          50.000  
R08  23571574.870   126224718.821       -4673.001          40.000    23571613.910    98174943.351       -3634.621          40.000  
J03  37737288.426   198310792.592          -3.086          38.000    37737296.353   154527924.002          -2.102          43.000  
J07  37122102.763   195077967.408        -338.663          39.000    37122103.010   152008806.163        -263.848          47.000  
J04                                                                  36998609.411   151503118.466        -493.381          39.000  
> 2025 11 11 08 03 33.9600000  0 32                     
G28  24522880.340   128868598.404       -3382.679          37.000    24522885.609   100417116.057       -2635.696          38.000  
G26  21849442.284   114819595.491       -2543.214          44.000    21849443.855    89469819.359       -1981.659          43.000  
G27  20162585.720   105955103.611        1318.812          48.000    20162587.083    82562421.187        1027.565          46.000  
G31  22018587.791   115708460.397       -2693.837          45.000    22018587.239    90162435.548       -2098.967          43.000  
G04  20949113.200   110088333.940        -945.593          46.000    20949113.268    85783117.491        -736.847          46.000  
C37  22303051.493   116137844.071        -870.599          49.000                                                                  
C06  35873995.374   186805310.174          48.499          45.000    35873986.316   144449677.859          37.628          48.000  
C16  36315681.786   189105287.650          55.234          47.000    36315677.992   146228187.851          42.550          48.000  
C28  22655788.712   117974639.516         486.727          48.000                                                                  
C07  37192996.226   193673690.949         542.640          43.000    37192987.793   149760751.533         419.808          47.000  
C27  23507923.457   122411928.467        2499.123          46.000                                                                  
R10  22728963.221   121158177.207       -2624.867          40.000                                                                  
R22  23170373.833   123685056.669        3908.194          44.000    23170401.218    96199615.896        3039.617          42.000  
R12  21730702.327   116081511.590        1667.857          49.000    21730704.455    90285629.488        1297.062          48.000  
R11  20149803.778   107674444.825        -708.737          51.000    20149802.981    83746783.862        -551.185          51.000  
R20  22121657.273   118294438.230       -2089.412          45.000    22121657.357    92006779.754       -1625.353          47.000  
R01  21112634.126   112859128.490       -2959.608          47.000                                                                  
G08  21741360.333   114251621.401        2913.791          42.000    21741365.053    89027260.986        2270.336          42.000  
G09  22211390.603   116721642.875        1261.155          42.000    22211391.723    90951938.957         982.948          41.000  
G16  20094936.476   105599605.240       -1117.199          46.000                                                                  
J02  38903609.255   204439846.984        -785.089          46.000    38903609.235   159303777.598        -611.786          47.000  
G18  24327742.993   127843154.719         -37.101          37.000    24327743.961    99618047.657         -28.978          39.000  
C20  24730127.780   128776261.371       -2765.811          42.000                                                                  
C09  36818347.535   191722797.295         291.763          45.000    36818340.016   148252199.628         225.568          47.000  
C23  25164456.168   131037931.447       -2427.309          42.000                                                                  
C19  24962345.941   129985487.489        -697.391          41.000                                                                  
C10  38443391.032   200184825.675         547.115          39.000    38443387.941   154795594.880         423.000          44.000  
R21  20831862.323   111475504.012        1470.081          50.000    20831862.476    86703170.263        1143.280          50.000  
R08  23571609.764   126224905.723       -4672.856          40.000    23571648.814    98175088.722       -3634.588          40.000  
J03  37737288.446   198310792.679          -2.776          38.000    37737296.370   154527924.073          -2.042          43.000  
J07  37122105.345   195077980.929        -338.403          39.000    37122105.565   152008816.703        -263.749          47.000  
J04                                                                  36998614.240   151503138.169        -493.023          39.000  
> 2025 11 11 08 03 34.0000000  0 32                     
G28  24522906.093   128868733.678       -3382.183          37.000    24522911.348   100417221.478       -2635.665          38.000  
G26  21849461.626   114819697.188       -2542.779          44.000    21849463.206    89469898.592       -1981.120          43.000  
G27  20162575.696   105955050.825        1319.321          48.000    20162577.025    82562380.048        1028.116          46.000  
G31  22018608.272   115708568.113       -2693.275          45.000    22018607.721    90162519.493       -2098.793          43.000  
G04  20949120.403   110088371.732        -945.105          46.000    20949120.444    85783146.936        -736.359          46.000  
C37  22303058.146   116137878.868        -870.157          49.000                                                                  
C06  35873995.014   186805308.208          48.901          45.000    35873985.937   144449676.334          37.970          48.000  
C16  36315681.364   189105285.405          55.748          47.000    36315677.567   146228186.121          42.921          48.000  
C28  22655784.992   117974620.014         487.247          48.000                                                                  
C07  37192992.053   193673669.196         543.338          43.000    37192983.613   149760734.715         420.197          47.000  
C27  23507904.250   122411828.473        2499.581          46.000                                                                  
R10  22728982.915   121158282.175       -2624.461          40.000                                                                  
R22  23170344.566   123684900.305        3908.827          44.000    23170371.910    96199494.289        3039.962          42.000  
R12  21730689.839   116081444.846        1668.273          49.000    21730691.975    90285577.571        1297.544          48.000  
R11  20149809.078   107674473.146        -708.310          51.000    20149808.281    83746805.888        -550.840          51.000  
R20  22121672.868   118294521.770       -2088.857          45.000    22121672.991    92006844.741       -1625.029          47.000  
R01  21112656.261   112859246.838       -2959.115          47.000                                                                  
G08  21741338.161   114251504.822        2914.183          42.000    21741342.863    89027170.140        2270.751          42.000  
G09  22211380.991   116721592.378        1261.893          42.000    22211382.117    90951899.602         983.528          41.000  
G16  20094944.975   105599649.895       -1116.691          46.000                                                                  
J02  38903615.244   204439878.358        -784.607          46.000    38903615.232   159303802.049        -611.456          47.000  
G18  24327743.285   127843156.197         -37.095          37.000    24327744.230    99618048.799         -28.706          39.000  
C20  24730149.025   128776371.974       -2765.358          42.000                                                                  
C09  36818345.304   191722785.601         292.080          45.000    36818337.763   148252190.583         225.845          48.000  
C23  25164474.802   131038028.528       -2427.157          42.000                                                                  
C19  24962351.287   129985515.366        -697.145          41.000                                                                  
C10  38443386.838   200184803.743         547.918          39.000    38443383.733   154795577.929         423.494          44.000  
R21  20831851.337   111475445.181        1470.538          50.000    20831851.492    86703124.505        1143.713          50.000  
R08  23571644.656   126225092.614       -4672.553          40.000    23571683.728    98175234.089       -3634.389          40.000  
J03  37737288.455   198310792.735          -1.866          38.000    37737296.358   154527924.121          -1.490          43.000  
J07  37122107.922   195077994.435        -337.933          39.000    37122108.143   152008827.228        -263.365          47.000  
J04                                                                  36998619.013   151503157.845        -492.273          39.000  
> 2025 11 11 08 03 34.0400000  0 32                     
G28  24522931.848   128868868.939       -3381.720          37.000    24522937.116   100417326.894       -2635.558          38.000  
G26  21849480.985   114819798.857       -2542.040          44.000    21849482.548    89469977.819       -1980.746          43.000  
G27  20162565.631   105954998.018        1320.003          48.000    20162566.974    82562338.912        1028.345          46.000  
G31  22018628.754   115708675.817       -2692.724          45.000    22018628.223    90162603.420       -2098.368          43.000  
G04  20949127.590   110088409.518        -944.708          46.000    20949127.621    85783176.375        -736.017          46.000  
C37  22303064.826   116137913.658        -869.823          49.000                                                                  
C06  35873994.610   186805306.224          49.469          45.000    35873985.558   144449674.800          38.306          48.000  
C16  36315680.942   189105283.149          56.271          47.000    36315677.156   146228184.374          43.463          48.000  
C28  22655781.235   117974600.502         487.712          48.000                                                                  
C07  37192987.882   193673647.447         543.680          43.000    37192979.429   149760717.897         420.390          47.000  
C27  23507885.053   122411728.467        2500.029          46.000                                                                  
R10  22729002.603   121158387.123       -2623.823          40.000                                                                  
R22  23170315.267   123684743.931        3909.296          44.000    23170342.619    96199372.675        3040.284          42.000  
R12  21730677.355   116081378.081        1668.901          49.000    21730679.493    90285525.641        1298.054          48.000  
R11  20149814.358   107674501.447        -707.690          51.000    20149813.562    83746827.905        -550.512          51.000  
R20  22121688.463   118294605.300       -2088.365          45.000    22121688.603    92006909.704       -1624.388          47.000  
R01  21112678.393   112859365.163       -2958.399          47.000                                                                  
G08  21741315.988   114251388.229        2914.699          42.000    21741320.683    89027079.277        2271.350          42.000  
G09  22211371.381   116721541.871        1262.516          42.000    22211372.508    90951860.252         983.772          41.000  
G16  20094953.457   105599694.526       -1115.951          46.000                                                                  
J02  38903621.176   204439909.723        -784.186          46.000    38903621.180   159303826.485        -611.017          47.000  
G18  24327743.566   127843157.643         -36.541          37.000    24327744.508    99618049.952         -28.745          39.000  
C20  24730170.278   128776482.559       -2764.783          42.000                                                                  
C09  36818343.070   191722773.876         292.830          45.000    36818335.483   148252181.526         226.241          48.000  
C23  25164493.449   131038125.557       -2426.124          42.000                                                                  
C19  24962356.659   129985543.226        -696.659          41.000                                                                  
C10  38443382.614   200184781.828         548.002          39.000    38443379.523   154795560.963         424.042          44.000  
R21  20831840.349   111475386.337        1471.008          50.000    20831840.494    86703078.739        1144.092          50.000  
R08  23571679.550   126225279.502       -4672.294          40.000    23571718.624    98175379.444       -3634.031          40.000  
J03  37737288.442   198310792.793          -1.397          38.000    37737296.347   154527924.170          -1.203          43.000  
J07  37122110.466   195078007.926        -337.424          39.000    37122110.685   152008837.745        -262.986          47.000  
J04                                                                  36998623.819   151503177.543        -492.307          39.000  
> 2025 11 11 08 03 34.0800000  0 32                     
G28  24522957.592   128869004.198       -3381.420          37.000    24522962.849   100417432.277       -2634.910          38.000  
G26  21849500.320   114819900.535       -2541.810          44.000    21849501.908    89470057.063       -1980.893          43.000  
G27  20162555.584   105954945.222        1320.090          48.000    20162556.922    82562297.769        1028.571          46.000  
G31  22018649.235   115708783.516       -2692.432          45.000    22018648.724    90162687.344       -2098.094          43.000  
G04  20949134.765   110088447.306        -944.592          46.000    20949134.822    85783205.817        -735.956          46.000  
C37  22303071.513   116137948.447        -869.672          49.000                                                                  
C06  35873994.211   186805304.237          49.738          45.000    35873985.171   144449673.269          38.348          48.000  
C16  36315680.547   189105280.889          56.581          47.000    36315676.738   146228182.620          43.818          48.000  
C28  22655777.487   117974580.989         487.936          48.000                                                                  
C07  37192983.671   193673625.686         544.042          43.000    37192975.254   149760701.076         420.538          47.000  
C27  23507865.838   122411628.460        2500.236          46.000                                                                  
R10  22729022.271   121158492.081       -2623.780          40.000                                                                  
R22  23170285.978   123684587.554        3909.527          44.000    23170313.329    96199251.057        3040.454          43.000  
R12  21730664.839   116081311.325        1669.033          49.000    21730667.000    90285473.716        1298.211          48.000  
R11  20149819.660   107674529.749        -707.459          51.000    20149818.875    83746849.917        -550.285          51.000  
R20  22121704.087   118294688.828       -2088.121          45.000    22121704.226    92006974.669       -1624.083          47.000  
R01  21112700.534   112859483.499       -2958.233          47.000                                                                  
G08  21741293.795   114251271.618        2915.256          42.000    21741298.514    89026988.429        2271.360          42.000  
G09  22211361.771   116721491.365        1262.810          42.000    22211362.888    90951820.898         983.896          41.000  
G16  20094961.936   105599739.158       -1115.653          46.000                                                                  
J02  38903627.135   204439941.086        -784.003          46.000    38903627.133   159303850.924        -610.901          47.000  
G18  24327743.832   127843159.071         -35.930          38.000    24327744.754    99618051.054         -27.909          39.000  
C20  24730191.516   128776593.141       -2764.489          42.000                                                                  
C09  36818340.826   191722762.148         293.247          45.000    36818333.225   148252172.462         226.577          48.000  
C23  25164512.060   131038222.600       -2425.882          42.000                                                                  
C19  24962362.015   129985571.078        -696.291          41.000                                                                  
C10  38443378.388   200184759.901         548.209          39.000    38443375.303   154795544.003         424.100          44.000  
R21  20831829.338   111475327.497        1471.118          50.000    20831829.491    86703032.967        1144.348          50.000  
R08  23571714.425   126225466.366       -4671.741          40.000    23571753.500    98175524.785       -3633.570          40.000  
J03  37737288.458   198310792.844          -1.072          38.000    37737296.352   154527924.216          -1.078          43.000  
J07  37122113.041   195078021.406        -337.041          39.000    37122113.250   152008848.259        -262.793          47.000  
J04                                                                  36998628.623   151503197.232        -492.225          39.000  
> 2025 11 11 08 03 34.1200000  0 32                     
G28  24522983.352   128869139.467       -3381.517          37.000    24522988.591   100417537.676       -2634.818          38.000  
G26  21849519.685   114820002.218       -2541.854          44.000    21849521.244    89470136.297       -1980.867          43.000  
G27  20162545.548   105954892.437        1319.843          48.000    20162546.869    82562256.630        1028.574          46.000  
G31  22018669.720   115708891.228       -2692.564          45.000    22018669.238    90162771.278       -2098.189          43.000  
G04  20949141.960   110088485.091        -944.574          46.000    20949142.020    85783235.268        -736.121          46.000  
C37  22303078.177   116137983.236        -869.616          49.000                                                                  
C06  35873993.817   186805302.259          49.634          45.000    35873984.789   144449671.743          38.239          48.000  
C16  36315680.127   189105278.644          56.387          47.000    36315676.315   146228180.877          43.766          48.000  
C28  22655773.742   117974561.492         487.672          48.000                                                                  
C07  37192979.509   193673603.929         544.059          43.000    37192971.079   149760684.260         420.481          47.000  
C27  23507846.634   122411528.470        2499.957          46.000                                                                  
R10  22729041.973   121158597.060       -2624.247          40.000                                                                  
R22  23170256.670   123684431.188        3909.391          43.000    23170284.020    96199129.442        3040.419          43.000  
R12  21730652.364   116081244.578        1668.909          49.000    21730654.499    90285421.807        1297.949          48.000  
R11  20149824.953   107674558.059        -707.558          51.000    20149824.155    83746871.938        -550.376          51.000  
R20  22121719.715   118294772.371       -2088.329          45.000    22121719.857    92007039.636       -1624.060          47.000  
R01  21112722.686   112859601.843       -2958.396          47.000                                                                  
G08  21741271.604   114251155.031        2915.021          42.000    21741276.333    89026897.584        2271.279          42.000  
G09  22211352.167   116721440.879        1262.480          42.000    22211353.286    90951781.564         983.542          41.000  
G16  20094970.436   105599783.817       -1116.114          46.000                                                                  
J02  38903633.090   204439972.452        -784.039          46.000    38903633.113   159303875.364        -610.895          47.000  
G18  24327744.116   127843160.525         -36.083          38.000    24327745.043    99618052.182         -27.917          39.000  
C20  24730212.750   128776703.745       -2764.804          42.000                                                                  
C09  36818338.562   191722750.444         292.922          45.000    36818330.992   148252163.404         226.582          48.000  
C23  25164530.685   131038319.676       -2426.452          42.000                                                                  
C19  24962367.378   129985598.942        -696.418          41.000                                                                  
C10  38443374.180   200184737.978         548.170          39.000    38443371.116   154795527.050         423.957          44.000  
R21  20831818.346   111475268.664        1470.959          50.000    20831818.494    86702987.213        1144.080          50.000  
R08  23571749.318   126225653.245       -4671.775          40.000    23571788.395    98175670.144       -3633.752          40.000  
J03  37737288.474   198310792.915          -1.416          38.000    37737296.353   154527924.265          -1.124          43.000  
J07  37122115.623   195078034.900        -337.122          39.000    37122115.820   152008858.781        -262.895          47.000  
J04                                                                  36998633.417   151503216.913        -492.087          39.000  
> 2025 11 11 08 03 34.1600000  0 32                     
G28  24523009.112   128869274.754       -3381.927          38.000    24523014.326   100417643.114       -2635.502          38.000  
G26  21849539.060   114820103.918       -2542.249          44.000    21849540.584    89470215.542       -1981.046          43.000  
G27  20162535.508   105954839.653        1319.656          48.000    20162536.805    82562215.495        1028.467          46.000  
G31  22018690.220   115708998.961       -2693.056          45.000    22018689.719    90162855.216       -2098.352          43.000  
G04  20949149.156   110088522.882        -944.659          46.000    20949149.214    85783264.715        -736.169          46.000  
C37  22303084.862   116138018.035        -869.808          49.000                                                                  
C06  35873993.409   186805300.295          49.292          45.000    35873984.398   144449670.218          38.153          48.000  
C16  36315679.712   189105276.406          56.123          47.000    36315675.890   146228179.147          43.444          48.000  
C28  22655769.978   117974541.999         487.404          48.000                                                                  
C07  37192975.342   193673582.185         543.802          43.000    37192966.931   149760667.440         420.484          47.000  
C27  23507827.428   122411428.484        2499.698          46.000                                                                  
R10  22729061.682   121158702.049       -2624.648          40.000                                                                  
R22  23170227.375   123684274.838        3908.928          43.000    23170254.729    96199007.840        3040.169          43.000  
R12  21730639.868   116081177.836        1668.715          49.000    21730642.026    90285369.894        1297.849          48.000  
R11  20149830.253   107674586.377        -707.790          51.000    20149829.458    83746893.963        -550.558          51.000  
R20  22121735.325   118294855.926       -2088.681          45.000    22121735.491    92007104.620       -1624.406          47.000  
R01  21112744.853   112859720.197       -2958.678          47.000                                                                  
G08  21741249.412   114251038.458        2914.574          42.000    21741254.140    89026806.740        2271.177          42.000  
G09  22211342.557   116721390.399        1262.179          42.000    22211343.705    90951742.233         983.295          41.000  
G16  20094978.950   105599828.476       -1116.387          46.000                                                                  
J02  38903639.065   204440003.822        -784.174          46.000    38903639.081   159303899.816        -611.169          47.000  
G18  24327744.396   127843161.985         -36.360          38.000    24327745.309    99618053.302         -27.883          39.000  
C20  24730233.988   128776814.358       -2765.143          42.000                                                                  
C09  36818336.320   191722738.749         292.573          45.000    36818328.730   148252154.357         226.337          48.000  
C23  25164549.344   131038416.762       -2427.008          42.000                                                                  
C19  24962372.729   129985626.811        -696.605          41.000                                                                  
C10  38443369.972   200184716.067         547.936          39.000    38443366.918   154795510.109         423.611          44.000  
R21  20831807.370   111475209.840        1470.697          50.000    20831807.510    86702941.458        1143.927          50.000  
R08  23571784.215   126225840.132       -4672.004          40.000    23571823.295    98175815.509       -3633.999          40.000  
J03  37737288.500   198310792.976          -1.411          38.000    37737296.359   154527924.316          -1.190          43.000  
J07  37122118.190   195078048.410        -337.519          39.000    37122118.410   152008869.297        -262.895          47.000  
J04                                                                  36998638.239   151503236.621        -492.492          39.000  
> 2025 11 11 08 03 34.2000000  0 32                     
G28  24523034.872   128869410.028       -3381.913          38.000    24523040.073   100417748.504       -2635.051          38.000  
G26  21849558.409   114820205.610       -2542.323          44.000    21849559.937    89470294.788       -1981.142          43.000  
G27  20162525.480   105954786.881        1319.339          48.000    20162526.775    82562174.375        1028.124          46.000  
G31  22018710.720   115709106.684       -2693.117          45.000    22018710.230    90162939.149       -2098.350          43.000  
G04  20949156.359   110088560.675        -944.775          46.000    20949156.412    85783294.171        -736.371          46.000  
C37  22303091.531   116138052.836        -869.981          49.000                                                                  
C06  35873992.996   186805298.326          49.207          45.000    35873984.005   144449668.692          38.123          48.000  
C16  36315679.281   189105274.167          55.967          47.000    36315675.496   146228177.413          43.336          48.000  
C28  22655766.235   117974522.503         487.338          48.000                                                                  
C07  37192971.171   193673560.447         543.535          43.000    37192962.742   149760650.622         420.450          47.000  
C27  23507808.233   122411328.494        2499.668          46.000                                                                  
R10  22729081.385   121158807.012       -2624.362          40.000                                                                  
R22  23170198.092   123684118.465        3909.117          43.000    23170225.435    96198886.242        3039.953          43.000  
R12  21730627.392   116081111.086        1668.721          49.000    21730629.531    90285317.978        1297.859          48.000  
R11  20149835.562   107674614.698        -708.001          51.000    20149834.763    83746915.987        -550.607          51.000  
R20  22121750.965   118294939.475       -2088.799          45.000    22121751.098    92007169.617       -1624.822          47.000  
R01  21112767.012   112859838.560       -2958.982          47.000                                                                  
G08  21741227.256   114250921.897        2914.125          42.000    21741231.941    89026715.902        2271.015          42.000  
G09  22211332.955   116721339.910        1262.143          42.000    22211334.094    90951702.899         983.291          41.000  
G16  20094987.449   105599873.134       -1116.510          46.000                                                                  
J02  38903645.042   204440035.196        -784.332          46.000    38903645.060   159303924.261        -611.188          47.000  
G18  24327744.677   127843163.458         -36.753          38.000    24327745.569    99618054.444         -28.273          39.000  
C20  24730255.243   128776924.963       -2765.187          42.000                                                                  
C09  36818334.076   191722727.051         292.416          45.000    36818326.493   148252145.306         226.280          48.000  
C23  25164567.968   131038513.823       -2426.821          42.000                                                                  
C19  24962378.073   129985654.687        -696.831          41.000                                                                  
C10  38443365.777   200184694.154         547.819          39.000    38443362.688   154795493.167         423.483          44.000  
R21  20831796.400   111475151.018        1470.520          50.000    20831796.524    86702895.703        1143.854          50.000  
R08  23571819.111   126226027.025       -4672.300          40.000    23571858.189    98175960.852       -3633.721          40.000  
J03  37737288.498   198310793.052          -1.691          38.000    37737296.402   154527924.377          -1.438          43.000  
J07  37122120.788   195078061.927        -337.890          39.000    37122120.991   152008879.823        -263.091          47.000  
J04                                                                  36998643.043   151503256.325        -492.647          39.000  
> 2025 11 11 08 03 34.2400000  0 32                     
G28  24523060.613   128869545.317       -3382.168          38.000    24523065.823   100417853.904       -2634.978          38.000  
G26  21849577.756   114820307.295       -2542.235          44.000    21849579.280    89470374.022       -1981.015          43.000  
G27  20162515.425   105954734.096        1319.454          48.000    20162516.736    82562133.247        1028.077          46.000  
G31  22018731.227   115709214.415       -2693.273          45.000    22018730.717    90163023.100       -2098.672          43.000  
G04  20949163.582   110088598.473        -944.940          46.000    20949163.601    85783323.622        -736.371          46.000  
C37  22303098.195   116138087.635        -870.016          49.000                                                                  
C06  35873992.602   186805296.348          49.329          45.000    35873983.616   144449667.175          37.939          48.000  
C16  36315678.868   189105271.924          55.981          47.000    36315675.077   146228175.687          43.145          48.000  
C28  22655762.506   117974503.012         487.194          48.000                                                                  
C07  37192966.967   193673538.709         543.391          43.000    37192958.572   149760633.805         420.391          47.000  
C27  23507789.049   122411228.499        2499.749          46.000                                                                  
R10  22729101.090   121158911.965       -2624.014          40.000                                                                  
R22  23170168.795   123683962.101        3909.066          43.000    23170196.148    96198764.636        3039.979          43.000  
R12  21730614.899   116081044.342        1668.625          49.000    21730617.052    90285266.075        1297.644          48.000  
R11  20149840.855   107674643.016        -708.025          51.000    20149840.058    83746938.014        -550.700          51.000  
R20  22121766.611   118295023.032       -2088.907          45.000    22121766.733    92007234.609       -1624.928          47.000  
R01  21112789.163   112859956.915       -2958.981          47.000                                                                  
G08  21741205.078   114250805.329        2914.042          42.000    21741209.753    89026625.062        2270.973          42.000  
G09  22211323.360   116721289.428        1262.011          42.000    22211324.500    90951663.548         983.594          41.000  
G16  20094995.953   105599917.790       -1116.495          46.000                                                                  
J02  38903651.025   204440066.578        -784.576          46.000    38903651.039   159303948.709        -611.273          47.000  
G18  24327744.955   127843164.900         -36.354          38.000    24327745.850    99618055.591         -28.621          39.000  
C20  24730276.473   128777035.549       -2764.837          42.000                                                                  
C09  36818331.820   191722715.355         292.326          45.000    36818324.250   148252136.264         226.095          48.000  
C23  25164586.620   131038610.884       -2426.709          42.000                                                                  
C19  24962383.444   129985682.568        -697.073          41.000                                                                  
C10  38443361.554   200184672.237         547.838          39.000    38443358.487   154795476.226         423.435          44.000  
R21  20831785.401   111475092.196        1470.471          50.000    20831785.552    86702849.955        1143.677          50.000  
R08  23571853.995   126226213.915       -4672.361          40.000    23571893.084    98176106.199       -3633.648          40.000  
J03  37737288.524   198310793.133          -1.908          38.000    37737296.423   154527924.425          -1.301          43.000  
J07  37122123.356   195078075.441        -337.962          39.000    37122123.575   152008890.350        -263.218          47.000  
J04                                                                  36998647.859   151503276.026        -492.627          39.000  
> 2025 11 11 08 03 34.2800000  0 32                     
G28  24523086.337   128869680.596       -3382.091          38.000    24523091.575   100417959.282       -2634.565          38.000  
G26  21849597.111   114820408.998       -2542.467          44.000    21849598.629    89470453.250       -1980.842          43.000  
G27  20162505.367   105954681.315        1319.461          48.000    20162506.702    82562092.117        1028.140          46.000  
G31  22018751.720   115709322.129       -2693.055          45.000    22018751.220    90163107.039       -2098.613          43.000  
G04  20949170.774   110088636.276        -945.087          46.000    20949170.803    85783353.084        -736.530          46.000  
C37  22303104.898   116138122.437        -870.110          49.000                                                                  
C06  35873992.215   186805294.365          49.512          45.000    35873983.262   144449665.647          38.068          48.000  
C16  36315678.445   189105269.683          55.957          47.000    36315674.661   146228173.954          43.213          48.000  
C28  22655758.763   117974483.526         487.083          48.000                                                                  
C07  37192962.789   193673516.955         543.680          43.000    37192954.378   149760617.001         420.123          47.000  
C27  23507769.825   122411128.508        2499.724          46.000                                                                  
R10  22729120.778   121159016.928       -2624.045          40.000                                                                  
R22  23170139.498   123683805.739        3908.980          43.000    23170166.870    96198643.031        3040.062          43.000  
R12  21730602.397   116080977.598        1668.567          49.000    21730604.549    90285214.164        1297.683          48.000  
R11  20149846.149   107674671.340        -708.148          51.000    20149845.351    83746960.036        -550.636          51.000  
R20  22121782.231   118295106.577       -2088.786          45.000    22121782.354    92007299.588       -1624.685          47.000  
R01  21112811.304   112860075.267       -2958.900          47.000                                                                  
G08  21741182.872   114250688.739        2914.445          42.000    21741187.563    89026534.224        2270.876          42.000  
G09  22211313.735   116721238.943        1262.034          42.000    22211314.904    90951624.211         983.480          41.000  
G16  20095004.448   105599962.449       -1116.532          46.000                                                                  
J02  38903656.991   204440097.950        -784.485          46.000    38903657.015   159303973.156        -611.249          47.000  
G18  24327745.228   127843166.363         -36.523          38.000    24327746.131    99618056.720         -28.463          39.000  
C20  24730297.723   128777146.163       -2765.192          42.000                                                                  
C09  36818329.588   191722703.643         292.594          45.000    36818322.024   148252127.210         226.216          48.000  
C23  25164605.284   131038707.946       -2426.637          42.000                                                                  
C19  24962388.793   129985710.458        -697.323          41.000                                                                  
C10  38443357.355   200184650.317         547.875          39.000    38443354.242   154795459.280         423.528          44.000  
R21  20831774.381   111475033.372        1470.496          50.000    20831774.535    86702804.208        1143.579          50.000  
R08  23571888.892   126226400.798       -4672.249          40.000    23571928.004    98176251.558       -3633.858          40.000  
J03  37737288.541   198310793.204          -1.932          38.000    37737296.454   154527924.483          -1.409          43.000  
J07  37122125.934   195078088.946        -337.812          39.000    37122126.147   152008900.876        -263.211          47.000  
J04                                                                  36998652.661   151503295.727        -492.556          39.000  
> 2025 11 11 08 03 34.3200000  0 32                     
G28  24523112.077   128869815.866       -3381.906          38.000    24523117.312   100418064.717       -2635.382          38.000  
G26  21849616.451   114820510.694       -2542.494          44.000    21849617.984    89470532.508       -1981.298          43.000  
G27  20162495.302   105954628.536        1319.437          48.000    20162496.663    82562050.997        1028.005          46.000  
G31  22018772.206   115709429.862       -2693.277          45.000    22018771.716    90163190.981       -2098.630          43.000  
G04  20949177.964   110088674.084        -945.264          46.000    20949178.006    85783382.542        -736.511          46.000  
C37  22303111.583   116138157.245        -870.249          49.000                                                                  
C06  35873991.820   186805292.399          49.249          45.000    35873982.886   144449664.121          38.110          48.000  
C16  36315678.062   189105267.440          56.006          48.000    36315674.243   146228172.213          43.386          48.000  
C28  22655755.014   117974464.035         487.126          48.000                                                                  
C07  37192958.627   193673495.213         543.594          43.000    37192950.224   149760600.194         420.059          47.000  
C27  23507750.592   122411028.520        2499.675          46.000                                                                  
R10  22729140.470   121159121.907       -2624.378          39.000                                                                  
R22  23170110.198   123683649.380        3908.925          43.000    23170137.583    96198521.418        3040.224          42.000  
R12  21730589.918   116080910.852        1668.569          48.000    21730592.069    90285162.248        1297.791          48.000  
R11  20149851.440   107674699.659        -708.059          51.000    20149850.644    83746982.068        -550.792          51.000  
R20  22121797.829   118295190.127       -2088.787          45.000    22121797.980    92007364.568       -1624.556          47.000  
R01  21112833.448   112860193.618       -2958.813          47.000                                                                  
G08  21741160.677   114250572.153        2914.555          42.000    21741165.345    89026443.376        2271.071          42.000  
G09  22211304.103   116721188.471        1261.805          42.000    22211305.304    90951584.866         983.578          41.000  
G16  20095012.928   105600007.108       -1116.525          46.000                                                                  
J02  38903662.972   204440129.327        -784.503          46.000    38903662.991   159303997.607        -611.310          47.000  
G18  24327745.497   127843167.836         -36.770          38.000    24327746.425    99618057.888         -29.023          39.000  
C20  24730318.946   128777256.782       -2765.515          42.000                                                                  
C09  36818327.331   191722691.941         292.564          45.000    36818319.782   148252118.159         226.229          48.000  
C23  25164623.924   131038805.003       -2426.515          42.000                                                                  
C19  24962394.153   129985738.341        -697.231          41.000                                                                  
C10  38443353.173   200184628.414         547.610          39.000    38443350.050   154795442.331         423.657          44.000  
R21  20831763.373   111474974.552        1470.465          50.000    20831763.533    86702758.465        1143.494          50.000  
R08  23571923.791   126226587.688       -4672.242          40.000    23571962.915    98176396.920       -3634.036          40.000  
J03  37737288.530   198310793.260          -1.600          38.000    37737296.475   154527924.545          -1.541          43.000  
J07  37122128.509   195078102.453        -337.760          39.000    37122128.734   152008911.406        -263.260          47.000  
J04                                                                  36998657.474   151503315.408        -492.181          39.000  
> 2025 11 11 08 03 34.3600000  0 32                     
G28  24523137.819   128869951.124       -3381.625          38.000    24523143.079   100418170.166       -2636.079          38.000  
G26  21849635.810   114820612.401       -2542.708          44.000    21849637.355    89470611.771       -1981.628          43.000  
G27  20162485.263   105954575.768        1319.219          48.000    20162486.611    82562009.874        1027.987          46.000  
G31  22018792.714   115709537.594       -2693.398          45.000    22018792.202    90163274.928       -2098.727          43.000  
G04  20949185.162   110088711.901        -945.514          46.000    20949185.198    85783412.007        -736.615          46.000  
C37  22303118.255   116138192.058        -870.385          49.000                                                                  
C06  35873991.428   186805290.445          48.889          45.000    35873982.518   144449662.602          37.964          48.000  
C16  36315677.659   189105265.212          55.775          48.000    36315673.827   146228170.485          43.237          48.000  
C28  22655751.273   117974444.553         487.013          48.000                                                                  
C07  37192954.446   193673473.481         543.324          43.000    37192946.055   149760583.384         420.108          47.000  
C27  23507731.382   122410928.542        2499.453          46.000                                                                  
R10  22729160.160   121159226.897       -2624.781          39.000                                                                  
R22  23170080.878   123683493.038        3908.572          43.000    23170108.280    96198399.827        3039.893          42.000  
R12  21730577.439   116080844.119        1668.315          48.000    21730579.586    90285110.341        1297.698          48.000  
R11  20149856.758   107674727.988        -708.227          51.000    20149855.967    83747004.105        -550.953          51.000  
R20  22121813.461   118295273.690       -2089.011          45.000    22121813.586    92007429.556       -1624.650          47.000  
R01  21112855.590   112860311.985       -2959.059          47.000                                                                  
G08  21741138.486   114250455.577        2914.433          42.000    21741143.146    89026352.542        2270.913          42.000  
G09  22211294.511   116721138.004        1261.605          42.000    22211295.679    90951545.550         983.102          41.000  
G16  20095021.431   105600051.766       -1116.524          46.000                                                                  
J02  38903668.942   204440160.713        -784.668          46.000    38903668.931   159304022.058        -611.353          47.000  
G18  24327745.788   127843169.299         -36.729          38.000    24327746.716    99618059.055         -29.288          39.000  
C20  24730340.192   128777367.407       -2765.730          42.000                                                                  
C09  36818325.107   191722680.253         292.269          45.000    36818317.559   148252109.118         226.039          48.000  
C23  25164642.541   131038902.075       -2426.720          42.000                                                                  
C19  24962399.517   129985766.202        -696.774          41.000                                                                  
C10  38443348.984   200184606.496         547.783          39.000    38443345.848   154795425.388         423.583          44.000  
R21  20831752.378   111474915.739        1470.288          50.000    20831752.541    86702712.727        1143.390          50.000  
R08  23571958.686   126226774.581       -4672.366          40.000    23571997.804    98176542.275       -3633.937          40.000  
J03  37737288.539   198310793.335          -1.727          38.000    37737296.498   154527924.611          -1.671          43.000  
J07  37122131.096   195078115.964        -337.813          39.000    37122131.303   152008921.941        -263.400          47.000  
J04                                                                  36998662.297   151503335.110        -492.384          39.000  
> 2025 11 11 08 03 34.4000000  0 32                     
G28  24523163.570   128870086.420       -3382.184          38.000    24523168.825   100418275.594       -2636.051          38.000  
G26  21849655.162   114820714.103       -2542.686          44.000    21849656.704    89470691.018       -1981.422          43.000  
G27  20162475.229   105954523.007        1318.985          48.000    20162476.591    82561968.755        1027.957          46.000  
G31  22018813.229   115709645.335       -2693.579          44.000    22018812.720    90163358.876       -2098.781          43.000  
G04  20949192.348   110088749.716        -945.544          46.000    20949192.392    85783441.472        -736.694          46.000  
C37  22303124.971   116138226.871        -870.437          49.000                                                                  
C06  35873991.035   186805288.490          48.737          45.000    35873982.154   144449661.087          37.878          48.000  
C16  36315677.247   189105262.981          55.704          48.000    36315673.424   146228168.760          43.142          48.000  
C28  22655747.530   117974425.065         487.054          48.000                                                                  
C07  37192950.266   193673451.760         543.002          43.000    37192941.880   149760566.573         420.167          47.000  
C27  23507712.196   122410828.563        2499.381          46.000                                                                  
R10  22729179.860   121159331.890       -2624.988          39.000                                                                  
R22  23170051.580   123683336.676        3908.792          43.000    23170078.978    96198278.228        3039.889          41.000  
R12  21730564.958   116080777.393        1668.103          48.000    21730567.116    90285058.440        1297.536          48.000  
R11  20149862.069   107674756.318        -708.319          51.000    20149861.249    83747026.145        -551.063          51.000  
R20  22121829.078   118295357.270       -2089.438          45.000    22121829.221    92007494.562       -1625.018          47.000  
R01  21112877.733   112860430.358       -2959.334          47.000                                                                  
G08  21741116.302   114250339.017        2914.069          42.000    21741120.974    89026261.729        2270.472          42.000  
G09  22211284.895   116721087.539        1261.497          42.000    22211286.081    90951506.233         982.860          41.000  
G16  20095029.949   105600096.437       -1116.736          46.000                                                                  
J02  38903674.920   204440192.093        -784.619          46.000    38903674.903   159304046.510        -611.353          47.000  
G18  24327746.072   127843170.773         -36.912          38.000    24327746.997    99618060.207         -29.153          39.000  
C20  24730361.432   128777478.023       -2765.577          42.000                                                                  
C09  36818322.857   191722668.559         292.251          45.000    36818315.338   148252100.083         225.890          48.000  
C23  25164661.211   131038999.159       -2427.040          42.000                                                                  
C19  24962404.875   129985794.091        -697.012          41.000                                                                  
C10  38443344.736   200184584.578         547.882          39.000    38443341.637   154795408.460         423.287          44.000  
R21  20831741.387   111474856.935        1470.056          50.000    20831741.547    86702666.986        1143.396          50.000  
R08  23571993.572   126226961.487       -4672.618          40.000    23572032.709    98176687.659       -3634.417          40.000  
J03  37737288.542   198310793.404          -1.767          38.000    37737296.523   154527924.672          -1.649          43.000  
J07  37122133.675   195078129.476        -337.851          39.000    37122133.868   152008932.477        -263.440          47.000  
J04                                                                  36998667.127   151503354.824        -492.712          39.000  
> 2025 11 11 08 03 34.4400000  0 32                     
G28  24523189.310   128870221.709       -3382.316          38.000    24523194.564   100418381.009       -2635.627          38.000  
G26  21849674.538   114820815.808       -2542.686          44.000    21849676.052    89470770.258       -1981.157          43.000  
G27  20162465.171   105954470.245        1318.907          48.000    20162466.548    82561927.645        1027.753          46.000  
G31  22018833.707   115709753.075       -2693.656          45.000    22018833.211    90163442.834       -2098.985          43.000  
G04  20949199.528   110088787.529        -945.471          46.000    20949199.605    85783470.941        -736.780          46.000  
C37  22303131.636   116138261.685        -870.465          49.000                                                                  
C06  35873990.663   186805286.532          48.755          45.000    35873981.788   144449659.578          37.714          48.000  
C16  36315676.849   189105260.750          55.685          48.000    36315673.006   146228167.040          42.981          48.000  
C28  22655743.760   117974405.591         486.872          48.000                                                                  
C07  37192946.111   193673430.024         543.126          43.000    37192937.709   149760549.768         420.096          47.000  
C27  23507692.994   122410728.587        2499.295          46.000                                                                  
R10  22729199.550   121159436.892       -2625.162          39.000                                                                  
R22  23170022.292   123683180.330        3908.662          43.000    23170049.701    96198156.630        3039.865          41.000  
R12  21730552.469   116080710.665        1668.068          48.000    21730554.617    90285006.542        1297.403          48.000  
R11  20149867.373   107674784.651        -708.392          51.000    20149866.543    83747048.174        -550.886          51.000  
R20  22121844.708   118295440.849       -2089.621          45.000    22121844.842    92007559.567       -1625.176          47.000  
R01  21112899.891   112860548.737       -2959.547          47.000                                                                  
G08  21741094.133   114250222.453        2914.017          43.000    21741098.788    89026170.899        2270.531          42.000  
G09  22211275.282   116721037.069        1261.587          42.000    22211276.472    90951466.905         982.999          41.000  
G16  20095038.456   105600141.110       -1116.883          46.000                                                                  
J02  38903680.878   204440223.480        -784.717          46.000    38903680.880   159304070.970        -611.505          47.000  
G18  24327746.317   127843172.245         -36.927          38.000    24327747.273    99618061.350         -28.837          39.000  
C20  24730382.657   128777588.637       -2765.476          42.000                                                                  
C09  36818320.619   191722656.867         292.223          45.000    36818313.117   148252091.041         225.922          48.000  
C23  25164679.862   131039096.257       -2427.430          42.000                                                                  
C19  24962410.244   129985821.981        -697.205          41.000                                                                  
C10  38443340.533   200184562.695         547.240          39.000    38443337.451   154795391.526         423.264          44.000  
R21  20831730.395   111474798.144        1469.739          50.000    20831730.543    86702621.247        1143.396          50.000  
R08  23572028.486   126227148.381       -4672.543          40.000    23572067.608    98176833.022       -3634.280          40.000  
J03  37737288.569   198310793.510          -2.485          38.000    37737296.518   154527924.739          -1.678          43.000  
J07  37122136.252   195078142.993        -337.933          39.000    37122136.433   152008943.003        -263.274          47.000  
J04                                                                  36998671.938   151503374.546        -493.029          39.000  
> 2025 11 11 08 03 34.4800000  0 32                     
G28  24523215.043   128870356.994       -3382.303          38.000    24523220.303   100418486.424       -2635.347          38.000  
G26  21849693.880   114820917.513       -2542.712          44.000    21849695.400    89470849.497       -1980.977          43.000  
G27  20162455.108   105954417.481        1318.972          48.000    20162456.498    82561886.535        1027.674          46.000  
G31  22018854.203   115709860.810       -2693.531          45.000    22018853.676    90163526.778       -2098.810          43.000  
G04  20949206.693   110088825.343        -945.422          46.000    20949206.795    85783500.409        -736.780          46.000  
C37  22303138.307   116138296.496        -870.377          49.000                                                                  
C06  35873990.321   186805284.579          48.718          45.000    35873981.446   144449658.061          37.787          48.000  
C16  36315676.455   189105258.518          55.724          48.000    36315672.584   146228165.321          42.869          48.000  
C28  22655740.016   117974386.113         486.850          48.000                                                                  
C07  37192941.916   193673408.297         543.099          43.000    37192933.569   149760532.968         419.977          47.000  
C27  23507673.799   122410628.606        2499.388          46.000                                                                  
R10  22729219.253   121159541.881       -2625.010          39.000                                                                  
R22  23169992.999   123683023.974        3908.769          43.000    23170020.429    96198035.031        3039.928          41.000  
R12  21730539.974   116080643.935        1668.114          48.000    21730542.115    90284954.643        1297.378          48.000  
R11  20149872.678   107674812.979        -708.334          51.000    20149871.845    83747070.203        -550.793          51.000  
R20  22121860.329   118295524.422       -2089.552          45.000    22121860.475    92007624.579       -1625.362          47.000  
R01  21112922.022   112860667.116       -2959.626          47.000                                                                  
G08  21741071.937   114250105.892        2913.912          43.000    21741076.616    89026080.062        2270.753          42.000  
G09  22211265.678   116720986.590        1261.807          42.000    22211266.876    90951427.582         983.041          41.000  
G16  20095046.974   105600185.786       -1116.993          46.000                                                                  
J02  38903686.837   204440254.869        -784.772          46.000    38903686.849   159304095.429        -611.536          47.000  
G18  24327746.615   127843173.743         -37.341          38.000    24327747.569    99618062.496         -28.701          39.000  
C20  24730403.909   128777699.251       -2765.391          42.000                                                                  
C09  36818318.398   191722645.178         292.176          45.000    36818310.880   148252082.004         225.901          48.000  
C23  25164698.509   131039193.347       -2427.435          42.000                                                                  
C19  24962415.611   129985849.874        -697.349          41.000                                                                  
C10  38443336.321   200184540.808         547.034          39.000    38443333.232   154795374.583         423.413          44.000  
R21  20831719.413   111474739.348        1469.714          50.000    20831719.536    86702575.505        1143.463          50.000  
R08  23572063.382   126227335.276       -4672.449          40.000    23572102.501    98176978.388       -3634.224          40.000  
J03  37737288.601   198310793.576          -2.062          38.000    37737296.560   154527924.809          -1.798          43.000  
J07  37122138.818   195078156.533        -338.394          39.000    37122139.013   152008953.534        -263.296          47.000  
J04                                                                  36998676.737   151503394.257        -492.981          39.000  
> 2025 11 11 08 03 34.5200000  0 32                     
G28  24523240.794   128870492.301       -3382.610          37.000    24523246.035   100418591.842       -2635.348          38.000  
G26  21849713.256   114821019.225       -2542.800          44.000    21849714.763    89470928.737       -1980.947          43.000  
G27  20162445.048   105954364.715        1319.029          48.000    20162446.450    82561845.427        1027.619          46.000  
G31  22018874.707   115709968.538       -2693.315          45.000    22018874.180    90163610.723       -2098.699          43.000  
G04  20949213.875   110088863.152        -945.313          46.000    20949213.988    85783529.875        -736.737          46.000  
C37  22303145.017   116138331.304        -870.281          49.000                                                                  
C06  35873989.935   186805282.612          49.005          45.000    35873981.112   144449656.537          38.000          48.000  
C16  36315676.069   189105256.285          55.778          48.000    36315672.187   146228163.599          42.932          48.000  
C28  22655736.265   117974366.643         486.714          48.000                                                                  
C07  37192937.737   193673386.556         543.344          43.000    37192929.366   149760516.167         419.956          47.000  
C27  23507654.603   122410528.629        2499.370          46.000                                                                  
R10  22729238.946   121159646.834       -2624.227          39.000                                                                  
R22  23169963.701   123682867.635        3908.533          43.000    23169991.113    96197913.430        3040.003          41.000  
R12  21730527.492   116080577.189        1668.452          48.000    21730529.619    90284902.743        1297.417          48.000  
R11  20149877.980   107674841.309        -708.315          51.000    20149877.132    83747092.237        -550.831          51.000  
R20  22121875.952   118295607.983       -2089.242          45.000    22121876.104    92007689.580       -1625.203          47.000  
R01  21112944.177   112860785.474       -2959.246          47.000                                                                  
G08  21741049.772   114249989.317        2914.188          43.000    21741054.434    89025989.239        2270.683          42.000  
G09  22211256.084   116720936.122        1261.740          42.000    22211257.297    90951388.256         983.073          41.000  
G16  20095055.463   105600230.455       -1116.879          46.000                                                                  
J02  38903692.807   204440286.255        -784.766          46.000    38903692.827   159304119.881        -611.395          47.000  
G18  24327746.869   127843175.200         -36.876          38.000    24327747.852    99618063.644         -28.660          39.000  
C20  24730425.156   128777809.872       -2765.497          42.000                                                                  
C09  36818316.184   191722633.480         292.329          45.000    36818308.632   148252072.955         226.098          48.000  
C23  25164717.133   131039290.409       -2426.898          42.000                                                                  
C19  24962420.966   129985877.777        -697.569          41.000                                                                  
C10  38443332.113   200184518.894         547.542          39.000    38443329.036   154795357.640         423.542          44.000  
R21  20831708.412   111474680.539        1470.007          50.000    20831708.538    86702529.762        1143.518          50.000  
R08  23572098.286   126227522.177       -4672.492          40.000    23572137.389    98177123.753       -3634.212          40.000  
J03  37737288.619   198310793.648          -1.922          38.000    37737296.560   154527924.885          -1.895          43.000  
J07  37122141.383   195078170.054        -338.266          39.000    37122141.576   152008964.069        -263.361          47.000  
J04                                                                  36998681.564   151503413.965        -492.852          40.000  
> 2025 11 11 08 03 34.5600000  0 32                     
G28  24523266.540   128870627.604       -3382.737          37.000    24523271.810   100418697.278       -2635.684          38.000  
G26  21849732.593   114821120.918       -2542.542          44.000    21849734.118    89471007.985       -1981.090          43.000  
G27  20162435.007   105954311.950        1319.073          48.000    20162436.410    82561804.312        1027.739          46.000  
G31  22018895.222   115710076.258       -2693.082          45.000    22018894.694    90163694.663       -2098.574          43.000  
G04  20949221.074   110088900.962        -945.270          46.000    20949221.186    85783559.334        -736.560          46.000  
C37  22303151.718   116138366.116        -870.289          49.000                                                                  
C06  35873989.563   186805280.640          49.274          45.000    35873980.748   144449655.018          38.000          48.000  
C16  36315675.621   189105254.054          55.764          48.000    36315671.789   146228161.867          43.167          48.000  
C28  22655732.561   117974347.164         486.838          48.000                                                                  
C07  37192933.579   193673364.817         543.404          43.000    37192925.189   149760499.358         420.133          47.000  
C27  23507635.392   122410428.652        2499.358          46.000                                                                  
R10  22729258.636   121159751.808       -2624.179          39.000                                                                  
R22  23169934.426   123682711.276        3908.802          43.000    23169961.803    96197791.822        3040.203          41.000  
R12  21730514.975   116080510.445        1668.573          48.000    21730517.118    90284850.839        1297.502          48.000  
R11  20149883.287   107674869.636        -708.233          51.000    20149882.434    83747114.274        -550.925          51.000  
R20  22121891.592   118295691.549       -2089.160          45.000    22121891.741    92007754.565       -1624.800          47.000  
R01  21112966.311   112860903.835       -2959.093          47.000                                                                  
G08  21741027.586   114249872.751        2914.193          43.000    21741032.236    89025898.404        2270.799          42.000  
G09  22211246.473   116720885.662        1261.534          42.000    22211247.700    90951348.924         983.213          41.000  
G16  20095063.955   105600275.117       -1116.686          46.000                                                                  
J02  38903698.775   204440317.635        -784.583          46.000    38903698.796   159304144.335        -611.371          47.000  
G18  24327747.156   127843176.677         -36.890          37.000    24327748.136    99618064.794         -28.705          39.000  
C20  24730446.399   128777920.489       -2765.465          42.000                                                                  
C09  36818313.945   191722621.778         292.482          45.000    36818306.376   148252063.907         226.184          48.000  
C23  25164735.781   131039387.492       -2426.997          41.000                                                                  
C19  24962426.327   129985905.661        -697.350          41.000                                                                  
C10  38443327.895   200184496.974         547.879          39.000    38443324.832   154795340.711         423.326          44.000  
R21  20831697.411   111474621.719        1470.392          51.000    20831697.548    86702484.024        1143.469          50.000  
R08  23572133.194   126227709.072       -4672.406          40.000    23572172.287    98177269.110       -3634.027          40.000  
J03  37737288.643   198310793.715          -1.706          38.000    37737296.565   154527924.955          -1.868          42.000  
J07  37122143.941   195078183.562        -337.905          39.000    37122144.156   152008974.606        -263.418          47.000  
J04                                                                  36998686.375   151503433.648        -492.315          39.000  
> 2025 11 11 08 03 34.6000000  0 32                     
G28  24523292.293   128870762.908       -3382.729          37.000    24523297.551   100418802.691       -2635.438          38.000  
G26  21849751.936   114821222.623       -2542.573          44.000    21849753.478    89471087.251       -1981.526          43.000  
G27  20162424.972   105954259.193        1318.948          48.000    20162426.370    82561763.202        1027.714          46.000  
G31  22018915.713   115710183.993       -2693.244          45.000    22018915.213    90163778.617       -2098.777          43.000  
G04  20949228.259   110088938.786        -945.520          46.000    20949228.394    85783588.797        -736.597          46.000  
C37  22303158.388   116138400.933        -870.398          49.000                                                                  
C06  35873989.190   186805278.671          49.280          45.000    35873980.404   144449653.507          37.830          48.000  
C16  36315675.214   189105251.819          55.815          48.000    36315671.369   146228160.133          43.326          48.000  
C28  22655728.824   117974327.695         486.736          48.000                                                                  
C07  37192929.389   193673343.089         543.228          43.000    37192921.018   149760482.546         420.264          47.000  
C27  23507616.188   122410328.682        2499.235          46.000                                                                  
R10  22729278.338   121159856.799       -2624.588          39.000                                                                  
R22  23169905.139   123682554.935        3908.609          43.000    23169932.501    96197670.223        3040.044          41.000  
R12  21730502.462   116080443.720        1668.300          48.000    21730504.599    90284798.934        1297.585          48.000  
R11  20149888.593   107674897.969        -708.296          51.000    20149887.735    83747136.311        -550.961          51.000  
R20  22121907.237   118295775.130       -2089.416          45.000    22121907.378    92007819.564       -1624.873          47.000  
R01  21112988.454   112861022.212       -2959.314          47.000                                                                  
G08  21741005.399   114249756.184        2914.150          43.000    21741010.052    89025807.569        2270.867          42.000  
G09  22211236.885   116720835.206        1261.324          42.000    22211238.088    90951309.604         983.083          41.000  
G16  20095072.455   105600319.786       -1116.693          46.000                                                                  
J02  38903704.743   204440349.019        -784.619          46.000    38903704.762   159304168.788        -611.371          47.000  
G18  24327747.439   127843178.176         -37.278          37.000    24327748.430    99618065.955         -28.950          39.000  
C20  24730467.639   128778031.117       -2765.653          42.000                                                                  
C09  36818311.697   191722610.096         292.205          45.000    36818304.110   148252054.866         226.054          48.000  
C23  25164754.426   131039484.559       -2426.841          41.000                                                                  
C19  24962431.712   129985933.550        -697.300          41.000                                                                  
C10  38443323.694   200184475.083         547.502          39.000    38443320.615   154795323.779         423.265          44.000  
R21  20831686.428   111474562.909        1470.337          51.000    20831686.583    86702438.291        1143.341          50.000  
R08  23572168.111   126227895.972       -4672.480          40.000    23572207.176    98177414.480       -3634.169          40.000  
J03  37737288.656   198310793.801          -1.962          38.000    37737296.592   154527925.019          -1.702          42.000  
J07  37122146.520   195078197.065        -337.654          39.000    37122146.726   152008985.142        -263.462          47.000  
J04                                                                  36998691.190   151503453.337        -492.152          39.000  
