     3.04           OBSERVATION DATA    M: Mixed            RINEX VERSION / TYPE
RTKCONV 2.4.3 b34                       20251111 081159 UTC PGM / RUN BY / DATE 
format: u-blox UBX                                          COMMENT             
log: D:\GPdata\11_11\fingure_mix_11_11_2.ubx                COMMENT             
                                                            MARKER NAME         
                                                            MARKER NUMBER       
                                                            MARKER TYPE         
                                                            OBSERVER / AGENCY   
                                                            REC # / TYPE / VERS 
                                                            ANT # / TYPE        
        0.0000        0.0000        0.0000                  APPROX POSITION XYZ 
        0.0000        0.0000        0.0000                  ANTENNA: DELTA H/E/N
G    8 C1C L1C D1C S1C C2L L2L D2L S2L                      SYS / # / OBS TYPES 
R    8 C1C L1C D1C S1C C2C L2C D2C S2C                      SYS / # / OBS TYPES 
J    8 C1C L1C D1C S1C C2L L2L D2L S2L                      SYS / # / OBS TYPES 
C    8 C2I L2I D2I S2I C7I L7I D7I S7I                      SYS / # / OBS TYPES 
  2025    11    11    08    04   04.5200000     GPS         TIME OF FIRST OBS   
  2025    11    11    08    04   14.0000000     GPS         TIME OF LAST OBS    
G L1C                                                       SYS / PHASE SHIFT   
G L2L  0.00000                                              SYS / PHASE SHIFT   
R L1C                                                       SYS / PHASE SHIFT   
R L2C                                                       SYS / PHASE SHIFT   
J L1C                                                       SYS / PHASE SHIFT   
J L2L  0.00000                                              SYS / PHASE SHIFT   
C L2I                                                       SYS / PHASE SHIFT   
C L7I                                                       SYS / PHASE SHIFT   
  8 R05  1 R12  6 R14 -7 R15  0 R16 -1 R24  2 R25  4 R26 -3 GLONASS SLOT / FRQ #
 C1C    0.000 C1P    0.000 C2C    0.000 C2P    0.000        GLONASS COD/PHS/BIS 
                                                            END OF HEADER       
> 2025 11 11 08 04 04.5200000  0 32                     
G28  24542558.224   128971994.6621      -3386.240          40.000    24542565.168   100497691.3581      -2639.063          37.000  
G26  21864233.796   114897322.2831      -2545.049          43.000    21864234.975    89530385.7021      -1983.519          38.000  
G27  20154963.224   105915048.3711       1300.988          46.000    20154965.028    82531209.3521       1013.920          44.000  
G31  22034270.566   115790874.9821      -2701.626          39.000    22034270.597    90226654.6861      -2104.811          37.000  
G04  20954662.092   110117492.5571       -964.124          45.000    20954661.867    85805838.4891       -751.294          43.000  
C37  22308168.877   116164486.6621       -874.204          47.000                                                                  
C06  35873702.118   186803783.3591         50.061          41.000    35873693.327   144448497.2031         38.556          46.000  
C16  36315349.059   189103555.1601         56.471          43.000    36315345.246   146226848.1521         43.740          46.000  
C28  22652969.806   117959959.9651        472.444          41.000                                                                  
C07  37189809.644   193657093.6411        541.856          40.000    37189800.294   149747917.5981        418.967          44.000  
C27  23493269.150   122335617.9591       2493.825          45.000                                                                  
R10  22744009.148                1      -2625.463          33.000                                                                  
R22  23147987.552   123565576.4331       3909.680          45.000    23148014.315    96106690.8721       3040.857          40.000  
R12  21721157.959   116030531.6441       1666.967          44.000    21721161.038    90245978.4821       1296.456          45.000  
R11  20153863.234   107696138.5831       -712.308          42.000    20153863.230    83763656.7941       -553.970          43.000  
R20  22133657.380   118358604.8961      -2111.618          42.000    22133657.738    92056687.1491      -1642.373          43.000  
R01  21129597.305   112949810.4601      -2976.641          38.000                                                                  
G08  21724438.639   114162697.4311       2904.350          40.000    21724442.853    88957969.8641       2263.190          37.000  
G09  22204098.311   116683323.0591       1244.845          39.000    22204100.731    90922079.4221        970.030          41.000  
G16  20101453.296   105633850.5161      -1125.376          43.000                                                                  
J02  38908160.783   204463766.8871       -781.610          44.000    38908161.175   159322416.4611       -609.174          46.000  
G18  24327994.661                3        -50.934          31.000    24327998.600    99619091.0151        -40.573          35.000  
C20  24746371.122   128860848.8211      -2771.591          40.000                                                                  
C09  36816623.026   191713815.0471        294.505          42.000    36816614.877   148245254.0401        227.750          45.000  
C23  25178701.326   131112104.5571      -2428.124          38.000                                                                  
C19  24966476.599   130006996.0171       -711.642          38.000                                                                  
C10  38440177.189                         546.646          35.000    38440174.460   154782654.3171        422.706          42.000  
R21  20823526.140   111430894.4101       1447.589          38.000    20823525.668    86668474.0261       1126.190          40.000  
R08  23598263.030   126367635.1731      -4669.415          41.000    23598302.647    98286101.1881      -3631.405          40.000  
J03  37737294.105   198310822.3441         -0.735          42.000    37737302.255   154527947.5681         -0.640          43.000  
J07  37124063.292   195088271.8141       -336.499          38.000    37124064.485   152016835.6021       -262.392          43.000  
J04                                                                  37002288.059   151518179.5311       -492.669          38.000  
> 2025 11 11 08 04 04.5600000  0 32                     
G28  24542583.996   128972130.073       -3385.579          40.000    24542590.933   100497796.864       -2638.137          37.000  
G26  21864253.169   114897424.061       -2544.579          43.000    21864254.334    89530465.003       -1982.913          37.000  
G27  20154953.316   105914996.299        1301.579          46.000    20154955.110    82531168.769        1014.466          44.000  
G31  22034291.091   115790982.992       -2700.722          39.000    22034291.174    90226738.857       -2104.348          37.000  
G04  20954669.450   110117531.096        -963.617          45.000    20954669.194    85805868.528        -751.031          43.000  
C37  22308175.584   116164521.598        -873.602          47.000                                                                  
C06  35873701.748   186803781.338          50.488          41.000    35873692.935   144448495.627          39.209          46.000  
C16  36315348.616   189103552.862          57.137          43.000    36315344.800   146226846.363          44.434          46.000  
C28  22652966.174   117959941.036         472.970          41.000                                                                  
C07  37189805.459   193657071.935         542.438          40.000    37189796.133   149747900.811         419.508          44.000  
C27  23493250.006   122335518.190        2494.169          45.000                                                                  
R10  22744028.840                       -2624.878          33.000                                                                  
R22  23147958.244   123565420.005        3910.426          45.000    23147984.984    96106569.208        3041.527          40.000  
R12  21721145.487   116030464.925        1667.681          44.000    21721148.550    90245926.591        1297.020          45.000  
R11  20153868.544   107696167.051        -711.800          42.000    20153868.558    83763678.942        -553.754          43.000  
R20  22133673.159   118358689.320       -2110.906          43.000    22133673.516    92056752.819       -1641.944          43.000  
R01  21129619.553   112949929.492       -2975.975          38.000                                                                  
G08  21724416.525   114162581.222        2904.983          40.000    21724420.742    88957879.342        2263.069          37.000  
G09  22204088.823   116683273.218        1245.724          39.000    22204091.242    90922040.576         970.810          40.000  
G16  20101461.869   105633895.509       -1124.961          43.000                                                                  
J02  38908166.729   204463798.132        -781.189          44.000    38908167.127   159322440.802        -608.673          46.000  
G18  24327995.094                2        -50.977          31.000    24327998.979    99619092.593         -39.803          35.000  
C20  24746392.399   128860959.645       -2770.904          39.000                                                                  
C09  36816620.761   191713803.230         295.163          42.000    36816612.598   148245244.895         228.380          45.000  
C23  25178719.975   131112201.655       -2427.661          38.000                                                                  
C19  24966482.064   130007024.467        -711.373          38.000                                                                  
C10  38440172.982                         547.656          35.000    38440170.295   154782637.382         423.254          42.000  
R21  20823515.309                        1449.536          38.000    20823514.841    86668428.970        1126.373          40.000  
R08  23598297.887   126367821.915       -4668.750          41.000    23598337.522    98286246.435       -3631.142          40.000  
J03  37737294.098   198310822.352          -0.312          42.000    37737302.242   154527947.576          -0.318          43.000  
J07  37124065.825   195088285.233        -335.741          38.000    37124067.051   152016846.065        -261.841          43.000  
J04                                                                  37002292.867   151518199.184        -491.712          38.000  
> 2025 11 11 08 04 04.6000000  0 32                     
G28  24542609.757   128972265.513       -3385.745          40.000    24542616.710   100497902.404       -2638.247          37.000  
G26  21864272.547   114897525.850       -2544.593          43.000    21864273.693    89530544.308       -1982.568          37.000  
G27  20154943.414   105914944.233        1301.717          46.000    20154945.202    82531128.208        1014.235          44.000  
G31  22034311.632   115791091.031       -2700.790          39.000    22034311.731    90226823.041       -2104.457          37.000  
G04  20954676.778   110117569.642        -963.544          45.000    20954676.538    85805898.560        -750.793          43.000  
C37  22308182.307   116164556.557        -873.758          47.000                                                                  
C06  35873701.360   186803779.329          50.360          41.000    35873692.560   144448494.066          39.227          46.000  
C16  36315348.190   189103550.556          57.592          43.000    36315344.346   146226844.589          44.496          46.000  
C28  22652962.543   117959922.102         473.284          41.000                                                                  
C07  37189801.262   193657050.249         542.330          40.000    37189791.962   149747884.026         419.708          44.000  
C27  23493230.853   122335418.421        2494.278          45.000                                                                  
R10  22744048.554                       -2624.712          33.000                                                                  
R22  23147928.934   123565263.587        3910.550          45.000    23147955.673    96106447.561        3041.451          40.000  
R12  21721133.005   116030398.215        1667.865          44.000    21721136.053    90245874.706        1297.162          45.000  
R11  20153873.886   107696195.534        -711.866          42.000    20153873.883    83763701.094        -553.726          43.000  
R20  22133688.954   118358773.746       -2110.665          43.000    22133689.289    92056818.496       -1641.870          43.000  
R01  21129641.802   112950048.545       -2975.991          38.000                                                                  
G08  21724394.422   114162465.038        2904.794          40.000    21724398.635    88957788.796        2263.452          37.000  
G09  22204079.329   116683223.405        1245.618          39.000    22204081.739    90922001.763         970.576          40.000  
G16  20101470.428   105633940.511       -1124.965          43.000                                                                  
J02  38908172.682   204463829.384        -781.164          44.000    38908173.084   159322465.152        -608.630          46.000  
G18  24327995.518                2        -51.981          31.000    24327999.375    99619094.215         -40.308          35.000  
C20  24746413.672   128861070.479       -2770.787          39.000                                                                  
C09  36816618.519   191713791.418         295.391          41.000    36816610.339   148245235.757         228.549          45.000  
C23  25178738.628   131112298.759       -2427.578          38.000                                                                  
C19  24966487.520   130007052.894        -710.960          38.000                                                                  
C10  38440168.781                         547.324          32.000    38440166.083   154782620.456         423.313          42.000  
R21  20823504.461                        1449.097          38.000    20823503.998    86668383.907        1126.563          40.000  
R08  23598332.742   126368008.679       -4668.870          41.000    23598372.413    98286391.705       -3631.496          40.000  
J03  37737294.101   198310822.366          -0.224          42.000    37737302.253   154527947.578          -0.057          43.000  
J07  37124068.385   195088298.665        -335.599          38.000    37124069.613   152016856.531        -261.620          43.000  
J04                                                                  37002297.644   151518218.852        -491.506          38.000  
> 2025 11 11 08 04 04.6400000  0 32                     
G28  24542635.552   128972400.969       -3386.202          40.000    24542642.488   100498007.932       -2638.081          37.000  
G26  21864291.917   114897627.659       -2544.971          43.000    21864293.053    89530623.629       -1982.729          37.000  
G27  20154933.522   105914892.188        1301.365          46.000    20154935.306    82531087.657        1013.923          44.000  
G31  22034332.182   115791199.095       -2701.232          39.000    22034332.278    90226907.243       -2104.865          37.000  
G04  20954684.153   110117608.208        -963.928          45.000    20954683.875    85805928.615        -751.178          43.000  
C37  22308189.046   116164591.524        -874.018          47.000                                                                  
C06  35873700.989   186803777.320          50.287          41.000    35873692.183   144448492.512          39.032          46.000  
C16  36315347.757   189103548.293          57.001          43.000    36315343.937   146226842.841          44.006          46.000  
C28  22652958.918   117959903.197         472.909          41.000                                                                  
C07  37189797.122   193657028.567         542.112          40.000    37189787.775   149747867.266         419.308          44.000  
C27  23493211.687   122335318.672        2493.913          45.000                                                                  
R10  22744068.247                       -2624.650          33.000                                                                  
R22  23147899.638   123565107.201        3909.967          45.000    23147926.362    96106325.930        3041.037          40.000  
R12  21721120.511   116030331.518        1667.678          44.000    21721123.570    90245822.839        1296.869          45.000  
R11  20153879.209   107696224.023        -712.042          42.000    20153879.203    83763723.249        -553.809          43.000  
R20  22133704.757   118358858.205       -2111.157          43.000    22133705.081    92056884.184       -1642.070          43.000  
R01  21129664.069   112950167.640       -2976.895          38.000                                                                  
G08  21724372.339   114162348.855        2904.665          40.000    21724376.538    88957698.295        2262.858          37.000  
G09  22204069.856   116683173.596        1245.417          39.000    22204072.259    90921962.963         970.169          40.000  
G16  20101479.003   105633985.538       -1125.421          43.000                                                                  
J02  38908178.628   204463860.648        -781.451          44.000    38908179.045   159322489.507        -608.740          46.000  
G18  24327995.594                2        -51.780          31.000    24327999.768    99619095.829         -40.508          35.000  
C20  24746434.952   128861181.341       -2771.284          39.000                                                                  
C09  36816616.242   191713779.622         295.203          41.000    36816608.076   148245226.641         228.202          45.000  
C23  25178757.301   131112395.885       -2427.907          38.000                                                                  
C19  24966493.004   130007081.360        -711.363          38.000                                                                  
C10  38440164.577                         546.892          32.000    38440161.914   154782603.545         422.979          42.000  
R21  20823493.631                        1448.376          38.000    20823493.160    86668338.831        1126.898          40.000  
R08  23598367.627   126368195.455       -4669.229          41.000    23598407.296    98286536.961       -3631.452          40.000  
J03  37737294.094   198310822.387          -0.410          42.000    37737302.259   154527947.600          -0.332          43.000  
J07  37124070.947   195088312.132        -336.323          38.000    37124072.171   152016867.019        -261.983          43.000  
J04                                                                  37002302.455   151518238.554        -492.077          38.000  
> 2025 11 11 08 04 04.6800000  0 32                     
G28  24542661.326   128972536.426       -3386.487          40.000    24542668.266   100498113.518       -2639.121          37.000  
G26  21864311.294   114897729.468       -2545.229          43.000    21864312.436    89530702.978       -1983.375          37.000  
G27  20154923.625   105914840.152        1300.973          46.000    20154925.399    82531047.107        1013.713          44.000  
G31  22034352.747   115791307.164       -2701.607          39.000    22034352.848    90226991.439       -2104.927          37.000  
G04  20954691.492   110117646.782        -964.319          45.000    20954691.205    85805958.668        -751.324          43.000  
C37  22308195.748   116164626.504        -874.420          47.000                                                                  
C06  35873700.603   186803775.322          50.012          41.000    35873691.814   144448490.967          38.727          46.000  
C16  36315347.344   189103546.046          56.338          43.000    36315343.485   146226841.091          43.733          46.000  
C28  22652955.263   117959884.301         472.451          41.000                                                                  
C07  37189792.972   193657006.900         541.743          40.000    37189783.619   149747850.510         419.015          44.000  
C27  23493192.529   122335218.924        2493.698          45.000                                                                  
R10  22744087.949                       -2625.753          33.000                                                                  
R22  23147870.355   123564950.814        3909.689          45.000    23147897.063    96106204.302        3040.739          41.000  
R12  21721108.032   116030264.845        1667.074          44.000    21721111.114    90245770.974        1296.654          45.000  
R11  20153884.556   107696252.531        -712.534          42.000    20153884.537    83763745.420        -554.183          43.000  
R20  22133720.560   118358942.674       -2111.660          43.000    22133720.878    92056949.877       -1642.298          43.000  
R01  21129686.334   112950286.712       -2976.910          38.000                                                                  
G08  21724350.252   114162232.694        2904.167          40.000    21724354.416    88957607.764        2263.049          37.000  
G09  22204060.365   116683123.802        1244.993          39.000    22204062.812    90921924.175         969.746          40.000  
G16  20101487.575   105634030.556       -1125.551          43.000                                                                  
J02  38908184.585   204463891.921        -781.775          44.000    38908184.998   159322513.878        -609.143          45.000  
G18  24327996.284                2        -52.291          31.000    24328000.148    99619097.459         -40.813          35.000  
C20  24746456.222   128861292.205       -2771.585          39.000                                                                  
C09  36816614.000   191713767.837         294.859          41.000    36816605.827   148245217.535         227.804          45.000  
C23  25178775.947   131112493.030       -2428.448          38.000                                                                  
C19  24966498.484   130007109.845        -711.947          38.000                                                                  
C10  38440160.389                         546.524          32.000    38440157.721   154782586.644         422.572          42.000  
R21  20823482.834   111430662.652        1447.473          38.000    20823482.333    86668293.784        1126.477          40.000  
R08  23598402.503   126368382.226       -4669.327          41.000    23598442.173    98286682.235       -3631.792          40.000  
J03  37737294.099   198310822.431          -0.963          42.000    37737302.272   154527947.634          -0.751          43.000  
J07  37124073.510   195088325.611        -336.921          38.000    37124074.729   152016877.508        -262.242          42.000  
J04                                                                  37002307.279   151518258.275        -492.731          38.000  
> 2025 11 11 08 04 04.7200000  0 32                     
G28  24542687.117   128972671.895       -3386.772          40.000    24542694.052   100498219.076       -2639.258          37.000  
G26  21864330.677   114897831.281       -2545.425          43.000    21864331.832    89530782.316       -1983.541          37.000  
G27  20154913.752   105914788.122        1300.690          46.000    20154915.502    82531006.572        1013.374          44.000  
G31  22034373.321   115791415.206       -2701.273          39.000    22034373.411    90227075.655       -2105.316          37.000  
G04  20954698.837   110117685.363        -964.606          45.000    20954698.544    85805988.728        -751.569          43.000  
C37  22308202.458   116164661.494        -874.782          46.000                                                                  
C06  35873700.228   186803773.329          49.786          41.000    35873691.421   144448489.437          38.293          46.000  
C16  36315346.902   189103543.786          56.295          43.000    36315343.067   146226839.350          43.447          45.000  
C28  22652951.630   117959865.420         471.996          41.000                                                                  
C07  37189788.818   193656985.246         541.328          40.000    37189779.476   149747833.749         418.950          44.000  
C27  23493173.378   122335119.183        2493.477          45.000                                                                  
R10  22744107.670                       -2626.004          33.000                                                                  
R22  23147841.050   123564794.442        3909.263          45.000    23147867.789    96106082.689        3040.344          41.000  
R12  21721095.548   116030198.187        1666.513          44.000    21721098.647    90245719.121        1296.348          45.000  
R11  20153889.925   107696281.046        -712.929          43.000    20153889.892    83763767.597        -554.460          43.000  
R20  22133736.346   118359027.153       -2112.005          43.000    22133736.688    92057015.580       -1642.610          43.000  
R01  21129708.624   112950405.787       -2976.972          38.000                                                                  
G08  21724328.136   114162116.534        2903.907          40.000    21724332.297    88957517.232        2263.186          37.000  
G09  22204050.883   116683074.022        1244.546          39.000    22204053.332    90921885.371         969.871          40.000  
G16  20101496.115   105634075.580       -1125.673          43.000                                                                  
J02  38908190.548   204463923.200        -782.019          44.000    38908190.939   159322538.259        -609.534          45.000  
G18  24327996.418                2        -51.793          31.000    24328000.540    99619099.095         -40.984          35.000  
C20  24746477.516   128861403.069       -2771.695          39.000                                                                  
C09  36816611.736   191713756.068         294.356          41.000    36816603.593   148245208.426         227.616          45.000  
C23  25178794.623   131112590.149       -2428.267          38.000                                                                  
C19  24966503.963   130007138.307        -711.788          38.000                                                                  
C10  38440156.201                         546.517          32.000    38440153.519   154782569.748         422.346          42.000  
R21  20823471.996   111430604.766        1447.034          38.000    20823471.516    86668248.744        1126.080          40.000  
R08  23598437.382   126368569.004       -4669.492          41.000    23598477.068    98286827.522       -3632.154          40.000  
J03  37737294.118   198310822.468          -1.095          42.000    37737302.284   154527947.664          -0.898          43.000  
J07  37124076.066   195088339.067        -336.637          38.000    37124077.298   152016888.000        -262.384          42.000  
J04                                                                  37002312.099   151518277.979        -492.692          38.000  
> 2025 11 11 08 04 04.7600000  0 32                     
G28  24542712.914   128972807.356       -3386.698          40.000    24542719.825   100498324.624       -2639.004          37.000  
G26  21864350.052   114897933.091       -2545.441          42.000    21864351.202    89530861.657       -1983.646          37.000  
G27  20154903.858   105914736.103        1300.377          46.000    20154905.595    82530966.030        1013.391          44.000  
G31  22034393.891   115791523.272       -2701.526          39.000    22034393.952    90227159.845       -2105.055          37.000  
G04  20954706.172   110117723.952        -964.831          45.000    20954705.879    85806018.793        -751.709          43.000  
C37  22308209.179   116164696.479        -874.848          46.000                                                                  
C06  35873699.840   186803771.348          49.500          41.000    35873691.016   144448487.902          38.208          46.000  
C16  36315346.465   189103541.527          56.318          43.000    36315342.641   146226837.604          43.458          45.000  
C28  22652947.981   117959846.542         471.793          41.000                                                                  
C07  37189784.646   193656963.590         541.159          40.000    37189775.308   149747817.002         418.699          44.000  
C27  23493154.217   122335019.456        2493.146          45.000                                                                  
R10  22744127.341                       -2625.828          33.000                                                                  
R22  23147811.751   123564638.069        3909.156          45.000    23147838.484    96105961.067        3040.310          41.000  
R12  21721083.037   116030131.516        1666.496          45.000    21721086.176    90245667.269        1296.190          45.000  
R11  20153895.276   107696309.556        -712.980          43.000    20153895.214    83763789.774        -554.556          43.000  
R20  22133752.162   118359111.638       -2112.232          43.000    22133752.504    92057081.285       -1642.754          43.000  
R01  21129730.906   112950524.882       -2977.271          38.000                                                                  
G08  21724306.020   114162000.382        2903.660          39.000    21724310.195    88957426.728        2262.807          37.000  
G09  22204041.409   116683024.259        1244.001          39.000    22204043.840    90921846.563         970.042          40.000  
G16  20101504.677   105634120.609       -1125.807          43.000                                                                  
J02  38908196.506   204463954.483        -782.184          44.000    38908196.890   159322562.632        -609.558          45.000  
G18  24327996.929                2        -52.317          31.000    24328000.947    99619100.730         -40.990          35.000  
C20  24746498.797   128861513.928       -2771.584          39.000                                                                  
C09  36816609.480   191713744.300         294.090          41.000    36816601.298   148245199.323         227.486          45.000  
C23  25178813.262   131112687.288       -2428.504          38.000                                                                  
C19  24966509.434   130007166.775        -711.792          38.000                                                                  
C10  38440152.016                         546.320          32.000    38440149.316   154782552.845         422.385          42.000  
R21  20823461.176   111430546.845        1447.546          38.000    20823460.686    86668203.730        1125.336          40.000  
R08  23598472.264   126368755.795       -4669.768          41.000    23598511.949    98286972.805       -3632.194          40.000  
J03  37737294.112   198310822.508          -1.151          42.000    37737302.312   154527947.698          -0.954          43.000  
J07  37124078.614   195088352.537        -336.790          38.000    37124079.862   152016898.512        -262.776          42.000  
J04                                                                  37002316.913   151518297.688        -492.743          38.000  
> 2025 11 11 08 04 04.8000000  0 32                     
G28  24542738.705   128972942.821       -3386.747          40.000    24542745.608   100498430.173       -2638.912          37.000  
G26  21864369.408   114898034.905       -2545.494          42.000    21864370.582    89530940.994       -1983.633          37.000  
G27  20154893.965   105914684.077        1300.419          46.000    20154895.711    82530925.488        1013.386          44.000  
G31  22034414.443   115791631.324       -2701.454          39.000    22034414.533    90227244.060       -2105.297          37.000  
G04  20954713.514   110117762.528        -964.685          44.000    20954713.220    85806048.867        -751.929          43.000  
C37  22308215.936   116164731.452        -874.596          46.000                                                                  
C06  35873699.481   186803769.358          49.524          41.000    35873690.596   144448486.361          38.318          46.000  
C16  36315346.055   189103539.257          56.543          43.000    36315342.190   146226835.855          43.561          45.000  
C28  22652944.374   117959827.651         471.993          41.000                                                                  
C07  37189780.488   193656941.911         541.547          40.000    37189771.154   149747800.252         418.610          44.000  
C27  23493135.074   122334919.715        2493.290          44.000                                                                  
R10  22744147.025                       -2625.421          33.000                                                                  
R22  23147782.444   123564481.688        3909.303          45.000    23147809.181    96105839.445        3040.382          41.000  
R12  21721070.533   116030064.833        1666.811          45.000    21721073.683    90245615.413        1296.227          45.000  
R11  20153900.623   107696338.065        -712.908          43.000    20153900.566    83763811.949        -554.515          43.000  
R20  22133767.950   118359196.112       -2112.088          43.000    22133768.302    92057146.996       -1642.899          43.000  
R01  21129753.207   112950643.971       -2977.374          38.000                                                                  
G08  21724283.917   114161884.229        2903.575          39.000    21724288.093    88957336.216        2262.731          37.000  
G09  22204031.936   116682974.471        1244.288          39.000    22204034.385    90921807.790         969.558          40.000  
G16  20101513.243   105634165.643       -1125.885          43.000                                                                  
J02  38908202.448   204463985.758        -782.043          44.000    38908202.839   159322587.005        -609.491          45.000  
G18  24327997.355                2        -52.377          31.000    24328001.334    99619102.350         -40.692          35.000  
C20  24746520.086   128861624.816       -2772.015          39.000                                                                  
C09  36816607.245   191713732.530         294.040          41.000    36816599.036   148245190.218         227.498          45.000  
C23  25178831.911   131112784.428       -2428.612          38.000                                                                  
C19  24966514.885   130007195.252        -711.964          38.000                                                                  
C10  38440147.830                         546.051          31.000    38440145.125   154782535.958         422.139          42.000  
R21  20823450.352   111430488.925        1447.888          38.000    20823449.865    86668158.707        1125.287          40.000  
R08  23598507.146   126368942.578       -4669.773          41.000    23598546.862    98287118.083       -3632.138          40.000  
J03  37737294.113   198310822.553          -1.241          42.000    37737302.319   154527947.736          -1.031          43.000  
J07  37124081.181   195088366.005        -336.799          38.000    37124082.445   152016908.991        -262.362          42.000  
J04                                                                  37002321.725   151518317.395        -492.773          38.000  
> 2025 11 11 08 04 04.8400000  0 32                     
G28  24542764.473   128973078.298       -3386.924          39.000    24542771.381   100498535.712       -2638.656          37.000  
G26  21864388.780   114898136.730       -2545.656          42.000    21864389.944    89531020.324       -1983.417          37.000  
G27  20154884.076   105914632.057        1300.429          46.000    20154885.801    82530884.951        1013.357          44.000  
G31  22034434.999   115791739.399       -2701.849          39.000    22034435.117    90227328.285       -2105.661          37.000  
G04  20954720.855   110117801.115        -964.734          44.000    20954720.551    85806078.938        -751.941          43.000  
C37  22308222.677   116164766.435        -874.608          46.000                                                                  
C06  35873699.110   186803767.377          49.451          41.000    35873690.207   144448484.821          38.409          46.000  
C16  36315345.631   189103537.007          56.339          43.000    36315341.766   146226834.112          43.560          45.000  
C28  22652940.715   117959808.758         472.167          41.000                                                                  
C07  37189776.329   193656920.249         541.495          39.000    37189766.999   149747783.509         418.507          44.000  
C27  23493115.948   122334819.988        2493.155          44.000                                                                  
R10  22744166.741                       -2625.522          33.000                                                                  
R22  23147753.169   123564325.302        3909.529          44.000    23147779.877    96105717.825        3040.422          41.000  
R12  21721058.049   116029998.161        1666.806          45.000    21721061.206    90245563.558        1296.252          45.000  
R11  20153905.944   107696366.570        -712.739          43.000    20153905.890    83763834.124        -554.483          44.000  
R20  22133783.740   118359280.591       -2112.064          43.000    22133784.119    92057212.698       -1642.767          43.000  
R01  21129775.487   112950763.080       -2977.740          38.000                                                                  
G08  21724261.811   114161768.071        2903.686          39.000    21724266.010    88957245.711        2262.503          37.000  
G09  22204022.456   116682924.683        1244.519          39.000    22204024.917    90921769.008         969.377          40.000  
G16  20101521.816   105634210.685       -1126.089          43.000                                                                  
J02  38908208.405   204464017.046        -782.220          44.000    38908208.765   159322611.371        -609.283          45.000  
G18  24327998.024                2        -51.866          31.000    24328001.720    99619103.977         -40.648          35.000  
C20  24746541.384   128861735.691       -2772.059          39.000                                                                  
C09  36816604.977   191713720.747         294.347          41.000    36816596.784   148245181.118         227.458          45.000  
C23  25178850.559   131112881.581       -2428.848          38.000                                                                  
C19  24966520.338   130007223.739        -712.245          38.000                                                                  
C10  38440143.636                         546.258          31.000    38440140.900   154782519.051         422.418          42.000  
R21  20823439.536   111430431.032        1447.467          38.000    20823439.063    86668113.674        1125.543          40.000  
R08  23598542.000   126369129.375       -4670.019          41.000    23598581.749    98287263.354       -3631.965          40.000  
J03  37737294.134   198310822.603          -1.364          42.000    37737302.334   154527947.769          -0.931          43.000  
J07  37124083.771   195088379.484        -337.023          38.000    37124085.028   152016919.491        -262.519          42.000  
J04                                                                  37002326.524   151518337.115        -492.933          38.000  
> 2025 11 11 08 04 04.8800000  0 32                     
G28  24542790.222   128973213.762       -3386.804          39.000    24542797.153   100498641.272       -2638.916          37.000  
G26  21864408.168   114898238.565       -2545.922          42.000    21864409.337    89531099.683       -1983.802          37.000  
G27  20154874.194   105914580.036        1300.424          46.000    20154875.887    82530844.415        1013.307          44.000  
G31  22034455.583   115791847.510       -2702.612          39.000    22034455.659    90227412.499       -2105.552          37.000  
G04  20954728.227   110117839.709        -964.886          44.000    20954727.896    85806109.004        -751.831          43.000  
C37  22308229.404   116164801.428        -874.826          46.000                                                                  
C06  35873698.718   186803765.380          49.719          41.000    35873689.836   144448483.290          38.263          46.000  
C16  36315345.194   189103534.755          56.285          43.000    36315341.345   146226832.365          43.597          45.000  
C28  22652937.065   117959789.875         472.091          41.000                                                                  
C07  37189772.196   193656898.595         541.331          39.000    37189762.815   149747766.760         418.564          44.000  
C27  23493096.792   122334720.251        2493.260          44.000                                                                  
R10  22744186.432                       -2625.558          33.000                                                                  
R22  23147723.850   123564168.928        3909.416          44.000    23147750.564    96105596.196        3040.640          41.000  
R12  21721045.564   116029931.497        1666.622          45.000    21721048.730    90245511.708        1296.197          45.000  
R11  20153911.302   107696395.094        -713.019          43.000    20153911.240    83763856.308        -554.588          44.000  
R20  22133799.531   118359365.063       -2111.920          43.000    22133799.943    92057278.398       -1642.634          43.000  
R01  21129797.746   112950882.169       -2977.498          38.000                                                                  
G08  21724239.697   114161651.896        2904.094          39.000    21724243.891    88957155.175        2263.017          37.000  
G09  22204012.992   116682874.899        1244.549          39.000    22204015.443    90921730.226         969.299          40.000  
G16  20101530.388   105634255.731       -1126.254          42.000                                                                  
J02  38908214.350   204464048.331        -782.233          44.000    38908214.718   159322635.743        -609.302          45.000  
G18  24327998.699                2        -52.328          31.000    24328002.107    99619105.607         -40.778          35.000  
C20  24746562.691   128861846.559       -2771.867          39.000                                                                  
C09  36816602.697   191713708.978         294.274          41.000    36816594.529   148245172.012         227.505          44.000  
C23  25178869.204   131112978.738       -2429.026          38.000                                                                  
C19  24966525.822   130007252.238        -712.530          38.000                                                                  
C10  38440139.433                         545.716          31.000    38440136.749   154782502.159         422.350          42.000  
R21  20823428.721   111430373.142        1447.223          38.000    20823428.247    86668068.641        1125.690          40.000  
R08  23598576.880   126369316.170       -4670.067          41.000    23598616.639    98287408.647       -3632.323          40.000  
J03  37737294.135   198310822.648          -1.276          42.000    37737302.344   154527947.806          -0.950          43.000  
J07  37124086.353   195088392.956        -336.881          38.000    37124087.613   152016929.988        -262.509          42.000  
J04                                                                  37002331.325   151518356.813        -492.639          38.000  
> 2025 11 11 08 04 04.9200000  0 32                     
G28  24542816.009   128973349.262       -3387.346          39.000    24542822.944   100498746.863       -2639.623          37.000  
G26  21864427.532   114898340.407       -2546.151          42.000    21864428.724    89531179.033       -1983.859          37.000  
G27  20154864.330   105914528.032        1300.107          46.000    20154865.986    82530803.899        1012.941          44.000  
G31  22034476.156   115791955.603       -2702.633          38.000    22034476.228    90227496.711       -2105.458          37.000  
G04  20954735.549   110117878.317        -965.222          44.000    20954735.238    85806139.080        -751.929          42.000  
C37  22308236.129   116164836.440        -875.270          46.000                                                                  
C06  35873698.343   186803763.406          49.475          41.000    35873689.439   144448481.771          37.982          46.000  
C16  36315344.781   189103532.520          55.917          43.000    36315340.928   146226830.640          43.202          45.000  
C28  22652933.467   117959771.017         471.577          41.000                                                                  
C07  37189768.026   193656876.945         541.154          39.000    37189758.645   149747750.022         418.445          44.000  
C27  23493077.661   122334620.545        2492.718          44.000                                                                  
R10  22744206.130                       -2626.141          33.000                                                                  
R22  23147694.541   123564012.584        3908.775          44.000    23147721.262    96105474.594        3040.222          41.000  
R12  21721033.109   116029864.854        1666.163          45.000    21721036.270    90245459.873        1295.928          45.000  
R11  20153916.629   107696423.639        -713.546          43.000    20153916.579    83763878.504        -554.911          44.000  
R20  22133815.324   118359449.560       -2112.296          43.000    22133815.751    92057344.129       -1643.094          43.000  
R01  21129819.994   112951001.281       -2977.798          36.000                                                                  
G08  21724217.605   114161535.759        2903.659          39.000    21724221.799    88957064.704        2262.194          37.000  
G09  22204003.547   116682825.151        1243.899          39.000    22204005.993    90921691.443         969.365          40.000  
G16  20101538.958   105634300.798       -1126.668          42.000                                                                  
J02  38908220.307   204464079.632        -782.532          44.000    38908220.665   159322660.139        -609.790          45.000  
G18  24327999.045                2        -52.991          31.000    24328002.510    99619107.266         -41.343          35.000  
C20  24746583.964   128861957.452       -2772.234          39.000                                                                  
C09  36816600.433   191713697.224         293.930          41.000    36816592.281   148245162.925         227.219          44.000  
C23  25178887.878   131113075.889       -2429.020          38.000                                                                  
C19  24966531.295   130007280.732        -712.501          38.000                                                                  
C10  38440135.237                         545.719          31.000    38440132.574   154782485.279         421.999          42.000  
R21  20823417.910   111430315.276        1446.606          38.000    20823417.418    86668023.625        1125.488          40.000  
R08  23598611.761   126369502.981       -4670.343          41.000    23598651.518    98287553.944       -3632.494          40.000  
J03  37737294.130   198310822.717          -1.643          42.000    37737302.349   154527947.865          -1.368          43.000  
J07  37124088.924   195088406.453        -337.280          37.000    37124090.185   152016940.510        -262.945          42.000  
J04                                                                  37002336.152   151518376.528        -492.689          38.000  
> 2025 11 11 08 04 04.9600000  0 32                     
G28  24542841.797   128973484.763       -3387.632          39.000    24542848.756   100498852.474       -2640.330          37.000  
G26  21864446.903   114898442.253       -2546.271          42.000    21864448.089    89531258.395       -1984.072          37.000  
G27  20154854.448   105914476.051        1299.544          46.000    20154856.083    82530763.392        1012.590          44.000  
G31  22034496.738   115792063.699       -2702.660          38.000    22034496.797    90227580.950       -2105.932          37.000  
G04  20954742.894   110117916.944        -965.692          44.000    20954742.587    85806169.190        -752.606          42.000  
C37  22308242.856   116164871.462        -875.649          46.000                                                                  
C06  35873697.993   186803761.470          48.651          41.000    35873689.052   144448480.269          37.543          46.000  
C16  36315344.381   189103530.307          55.337          43.000    36315340.480   146226828.923          42.871          45.000  
C28  22652929.852   117959752.181         470.913          41.000                                                                  
C07  37189763.893   193656855.328         540.480          38.000    37189754.500   149747733.295         418.159          44.000  
C27  23493058.528   122334520.850        2492.313          44.000                                                                  
R10  22744225.842                       -2626.463          33.000                                                                  
R22  23147665.246   123563856.261        3908.052          45.000    23147691.969    96105353.008        3039.733          41.000  
R12  21721020.639   116029798.227        1665.679          45.000    21721023.791    90245408.044        1295.688          45.000  
R11  20153921.994   107696452.199        -714.069          43.000    20153921.940    83763900.718        -555.355          44.000  
R20  22133831.128   118359534.094       -2113.119          43.000    22133831.586    92057409.874       -1643.608          43.000  
R01  21129842.272   112951120.426       -2978.538          36.000                                                                  
G08  21724195.515   114161419.646        2903.038          39.000    21724199.696    88956974.234        2261.728          37.000  
G09  22203994.094   116682775.424        1243.214          39.000    22203996.539    90921652.686         968.986          40.000  
G16  20101547.543   105634345.866       -1126.830          42.000                                                                  
J02  38908226.295   204464110.950        -782.959          44.000    38908226.627   159322684.542        -610.114          45.000  
G18  24327999.056                2        -53.851          31.000    24328002.932    99619108.937         -41.750          35.000  
C20  24746605.259   128862068.363       -2772.747          39.000                                                                  
C09  36816598.172   191713685.496         293.301          41.000    36816590.038   148245153.851         226.844          44.000  
C23  25178906.532   131113173.072       -2429.550          38.000                                                                  
C19  24966536.768   130007309.256        -713.010          38.000                                                                  
C10  38440131.061   200167850.064         545.140          31.000    38440128.406   154782468.417         421.563          42.000  
R21  20823407.128   111430257.434        1445.984          38.000    20823406.621    86667978.618        1125.214          40.000  
R08  23598646.653   126369689.805       -4670.636          41.000    23598686.407    98287699.256       -3632.819          40.000  
J03  37737294.146   198310822.797          -2.035          42.000    37737302.382   154527947.931          -1.724          43.000  
J07  37124091.502   195088419.969        -337.828          37.000    37124092.766   152016951.045        -263.394          41.000  
J04                                                                  37002340.974   151518396.276        -493.443          38.000  
> 2025 11 11 08 04 05.0000000  0 32                     
G28  24542867.588   128973620.279       -3388.044          39.000    24542874.556   100498958.071       -2640.320          36.000  
G26  21864466.283   114898544.116       -2546.592          42.000    21864467.473    89531337.761       -1984.150          37.000  
G27  20154844.552   105914424.073        1299.282          46.000    20154846.204    82530722.891        1012.384          44.000  
G31  22034517.311   115792171.801       -2702.763          38.000    22034517.369    90227665.203       -2106.399          37.000  
G04  20954750.238   110117955.573        -965.894          44.000    20954749.946    85806199.280        -752.490          42.000  
C37  22308249.610   116164906.482        -875.711          46.000                                                                  
C06  35873697.633   186803759.526          48.370          41.000    35873688.676   144448478.764          37.439          46.000  
C16  36315343.961   189103528.099          55.015          43.000    36315340.049   146226827.219          42.500          45.000  
C28  22652926.229   117959733.335         470.879          41.000                                                                  
C07  37189759.725   193656833.710         540.195          38.000    37189750.341   149747716.573         417.969          44.000  
C27  23493039.409   122334421.162        2492.039          44.000                                                                  
R10  22744245.536   121239640.0901      -2626.582          33.000                                                                  
R22  23147635.958   123563699.920        3908.103          45.000    23147662.673    96105231.421        3039.551          41.000  
R12  21721008.160   116029731.594        1665.589          45.000    21721011.311    90245356.221        1295.499          45.000  
R11  20153927.348   107696480.753        -714.092          43.000    20153927.281    83763922.924        -555.368          44.000  
R20  22133846.930   118359618.612       -2113.193          43.000    22133847.410    92057475.618       -1643.804          43.000  
R01  21129864.556   112951239.553       -2978.511          36.000                                                                  
G08  21724173.412   114161303.543        2902.563          39.000    21724177.617    88956883.744        2261.877          37.000  
G09  22203984.629   116682725.691        1243.077          39.000    22203987.076    90921613.926         968.907          40.000  
G16  20101556.102   105634390.937       -1126.900          42.000                                                                  
J02  38908232.253   204464142.267        -783.099          43.000    38908232.594   159322708.951        -610.358          45.000  
G18  24327999.006                2        -53.438          31.000    24328003.344    99619110.593         -41.685          35.000  
C20  24746626.547   128862179.279       -2773.037          39.000                                                                  
C09  36816595.935   191713673.749         293.369          41.000    36816587.788   148245144.775         226.771          44.000  
C23  25178925.208   131113270.239       -2429.497          38.000                                                                  
C19  24966542.258   130007337.777        -713.191          38.000                                                                  
C10  38440126.854                         545.031          31.000    38440124.251   154782451.547         421.541          42.000  
R21  20823396.316   111430199.571        1446.191          38.000    20823395.817    86667933.628        1124.750          40.000  
R08  23598681.562   126369876.626       -4670.671          40.000    23598721.301    98287844.564       -3632.779          40.000  
J03  37737294.172   198310822.880          -2.214          42.000    37737302.404   154527947.998          -1.833          43.000  
J07  37124094.070   195088433.468        -337.764          37.000    37124095.360   152016961.573        -263.442          41.000  
J04                                                                  37002345.782   151518415.995        -493.314          38.000  
> 2025 11 11 08 04 05.0400000  0 32                     
G28  24542893.376   128973755.788       -3388.103          39.000    24542900.336   100499063.644       -2639.811          36.000  
G26  21864485.680   114898645.971       -2546.578          42.000    21864486.841    89531417.152       -1984.735          37.000  
G27  20154834.659   105914372.108        1298.939          46.000    20154836.302    82530682.387        1012.382          44.000  
G31  22034537.877   115792279.896       -2702.694          38.000    22034537.933    90227749.443       -2106.344          37.000  
G04  20954757.584   110117994.212        -966.162          44.000    20954757.310    85806229.395        -752.917          42.000  
C37  22308256.362   116164941.511        -875.889          46.000                                                                  
C06  35873697.237   186803757.592          48.102          42.000    35873688.263   144448477.258          37.433          46.000  
C16  36315343.544   189103525.873          55.250          43.000    36315339.616   146226825.509          42.482          45.000  
C28  22652922.604   117959714.486         470.977          42.000                                                                  
C07  37189755.593   193656812.099         540.007          38.000    37189746.218   149747699.858         417.725          44.000  
C27  23493020.283   122334321.473        2491.937          44.000                                                                  
R10  22744265.256   121239745.188       -2627.408          33.000                                                                  
R22  23147606.659   123563543.579        3908.245          45.000    23147633.380    96105109.841        3039.268          41.000  
R12  21720995.692   116029664.969        1665.427          45.000    21720998.846    90245304.405        1295.267          45.000  
R11  20153932.681   107696509.307        -714.108          43.000    20153932.620    83763945.136        -555.452          44.000  
R20  22133862.721   118359703.148       -2113.514          43.000    22133863.215    92057541.369       -1644.018          43.000  
R01  21129886.841   112951358.710       -2979.006          36.000                                                                  
G08  21724151.304   114161187.423        2902.636          39.000    21724155.521    88956793.284        2261.476          37.000  
G09  22203975.150   116682675.952        1243.174          39.000    22203977.606    90921575.179         968.619          40.000  
G16  20101564.683   105634436.019       -1127.135          42.000                                                                  
J02  38908238.224   204464173.584        -783.179          43.000    38908238.561   159322733.363        -610.474          45.000  
G18  24327999.358                2        -53.191          31.000    24328003.742    99619112.270         -41.918          35.000  
C20  24746647.850   128862290.183       -2773.006          38.000                                                                  
C09  36816593.678   191713662.016         293.225          41.000    36816585.507   148245135.708         226.577          44.000  
C23  25178943.887   131113367.456       -2430.301          38.000                                                                  
C19  24966547.728   130007366.313        -713.534          38.000                                                                  
C10  38440122.654   200167806.404         545.674          32.000    38440120.051   154782434.673         421.622          42.000  
R21  20823385.492   111430141.726        1446.020          38.000    20823385.017    86667888.641        1124.487          40.000  
R08  23598716.419   126370063.457       -4670.892          40.000    23598756.166    98287989.882       -3632.969          40.000  
J03  37737294.191   198310822.972          -2.409          42.000    37737302.417   154527948.060          -1.783          42.000  
J07  37124096.640   195088446.975        -337.820          37.000    37124097.936   152016972.102        -263.438          41.000  
J04                                                                  37002350.618   151518435.751        -493.830          38.000  
> 2025 11 11 08 04 05.0800000  0 32                     
G28  24542919.170   128973891.389       -3389.799          39.000    24542926.147   100499169.296       -2641.084          36.000  
G26  21864505.100   114898747.936       -2548.680          42.000    21864506.249    89531496.587       -1985.822          37.000  
G27  20154824.777   105914320.235        1296.938          46.000    20154826.439    82530641.984        1010.353          44.000  
G31  22034558.443   115792388.129       -2705.279          38.000    22034558.509    90227833.753       -2107.654          37.000  
G04  20954764.969   110118032.969        -968.732          44.000    20954764.676    85806259.590        -754.724          42.000  
C37  22308263.134   116164976.640        -877.910          47.000                                                                  
C06  35873696.860   186803755.766          45.782          42.000    35873687.904   144448475.847          35.492          46.000  
C16  36315343.132   189103523.743          53.619          43.000    36315339.236   146226823.858          41.377          45.000  
C28  22652919.009   117959695.755         468.717          42.000                                                                  
C07  37189751.452   193656790.562         538.408          38.000    37189742.093   149747683.215         416.264          44.000  
C27  23493001.141   122334221.910        2489.323          44.000                                                                  
R10  22744284.968                       -2629.027          33.000                                                                  
R22  23147577.384   123563387.351        3906.053          45.000    23147604.087    96104988.331        3037.789          41.000  
R12  21720983.238   116029598.431        1663.737          45.000    21720986.382    90245252.648        1294.048          45.000  
R11  20153938.055   107696537.984        -716.593          43.000    20153937.959    83763967.433        -557.208          44.000  
R20  22133878.525   118359787.765       -2115.258          43.000    22133879.042    92057607.177       -1645.159          43.000  
R01  21129909.133   112951477.904       -2979.935          36.000                                                                  
G08  21724129.226   114161071.406        2900.747          39.000    21724133.416    88956702.861        2260.497          37.000  
G09  22203965.683   116682626.325        1241.006          39.000    22203968.144    90921536.496         967.233          40.000  
G16  20101573.274   105634481.212       -1129.570          42.000                                                                  
J02  38908244.204   204464205.038        -786.041          43.000    38908244.530   159322757.855        -612.158          45.000  
G18  24327999.580                2        -55.201          31.000    24328004.157    99619113.996         -42.983          35.000  
C20  24746669.177   128862401.177       -2774.619          39.000                                                                  
C09  36816591.427   191713650.373         291.426          41.000    36816583.255   148245126.696         225.442          44.000  
C23  25178962.575   131113464.741       -2432.113          38.000                                                                  
C19  24966553.232   130007394.919        -715.017          38.000                                                                  
C10  38440118.474                         542.046          32.000    38440115.871   154782417.897         419.661          42.000  
R21  20823374.704   111430083.962        1444.189          38.000    20823374.214    86667843.741        1122.583          40.000  
R08  23598751.336   126370250.410       -4673.506          40.000    23598791.075    98288135.264       -3634.412          40.000  
J03  37737294.218   198310823.163          -4.508          42.000    37737302.469   154527948.210          -3.471          42.000  
J07  37124099.221   195088460.577        -339.689          37.000    37124100.511   152016982.698        -264.724          41.000  
J04                                                                  37002355.464   151518455.574        -495.494          37.000  
> 2025 11 11 08 04 05.1200000  0 32                     
G28  24542945.063   128974027.339       -3396.776          40.000    24542952.042   100499275.241       -2646.880          36.000  
G26  21864524.599   114898850.226       -2555.504          43.000    21864525.734    89531576.279       -1990.896          37.000  
G27  20154814.992   105914268.678        1290.220          47.000    20154816.663    82530601.804        1005.401          44.000  
G31  22034579.103   115792496.650       -2711.640          39.000    22034579.166    90227918.334       -2113.154          37.000  
G04  20954772.411   110118072.007        -975.018          44.000    20954772.125    85806290.009        -759.589          42.000  
C37  22308269.941   116165012.101        -884.860          47.000                                                                  
C06  35873696.554   186803754.208          39.862          42.000    35873687.611   144448474.656          30.585          46.000  
C16  36315342.821   189103521.976          46.267          43.000    36315338.906   146226822.481          35.925          45.000  
C28  22652915.496   117959677.340         461.841          42.000                                                                  
C07  37189747.399   193656769.368         531.490          39.000    37189738.022   149747666.836         410.774          44.000  
C27  23492982.115   122334122.631        2482.964          44.000                                                                  
R10  22744304.773                       -2635.915          33.000                                                                  
R22  23147548.202   123563231.454        3898.923          44.000    23147574.897    96104867.077        3032.410          41.000  
R12  21720970.844   116029532.248        1656.615          45.000    21720974.019    90245201.185        1288.194          45.000  
R11  20153943.510   107696566.976        -723.496          43.000    20153943.417    83763989.979        -562.509          44.000  
R20  22133894.441   118359872.747       -2122.625          43.000    22133894.957    92057673.274       -1650.968          43.000  
R01  21129931.521   112951597.493       -2987.322          36.000                                                                  
G08  21724107.219   114160955.708        2894.169          39.000    21724111.422    88956612.704        2255.458          37.000  
G09  22203956.320   116682577.013        1234.273          40.000    22203958.807    90921498.079         961.796          40.000  
G16  20101581.947   105634526.727       -1136.578          43.000                                                                  
J02  38908250.276   204464236.766        -792.340          44.000    38908250.600   159322782.578        -617.120          45.000  
G18  24328000.851                2        -62.684          31.000    24328004.645    99619116.005         -48.700          35.000  
C20  24746690.585   128862512.547       -2782.182          39.000                                                                  
C09  36816589.247   191713639.077         284.299          41.000    36816581.092   148245117.980         219.541          44.000  
C23  25178981.343   131113562.343       -2438.607          38.000                                                                  
C19  24966558.813   130007423.887        -722.262          38.000                                                                  
C10  38440114.393                         536.257          31.000    38440111.770   154782401.343         414.746          42.000  
R21  20823363.996                        1436.957          38.000    20823363.515    86667799.064        1117.694          40.000  
R08  23598786.329   126370437.665       -4680.248          40.000    23598826.060    98288280.912       -3639.895          40.000  
J03  37737294.316   198310823.672         -11.248          42.000    37737302.600   154527948.622          -9.021          42.000  
J07  37124101.899   195088474.524        -346.814          38.000    37124103.169   152016993.561        -270.101          41.000  
J04                                                                  37002360.368   151518475.646        -500.594          37.000  
> 2025 11 11 08 04 05.1600000  0 32                     
G28  24542970.938   128974163.125       -3396.899          40.000    24542977.909                       -2647.002          36.000  
G26  21864544.063   114898952.382       -2556.028          43.000    21864545.212    89531655.888       -1991.615          37.000  
G27  20154805.168   105914216.958        1290.675          47.000    20154806.832    82530561.504        1005.721          44.000  
G31  22034599.764   115792605.045       -2712.007          39.000    22034599.815    90228002.825       -2113.841          37.000  
G04  20954779.839   110118110.879        -974.188          44.000    20954779.554    85806320.311        -759.283          42.000  
C37  22308276.753   116165047.402        -884.849          47.000                                                                  
C06  35873696.245   186803752.501          40.491          42.000    35873687.310   144448473.334          31.213          46.000  
C16  36315342.479   189103520.058          45.760          43.000    36315338.565   146226820.995          35.540          45.000  
C28  22652911.960   117959658.771         461.923          42.000                                                                  
C07  37189743.322                         531.706          39.000    37189733.984   149747650.330         410.794          44.000  
C27  23492963.018   122334023.182        2483.775          44.000                                                                  
R10  22744324.535                       -2636.438          33.000                                                                  
R22  23147518.987                        3899.256          44.000    23147545.681    96104745.703        3032.565          40.000  
R12  21720958.472   116029465.925        1655.938          45.000    21720961.646    90245149.585        1288.105          45.000  
R11  20153948.930                        -722.926          43.000    20153948.844    83764012.399        -562.294          44.000  
R20  22133910.335                       -2122.633          43.000    22133910.856    92057739.242       -1651.087          43.000  
R01  21129953.875                       -2988.091          36.000                                                                  
G08  21724085.189   114160839.899        2893.392          39.000    21724089.404    88956522.458        2254.879          37.000  
G09  22203946.936                        1234.010          40.000    22203949.414    90921459.551         961.524          40.000  
G16  20101590.606   105634572.062       -1135.939          43.000                                                                  
J02  38908256.311   204464268.317        -791.290          44.000    38908256.630   159322807.172        -616.595          45.000  
G18  24328001.153                2        -63.678          31.000    24328005.155    99619117.937         -49.880          35.000  
C20  24746711.976                       -2782.243          39.000                                                                  
C09  36816587.078   191713627.620         284.132          41.000    36816578.934   148245109.132         219.299          44.000  
C23  25179000.100                       -2438.329          38.000                                                                  
C19  24966564.385                        -722.024          38.000                                                                  
C10  38440110.263                         536.542          31.000    38440107.661   154782384.676         415.026          42.000  
R21  20823353.252                        1437.463          38.000    20823352.769    86667754.266        1118.158          40.000  
R08  23598821.298                       -4679.484          40.000    23598861.002    98288426.418       -3639.436          39.000  
J03  37737294.414   198310824.021         -11.102          42.000    37737302.697   154527948.883          -8.530          42.000  
J07  37124104.580                        -347.134          38.000    37124105.812   152017004.301        -270.200          41.000  
J04                                                                  37002365.243   151518495.621        -501.147          37.000  
> 2025 11 11 08 04 05.2000000  0 32                     
G28  24542996.713                       -3392.418          40.000    24543003.677                       -2642.893          36.000  
G26  21864563.460                       -2551.063          43.000    21864564.602                       -1987.619          37.000  
G27  20154795.300                        1295.438          47.000    20154796.933                        1009.748          44.000  
G31  22034620.344                       -2707.359          39.000    22034620.386                       -2109.103          37.000  
G04  20954787.188                        -969.733          44.000    20954786.881    85806350.451        -755.603          42.000  
C37  22308283.492                        -879.830          47.000                                                                  
C06  35873695.858                          44.849          42.000    35873686.922   144448471.855          34.937          46.000  
C16  36315342.046                          50.872          43.000    36315338.120   146226819.292          39.653          45.000  
C28  22652908.328                         466.883          42.000                                                                  
C07  37189739.162                         536.155          39.000    37189729.840   149747633.618         415.074          44.000  
C27  23492943.900                        2488.461          44.000                                                                  
R10  22744344.238                       -2630.985          33.000                                                                  
R22  23147489.686                        3904.476          44.000    23147516.383                        3036.655          41.000  
R12  21720946.004                        1661.287          45.000    21720949.168    90245097.777        1292.337          46.000  
R11  20153954.261                        -717.789          43.000    20153954.188    83764034.631        -558.217          44.000  
R20  22133926.156                       -2117.642          43.000    22133926.651    92057805.011       -1647.018          43.000  
R01  21129976.163                       -2983.403          36.000                                                                  
G08  21724063.096                        2898.354          39.000    21724067.306                        2258.252          37.000  
G09  22203937.480                        1239.082          40.000    22203939.928                         965.551          40.000  
G16  20101599.165                       -1130.920          43.000                                                                  
J02  38908262.283                        -786.810          44.000    38908262.580   159322831.609        -612.897          45.000  
G18  24328001.399                2        -59.209          31.000    24328005.563                         -45.073          35.000  
C20  24746733.295                       -2777.417          39.000                                                                  
C09  36816584.829                         288.855          41.000    36816576.678   148245100.070         223.512          44.000  
C23  25179018.758                       -2433.841          38.000                                                                  
C19  24966569.867                        -717.537          38.000                                                                  
C10  38440106.069                         541.316          31.000    38440103.468                         418.877          42.000  
R21  20823342.427                        1442.206          38.000    20823341.933                        1122.107          40.000  
R08  23598856.170                       -4674.791          40.000    23598895.897                       -3636.176          39.000  
J03  37737294.426                          -6.393          42.000    37737302.720                          -4.534          42.000  
J07  37124107.143                        -341.905          38.000    37124108.376   152017014.853        -266.378          41.000  
J04                                                                  37002370.059                        -496.683          37.000  
> 2025 11 11 08 04 05.2400000  0 32                     
G28  24543022.477                       -3388.967          40.000    24543029.452                       -2641.589          36.000  
G26  21864582.833                       -2547.610          43.000    21864583.987                       -1985.518          37.000  
G27  20154785.395                        1298.219          47.000    20154787.024    82530480.568        1011.375          44.000  
G31  22034640.892                       -2704.220          39.000    22034640.937                       -2106.960          37.000  
G04  20954794.530                        -967.157          44.000    20954794.235    85806380.592        -753.668          42.000  
C37  22308290.212                        -876.901          47.000                                                                  
C06  35873695.458                          47.388          42.000    35873686.516   144448470.395          36.548          46.000  
C16  36315341.611                          54.282          43.000    36315337.692   146226817.598          41.829          45.000  
C28  22652904.691                         469.651          42.000                                                                  
C07  37189734.984                         539.507          39.000    37189725.648   149747616.923         417.110          44.000  
C27  23492924.746                        2491.256          44.000                                                                  
R10  22744363.908                       -2627.971          33.000                                                                  
R22  23147460.377                        3907.256          44.000    23147487.070                        3038.718          40.000  
R12  21720933.521                        1664.682          45.000    21720936.667    90245045.983        1294.402          46.000  
R11  20153959.591                        -715.010          43.000    20153959.545    83764056.880        -556.341          44.000  
R20  22133941.937                       -2114.796          43.000    22133942.452                       -1644.852          43.000  
R01  21129998.450                       -2980.246          36.000                                                                  
G08  21724040.961                        2901.526          39.000    21724045.210                        2260.310          37.000  
G09  22203927.988                        1242.176          40.000    22203930.447                         967.654          40.000  
G16  20101607.728                       -1127.923          43.000                                                                  
J02  38908268.236                        -784.228          44.000    38908268.570   159322856.056        -611.157          45.000  
G18  24328002.000                2        -53.779          31.000    24328005.956                         -42.782          35.000  
C20  24746754.603                       -2774.222          39.000                                                                  
C09  36816582.565                         292.076          41.000    36816574.423                         225.871          44.000  
C23  25179037.421                       -2430.838          38.000                                                                  
C19  24966575.361                        -714.146          38.000                                                                  
C10  38440101.844                         544.419          31.000    38440099.296                         420.473          42.000  
R21  20823331.589                        1445.245          38.000    20823331.133                        1123.602          40.000  
R08  23598891.043                       -4671.854          40.000    23598930.786                       -3633.964          39.000  
J03  37737294.414                          -3.431          42.000    37737302.713   154527949.088          -3.041          42.000  
J07  37124109.695                        -338.784          38.000    37124110.952   152017025.418        -264.475          41.000  
J04                                                                  37002374.860                        -494.382          37.000  
> 2025 11 11 08 04 05.2800000  0 32                     
G28  24543048.273                       -3388.904          40.000    24543055.269                       -2640.757          36.000  
G26  21864602.230                       -2547.747          43.000    21864603.376                       -1985.452          37.000  
G27  20154775.517                        1297.481          47.000    20154777.140                        1011.121          44.000  
G31  22034661.469                       -2704.005          39.000    22034661.536                       -2107.271          37.000  
G04  20954801.911                        -968.060          44.000    20954801.605                        -754.114          42.000  
C37  22308296.969                        -876.942          47.000                                                                  
C06  35873695.094                          46.637          42.000    35873686.143   144448468.963          36.444          46.000  
C16  36315341.220                          54.681          43.000    36315337.237   146226815.953          41.863          45.000  
C28  22652901.098                         469.426          42.000                                                                  
C07  37189730.833                         539.134          39.000    37189721.493   149747600.272         417.058          44.000  
C27  23492905.624                        2490.529          44.000                                                                  
R10  22744383.658                       -2627.762          33.000                                                                  
R22  23147431.104                        3906.752          44.000    23147457.799                        3038.672          40.000  
R12  21720921.061                        1664.538          45.000    21720924.219    90244994.228        1294.578          46.000  
R11  20153964.927                        -715.806          43.000    20153964.894    83764079.158        -556.286          44.000  
R20  22133957.757                       -2114.499          43.000    22133958.260                       -1644.661          43.000  
R01  21130020.725                       -2979.546          36.000                                                                  
G08  21724018.908                        2901.364          39.000    21724023.125                        2260.875          37.000  
G09  22203918.547                        1241.771          40.000    22203920.996                         967.882          40.000  
G16  20101616.298                       -1128.900          43.000                                                                  
J02  38908274.214                        -785.205          44.000    38908274.546   159322880.553        -611.646          45.000  
G18  24328002.630                2        -54.730          31.000    24328006.348                         -42.247          35.000  
C20  24746775.903                       -2773.955          39.000                                                                  
C09  36816580.312                         292.273          41.000    36816572.173                         226.270          44.000  
C23  25179056.079                       -2431.200          38.000                                                                  
C19  24966580.854                        -714.236          38.000                                                                  
C10  38440097.662                         542.860          31.000    38440095.122                         420.220          42.000  
R21  20823320.800                        1443.701          37.000    20823320.308                        1123.230          40.000  
R08  23598925.920                       -4672.489          40.000    23598965.666                       -3634.254          39.000  
J03  37737294.450                          -3.751          42.000    37737302.738                          -2.941          42.000  
J07  37124112.276                        -339.182          38.000    37124113.561   152017036.009        -264.195          41.000  
J04                                                                  37002379.688                        -494.543          37.000  
> 2025 11 11 08 04 05.3200000  0 32                     
G28  24543074.137                       -3393.623          40.000    24543081.133                       -2644.413          36.000  
G26  21864621.714                       -2552.256          43.000    21864622.816                       -1987.922          37.000  
G27  20154765.693                        1293.340          47.000    20154767.317                        1008.051          44.000  
G31  22034682.116                       -2708.507          39.000    22034682.194                       -2110.940          37.000  
G04  20954809.332                        -971.741          44.000    20954809.012                        -757.098          42.000  
C37  22308303.766                        -881.496          47.000                                                                  
C06  35873694.799                          43.170          42.000    35873685.848                          33.209          46.000  
C16  36315340.875                          49.692          43.000    36315336.898                          38.339          45.000  
C28  22652897.568                         465.254          42.000                                                                  
C07  37189726.756                         534.450          39.000    37189717.384                         413.380          44.000  
C27  23492886.534                        2486.352          43.000                                                                  
R10  22744403.448                       -2632.404          33.000                                                                  
R22  23147401.898                        3902.036          44.000    23147428.562                        3035.222          40.000  
R12  21720908.666                        1659.665          44.000    21720911.813                        1291.044          46.000  
R11  20153970.348                        -719.960          44.000    20153970.314                        -559.812          44.000  
R20  22133973.644                       -2119.281          43.000    22133974.147                       -1648.109          43.000  
R01  21130043.076                       -2983.490          36.000                                                                  
G08  21723996.886                        2897.073          39.000    21724001.087                        2257.753          37.000  
G09  22203909.147                        1237.122          40.000    22203911.601                         964.561          40.000  
G16  20101624.962                       -1132.802          43.000                                                                  
J02  38908280.242                        -788.611          44.000    38908280.552                        -614.630          45.000  
G18  24328002.677                2        -58.643          31.000    24328006.842                         -46.357          35.000  
C20  24746797.303                       -2778.963          39.000                                                                  
C09  36816578.113                         287.755          41.000    36816570.007                         222.756          44.000  
C23  25179074.807                       -2435.111          38.000                                                                  
C19  24966586.409                        -719.194          38.000                                                                  
C10  38440093.522                         539.200          31.000    38440091.019                         417.473          41.000  
R21  20823310.068                        1439.587          37.000    20823309.568                        1120.166          40.000  
R08  23598960.917                       -4676.593          40.000    23599000.625                       -3637.082          39.000  
J03  37737294.551                          -7.643          42.000    37737302.827                          -5.891          42.000  
J07  37124114.918                        -343.530          38.000    37124116.194                        -268.043          41.000  
J04                                                                  37002384.580                        -498.237          37.000  
> 2025 11 11 08 04 05.3600000  0 32                     
G28  24543099.981                       -3394.207          40.000    24543106.980                       -2644.651          36.000  
G26  21864641.153                       -2552.829          43.000    21864642.246                       -1989.114          37.000  
G27  20154755.871                        1293.284          47.000    20154757.481                        1007.557          44.000  
G31  22034702.757                       -2709.008          39.000    22034702.806                       -2110.716          37.000  
G04  20954816.732                        -971.881          44.000    20954816.384                        -757.288          42.000  
C37  22308310.524                        -881.783          47.000                                                                  
C06  35873694.465                          42.908          42.000    35873685.512                          32.947          46.000  
C16  36315340.520                          49.169          43.000    36315336.538                          38.000          45.000  
C28  22652893.984                         464.885          42.000                                                                  
C07  37189722.642                         534.125          39.000    37189713.275                         413.248          44.000  
C27  23492867.418                        2486.309          43.000                                                                  
R10  22744423.209                       -2632.882          33.000                                                                  
R22  23147372.664                        3902.281          44.000    23147399.325                        3034.780          40.000  
R12  21720896.251                        1659.315          45.000    21720899.387                        1290.681          46.000  
R11  20153975.737                        -719.998          44.000    20153975.702                        -560.112          44.000  
R20  22133989.490                       -2119.754          43.000    22133990.018                       -1648.610          43.000  
R01  21130065.425                       -2984.332          36.000                                                                  
G08  21723974.823                        2897.081          39.000    21723979.030                        2257.468          37.000  
G09  22203899.720                        1236.957          40.000    22203902.191                         964.133          40.000  
G16  20101633.582                       -1133.210          43.000                                                                  
J02  38908286.249                        -788.776          44.000    38908286.537                        -614.813          45.000  
G18  24328002.717                2        -59.352          31.000    24328007.306                         -47.188          35.000  
C20  24746818.658                       -2779.265          39.000                                                                  
C09  36816575.941                         287.428          41.000    36816567.813                         222.058          44.000  
C23  25179093.541                       -2435.443          38.000                                                                  
C19  24966591.949                        -719.499          38.000                                                                  
C10  38440089.391                         538.489          31.000    38440086.910                         417.105          42.000  
R21  20823299.312                        1439.868          37.000    20823298.791                        1119.904          40.000  
R08  23598995.873                       -4676.718          40.000    23599035.555                       -3637.696          39.000  
J03  37737294.609                          -8.017          42.000    37737302.890                          -6.115          42.000  
J07  37124117.552                        -343.744          38.000    37124118.812                        -268.048          41.000  
J04                                                                  37002389.425                        -498.240          37.000  
> 2025 11 11 08 04 05.4000000  0 32                     
G28  24543125.825                       -3393.185          40.000    24543132.801                       -2643.628          37.000  
G26  21864660.570                       -2552.085          43.000    21864661.660                       -1988.854          37.000  
G27  20154746.017                        1294.235          47.000    20154747.642                        1008.413          44.000  
G31  22034723.367                       -2708.171          39.000    22034723.414                       -2110.155          37.000  
G04  20954824.132                        -970.825          44.000    20954823.752                        -756.763          43.000  
C37  22308317.289                        -881.072          47.000                                                                  
C06  35873694.124                          43.683          41.000    35873685.189                          33.832          46.000  
C16  36315340.139                          49.965          42.000    36315336.156                          38.833          45.000  
C28  22652890.376                         465.845          42.000                                                                  
C07  37189718.513                         535.379          39.000    37189709.192                         413.833          44.000  
C27  23492848.325                        2487.039          43.000                                                                  
R10  22744442.991                       -2631.937          33.000                                                                  
R22  23147343.436                        3903.088          44.000    23147370.046                        3035.684          40.000  
R12  21720883.789                        1660.270          45.000    21720886.982                        1291.172          46.000  
R11  20153981.124                        -719.091          44.000    20153981.091                        -559.437          44.000  
R20  22134005.339                       -2119.006          44.000    22134005.878                       -1648.125          43.000  
R01  21130087.761                       -2984.479          36.000                                                                  
G08  21723952.748                        2897.314          39.000    21723956.973                        2257.072          37.000  
G09  22203890.298                        1238.077          40.000    22203892.769                         964.241          40.000  
G16  20101642.206                       -1132.203          43.000                                                                  
J02  38908292.255                        -787.830          44.000    38908292.533                        -613.928          46.000  
G18  24328003.264                2        -58.542          31.000    24328007.765                         -46.726          36.000  
C20  24746840.006                       -2777.840          39.000                                                                  
C09  36816573.732                         287.874          41.000    36816565.622                         222.549          44.000  
C23  25179112.268                       -2435.266          38.000                                                                  
C19  24966597.449                        -718.297          38.000                                                                  
C10  38440085.222                         538.594          31.000    38440082.778                         417.673          42.000  
R21  20823288.555                        1441.022          37.000    20823288.004                        1120.795          40.000  
R08  23599030.805                       -4675.814          40.000    23599070.489                       -3637.041          39.000  
J03  37737294.672                          -7.250          42.000    37737302.938                          -5.729          43.000  
J07  37124120.166                        -343.099          38.000    37124121.396                        -267.281          42.000  
J04                                                                  37002394.284                        -497.876          37.000  
> 2025 11 11 08 04 05.4400000  0 32                     
G28  24543151.616                       -3389.484          40.000    24543158.595                       -2641.355          37.000  
G26  21864679.959                       -2548.549          43.000    21864681.043                       -1985.786          37.000  
G27  20154736.103                        1297.914          47.000    20154737.779                        1011.402          44.000  
G31  22034743.910                       -2704.534          39.000    22034743.993                       -2107.740          37.000  
G04  20954831.480                        -967.261          44.000    20954831.089                        -754.095          43.000  
C37  22308324.037                        -877.230          47.000                                                                  
C06  35873693.757                          47.369          41.000    35873684.844                          36.456          46.000  
C16  36315339.721                          53.844          42.000    36315335.760                          41.155          45.000  
C28  22652886.759                         469.376          42.000                                                                  
C07  37189714.369                         539.181          39.000    37189705.050                         416.738          44.000  
C27  23492829.164                        2491.053          43.000                                                                  
R10  22744462.722                       -2628.376          33.000                                                                  
R22  23147314.151                        3907.136          44.000    23147340.769                        3038.369          40.000  
R12  21720871.287                        1663.980          45.000    21720874.491                        1294.081          46.000  
R11  20153986.453                        -715.492          44.000    20153986.447                        -556.390          44.000  
R20  22134021.134                       -2115.267          44.000    22134021.664                       -1645.372          43.000  
R01  21130110.039                       -2980.335          36.000                                                                  
G08  21723930.632                        2901.017          39.000    21723934.891                        2260.716          37.000  
G09  22203880.818                        1241.513          41.000    22203883.321                         967.071          40.000  
G16  20101650.772                       -1128.235          43.000                                                                  
J02  38908298.209                        -784.058          44.000    38908298.476                        -611.273          46.000  
G18  24328003.701                2        -56.238          31.000    24328008.174                         -43.566          36.000  
C20  24746861.306                       -2774.574          39.000                                                                  
C09  36816571.481                         291.962          41.000    36816563.376                         225.103          44.000  
C23  25179130.938                       -2431.421          38.000                                                                  
C19  24966602.919                        -715.239          38.000                                                                  
C10  38440081.074                         539.810          31.000    38440078.587                         420.281          41.000  
R21  20823277.747                        1445.294          37.000    20823277.198                        1123.218          40.000  
R08  23599065.668                       -4672.189          40.000    23599105.380                       -3634.500          39.000  
J03  37737294.668                          -3.665          42.000    37737302.931                          -3.318          43.000  
J07  37124122.753                        -339.931          38.000    37124123.975                        -264.623          42.000  
J04                                                                  37002399.079                        -494.775          37.000  
> 2025 11 11 08 04 05.4800000  0 32                     
G28  24543177.385                       -3386.045          40.000    24543184.369                       -2638.700          37.000  
G26  21864699.316                       -2545.128          43.000    21864700.413                       -1983.567          37.000  
G27  20154726.204                        1300.761          47.000    20154727.863                        1013.794          44.000  
G31  22034764.468                       -2700.948          39.000    22034764.545                       -2105.153          37.000  
G04  20954838.829                        -964.508          44.000    20954838.441                        -751.502          43.000  
C37  22308330.757                        -874.200          47.000                                                                  
C06  35873693.352                          50.458          41.000    35873684.448                          39.117          46.000  
C16  36315339.263                          57.006          42.000    36315335.328                          44.189          45.000  
C28  22652883.099                         472.179          42.000                                                                  
C07  37189710.202                         542.036          39.000    37189700.870                         419.279          44.000  
C27  23492809.986                        2493.756          43.000                                                                  
R10  22744482.400                       -2625.064          33.000                                                                  
R22  23147284.864                        3910.129          44.000    23147311.451                        3040.749          41.000  
R12  21720858.774                        1667.426          45.000    21720862.004                        1296.726          46.000  
R11  20153991.776                        -712.401          44.000    20153991.780                        -554.067          45.000  
R20  22134036.916                       -2112.161          44.000    22134037.472                       -1642.522          43.000  
R01  21130132.295                       -2977.270          36.000                                                                  
G08  21723908.520                        2904.455          39.000    21723912.756                        2263.594          37.000  
G09  22203871.371                        1244.505          41.000    22203873.818                         970.235          40.000  
G16  20101659.331                       -1125.471          43.000                                                                  
J02  38908304.142                        -781.409          44.000    38908304.392                        -608.716          46.000  
G18  24328004.429                2        -52.444          31.000    24328008.551                         -40.203          36.000  
C20  24746882.575                       -2771.109          39.000                                                                  
C09  36816569.211                         294.970          41.000    36816561.101                         228.166          44.000  
C23  25179149.564                       -2428.348          38.000                                                                  
C19  24966608.375                        -712.131          39.000                                                                  
C10  38440076.834                3        544.603          31.000    38440074.372                         422.879          41.000  
R21  20823266.924                        1447.577          37.000    20823266.372                        1125.995          40.000  
R08  23599100.534                       -4668.961          40.000    23599140.254                       -3631.231          39.000  
J03  37737294.669                          -0.669          42.000    37737302.932                          -0.416          43.000  
J07  37124125.293                        -335.756          38.000    37124126.524                        -262.125          42.000  
J04                                                                  37002403.881                        -492.589          37.000  
> 2025 11 11 08 04 05.5200000  0 32                     
G28  24543203.149                       -3385.028          40.000    24543210.141                       -2637.465          37.000  
G26  21864718.672                       -2543.895          43.000    21864719.774                       -1982.302          37.000  
G27  20154716.293                        1301.467          47.000    20154717.969                        1014.102          44.000  
G31  22034785.016                       -2699.936          39.000    22034785.094                       -2104.004          37.000  
G04  20954846.149                        -964.038          44.000    20954845.789                        -750.983          43.000  
C37  22308337.504                        -873.456          47.000                                                                  
C06  35873692.948                          50.708          41.000    35873684.055                          39.429          46.000  
C16  36315338.813                          58.099          42.000    36315334.882                          45.129          45.000  
C28  22652879.494                         472.994          42.000                                                                  
C07  37189706.039                         543.006          39.000    37189696.703                         420.010          44.000  
C27  23492790.816                        2494.561          43.000                                                                  
R10  22744502.068                       -2624.077          33.000                                                                  
R22  23147255.538                        3910.653          44.000    23147282.134                        3041.918          41.000  
R12  21720846.271                        1668.164          45.000    21720849.509                        1297.759          46.000  
R11  20153997.101                        -711.547          44.000    20153997.117                        -553.484          45.000  
R20  22134052.695                       -2110.820          44.000    22134053.261                       -1641.707          43.000  
R01  21130154.541                       -2976.289          36.000                                                                  
G08  21723886.387                        2905.146          39.000    21723890.645                        2263.265          37.000  
G09  22203861.904                        1245.618          41.000    22203864.356                         970.480          40.000  
G16  20101667.889                       -1124.828          43.000                                                                  
J02  38908310.066                        -780.780          44.000    38908310.331                        -608.215          46.000  
G18  24328004.919                2        -51.298          31.000    24328008.933                         -39.252          36.000  
C20  24746903.854                       -2770.220          39.000                                                                  
C09  36816566.937                         295.868          41.000    36816558.842                         229.207          44.000  
C23  25179168.209                       -2426.921          38.000                                                                  
C19  24966613.833                        -710.598          39.000                                                                  
C10  38440072.584                3        544.226          31.000    38440070.159                         423.614          41.000  
R21  20823256.121                        1447.791          37.000    20823255.545                        1126.672          40.000  
R08  23599135.402                       -4668.564          40.000    23599175.138                       -3630.726          39.000  
J03  37737294.666                           0.087          42.000    37737302.936                           0.337          43.000  
J07  37124127.836                        -335.085          38.000    37124129.050                        -260.719          42.000  
J04                                                                  37002408.710                        -491.263          37.000  
> 2025 11 11 08 04 05.5600000  0 32                     
G28  24543228.959                       -3388.021          40.000    24543235.937                       -2639.976          37.000  
G26  21864738.099                       -2547.291          43.000    21864739.177                       -1983.864          37.000  
G27  20154706.445                        1297.978          47.000    20154708.120                        1011.486          44.000  
G31  22034805.620                       -2703.927          39.000    22034805.692                       -2106.030          37.000  
G04  20954853.558                        -967.511          44.000    20954853.154                        -753.607          43.000  
C37  22308344.252                        -876.753          47.000                                                                  
C06  35873692.597                          47.174          41.000    35873683.692                          36.774          46.000  
C16  36315338.412                          54.841          42.000    36315334.466                          42.545          45.000  
C28  22652875.870                         469.955          42.000                                                                  
C07  37189701.925                         539.854          39.000    37189692.571                         417.528          44.000  
C27  23492771.696                        2491.002          43.000                                                                  
R10  22744521.821                       -2627.632          33.000                                                                  
R22  23147226.275                        3907.119          44.000    23147252.875                        3039.084          41.000  
R12  21720833.817                        1665.051          45.000    21720837.051                        1295.316          46.000  
R11  20154002.487                        -715.082          44.000    20154002.485                        -556.172          45.000  
R20  22134068.533                       -2114.268          44.000    22134069.088                       -1644.409          43.000  
R01  21130176.840                       -2979.087          36.000                                                                  
G08  21723864.308                        2901.813          39.000    21723868.587                        2262.172          37.000  
G09  22203852.475                        1242.499          41.000    22203854.940                         968.375          40.000  
G16  20101676.521                       -1128.486          43.000                                                                  
J02  38908316.048                        -784.344          44.000    38908316.303                        -611.047          46.000  
G18  24328005.178                2        -53.912          31.000    24328009.369                         -42.654          36.000  
C20  24746925.166                       -2773.314          39.000                                                                  
C09  36816564.700                         292.515          41.000    36816556.614                         226.650          44.000  
C23  25179186.898                       -2430.145          38.000                                                                  
C19  24966619.314                        -713.694          39.000                                                                  
C10  38440068.577                3        543.784          31.000    38440065.969                         421.031          41.000  
R21  20823245.342                        1444.696          37.000    20823244.775                        1123.322          40.000  
R08  23599170.313                       -4672.160          40.000    23599210.059                       -3633.827          39.000  
J03  37737294.687                          -2.930          42.000    37737302.962                          -2.136          43.000  
J07  37124130.425                        -338.776          38.000    37124131.629                        -263.384          42.000  
J04                                                                  37002413.545                        -494.380          37.000  
> 2025 11 11 08 04 05.6000000  0 32                     
G28  24543254.802                       -3391.317          40.000    24543261.799                       -2642.637          36.000  
G26  21864757.529                       -2549.730          43.000    21864758.626                       -1987.099          37.000  
G27  20154696.596                        1295.806          47.000    20154698.264                        1009.720          44.000  
G31  22034826.247                       -2706.736          39.000    22034826.325                       -2108.546          37.000  
G04  20954860.972                        -969.440          44.000    20954860.540                        -755.090          43.000  
C37  22308351.061                        -879.041          46.000                                                                  
C06  35873692.282                          45.404          41.000    35873683.377                          35.175          46.000  
C16  36315338.037                          52.040          42.000    36315334.060                          40.438          45.000  
C28  22652872.305                         467.302          42.000                                                                  
C07  37189697.838                         537.257          39.000    37189688.476                         415.279          44.000  
C27  23492752.603                        2488.820          43.000                                                                  
R10  22744541.573                       -2630.104          33.000                                                                  
R22  23147197.038                        3905.049          44.000    23147223.615                        3037.337          41.000  
R12  21720821.397                        1662.382          45.000    21720824.636                        1292.870          46.000  
R11  20154007.876                        -717.341          45.000    20154007.860                        -557.919          45.000  
R20  22134084.404                       -2116.834          44.000    22134084.930                       -1646.449          43.000  
R01  21130199.195                       -2982.528          36.000                                                                  
G08  21723842.239                        2899.390          39.000    21723846.546                        2259.462          37.000  
G09  22203843.048                        1239.564          41.000    22203845.525                         966.164          40.000  
G16  20101685.145                       -1130.506          43.000                                                                  
J02  38908322.045                        -786.230          44.000    38908322.290                        -612.695          46.000  
G18  24328005.308                2        -57.167          31.000    24328009.823                         -44.423          36.000  
C20  24746946.543                       -2776.548          39.000                                                                  
C09  36816562.477                         290.459          41.000    36816554.444                         224.311          44.000  
C23  25179205.599                       -2432.514          38.000                                                                  
C19  24966624.864                        -717.177          39.000                                                                  
C10  38440064.317                3        541.919          31.000    38440061.812                         419.420          41.000  
R21  20823234.572                        1442.902          38.000    20823234.022                        1121.747          40.000  
R08  23599205.238                       -4673.953          40.000    23599244.983                       -3635.208          39.000  
J03  37737294.738                          -5.242          42.000    37737303.022                          -4.275          43.000  
J07  37124133.035                        -340.977          38.000    37124134.261                        -265.824          42.000  
J04                                                                  37002418.406                        -496.097          37.000  
> 2025 11 11 08 04 05.6400000  0 32                     
G28  24543280.608                       -3390.507          40.000    24543287.591                       -2641.864          36.000  
G26  21864776.922                       -2549.079          43.000    21864778.053                       -1986.596          37.000  
G27  20154686.712                        1297.051          47.000    20154688.402                        1010.406          44.000  
G31  22034846.854                       -2704.910          39.000    22034846.908                       -2108.456          37.000  
G04  20954868.344                        -968.182          44.000    20954867.915                        -754.938          43.000  
C37  22308357.801                        -878.111          46.000                                                                  
C06  35873691.921                          46.783          41.000    35873683.033                          35.901          46.000  
C16  36315337.637                          52.638          42.000    36315333.643                          40.497          45.000  
C28  22652868.684                         468.573          42.000                                                                  
C07  37189693.692                         537.898          39.000    37189684.366                         415.758          44.000  
C27  23492733.465                        2490.053          43.000                                                                  
R10  22744561.297                       -2628.867          33.000                                                                  
R22  23147167.786                        3906.329          44.000    23147194.338                        3037.964          41.000  
R12  21720808.925                        1663.050          45.000    21720812.172                        1293.229          46.000  
R11  20154013.237                        -716.290          45.000    20154013.234                        -557.296          45.000  
R20  22134100.243                       -2116.104          44.000    22134100.753                       -1646.185          44.000  
R01  21130221.499                       -2981.091          36.000                                                                  
G08  21723820.152                        2900.286          39.000    21723824.463                        2259.353          37.000  
G09  22203833.590                        1240.907          41.000    22203836.100                         966.486          40.000  
G16  20101693.756                       -1129.098          43.000                                                                  
J02  38908328.017                        -784.711          44.000    38908328.258                        -611.841          46.000  
G18  24328006.169                2        -56.931          31.000    24328010.275                         -44.175          36.000  
C20  24746967.879                       -2775.265          38.000                                                                  
C09  36816560.235                         290.813          41.000    36816552.242                         224.870          44.000  
C23  25179224.276                       -2432.105          38.000                                                                  
C19  24966630.399                        -715.842          39.000                                                                  
C10  38440059.785                3        542.932          31.000    38440057.635                         419.798          41.000  
R21  20823223.790                        1443.341          38.000    20823223.225                        1122.888          40.000  
R08  23599240.147                       -4672.499          40.000    23599279.881                       -3634.064          39.000  
J03  37737294.747                          -4.405          42.000    37737303.068                          -3.637          43.000  
J07  37124135.645                        -340.408          38.000    37124136.854                        -265.303          42.000  
J04                                                                  37002423.233                        -495.083          37.000  
> 2025 11 11 08 04 05.6800000  0 32                     
G28  24543306.364                       -3387.603          40.000    24543313.378                       -2639.399          36.000  
G26  21864796.292                       -2545.765          43.000    21864797.408                       -1984.634          37.000  
G27  20154676.759                        1300.196          47.000    20154678.478                        1012.962          44.000  
G31  22034867.393                       -2701.994          39.000    22034867.453                       -2106.011          37.000  
G04  20954875.674                        -965.277          44.000    20954875.269                        -752.570          43.000  
C37  22308364.514                        -874.802          46.000                                                                  
C06  35873691.508                          49.969          41.000    35873682.636                          38.196          46.000  
C16  36315337.194                          55.873          42.000    36315333.220                          42.922          45.000  
C28  22652865.078                         471.826          42.000                                                                  
C07  37189689.521                         541.138          39.000    37189680.182                         418.458          44.000  
C27  23492714.291                        2492.987          43.000                                                                  
R10  22744580.996                       -2625.505          33.000                                                                  
R22  23147138.476                        3909.056          44.000    23147165.053                        3039.948          41.000  
R12  21720796.424                        1666.389          45.000    21720799.658                        1295.999          46.000  
R11  20154018.587                        -712.888          45.000    20154018.538                        -554.814          45.000  
R20  22134116.027                       -2113.013          44.000    22134116.547                       -1643.748          44.000  
R01  21130243.756                       -2978.172          36.000                                                                  
G08  21723798.013                        2903.560          39.000    21723802.350                        2261.897          37.000  
G09  22203824.116                        1243.525          41.000    22203826.630                         968.503          40.000  
G16  20101702.300                       -1126.261          43.000                                                                  
J02  38908333.952                        -782.080          44.000    38908334.204                        -609.595          46.000  
G18  24328006.458                2        -53.844          31.000    24328010.673                         -41.895          36.000  
C20  24746989.155                       -2772.435          38.000                                                                  
C09  36816557.972                         293.986          41.000    36816549.979                         227.233          44.000  
C23  25179242.911                       -2428.920          38.000                                                                  
C19  24966635.858                        -712.776          39.000                                                                  
C10  38440055.253                3        545.931          31.000    38440053.443                         422.070          41.000  
R21  20823212.956                        1446.850          38.000    20823212.417                        1124.933          40.000  
R08  23599274.987                       -4669.497          40.000    23599314.760                       -3632.345          39.000  
J03  37737294.728                          -1.311          42.000    37737303.043                          -1.337          43.000  
J07  37124138.191                        -336.421          38.000    37124139.411                        -263.035          42.000  
J04                                                                  37002428.023                        -492.596          37.000  
> 2025 11 11 08 04 05.7200000  0 32                     
G28  24543332.144                       -3385.470          40.000    24543339.146                       -2637.685          36.000  
G26  21864815.667                       -2544.073          43.000    21864816.768                       -1982.368          37.000  
G27  20154666.854                        1301.729          47.000    20154668.575                        1014.258          44.000  
G31  22034887.986                       -2700.681          39.000    22034887.988                       -2103.940          37.000  
G04  20954883.027                        -963.867          44.000    20954882.586                        -750.940          43.000  
C37  22308371.250                        -873.178          46.000                                                                  
C06  35873691.111                          51.202          41.000    35873682.227                          39.642          46.000  
C16  36315336.735                          57.968          42.000    36315332.770                          44.738          45.000  
C28  22652861.450                         473.335          42.000                                                                  
C07  37189685.332                         543.263          38.000    37189675.997                         420.072          44.000  
C27  23492695.120                        2494.678          43.000                                                                  
R10  22744600.664                       -2624.005          33.000                                                                  
R22  23147109.162                        3910.996          44.000    23147135.724                        3041.896          41.000  
R12  21720783.916                        1668.231          45.000    21720787.168                        1297.666          46.000  
R11  20154023.891                        -711.338          45.000    20154023.865                        -553.206          45.000  
R20  22134131.838                       -2111.138          44.000    22134132.331                       -1642.011          44.000  
R01  21130266.029                       -2976.240          36.000                                                                  
G08  21723775.904                        2904.861          39.000    21723780.216                        2263.441          37.000  
G09  22203814.636                        1245.415          41.000    22203817.152                         970.532          40.000  
G16  20101710.858                       -1124.415          43.000                                                                  
J02  38908339.881                        -780.475          44.000    38908340.135                        -608.008          46.000  
G18  24328007.318                2        -50.865          31.000    24328011.065                         -39.825          36.000  
C20  24747010.425                       -2770.956          38.000                                                                  
C09  36816555.700                         295.955          41.000    36816547.704                         228.658          44.000  
C23  25179261.563                       -2427.423          38.000                                                                  
C19  24966641.315                        -710.491          39.000                                                                  
C10  38440050.744                3        547.034          30.000    38440049.206                         423.492          41.000  
R21  20823202.101                        1448.334          38.000    20823201.572                        1126.678          40.000  
R08  23599309.873                       -4668.147          40.000    23599349.640                       -3630.861          39.000  
J03  37737294.739                           0.270          42.000    37737303.050                           0.265          43.000  
J07  37124140.735                        -335.239          38.000    37124141.938                        -261.347          42.000  
J04                                                                  37002432.831                        -491.823          37.000  
> 2025 11 11 08 04 05.7600000  0 32                     
G28  24543357.919                       -3384.736          40.000    24543364.914                       -2637.135          36.000  
G26  21864835.010                       -2543.479          43.000    21864836.103                       -1981.388          37.000  
G27  20154656.960                        1301.951          47.000    20154658.657                        1014.630          44.000  
G31  22034908.531                       -2699.551          39.000    22034908.557                       -2103.562          37.000  
G04  20954890.374                        -963.348          44.000    20954889.905                        -750.391          43.000  
C37  22308377.985                        -872.724          46.000                                                                  
C06  35873690.734                          51.703          41.000    35873681.878                          40.015          46.000  
C16  36315336.275                          58.800          42.000    36315332.303                          45.575          45.000  
C28  22652857.823                         473.352          42.000                                                                  
C07  37189681.144                         543.649          38.000    37189671.810                         420.509          44.000  
C27  23492675.950                        2495.103          43.000                                                                  
R10  22744620.316                       -2623.231          33.000                                                                  
R22  23147079.842                        3911.667          44.000    23147106.413                        3041.934          41.000  
R12  21720771.427                        1668.932          45.000    21720774.687                        1298.063          46.000  
R11  20154029.242                        -710.942          45.000    20154029.181                        -552.730          45.000  
R20  22134147.616                       -2110.510          44.000    22134148.126                       -1641.474          44.000  
R01  21130288.289                       -2975.361          36.000                                                                  
G08  21723753.774                        2906.073          39.000    21723758.108                        2264.236          37.000  
G09  22203805.172                        1246.039          41.000    22203807.646                         971.212          40.000  
G16  20101719.398                       -1123.963          43.000                                                                  
J02  38908345.819                        -779.944          44.000    38908346.054                        -607.617          46.000  
G18  24328007.815                2        -51.208          31.000    24328011.451                         -39.453          36.000  
C20  24747031.718                       -2770.189          38.000                                                                  
C09  36816553.436                         296.535          41.000    36816545.450                         229.313          44.000  
C23  25179280.209                       -2426.917          38.000                                                                  
C19  24966646.792                        -710.268          39.000                                                                  
C10  38440046.048                2        546.896          30.000    38440044.986                         424.215          41.000  
R21  20823191.263                        1448.877          38.000    20823190.741                        1127.460          40.000  
R08  23599344.757                       -4667.814          40.000    23599384.504                       -3630.149          39.000  
J03  37737294.722                           0.823          42.000    37737303.043                           0.813          42.000  
J07  37124143.292                        -334.854          38.000    37124144.455                        -260.719          42.000  
J04                                                                  37002437.619                        -491.228          37.000  
> 2025 11 11 08 04 05.8000000  0 32                     
G28  24543383.667                       -3385.586          40.000    24543390.695                       -2638.204          36.000  
G26  21864854.374                       -2544.510          43.000    21864855.481                       -1982.120          37.000  
G27  20154647.052                        1300.975          47.000    20154648.774                        1013.681          44.000  
G31  22034929.082                       -2700.630          39.000    22034929.123                       -2104.946          37.000  
G04  20954897.728                        -964.294          44.000    20954897.253                        -751.184          43.000  
C37  22308384.695                        -873.612          46.000                                                                  
C06  35873690.362                          50.244          41.000    35873681.495                          39.313          46.000  
C16  36315335.817                          57.960          42.000    36315331.872                          44.912          45.000  
C28  22652854.209                         472.527          42.000                                                                  
C07  37189676.963                         542.765          38.000    37189667.622                         419.833          44.000  
C27  23492656.832                        2493.984          43.000                                                                  
R10  22744640.018                       -2623.790          33.000                                                                  
R22  23147050.531                        3910.400          44.000    23147077.094                        3041.657          41.000  
R12  21720758.933                        1668.159          45.000    21720762.194                        1297.422          46.000  
R11  20154034.572                        -712.137          45.000    20154034.514                        -553.619          45.000  
R20  22134163.396                       -2111.368          44.000    22134163.913                       -1641.980          44.000  
R01  21130310.571                       -2976.564          36.000                                                                  
G08  21723731.657                        2904.643          39.000    21723736.006                        2263.534          37.000  
G09  22203795.697                        1245.205          41.000    22203798.192                         970.447          40.000  
G16  20101727.975                       -1125.377          43.000                                                                  
J02  38908351.775                        -781.006          44.000    38908352.025                        -608.386          45.000  
G18  24328008.175                2        -51.051          32.000    24328011.851                         -39.716          36.000  
C20  24747053.006                       -2770.508          38.000                                                                  
C09  36816551.170                         295.463          41.000    36816543.179                         228.922          44.000  
C23  25179298.859                       -2427.062          38.000                                                                  
C19  24966652.272                        -711.408          39.000                                                                  
C10  38440041.925                2        546.741          30.000    38440040.769                         423.473          41.000  
R21  20823180.433                        1447.699          38.000    20823179.925                        1125.903          40.000  
R08  23599379.649                       -4668.594          40.000    23599419.391                       -3630.959          39.000  
J03  37737294.711                           0.121          42.000    37737303.045                           0.386          42.000  
J07  37124145.854                        -335.360          38.000    37124147.022                        -261.030          42.000  
J04                                                                  37002442.422                        -491.769          37.000  
> 2025 11 11 08 04 05.8400000  0 32                     
G28  24543409.458                       -3388.173          40.000    24543416.498                       -2640.355          36.000  
G26  21864873.773                       -2547.025          43.000    21864874.887                       -1984.630          37.000  
G27  20154637.186                        1298.072          47.000    20154638.883                        1011.612          44.000  
G31  22034949.667                       -2703.656          39.000    22034949.694                       -2106.372          37.000  
G04  20954905.093                        -967.163          44.000    20954904.607                        -753.375          43.000  
C37  22308391.455                        -876.574          46.000                                                                  
C06  35873690.029                          47.479          41.000    35873681.148                          37.036          46.000  
C16  36315335.380                          54.839          42.000    36315331.462                          42.164          45.000  
C28  22652850.618                         470.164          42.000                                                                  
C07  37189672.828                         539.851          38.000    37189663.470                         417.570          44.000  
C27  23492637.725                        2491.258          43.000                                                                  
R10  22744659.727                       -2627.192          33.000                                                                  
R22  23147021.239                        3907.619          44.000    23147047.835                        3039.298          41.000  
R12  21720746.460                        1665.303          45.000    21720749.729                        1295.156          46.000  
R11  20154039.931                        -714.642          45.000    20154039.897                        -556.050          45.000  
R20  22134179.230                       -2114.281          44.000    22134179.742                       -1644.458          44.000  
R01  21130332.874                       -2979.372          36.000                                                                  
G08  21723709.571                        2901.748          39.000    21723713.900                        2261.406          37.000  
G09  22203786.259                        1242.463          41.000    22203788.748                         967.601          40.000  
G16  20101736.554                       -1127.993          43.000                                                                  
J02  38908357.734                        -783.789          44.000    38908358.006                        -610.620          45.000  
G18  24328008.608                2        -54.368          32.000    24328012.268                         -42.103          36.000  
C20  24747074.324                       -2773.286          38.000                                                                  
C09  36816548.946                         293.184          41.000    36816540.949                         226.639          44.000  
C23  25179317.528                       -2429.588          38.000                                                                  
C19  24966657.769                        -714.482          39.000                                                                  
C10  38440037.591                2        546.191          30.000    38440036.592                         421.048          41.000  
R21  20823169.617                        1444.690          38.000    20823169.139                        1123.816          40.000  
R08  23599414.568                       -4671.722          40.000    23599454.280                       -3633.501          39.000  
J03  37737294.730                          -2.822          42.000    37737303.077                          -2.270          42.000  
J07  37124148.469                        -338.801          38.000    37124149.618                        -263.435          42.000  
J04                                                                  37002447.248                        -493.286          37.000  
> 2025 11 11 08 04 05.8800000  0 32                     
G28  24543435.290                       -3392.577          40.000    24543442.317                       -2643.123          36.000  
G26  21864893.195                       -2551.235          43.000    21864894.318                       -1987.973          37.000  
G27  20154627.331                        1294.041          47.000    20154629.041                        1008.620          44.000  
G31  22034970.305                       -2707.657          39.000    22034970.313                       -2109.901          37.000  
G04  20954912.536                        -971.136          44.000    20954912.020                        -756.836          43.000  
C37  22308398.250                        -880.522          46.000                                                                  
C06  35873689.692                          44.147          41.000    35873680.842                          34.021          46.000  
C16  36315335.019                          50.867          42.000    36315331.091                          39.525          45.000  
C28  22652847.049                         465.916          42.000                                                                  
C07  37189668.722                         536.304          38.000    37189659.388                         414.499          44.000  
C27  23492618.648                        2487.361          43.000                                                                  
R10  22744679.477                       -2631.638          33.000                                                                  
R22  23146991.989                        3903.377          44.000    23147018.617                        3035.760          41.000  
R12  21720734.061                        1660.826          45.000    21720737.300                        1291.809          46.000  
R11  20154045.332                        -718.886          45.000    20154045.303                        -559.232          45.000  
R20  22134195.096                       -2118.613          44.000    22134195.601                       -1647.706          44.000  
R01  21130355.207                       -2983.037          36.000                                                                  
G08  21723687.526                        2898.188          39.000    21723691.854                        2258.663          37.000  
G09  22203776.876                        1238.052          41.000    22203779.332                         964.642          40.000  
G16  20101745.172                       -1131.695          43.000                                                                  
J02  38908363.744                        -787.823          44.000    38908364.019                        -613.977          45.000  
G18  24328009.600                2        -58.052          32.000    24328012.734                         -45.751          36.000  
C20  24747095.679                       -2777.139          38.000                                                                  
C09  36816546.743                         288.768          41.000    36816538.740                         223.411          44.000  
C23  25179336.253                       -2434.302          38.000                                                                  
C19  24966663.314                        -718.170          39.000                                                                  
C10  38440032.770                2        544.360          30.000    38440032.488                         417.901          41.000  
R21  20823158.864                        1440.143          38.000    20823158.388                        1120.331          40.000  
R08  23599449.504                       -4675.525          40.000    23599489.200                       -3636.575          39.000  
J03  37737294.784                          -6.826          42.000    37737303.169                          -5.211          42.000  
J07  37124151.076                        -342.296          38.000    37124152.228                        -266.865          42.000  
J04                                                                  37002452.131                        -497.261          37.000  
> 2025 11 11 08 04 05.9200000  0 32                     
G28  24543461.154                       -3394.768          40.000    24543468.168                       -2644.755          36.000  
G26  21864912.623                       -2553.323          43.000    21864913.774                       -1990.194          37.000  
G27  20154617.513                        1292.201          47.000    20154619.214                        1006.830          44.000  
G31  22034990.939                       -2710.205          39.000    22034990.954                       -2111.697          37.000  
G04  20954919.926                        -972.919          44.000    20954919.411                        -758.331          43.000  
C37  22308405.054                        -882.545          46.000                                                                  
C06  35873689.389                          42.352          41.000    35873680.520                          32.709          46.000  
C16  36315334.652                          48.615          42.000    36315330.723                          37.604          45.000  
C28  22652843.500                         463.878          42.000                                                                  
C07  37189664.610                         533.972          38.000    37189655.302                         412.662          44.000  
C27  23492599.582                        2485.737          43.000                                                                  
R10  22744699.234                       -2633.077          33.000                                                                  
R22  23146962.742                        3901.862          44.000    23146989.378                        3034.322          41.000  
R12  21720721.649                        1658.701          45.000    21720724.886                        1289.927          46.000  
R11  20154050.714                        -720.912          45.000    20154050.712                        -560.683          45.000  
R20  22134210.948                       -2120.633          44.000    22134211.474                       -1649.579          44.000  
R01  21130377.575                       -2985.830          36.000                                                                  
G08  21723665.473                        2895.957          39.000    21723669.827                        2256.373          37.000  
G09  22203767.488                        1236.049          41.000    22203769.929                         963.205          40.000  
G16  20101753.819                       -1133.999          43.000                                                                  
J02  38908369.795                        -789.343          44.000    38908370.040                        -615.265          45.000  
G18  24328010.463                2        -61.555          32.000    24328013.216                         -48.162          36.000  
C20  24747117.024                       -2779.796          38.000                                                                  
C09  36816544.545                         286.475          41.000    36816536.567                         221.588          44.000  
C23  25179354.992                       -2436.118          38.000                                                                  
C19  24966668.850                        -720.096          39.000                                                                  
C10  38440028.267                2        541.630          30.000    38440028.363                         416.427          41.000  
R21  20823148.126                        1439.008          38.000    20823147.653                        1119.000          40.000  
R08  23599484.448                       -4677.265          40.000    23599524.144                       -3638.036          39.000  
J03  37737294.863                          -8.874          42.000    37737303.251                          -7.124          42.000  
J07  37124153.699                        -344.259          38.000    37124154.845                        -268.717          42.000  
J04                                                                  37002457.027                        -499.019          37.000  
> 2025 11 11 08 04 05.9600000  0 32                     
G28  24543486.950                       -3391.677          40.000    24543494.008                       -2643.483          36.000  
G26  21864932.023                       -2550.499          43.000    21864933.165                       -1987.513          37.000  
G27  20154607.650                        1295.735          48.000    20154609.344                        1009.519          44.000  
G31  22035011.525                       -2707.137          39.000    22035011.549                       -2109.162          37.000  
G04  20954927.292                        -969.537          44.000    20954926.776                        -755.444          43.000  
C37  22308411.842                        -879.393          46.000                                                                  
C06  35873689.025                          45.740          41.000    35873680.163                          35.144          46.000  
C16  36315334.243                          51.174          42.000    36315330.299                          39.447          45.000  
C28  22652839.897                         467.112          42.000                                                                  
C07  37189660.487                         536.199          38.000    37189651.154                         414.919          44.000  
C27  23492580.464                        2488.981          43.000                                                                  
R10  22744718.950                       -2630.831          33.000                                                                  
R22  23146933.473                        3905.084          44.000    23146960.102                        3037.184          41.000  
R12  21720709.202                        1661.823          45.000    21720712.444                        1292.092          46.000  
R11  20154056.064                        -717.371          45.000    20154056.084                        -557.866          45.000  
R20  22134226.776                       -2117.688          44.000    22134227.305                       -1647.328          44.000  
R01  21130399.901                       -2983.330          36.000                                                                  
G08  21723643.394                        2898.771          38.000    21723647.746                        2258.268          37.000  
G09  22203758.039                        1238.965          41.000    22203760.480                         965.551          40.000  
G16  20101762.428                       -1130.824          43.000                                                                  
J02  38908375.770                        -785.962          44.000    38908376.005                        -612.537          45.000  
G18  24328010.598                2        -58.387          32.000    24328013.636                         -45.342          36.000  
C20  24747138.342                       -2777.195          38.000                                                                  
C09  36816542.319                         289.476          41.000    36816534.332                         223.614          44.000  
C23  25179373.677                       -2433.525          38.000                                                                  
C19  24966674.371                        -717.022          39.000                                                                  
C10  38440024.238                2        540.074          30.000    38440024.189                         419.248          41.000  
R21  20823137.339                        1442.542          38.000    20823136.833                        1122.198          40.000  
R08  23599519.334                       -4673.874          40.000    23599559.071                       -3635.571          39.000  
J03  37737294.893                          -5.600          42.000    37737303.289                          -4.487          42.000  
J07  37124156.273                        -341.256          38.000    37124157.431                        -265.984          42.000  
J04                                                                  37002461.856                        -496.523          37.000  
> 2025 11 11 08 04 06.0000000  0 32                     
G28  24543512.711                       -3387.388          40.000    24543519.775                       -2639.641          36.000  
G26  21864951.367                       -2545.804          43.000    21864952.487                       -1983.504          37.000  
G27  20154597.703                        1299.737          48.000    20154599.410                        1012.889          44.000  
G31  22035032.053                       -2701.931          39.000    22035032.094                       -2106.214          37.000  
G04  20954934.614                        -965.552          44.000    20954934.099                        -752.393          43.000  
C37  22308418.538                        -874.834          46.000                                                                  
C06  35873688.594                          49.792          41.000    35873679.764                          38.318          46.000  
C16  36315333.765                          56.355          42.000    36315329.847                          43.535          45.000  
C28  22652836.258                         471.276          42.000                                                                  
C07  37189656.301                         541.439          38.000    37189646.952                         418.548          44.000  
C27  23492561.314                        2493.392          43.000                                                                  
R10  22744738.605                       -2625.982          33.000                                                                  
R22  23146904.141                        3909.574          44.000    23146930.763                        3040.502          41.000  
R12  21720696.691                        1666.531          45.000    21720699.927                        1296.346          46.000  
R11  20154061.376                        -712.789          45.000    20154061.387                        -554.641          45.000  
R20  22134242.552                       -2113.158          44.000    22134243.079                       -1643.435          44.000  
R01  21130422.174                       -2978.296          36.000                                                                  
G08  21723621.283                        2903.318          38.000    21723625.627                        2262.121          37.000  
G09  22203748.554                        1244.099          41.000    22203750.982                         969.321          40.000  
G16  20101770.967                       -1126.207          43.000                                                                  
J02  38908381.696                        -781.946          44.000    38908381.929                        -609.467          45.000  
G18  24328010.279                2        -52.966          32.000    24328013.988                         -41.393          36.000  
C20  24747159.615                       -2772.424          38.000                                                                  
C09  36816540.017                         293.892          41.000    36816532.029                         227.252          44.000  
C23  25179392.316                       -2429.242          38.000                                                                  
C19  24966679.833                        -712.795          39.000                                                                  
C10  38440020.004                2        541.097          30.000    38440019.969                         422.253          41.000  
R21  20823126.505                        1446.777          38.000    20823125.980                        1125.098          39.000  
R08  23599554.193                       -4669.574          40.000    23599593.939                       -3631.825          39.000  
J03  37737294.875                          -0.991          42.000    37737303.271                          -1.010          42.000  
J07  37124158.814                        -337.051          38.000    37124159.952                        -262.510          42.000  
J04                                                                  37002466.643                        -493.092          37.000  
> 2025 11 11 08 04 06.0400000  0 32                     
G28  24543538.456                       -3385.101          40.000    24543545.549                       -2637.587          36.000  
G26  21864970.725                       -2543.678          43.000    21864971.863                       -1981.734          37.000  
G27  20154587.790                        1301.957          48.000    20154589.515                        1014.343          44.000  
G31  22035052.583                       -2699.344          39.000    22035052.624                       -2104.003          37.000  
G04  20954941.934                        -963.232          44.000    20954941.431                        -750.745          43.000  
C37  22308425.226                        -872.737          46.000                                                                  
C06  35873688.193                          51.648          41.000    35873679.381                          39.911          46.000  
C16  36315333.304                          58.518          42.000    36315329.364                          45.182          45.000  
C28  22652832.620                         473.578          42.000                                                                  
C07  37189652.095                         543.769          38.000    37189642.768                         420.398          44.000  
C27  23492542.127                        2495.192          43.000                                                                  
R10  22744758.279                       -2623.282          33.000                                                                  
R22  23146874.813                        3911.523          44.000    23146901.449                        3042.342          41.000  
R12  21720684.181                        1668.732          45.000    21720687.430                        1297.978          46.000  
R11  20154066.685                        -710.970          45.000    20154066.717                        -552.975          45.000  
R20  22134258.327                       -2110.883          44.000    22134258.874                       -1641.866          44.000  
R01  21130444.435                       -2975.559          36.000                                                                  
G08  21723599.169                        2905.067          38.000    21723603.500                        2264.060          37.000  
G09  22203739.061                        1245.798          41.000    22203741.499                         970.910          40.000  
G16  20101779.521                       -1124.251          43.000                                                                  
J02  38908387.618                        -779.980          44.000    38908387.861                        -607.684          45.000  
G18  24328010.489                2        -50.186          32.000    24328014.365                         -39.535          36.000  
C20  24747180.877                       -2770.272          38.000                                                                  
C09  36816537.712                         296.514          41.000    36816529.747                         229.413          44.000  
C23  25179410.966                       -2427.085          38.000                                                                  
C19  24966685.286                        -710.859          39.000                                                                  
C10  38440016.231                2        543.055          30.000    38440015.744                         423.831          41.000  
R21  20823115.649                        1448.187          38.000    20823115.139                        1126.483          39.000  
R08  23599589.076                       -4667.657          40.000    23599628.799                       -3630.250          39.000  
J03  37737294.841                           0.834          42.000    37737303.247                           0.640          42.000  
J07  37124161.366                        -335.112          38.000    37124162.497                        -261.118          42.000  
J04                                                                  37002471.433                        -490.905          37.000  
> 2025 11 11 08 04 06.0800000  0 32                     
G28  24543564.216                       -3384.576          40.000    24543571.301                       -2636.941          36.000  
G26  21864990.079                       -2543.007          43.000    21864991.222                       -1981.159          37.000  
G27  20154577.874                        1302.175          48.000    20154579.597                        1014.719          44.000  
G31  22035073.114                       -2699.547          39.000    22035073.159                       -2103.109          37.000  
G04  20954949.245                        -963.110          44.000    20954948.762                        -750.549          43.000  
C37  22308431.928                        -872.299          46.000                                                                  
C06  35873687.811                          51.971          41.000    35873678.977                          40.363          46.000  
C16  36315332.853                          59.011          42.000    36315328.901                          45.731          45.000  
C28  22652828.984                         473.893          42.000                                                                  
C07  37189647.931                         544.035          38.000    37189638.581                         420.919          44.000  
C27  23492522.983                        2495.248          43.000                                                                  
R10  22744777.974                       -2623.577          33.000                                                                  
R22  23146845.490                        3911.809          44.000    23146872.139                        3042.473          41.000  
R12  21720671.685                        1669.301          45.000    21720674.952                        1298.381          46.000  
R11  20154072.027                        -710.964          45.000    20154072.055                        -552.737          45.000  
R20  22134274.124                       -2110.418          44.000    22134274.655                       -1641.494          44.000  
R01  21130466.724                       -2975.322          36.000                                                                  
G08  21723577.051                        2905.778          38.000    21723581.381                        2264.645          37.000  
G09  22203729.584                        1246.160          41.000    22203732.014                         971.206          40.000  
G16  20101788.069                       -1123.672          43.000                                                                  
J02  38908393.559                        -779.547          44.000    38908393.789                        -607.373          45.000  
G18  24328010.006                2        -49.963          32.000    24328014.753                         -38.772          36.000  
C20  24747202.151                       -2769.323          38.000                                                                  
C09  36816535.440                         296.990          41.000    36816527.456                         229.847          44.000  
C23  25179429.620                       -2426.066          38.000                                                                  
C19  24966690.766                        -710.607          39.000                                                                  
C10  38440012.067                3        546.964          30.000    38440011.549                         424.310          41.000  
R21  20823104.837                        1448.816          38.000    20823104.312                        1126.953          39.000  
R08  23599623.929                       -4667.169          40.000    23599663.684                       -3629.976          39.000  
J03  37737294.810                           1.282          42.000    37737303.243                           1.070          42.000  
J07  37124163.925                        -334.100          38.000    37124165.067                        -260.688          42.000  
J04                                                                  37002476.243                        -490.462          37.000  
> 2025 11 11 08 04 06.1200000  0 32                     
G28  24543589.962                       -3385.105          40.000    24543597.080                       -2637.685          36.000  
G26  21865009.458                       -2543.874          43.000    21865010.604                       -1982.445          37.000  
G27  20154567.972                        1301.218          48.000    20154569.694                        1013.922          44.000  
G31  22035093.713                       -2700.915          39.000    22035093.738                       -2104.083          37.000  
G04  20954956.578                        -964.014          45.000    20954956.094                        -751.208          43.000  
C37  22308438.655                        -873.374          46.000                                                                  
C06  35873687.442                          51.129          41.000    35873678.600                          39.569          46.000  
C16  36315332.418                          58.188          42.000    36315328.473                          45.038          45.000  
C28  22652825.376                         472.886          42.000                                                                  
C07  37189643.751                         542.644          38.000    37189634.417                         420.140          44.000  
C27  23492503.850                        2494.275          43.000                                                                  
R10  22744797.647                       -2624.347          33.000                                                                  
R22  23146816.199                        3910.863          44.000    23146842.839                        3041.502          41.000  
R12  21720659.209                        1668.502          45.000    21720662.474                        1297.483          46.000  
R11  20154077.368                        -711.683          45.000    20154077.391                        -553.483          45.000  
R20  22134289.928                       -2111.089          44.000    22134290.451                       -1642.078          44.000  
R01  21130488.997                       -2976.644          36.000                                                                  
G08  21723554.937                        2905.015          38.000    21723559.277                        2263.684          37.000  
G09  22203720.109                        1245.309          41.000    22203722.564                         970.389          40.000  
G16  20101796.647                       -1125.044          43.000                                                                  
J02  38908399.502                        -780.658          44.000    38908399.732                        -608.099          45.000  
G18  24328010.230                2        -51.965          32.000    24328015.148                         -39.993          36.000  
C20  24747223.445                       -2769.738          38.000                                                                  
C09  36816533.156                         296.406          41.000    36816525.196                         228.942          44.000  
C23  25179448.281                       -2426.619          38.000                                                                  
C19  24966696.237                        -711.158          39.000                                                                  
C10  38440007.713                3        547.163          30.000    38440007.350                         423.604          41.000  
R21  20823094.018                        1447.846          38.000    20823093.489                        1126.416          39.000  
R08  23599658.806                       -4668.514          40.000    23599698.554                       -3630.867          39.000  
J03  37737294.829                           0.635          42.000    37737303.250                           0.345          42.000  
J07  37124166.477                        -335.445          38.000    37124167.628                        -260.883          42.000  
J04                                                                  37002481.064                        -491.185          37.000  
> 2025 11 11 08 04 06.1600000  0 32                     
G28  24543615.736                       -3386.566          40.000    24543622.886                       -2638.828          36.000  
G26  21865028.835                       -2545.202          43.000    21865029.972                       -1983.455          37.000  
G27  20154558.073                        1300.048          48.000    20154559.808                        1012.920          44.000  
G31  22035114.277                       -2702.023          39.000    22035114.307                       -2105.097          37.000  
G04  20954963.924                        -965.381          44.000    20954963.449                        -751.990          43.000  
C37  22308445.409                        -874.680          46.000                                                                  
C06  35873687.081                          50.037          41.000    35873678.253                          38.458          46.000  
C16  36315332.006                          56.514          42.000    36315328.024                          43.875          45.000  
C28  22652821.754                         471.723          42.000                                                                  
C07  37189639.618                         541.474          38.000    37189630.256                         418.840          44.000  
C27  23492484.722                        2493.133          43.000                                                                  
R10  22744817.344                       -2625.074          33.000                                                                  
R22  23146786.916                        3909.424          44.000    23146813.551                        3040.695          41.000  
R12  21720646.720                        1667.099          45.000    21720650.007                        1296.507          46.000  
R11  20154082.704                        -712.892          45.000    20154082.725                        -554.485          45.000  
R20  22134305.740                       -2112.545          44.000    22134306.256                       -1643.293          44.000  
R01  21130511.281                       -2977.300          36.000                                                                  
G08  21723532.850                        2904.022          38.000    21723537.172                        2262.829          37.000  
G09  22203710.638                        1243.815          41.000    22203713.095                         969.201          40.000  
G16  20101805.234                       -1126.281          43.000                                                                  
J02  38908405.460                        -781.732          44.000    38908405.654                        -609.192          45.000  
G18  24328010.720                2        -52.573          32.000    24328015.559                         -40.944          36.000  
C20  24747244.767                       -2772.042          38.000                                                                  
C09  36816530.906                         295.040          41.000    36816522.924                         228.031          44.000  
C23  25179466.948                       -2427.939          38.000                                                                  
C19  24966701.743                        -712.081          39.000                                                                  
C10  38440003.617                3        546.694          30.000    38440003.164                         422.639          41.000  
R21  20823083.207                        1446.222          38.000    20823082.664                        1124.976          39.000  
R08  23599693.698                       -4669.569          40.000    23599733.462                       -3631.862          39.000  
J03  37737294.842                          -0.698          42.000    37737303.279                          -0.482          42.000  
J07  37124169.056                        -336.056          38.000    37124170.199                        -262.148          42.000  
J04                                                                  37002485.896                        -492.406          37.000  
> 2025 11 11 08 04 06.2000000  0 32                     
G28  24543641.541                       -3387.767          40.000    24543648.689                       -2640.436          36.000  
G26  21865048.230                       -2546.676          43.000    21865049.380                       -1984.476          36.000  
G27  20154548.193                        1298.571          48.000    20154549.941                        1011.705          44.000  
G31  22035134.855                       -2703.318          39.000    22035134.883                       -2106.331          37.000  
G04  20954971.282                        -966.626          44.000    20954970.814                        -753.412          43.000  
C37  22308452.154                        -875.935          46.000                                                                  
C06  35873686.718                          48.474          41.000    35873677.897                          37.402          46.000  
C16  36315331.592                          55.092          42.000    36315327.614                          42.627          45.000  
C28  22652818.123                         470.165          42.000                                                                  
C07  37189635.472                         540.833          38.000    37189626.122                         417.684          44.000  
C27  23492465.566                        2491.964          43.000                                                                  
R10  22744837.068                       -2626.744          33.000                                                                  
R22  23146757.645                        3908.136          44.000    23146784.263                        3039.672          41.000  
R12  21720634.259                        1665.531          45.000    21720637.545                        1295.430          46.000  
R11  20154088.075                        -714.305          45.000    20154088.087                        -555.514          45.000  
R20  22134321.553                       -2114.245          44.000    22134322.088                       -1644.600          44.000  
R01  21130533.590                       -2978.568          36.000                                                                  
G08  21723510.777                        2902.925          38.000    21723515.083                        2261.395          37.000  
G09  22203701.208                        1242.202          41.000    22203703.660                         967.769          40.000  
G16  20101813.804                       -1127.637          43.000                                                                  
J02  38908411.417                        -783.081          44.000    38908411.621                        -610.199          45.000  
G18  24328011.466                2        -53.876          32.000    24328015.992                         -42.578          36.000  
C20  24747266.089                       -2773.108          38.000                                                                  
C09  36816528.681                         293.000          41.000    36816520.679                         226.901          44.000  
C23  25179485.633                       -2429.813          38.000                                                                  
C19  24966707.222                        -713.410          39.000                                                                  
C10  38439999.266                3        546.236          30.000    38439999.011                         421.365          41.000  
R21  20823072.405                        1444.989          38.000    20823071.860                        1123.743          39.000  
R08  23599728.584                       -4670.731          39.000    23599768.360                       -3632.840          39.000  
J03  37737294.894                          -2.448          42.000    37737303.304                          -1.842          42.000  
J07  37124171.634                        -337.918          38.000    37124172.767                        -263.359          41.000  
J04                                                                  37002490.726                        -493.907          37.000  
> 2025 11 11 08 04 06.2400000  0 32                     
G28  24543667.326                       -3388.301          40.000    24543674.515                       -2641.144          36.000  
G26  21865067.613                       -2547.384          43.000    21865068.769                       -1985.094          36.000  
G27  20154538.318                        1298.032          48.000    20154540.066                        1011.275          44.000  
G31  22035155.454                       -2703.977          39.000    22035155.483                       -2107.270          37.000  
G04  20954978.641                        -967.328          44.000    20954978.185                        -753.888          43.000  
C37  22308458.908                        -876.588          46.000                                                                  
C06  35873686.355                          47.888          41.000    35873677.564                          37.109          46.000  
C16  36315331.184                          54.393          42.000    36315327.185                          42.107          45.000  
C28  22652814.512                         469.623          42.000                                                                  
C07  37189631.316                         539.734          38.000    37189621.975                         417.119          44.000  
C27  23492446.439                        2491.218          42.000                                                                  
R10  22744856.807                       -2627.172          33.000                                                                  
R22  23146728.375                        3907.504          44.000    23146754.964                        3039.047          41.000  
R12  21720621.790                        1664.776          45.000    21720625.075                        1294.842          46.000  
R11  20154093.422                        -714.857          45.000    20154093.411                        -556.051          45.000  
R20  22134337.394                       -2115.064          44.000    22134337.906                       -1644.930          44.000  
R01  21130555.880                       -2979.313          37.000                                                                  
G08  21723488.703                        2901.969          38.000    21723493.004                        2260.982          37.000  
G09  22203691.759                        1241.955          41.000    22203694.194                         967.760          40.000  
G16  20101822.386                       -1128.027          43.000                                                                  
J02  38908417.374                        -783.539          44.000    38908417.577                        -610.620          45.000  
G18  24328011.692                2        -54.565          32.000    24328016.402                         -43.121          36.000  
C20  24747287.404                       -2773.773          38.000                                                                  
C09  36816526.445                         292.240          41.000    36816518.425                         226.055          44.000  
C23  25179504.322                       -2430.585          38.000                                                                  
C19  24966712.707                        -714.416          39.000                                                                  
C10  38439995.247                3        545.977          30.000    38439994.842                         421.113          41.000  
R21  20823061.612                        1444.592          38.000    20823061.059                        1123.358          39.000  
R08  23599763.479                       -4670.953          39.000    23599803.265                       -3633.173          39.000  
J03  37737294.918                          -2.854          42.000    37737303.313                          -2.274          42.000  
J07  37124174.203                        -338.265          38.000    37124175.367                        -263.824          41.000  
J04                                                                  37002495.568                        -494.462          36.000  
> 2025 11 11 08 04 06.2800000  0 32                     
G28  24543693.108                       -3387.974          40.000    24543700.295                       -2639.514          36.000  
G26  21865087.018                       -2546.811          43.000    21865088.157                       -1984.696          36.000  
G27  20154528.426                        1298.431          48.000    20154530.198                        1011.822          44.000  
G31  22035176.009                       -2703.337          39.000    22035176.052                       -2106.790          37.000  
G04  20954985.987                        -966.754          44.000    20954985.520                        -753.229          43.000  
C37  22308465.629                        -876.000          46.000                                                                  
C06  35873686.004                          48.596          41.000    35873677.217                          37.646          46.000  
C16  36315330.742                          55.165          42.000    36315326.766                          42.739          45.000  
C28  22652810.890                         470.190          42.000                                                                  
C07  37189627.156                         540.202          38.000    37189617.827                         417.744          44.000  
C27  23492427.301                        2491.768          41.000                                                                  
R10  22744876.504                       -2626.350          33.000                                                                  
R22  23146699.060                        3908.351          44.000    23146725.676                        3039.618          41.000  
R12  21720609.323                        1665.633          45.000    21720612.591                        1295.211          46.000  
R11  20154098.772                        -714.110          45.000    20154098.751                        -555.406          45.000  
R20  22134353.214                       -2114.488          44.000    22134353.701                       -1644.521          44.000  
R01  21130578.175                       -2979.731          37.000                                                                  
G08  21723466.592                        2902.309          38.000    21723470.901                        2261.517          37.000  
G09  22203682.300                        1242.437          41.000    22203684.704                         968.069          40.000  
G16  20101830.979                       -1127.455          43.000                                                                  
J02  38908423.333                        -783.038          44.000    38908423.536                        -610.193          45.000  
G18  24328011.413                2        -54.170          32.000    24328016.816                         -42.960          36.000  
C20  24747308.704                       -2773.731          38.000                                                                  
C09  36816524.169                         293.472          41.000    36816516.179                         226.423          44.000  
C23  25179522.992                       -2430.525          38.000                                                                  
C19  24966718.199                        -713.955          39.000                                                                  
C10  38439991.011                3        545.437          30.000    38439990.647                         421.790          41.000  
R21  20823050.805                        1445.154          38.000    20823050.246                        1123.975          39.000  
R08  23599798.381                       -4670.584          39.000    23599838.158                       -3632.976          39.000  
J03  37737294.932                          -2.395          42.000    37737303.340                          -1.792          42.000  
J07  37124176.775                        -337.846          38.000    37124177.928                        -263.295          41.000  
J04                                                                  37002500.380                        -493.844          36.000  
> 2025 11 11 08 04 06.3200000  0 32                     
G28  24543718.901                       -3387.678          40.000    24543726.088                       -2639.351          36.000  
G26  21865106.395                       -2545.990          43.000    21865107.524                       -1983.829          36.000  
G27  20154518.542                        1299.294          48.000    20154520.297                        1012.651          44.000  
G31  22035196.579                       -2702.492          39.000    22035196.605                       -2105.991          37.000  
G04  20954993.346                        -965.802          44.000    20954992.847                        -752.612          43.000  
C37  22308472.346                        -875.180          46.000                                                                  
C06  35873685.642                          49.377          41.000    35873676.852                          38.354          46.000  
C16  36315330.315                          56.168          42.000    36315326.317                          43.563          45.000  
C28  22652807.255                         471.186          42.000                                                                  
C07  37189623.001                         541.591          38.000    37189613.647                         418.589          44.000  
C27  23492408.141                        2492.632          41.000                                                                  
R10  22744896.196                       -2626.011          33.000                                                                  
R22  23146669.767                        3909.268          44.000    23146696.358                        3040.238          41.000  
R12  21720596.838                        1666.200          45.000    21720600.110                        1295.947          46.000  
R11  20154104.103                        -713.455          45.000    20154104.113                        -554.894          45.000  
R20  22134369.009                       -2113.569          44.000    22134369.517                       -1643.757          44.000  
R01  21130600.449                       -2978.452          37.000                                                                  
G08  21723444.499                        2902.424          38.000    21723448.799                        2262.433          37.000  
G09  22203672.841                        1243.286          41.000    22203675.236                         968.697          40.000  
G16  20101839.561                       -1126.512          43.000                                                                  
J02  38908429.287                        -782.092          44.000    38908429.496                        -609.522          45.000  
G18  24328011.445                2        -53.721          32.000    24328017.210                         -40.884          36.000  
C20  24747329.998                       -2772.541          38.000                                                                  
C09  36816521.901                         294.121          41.000    36816513.891                         227.255          44.000  
C23  25179541.639                       -2429.316          38.000                                                                  
C19  24966723.652                        -713.200          39.000                                                                  
C10  38439986.683                2        545.435          30.000    38439986.456                         422.356          41.000  
R21  20823040.000                        1445.886          37.000    20823039.444                        1124.884          39.000  
R08  23599833.266                       -4669.893          39.000    23599873.030                       -3631.952          39.000  
J03  37737294.937                          -1.400          42.000    37737303.360                          -1.291          42.000  
J07  37124179.333                        -337.704          38.000    37124180.508                        -262.629          41.000  
J04                                                                  37002505.202                        -493.265          36.000  
> 2025 11 11 08 04 06.3600000  0 32                     
G28  24543744.707                       -3387.244          39.000    24543751.859                       -2638.999          36.000  
G26  21865125.780                       -2545.613          43.000    21865126.894                       -1983.459          36.000  
G27  20154508.638                        1299.893          48.000    20154510.412                        1012.733          44.000  
G31  22035217.124                       -2702.170          39.000    22035217.175                       -2105.491          37.000  
G04  20955000.687                        -965.369          45.000    20955000.193                        -752.283          43.000  
C37  22308479.058                        -874.954          46.000                                                                  
C06  35873685.264                          50.122          41.000    35873676.483                          38.593          46.000  
C16  36315329.877                          56.859          42.000    36315325.852                          43.691          45.000  
C28  22652803.611                         471.696          42.000                                                                  
C07  37189618.852                         541.661          38.000    37189609.468                         418.870          44.000  
C27  23492388.980                        2493.030          40.000                                                                  
R10  22744915.874                       -2625.257          33.000                                                                  
R22  23146640.453                        3909.627          44.000    23146667.061                        3040.569          41.000  
R12  21720584.365                        1666.607          45.000    21720587.620                        1296.403          46.000  
R11  20154109.465                        -712.950          45.000    20154109.437                        -554.711          45.000  
R20  22134384.819                       -2113.060          44.000    22134385.295                       -1643.368          44.000  
R01  21130622.734                       -2977.970          37.000                                                                  
G08  21723422.391                        2903.367          38.000    21723426.679                        2262.595          37.000  
G09  22203663.366                        1243.791          41.000    22203665.754                         969.481          40.000  
G16  20101848.133                       -1126.207          43.000                                                                  
J02  38908435.230                        -781.628          44.000    38908435.443                        -609.265          45.000  
G18  24328012.319                2        -53.755          32.000    24328017.594                         -40.549          36.000  
C20  24747351.292                       -2771.833          38.000                                                                  
C09  36816519.663                         294.468          41.000    36816511.620                         227.992          44.000  
C23  25179560.297                       -2428.740          38.000                                                                  
C19  24966729.123                        -712.405          39.000                                                                  
C10  38439982.693                2        545.336          30.000    38439982.225                         422.606          41.000  
R21  20823029.186                        1446.014          37.000    20823028.630                        1124.939          40.000  
R08  23599868.156                       -4669.525          40.000    23599907.910                       -3631.788          39.000  
J03  37737294.939                          -0.853          42.000    37737303.376                          -0.776          42.000  
J07  37124181.906                        -336.739          38.000    37124183.053                        -262.323          41.000  
J04                                                                  37002510.008                        -492.573          36.000  
> 2025 11 11 08 04 06.4000000  0 32                     
G28  24543770.503                       -3387.175          40.000    24543777.634                       -2639.596          36.000  
G26  21865145.182                       -2545.626          43.000    21865146.267                       -1983.223          36.000  
G27  20154498.765                        1299.681          48.000    20154500.505                        1012.499          44.000  
G31  22035237.704                       -2702.386          39.000    22035237.732                       -2105.418          37.000  
G04  20955008.034                        -965.479          45.000    20955007.544                        -752.472          43.000  
C37  22308485.789                        -875.055          46.000                                                                  
C06  35873684.895                          49.652          41.000    35873676.114                          38.324          46.000  
C16  36315329.430                          56.731          42.000    36315325.407                          43.490          45.000  
C28  22652799.997                         471.376          42.000                                                                  
C07  37189614.685                         541.321          38.000    37189605.320                         418.741          44.000  
C27  23492369.837                        2492.632          40.000                                                                  
R10  22744935.603                       -2626.061          33.000                                                                  
R22  23146611.169                        3909.291          44.000    23146637.767                        3040.290          41.000  
R12  21720571.891                        1666.631          45.000    21720575.122                        1296.234          46.000  
R11  20154114.814                        -713.168          46.000    20154114.782                        -554.758          45.000  
R20  22134400.654                       -2113.194          44.000    22134401.109                       -1643.403          44.000  
R01  21130645.037                       -2977.846          37.000                                                                  
G08  21723400.297                        2903.544          38.000    21723404.581                        2262.093          37.000  
G09  22203653.916                        1243.702          42.000    22203656.310                         969.066          40.000  
G16  20101856.702                       -1126.357          43.000                                                                  
J02  38908441.183                        -781.787          44.000    38908441.415                        -609.265          45.000  
G18  24328012.838                2        -53.734          32.000    24328017.992                         -41.565          36.000  
C20  24747372.598                       -2771.326          38.000                                                                  
C09  36816517.385                         294.430          41.000    36816509.381                         227.933          44.000  
C23  25179578.950                       -2428.650          38.000                                                                  
C19  24966734.612                        -712.773          39.000                                                                  
C10  38439978.150                2        545.810          30.000    38439978.044                         422.154          41.000  
R21  20823018.371                        1446.143          37.000    20823017.831                        1125.018          40.000  
R08  23599903.067                       -4669.768          40.000    23599942.810                       -3631.803          39.000  
J03  37737294.950                          -0.988          42.000    37737303.364                          -0.800          42.000  
J07  37124184.497                        -336.643          38.000    37124185.633                        -262.297          41.000  
J04                                                                  37002514.814                        -492.388          36.000  
> 2025 11 11 08 04 06.4400000  0 32                     
G28  24543796.301                       -3387.413          40.000    24543803.446                       -2639.955          36.000  
G26  21865164.585                       -2546.373          43.000    21865165.642                       -1983.998          36.000  
G27  20154488.881                        1299.100          48.000    20154490.627                        1012.330          44.000  
G31  22035258.288                       -2702.866          39.000    22035258.315                       -2105.857          37.000  
G04  20955015.389                        -965.997          45.000    20955014.910                        -752.747          43.000  
C37  22308492.497                        -875.444          46.000                                                                  
C06  35873684.539                          49.048          41.000    35873675.727                          37.799          46.000  
C16  36315328.993                          55.883          42.000    36315324.959                          43.047          45.000  
C28  22652796.401                         470.872          42.000                                                                  
C07  37189610.521                         541.122          38.000    37189601.167                         418.397          45.000  
C27  23492350.682                        2492.324          40.000                                                                  
R10  22744955.280                       -2626.750          33.000                                                                  
R22  23146581.890                        3908.798          44.000    23146608.478                        3040.046          41.000  
R12  21720559.419                        1666.112          45.000    21720562.646                        1295.798          46.000  
R11  20154120.162                        -713.686          46.000    20154120.128                        -555.071          46.000  
R20  22134416.460                       -2113.759          44.000    22134416.922                       -1643.961          44.000  
R01  21130667.308                       -2977.869          37.000                                                                  
G08  21723378.199                        2903.077          38.000    21723382.473                        2262.060          37.000  
G09  22203644.437                        1243.217          42.000    22203646.871                         968.594          40.000  
G16  20101865.271                       -1126.864          43.000                                                                  
J02  38908447.149                        -782.397          44.000    38908447.396                        -609.570          45.000  
G18  24328013.016                2        -54.086          32.000    24328018.420                         -41.854          36.000  
C20  24747393.899                       -2772.164          38.000                                                                  
C09  36816515.129                         294.048          41.000    36816507.102                         227.346          44.000  
C23  25179597.623                       -2429.095          38.000                                                                  
C19  24966740.088                        -713.082          39.000                                                                  
C10  38439974.004                2        546.819          30.000    38439973.861                         421.933          41.000  
R21  20823007.546                        1445.972          37.000    20823007.030                        1124.567          40.000  
R08  23599937.958                       -4670.299          40.000    23599977.699                       -3632.458          39.000  
J03  37737294.948                          -1.717          42.000    37737303.380                          -1.500          42.000  
J07  37124187.070                        -336.964          38.000    37124188.205                        -262.681          41.000  
J04                                                                  37002519.642                        -493.032          36.000  
> 2025 11 11 08 04 06.4800000  0 32                     
G28  24543822.095                       -3387.717          40.000    24543829.259                       -2640.081          36.000  
G26  21865183.984                       -2546.669          43.000    21865185.030                       -1984.049          36.000  
G27  20154479.006                        1298.786          48.000    20154480.745    82529226.077        1012.157          44.000  
G31  22035278.859                       -2702.956          39.000    22035278.891                       -2106.365          37.000  
G04  20955022.755                        -966.516          45.000    20955022.267                        -752.954          43.000  
C37  22308499.222                        -875.887          46.000                                                                  
C06  35873684.175                          48.920          41.000    35873675.364   144448424.286          37.738          46.000  
C16  36315328.567                          55.635          42.000    36315324.522   146226765.084          42.847          45.000  
C28  22652792.792                         470.427          42.000                                                                  
C07  37189606.364                         541.043          38.000    37189597.016                         417.959          45.000  
C27  23492331.541                        2491.789          41.000                                                                  
R10  22744974.966                       -2626.738          33.000                                                                  
R22  23146552.598                        3908.341          44.000    23146579.187                        3039.811          41.000  
R12  21720546.917                        1665.830          45.000    21720550.178                        1295.615          47.000  
R11  20154125.521                        -714.039          46.000    20154125.473    83764746.144        -555.281          46.000  
R20  22134432.319                       -2114.136          44.000    22134432.735                       -1644.369          44.000  
R01  21130689.601                       -2977.925          37.000                                                                  
G08  21723356.102                        2903.013          38.000    21723360.380                        2261.883          37.000  
G09  22203634.972                        1242.684          42.000    22203637.426                         968.256          40.000  
G16  20101873.847                       -1127.254          43.000                                                                  
J02  38908453.107                        -782.764          44.000    38908453.372                        -609.955          45.000  
G18  24328013.488                2        -53.361          32.000    24328018.823                         -41.958          36.000  
C20  24747415.198                       -2772.635          38.000                                                                  
C09  36816512.857                         293.575          41.000    36816504.820                         226.626          44.000  
C23  25179616.297                       -2429.668          38.000                                                                  
C19  24966745.575                        -713.697          39.000                                                                  
C10  38439969.984                2        546.400          30.000    38439969.650                         422.149          41.000  
R21  20822996.759                        1445.386          37.000    20822996.205                        1124.084          40.000  
R08  23599972.837                       -4670.261          40.000    23600012.598                       -3632.647          39.000  
J03  37737294.980                          -2.457          42.000    37737303.402                          -2.018          42.000  
J07  37124189.632                        -336.811          38.000    37124190.777   152017352.353        -262.834          42.000  
J04                                                                  37002524.459                        -493.251          36.000  
> 2025 11 11 08 04 06.5200000  0 32                     
G28  24543847.896                       -3387.623          40.000    24543855.054                       -2640.013          36.000  
G26  21865203.359                       -2546.718          43.000    21865204.420                       -1984.408          36.000  
G27  20154469.111                        1298.678          48.000    20154470.860    82529185.594        1012.023          45.000  
G31  22035299.443                       -2703.089          39.000    22035299.451                       -2105.922          37.000  
G04  20955030.106                        -966.522          45.000    20955029.623    85807344.996        -753.278          43.000  
C37  22308505.970                        -875.971          46.000                                                                  
C06  35873683.799                          48.846          41.000    35873674.991   144448422.772          37.720          46.000  
C16  36315328.125                          55.288          42.000    36315324.103   146226763.356          43.026          45.000  
C28  22652789.219                         470.380          42.000                                                                  
C07  37189602.223                         540.937          38.000    37189592.878   149747082.519         417.995          45.000  
C27  23492312.401                        2491.836          42.000                                                                  
R10  22744994.670                       -2626.090          33.000                                                                  
R22  23146523.320                        3908.247          44.000    23146549.902                        3040.037          41.000  
R12  21720534.443                        1665.606          45.000    21720537.695    90243388.352        1295.541          47.000  
R11  20154130.879                        -714.165          46.000    20154130.839    83764768.358        -555.409          46.000  
R20  22134448.154                       -2114.251          44.000    22134448.561    92059975.826       -1644.515          44.000  
R01  21130711.892                       -2978.895          37.000                                                                  
G08  21723334.011                        2902.802          38.000    21723338.288                        2262.227          37.000  
G09  22203625.486                        1242.467          42.000    22203627.965                         967.955          40.000  
G16  20101882.432                       -1127.629          43.000                                                                  
J02  38908459.064                        -782.794          44.000    38908459.313   159323637.546        -610.010          45.000  
G18  24328013.473                2        -54.103          32.000    24328019.223                         -42.394          36.000  
C20  24747436.493                       -2772.939          38.000                                                                  
C09  36816510.618                         293.556          41.000    36816502.561                         226.854          44.000  
C23  25179634.968                       -2430.006          38.000                                                                  
C19  24966751.052                        -713.640          39.000                                                                  
C10  38439965.453                2        546.455          30.000    38439965.471   154781811.852         422.032          41.000  
R21  20822985.962                        1445.093          37.000    20822985.400                        1124.011          40.000  
R08  23600007.714                       -4670.198          40.000    23600047.482                       -3632.652          39.000  
J03  37737295.006                          -2.418          42.000    37737303.430   154527951.828          -1.766          42.000  
J07  37124192.189                        -337.647          38.000    37124193.346   152017362.861        -262.822          42.000  
J04                                                                  37002529.289                        -493.321          36.000  
> 2025 11 11 08 04 06.5600000  0 32                     
G28  24543873.672                       -3387.800          40.000    24543880.819                       -2639.871          36.000  
G26  21865222.723                       -2546.635          43.000    21865223.801                       -1984.609          37.000  
G27  20154459.214                        1298.874          48.000    20154460.965    82529145.106        1012.076          45.000  
G31  22035320.018                       -2703.109          39.000    22035320.029                       -2106.079          37.000  
G04  20955037.462                        -966.522          45.000    20955036.978    85807375.116        -753.180          43.000  
C37  22308512.682                        -875.739          46.000                                                                  
C06  35873683.428                          48.846          41.000    35873674.602   144448421.252          37.872          46.000  
C16  36315327.712                          55.518          42.000    36315323.673   146226761.627          43.156          45.000  
C28  22652785.641                         470.419          42.000                                                                  
C07  37189598.080                         540.961          38.000    37189588.731   149747065.774         418.391          45.000  
C27  23492293.262                        2492.114          43.000                                                                  
R10  22745014.352                       -2626.316          33.000                                                                  
R22  23146493.994                        3908.556          44.000    23146520.589                        3039.795          41.000  
R12  21720521.956                        1665.854          45.000    21720525.217    90243336.517        1295.684          47.000  
R11  20154136.230                        -713.974          46.000    20154136.185    83764790.571        -555.419          46.000  
R20  22134463.968                       -2114.170          44.000    22134464.373    92060041.584       -1644.252          44.000  
R01  21130734.180                       -2978.383          37.000                                                                  
G08  21723311.905                        2903.116          38.000    21723316.183                        2262.274          37.000  
G09  22203616.017                        1242.588          42.000    22203618.506                         968.294          40.000  
G16  20101890.996                       -1127.579          43.000                                                                  
J02  38908465.014                        -782.532          45.000    38908465.262   159323661.934        -609.900          46.000  
G18  24328013.352                2        -54.263          32.000    24328019.611                         -42.184          36.000  
C20  24747457.800                       -2772.900          38.000                                                                  
C09  36816508.385                         293.450          41.000    36816500.295   148244792.107         227.078          44.000  
C23  25179653.618                       -2429.770          38.000                                                                  
C19  24966756.545                        -713.472          39.000                                                                  
C10  38439960.887                2        545.537          30.000    38439961.266   154781794.980         421.879          41.000  
R21  20822975.157                        1445.496          37.000    20822974.578                        1124.176          40.000  
R08  23600042.583                       -4670.419          40.000    23600082.358    98293512.925       -3632.453          39.000  
J03  37737295.001                          -2.035          42.000    37737303.449   154527951.883          -1.584          42.000  
J07  37124194.771                        -337.734          38.000    37124195.916   152017373.372        -262.859          42.000  
J04                                                                  37002534.086                        -493.321          36.000  
> 2025 11 11 08 04 06.6000000  0 32                     
G28  24543899.446                       -3387.868          40.000    24543906.612                       -2639.543          36.000  
G26  21865242.115                       -2546.369          43.000    21865243.201                       -1984.587          37.000  
G27  20154449.322                        1298.862          48.000    20154451.090    82529104.615        1012.189          45.000  
G31  22035340.580                       -2702.367          39.000    22035340.601                       -2105.920          37.000  
G04  20955044.791                        -966.248          45.000    20955044.331    85807405.228        -752.966          43.000  
C37  22308519.405                        -875.438          46.000                                                                  
C06  35873683.060                          49.091          41.000    35873674.209   144448419.727          38.043          46.000  
C16  36315327.284                          55.615          42.000    36315323.262   146226759.903          43.119          45.000  
C28  22652782.027                         470.656          42.000                                                                  
C07  37189593.929                         541.168          38.000    37189584.561   149747049.032         418.527          45.000  
C27  23492274.126                        2492.330          43.000                                                                  
R10  22745034.024                       -2626.208          33.000                                                                  
R22  23146464.709                        3908.867          44.000    23146491.293    96100369.156        3039.853          41.000  
R12  21720509.483                        1666.031          45.000    21720512.723    90243284.674        1295.946          47.000  
R11  20154141.565                        -713.713          45.000    20154141.518    83764812.772        -555.200          46.000  
R20  22134479.781                       -2113.875          44.000    22134480.175    92060107.340       -1644.045          44.000  
R01  21130756.467                       -2978.520          37.000                                                                  
G08  21723289.823                        2902.769          38.000    21723294.105                        2261.897          37.000  
G09  22203606.538                        1243.002          42.000    22203609.060    90920065.595         968.457          40.000  
G16  20101899.557                       -1127.252          43.000                                                                  
J02  38908470.973                        -782.214          45.000    38908471.225   159323686.314        -609.631          46.000  
G18  24328012.979                2        -53.357          32.000    24328020.018                         -42.069          36.000  
C20  24747479.084                       -2772.605          38.000                                                                  
C09  36816506.136                         293.808          41.000    36816498.029   148244783.012         227.285          44.000  
C23  25179672.288                       -2429.127          38.000                                                                  
C19  24966762.025                        -713.691          39.000                                                                  
C10  38439957.391                2        545.824          30.000    38439957.067   154781778.108         421.769          41.000  
R21  20822964.366                        1446.265          37.000    20822963.774    86666135.808        1124.371          40.000  
R08  23600077.465                       -4670.289          40.000    23600117.250    98293658.215       -3632.299          39.000  
J03  37737295.010                          -1.787          42.000    37737303.455   154527951.924          -1.217          42.000  
J07  37124197.337                        -337.363          38.000    37124198.491   152017383.883        -262.857          42.000  
J04                                                                  37002538.906                        -493.331          36.000  
> 2025 11 11 08 04 06.6400000  0 32                     
G28  24543925.237                       -3387.607          40.000    24543932.392                       -2638.885          36.000  
G26  21865261.500   114902722.150       -2546.001          43.000    21865262.567                       -1984.403          37.000  
G27  20154439.436   105912295.316        1298.993          47.000    20154441.213    82529064.126        1012.207          45.000  
G31  22035361.126                       -2702.188          39.000    22035361.179                       -2105.741          37.000  
G04  20955052.108   110119541.831        -966.083          45.000    20955051.687    85807435.348        -752.991          43.000  
C37  22308526.114                        -875.319          46.000                                                                  
C06  35873682.684                          49.188          41.000    35873673.833   144448418.200          38.147          46.000  
C16  36315326.851                          55.865          42.000    36315322.852   146226758.170          43.250          45.000  
C28  22652778.383                         471.022          42.000                                                                  
C07  37189589.761                         541.082          38.000    37189580.408   149747032.296         418.444          45.000  
C27  23492254.981                        2492.465          44.000                                                                  
R10  22745053.694                       -2626.300          33.000                                                                  
R22  23146435.410                        3909.014          44.000    23146462.014    96100247.552        3039.978          41.000  
R12  21720496.990                        1666.322          45.000    21720500.227    90243232.837        1295.986          47.000  
R11  20154146.935                        -713.683          45.000    20154146.844    83764834.975        -555.107          46.000  
R20  22134495.595                       -2113.833          44.000    22134495.994    92060173.103       -1644.061          44.000  
R01  21130778.752                       -2979.227          37.000                                                                  
G08  21723267.723                        2902.913          40.000    21723272.020    88953175.656        2262.156          37.000  
G09  22203597.063                        1242.996          42.000    22203599.569    90920026.847         968.706          40.000  
G16  20101908.128                       -1126.942          43.000                                                                  
J02  38908476.934   204465427.823        -782.269          45.000    38908477.184   159323710.697        -609.570          46.000  
G18  24328013.290                2        -53.602          32.000    24328020.430                         -41.658          36.000  
C20  24747500.368                       -2772.694          38.000                                                                  
C09  36816503.892                         293.876          41.000    36816495.762   148244773.923         227.246          44.000  
C23  25179690.988                       -2428.896          38.000                                                                  
C19  24966767.510                        -713.238          39.000                                                                  
C10  38439953.408                2        546.194          31.000    38439952.827   154781761.209         422.238          41.000  
R21  20822953.572                        1445.990          37.000    20822952.961    86666090.825        1124.512          40.000  
R08  23600112.353                       -4669.759          40.000    23600152.139    98293803.500       -3632.127          39.000  
J03  37737294.998                          -1.474          42.000    37737303.477   154527951.969          -1.082          42.000  
J07  37124199.903                        -337.290          38.000    37124201.077   152017394.390        -262.777          42.000  
J04                                                                  37002543.724   151519226.561        -493.152          36.000  
> 2025 11 11 08 04 06.6800000  0 32                     
G28  24543950.998   128979313.448       -3387.137          40.000    24543958.178                       -2639.557          36.000  
G26  21865280.895   114902823.982       -2545.785          43.000    21865281.962    89534672.721       -1983.693          37.000  
G27  20154429.533   105912243.349        1299.104          47.000    20154431.330    82529023.637        1012.207          45.000  
G31  22035381.699                       -2702.183          39.000    22035381.744    90231204.852       -2105.848          37.000  
G04  20955059.478   110119580.483        -966.223          45.000    20955059.039    85807465.456        -752.795          43.000  
C37  22308532.840   116166379.387        -875.356          46.000                                                                  
C06  35873682.286                          49.475          41.000    35873673.447   144448416.681          38.055          46.000  
C16  36315326.415                          56.022          42.000    36315322.432   146226756.444          43.177          45.000  
C28  22652774.762   117958944.218         471.060          42.000                                                                  
C07  37189585.606                         541.099          38.000    37189576.257   149747015.569         418.217          45.000  
C27  23492235.810                        2492.753          44.000                                                                  
R10  22745073.416                       -2625.555          33.000                                                                  
R22  23146406.105                        3909.104          44.000    23146432.693    96100125.930        3040.413          41.000  
R12  21720484.514                        1666.329          45.000    21720487.762    90243180.999        1295.975          47.000  
R11  20154152.281                        -713.491          45.000    20154152.180    83764857.171        -554.935          46.000  
R20  22134511.407   118363171.377       -2113.573          44.000    22134511.820    92060238.863       -1644.010          44.000  
R01  21130801.021                       -2978.945          37.000                                                                  
G08  21723245.611   114156428.715        2902.833          40.000    21723249.921    88953085.164        2262.294          37.000  
G09  22203587.578   116680639.191        1243.083          42.000    22203590.117    90919988.087         968.986          40.000  
G16  20101916.688   105636286.235       -1126.858          43.000                                                                  
J02  38908482.904   204465459.113        -782.227          45.000    38908483.142   159323735.075        -609.467          46.000  
G18  24328013.227                2        -54.269          32.000    24328020.843                         -41.992          36.000  
C20  24747521.661                       -2772.891          38.000                                                                  
C09  36816501.640                         294.140          41.000    36816493.504   148244764.825         227.395          44.000  
C23  25179709.646                       -2428.984          38.000                                                                  
C19  24966773.009                        -713.104          39.000                                                                  
C10  38439949.056                2        545.958          31.000    38439948.626   154781744.326         422.193          41.000  
R21  20822942.766                        1445.526          37.000    20822942.163    86666045.848        1124.426          40.000  
R08  23600147.253                       -4669.841          40.000    23600187.021    98293948.776       -3631.894          39.000  
J03  37737295.007   198310828.014          -1.329          42.000    37737303.502   154527952.016          -1.060          42.000  
J07  37124202.487                        -336.812          38.000    37124203.641   152017404.895        -262.674          42.000  
J04                                                                  37002548.545   151519246.264        -492.788          36.000  
> 2025 11 11 08 04 06.7200000  0 32                     
G28  24543976.754   128979448.944       -3387.253          40.000    24543983.976                       -2639.477          36.000  
G26  21865300.293   114902925.829       -2545.995          43.000    21865301.331    89534752.077       -1983.661          37.000  
G27  20154419.680   105912191.391        1298.997          47.000    20154421.446    82528983.155        1012.088          45.000  
G31  22035402.279                       -2702.671          39.000    22035402.334    90231289.107       -2106.198          37.000  
G04  20955066.829   110119619.130        -966.199          45.000    20955066.401    85807495.572        -752.857          43.000  
C37  22308539.582   116166414.404        -875.413          46.000                                                                  
C06  35873681.911   186803677.254          49.261          41.000    35873673.076   144448415.155          38.123          46.000  
C16  36315325.972   189103434.294          56.178          42.000    36315321.996   146226754.700          43.433          45.000  
C28  22652771.154   117958925.389         470.826          42.000                                                                  
C07  37189581.450                         540.774          38.000    37189572.112   149746998.834         418.261          44.000  
C27  23492216.644   122330136.318        2492.634          44.000                                                                  
R10  22745093.115                       -2626.348          33.000                                                                  
R22  23146376.796   123556979.069        3908.947          44.000    23146403.399    96100004.317        3040.422          41.000  
R12  21720472.054   116026868.201        1666.233          45.000    21720475.288    90243129.166        1295.874          47.000  
R11  20154157.637   107697710.461        -713.499          45.000    20154157.527    83764879.371        -554.936          46.000  
R20  22134527.224   118363255.925       -2113.634          44.000    22134527.661    92060304.634       -1644.187          44.000  
R01  21130823.288                       -2978.706          37.000                                                                  
G08  21723223.522   114156312.617        2902.544          40.000    21723227.811    88952994.688        2262.081          37.000  
G09  22203578.120   116680589.473        1243.004          42.000    22203580.649    90919949.359         968.495          40.000  
G16  20101925.286   105636331.308       -1126.829          43.000                                                                  
J02  38908488.863   204465490.405        -782.251          45.000    38908489.118   159323759.463        -609.589          46.000  
G18  24328014.024                1        -54.230          32.000    24328021.264                         -41.166          36.000  
C20  24747542.944                       -2772.652          38.000                                                                  
C09  36816499.368   191713170.617         294.085          41.000    36816491.237   148244755.728         227.456          44.000  
C23  25179728.302                       -2429.086          38.000                                                                  
C19  24966778.480                        -713.282          39.000                                                                  
C10  38439944.629                2        545.762          31.000    38439944.429   154781727.438         422.198          41.000  
R21  20822931.966                        1445.453          37.000    20822931.357    86666000.873        1124.341          40.000  
R08  23600182.127   126377911.680       -4669.972          40.000    23600221.922    98294094.065       -3632.062          39.000  
J03  37737295.054   198310828.077          -1.425          42.000    37737303.518   154527952.068          -1.178          42.000  
J07  37124205.052                        -337.033          38.000    37124206.226   152017415.396        -262.553          42.000  
J04                                                                  37002553.369   151519265.990        -493.031          37.000  
> 2025 11 11 08 04 06.7600000  0 32                     
G28  24544002.555   128979584.458       -3387.633          40.000    24544009.770                       -2639.558          36.000  
G26  21865319.687   114903027.678       -2546.174          43.000    21865320.724    89534831.414       -1983.401          37.000  
G27  20154409.773   105912139.424        1299.091          47.000    20154411.555    82528942.664        1012.163          45.000  
G31  22035422.847                       -2702.752          39.000    22035422.906    90231373.322       -2105.630          37.000  
G04  20955074.185   110119657.787        -966.382          45.000    20955073.776    85807525.690        -752.966          43.000  
C37  22308546.297   116166449.416        -875.348          46.000                                                                  
C06  35873681.547   186803675.285          49.213          41.000    35873672.685   144448413.628          38.184          46.000  
C16  36315325.540   189103432.065          55.962          42.000    36315321.601   146226752.969          43.346          45.000  
C28  22652767.565   117958906.559         470.724          42.000                                                                  
C07  37189577.294   193655883.859         541.131          39.000    37189567.959   149746982.103         418.210          44.000  
C27  23492197.527   122330036.625        2492.436          44.000                                                                  
R10  22745112.814                       -2626.169          33.000                                                                  
R22  23146347.542   123556822.719        3908.772          45.000    23146374.102    96099882.711        3040.251          41.000  
R12  21720459.548   116026801.552        1666.191          45.000    21720462.793    90243077.326        1295.906          47.000  
R11  20154162.968   107697739.005        -713.563          45.000    20154162.873    83764901.575        -555.043          46.000  
R20  22134543.006   118363340.477       -2113.792          44.000    22134543.457    92060370.404       -1644.281          44.000  
R01  21130845.569                       -2978.339          37.000                                                                  
G08  21723201.399   114156196.488        2902.931          40.000    21723205.710    88952904.221        2261.761          37.000  
G09  22203568.670   116680539.761        1242.809          42.000    22203571.191    90919910.610         968.607          41.000  
G16  20101933.870   105636376.385       -1126.906          43.000                                                                  
J02  38908494.815   204465521.702        -782.410          45.000    38908495.050   159323783.849        -609.674          46.000  
G18  24328014.225                         -53.723          32.000    24328021.673                         -41.779          36.000  
C20  24747564.244                       -2772.250          38.000                                                                  
C09  36816497.122   191713158.860         293.992          41.000    36816488.971   148244746.625         227.533          44.000  
C23  25179746.960                       -2429.374          38.000                                                                  
C19  24966783.967                        -713.490          39.000                                                                  
C10  38439940.629                2        545.579          31.000    38439940.242   154781710.560         422.032          41.000  
R21  20822921.160                        1445.288          37.000    20822920.569    86665955.900        1124.323          40.000  
R08  23600217.000   126378098.481       -4670.052          40.000    23600256.805    98294239.365       -3632.401          39.000  
J03  37737295.066   198310828.148          -1.694          42.000    37737303.541   154527952.121          -1.293          42.000  
J07  37124207.611   195089029.355        -336.938          38.000    37124208.788   152017425.897        -262.499          42.000  
J04                                                                  37002558.177   151519285.732        -493.437          37.000  
> 2025 11 11 08 04 06.8000000  0 32                     
G28  24544028.326   128979719.959       -3387.623          39.000    24544035.566                       -2639.523          36.000  
G26  21865339.076   114903129.526       -2546.235          43.000    21865340.098    89534910.782       -1983.826          37.000  
G27  20154399.887   105912087.461        1299.084          47.000    20154401.633    82528902.172        1012.238          45.000  
G31  22035443.430   115797038.691       -2702.782          38.000    22035443.472    90231457.554       -2105.651          37.000  
G04  20955081.551   110119696.442        -966.431          44.000    20955081.136    85807555.806        -752.972          43.000  
C37  22308553.024   116166484.426        -875.298          47.000                                                                  
C06  35873681.174   186803673.308          49.304          41.000    35873672.300   144448412.106          38.110          46.000  
C16  36315325.097   189103429.825          55.930          42.000    36315321.169   146226751.239          43.251          45.000  
C28  22652763.974   117958887.724         470.765          42.000                                                                  
C07  37189573.143   193655862.195         541.486          39.000    37189563.781   149746965.368         418.330          44.000  
C27  23492178.393   122329936.928        2492.375          44.000                                                                  
R10  22745132.490                       -2626.764          33.000                                                                  
R22  23146318.248   123556666.352        3908.997          45.000    23146344.811    96099761.119        3039.897          41.000  
R12  21720447.074   116026734.917        1665.939          45.000    21720450.303    90243025.489        1295.915          47.000  
R11  20154168.317   107697767.552        -713.656          44.000    20154168.214    83764923.777        -555.081          46.000  
R20  22134558.816   118363425.042       -2114.067          44.000    22134559.259    92060436.162       -1644.096          44.000  
R01  21130867.847                       -2978.247          37.000                                                                  
G08  21723179.316   114156080.356        2903.255          39.000    21723183.624    88952813.740        2261.859          37.000  
G09  22203559.188   116680490.045        1242.787          41.000    22203561.741    90919871.877         968.410          41.000  
G16  20101942.479   105636421.465       -1126.974          43.000                                                                  
J02  38908500.781   204465552.987        -782.251          44.000    38908501.009   159323808.228        -609.576          46.000  
G18  24328014.838                         -53.845          31.000    24328022.066                         -42.258          36.000  
C20  24747585.534   128867172.092       -2772.384          38.000                                                                  
C09  36816494.878   191713147.105         293.920          41.000    36816486.734   148244737.538         227.294          44.000  
C23  25179765.639   131117645.124       -2429.156          38.000                                                                  
C19  24966789.418   130008623.550        -713.307          39.000                                                                  
C10  38439936.671                2        545.745          31.000    38439936.049   154781693.672         422.119          41.000  
R21  20822910.337                        1445.776          37.000    20822909.740    86665910.931        1124.170          40.000  
R08  23600251.902   126378285.269       -4669.830          40.000    23600291.682    98294384.652       -3632.314          39.000  
J03  37737295.074   198310828.210          -1.687          41.000    37737303.541   154527952.176          -1.406          42.000  
J07  37124210.193   195089042.859        -337.439          37.000    37124211.371   152017436.398        -262.464          42.000  
J04                                                                  37002562.979   151519305.432        -492.828          37.000  
> 2025 11 11 08 04 06.8400000  0 32                     
G28  24544054.111   128979855.438       -3387.200          39.000    24544061.343   100503816.608       -2639.583          36.000  
G26  21865358.439   114903231.355       -2545.898          43.000    21865359.474    89534990.150       -1984.110          37.000  
G27  20154389.996   105912035.501        1299.009          47.000    20154391.762    82528861.672        1012.436          45.000  
G31  22035464.007   115797146.794       -2702.695          38.000    22035464.041    90231541.780       -2105.538          37.000  
G04  20955088.897   110119735.077        -966.083          44.000    20955088.484    85807585.926        -753.009          43.000  
C37  22308559.778   116166519.441        -875.357          47.000                                                                  
C06  35873680.787   186803671.330          49.426          41.000    35873671.913   144448410.577          38.159          46.000  
C16  36315324.673   189103427.580          56.044          42.000    36315320.738   146226749.500          43.365          45.000  
C28  22652760.352   117958868.900         470.582          42.000                                                                  
C07  37189568.976   193655840.531         541.636          39.000    37189559.608   149746948.626         418.461          44.000  
C27  23492159.234   122329837.228        2492.412          44.000                                                                  
R10  22745152.170                       -2625.970          33.000                                                                  
R22  23146288.924   123556509.987        3909.064          45.000    23146315.517    96099639.504        3040.174          41.000  
R12  21720434.587   116026668.261        1666.196          44.000    21720437.837    90242973.652        1295.919          47.000  
R11  20154173.644   107697796.106        -713.842          44.000    20154173.570    83764945.978        -555.093          46.000  
R20  22134574.626   118363509.590       -2113.926          44.000    22134575.082    92060501.927       -1644.098          44.000  
R01  21130890.119                       -2978.665          37.000                                                                  
G08  21723157.202   114155964.247        2902.949          39.000    21723161.541    88952723.246        2262.176          37.000  
G09  22203549.713   116680440.326        1242.873          41.000    22203552.281    90919833.125         968.629          41.000  
G16  20101951.085   105636466.543       -1126.998          43.000                                                                  
J02  38908506.735   204465584.269        -782.074          44.000    38908506.933   159323832.604        -609.467          46.000  
G18  24328015.106                         -53.982          31.000    24328022.467    99619189.067         -42.023          36.000  
C20  24747606.810   128867282.993       -2772.415          38.000                                                                  
C09  36816492.662   191713135.342         294.006          42.000    36816484.496   148244728.447         227.219          44.000  
C23  25179784.310   131117742.295       -2429.276          38.000                                                                  
C19  24966794.931   130008652.086        -713.406          39.000                                                                  
C10  38439932.830                2        546.182          31.000    38439931.848   154781676.777         422.297          41.000  
R21  20822899.536                        1446.082          37.000    20822898.939    86665865.951        1124.365          40.000  
R08  23600286.799   126378472.069       -4669.948          40.000    23600326.545    98294529.928       -3632.030          39.000  
J03  37737295.088   198310828.269          -1.590          41.000    37737303.544   154527952.213          -1.105          42.000  
J07  37124212.758   195089056.334        -337.136          37.000    37124213.948   152017446.900        -262.506          42.000  
J04                                                                  37002567.785   151519325.151        -492.822          37.000  
> 2025 11 11 08 04 06.8800000  0 32                     
G28  24544079.897   128979990.929       -3387.253          39.000    24544087.120   100503922.169       -2639.185          36.000  
G26  21865377.814   114903333.195       -2545.951          43.000    21865378.837    89535069.500       -1983.877          37.000  
G27  20154380.089   105911983.531        1299.178          47.000    20154381.886    82528821.177        1012.422          45.000  
G31  22035484.573   115797254.889       -2702.468          38.000    22035484.624    90231626.016       -2105.725          37.000  
G04  20955096.257   110119773.720        -966.010          44.000    20955095.840    85807616.034        -752.783          43.000  
C37  22308566.517   116166554.450        -875.260          47.000                                                                  
C06  35873680.387   186803669.344          49.628          41.000    35873671.534   144448409.039          38.367          46.000  
C16  36315324.229   189103425.326          56.273          42.000    36315320.335   146226747.770          43.291          45.000  
C28  22652756.728   117958850.071         470.650          42.000                                                                  
C07  37189564.837   193655818.895         541.141          39.000    37189555.458   149746931.883         418.567          44.000  
C27  23492140.069   122329737.530        2492.412          44.000                                                                  
R10  22745171.859                       -2626.122          33.000                                                                  
R22  23146259.641   123556353.617        3909.231          45.000    23146286.213    96099517.882        3040.459          41.000  
R12  21720422.092   116026601.602        1666.415          44.000    21720425.361    90242921.806        1296.077          47.000  
R11  20154178.968   107697824.640        -713.529          44.000    20154178.914    83764968.173        -554.987          46.000  
R20  22134590.450   118363594.137       -2113.733          44.000    22134590.869    92060567.675       -1643.829          44.000  
R01  21130912.408   112956841.162       -2978.854          37.000                                                                  
G08  21723135.125   114155848.116        2903.179          39.000    21723139.452    88952632.763        2262.186          37.000  
G09  22203540.235   116680390.601        1243.014          41.000    22203542.830    90919794.383         968.610          41.000  
G16  20101959.677   105636511.621       -1126.972          43.000                                                                  
J02  38908512.693   204465615.545        -781.866          44.000    38908512.893   159323856.980        -609.412          46.000  
G18  24328015.945                         -53.912          31.000    24328022.877    99619190.713         -41.345          36.000  
C20  24747628.123   128867393.894       -2772.475          38.000                                                                  
C09  36816490.391   191713123.560         294.382          42.000    36816482.250   148244719.344         227.432          44.000  
C23  25179802.970   131117839.459       -2429.197          38.000                                                                  
C19  24966800.419   130008680.632        -713.582          39.000                                                                  
C10  38439929.013                2        546.729          31.000    38439927.649   154781659.890         422.229          41.000  
R21  20822888.736                        1445.648          37.000    20822888.128    86665820.977        1124.371          40.000  
R08  23600321.679   126378658.857       -4669.788          40.000    23600361.439    98294675.205       -3631.901          39.000  
J03  37737295.103   198310828.318          -1.382          42.000    37737303.547   154527952.248          -0.906          42.000  
J07  37124215.319   195089069.808        -336.942          37.000    37124216.530   152017457.409        -262.675          42.000  
J04                                                                  37002572.594   151519344.843        -492.367          37.000  
> 2025 11 11 08 04 06.9200000  0 32                     
G28  24544105.662   128980126.417       -3387.203          39.000    24544112.936   100504027.750       -2639.297          36.000  
G26  21865397.209   114903435.030       -2545.881          43.000    21865398.228    89535148.855       -1983.860          37.000  
G27  20154370.191   105911931.561        1299.239          47.000    20154371.998    82528780.677        1012.483          45.000  
G31  22035505.145   115797362.969       -2702.106          38.000    22035505.206    90231710.253       -2105.813          37.000  
G04  20955103.605   110119812.371        -966.186          44.000    20955103.192    85807646.145        -752.741          43.000  
C37  22308573.242   116166589.450        -875.077          47.000                                                                  
C06  35873680.004   186803667.375          49.323          41.000    35873671.147   144448407.510          38.281          46.000  
C16  36315323.821   189103423.083          56.178          42.000    36315319.936   146226746.027          43.463          45.000  
C28  22652753.110   117958831.221         471.089          42.000                                                                  
C07  37189560.683   193655797.261         540.865          39.000    37189551.305   149746915.143         418.524          44.000  
C27  23492120.922   122329637.831        2492.406          45.000                                                                  
R10  22745191.568                       -2625.918          33.000                                                                  
R22  23146230.344   123556197.252        3909.174          45.000    23146256.928    96099396.263        3040.513          41.000  
R12  21720409.622   116026534.932        1666.680          44.000    21720412.870    90242869.958        1296.162          47.000  
R11  20154184.335   107697853.175        -713.381          44.000    20154184.242    83764990.363        -554.800          45.000  
R20  22134606.263   118363678.684       -2113.638          44.000    22134606.674    92060633.429       -1643.776          44.000  
R01  21130934.693   112956960.292       -2978.503          37.000                                                                  
G08  21723113.012   114155732.001        2903.011          39.000    21723117.358    88952542.272        2262.251          37.000  
G09  22203530.774   116680340.869        1243.216          41.000    22203533.369    90919755.649         968.451          41.000  
G16  20101968.263   105636556.692       -1126.861          43.000                                                                  
J02  38908518.651   204465646.832        -782.043          44.000    38908518.857   159323881.352        -609.345          46.000  
G18  24328016.433                         -53.502          31.000    24328023.274    99619192.387         -41.564          36.000  
C20  24747649.419   128867504.779       -2772.271          38.000                                                                  
C09  36816488.132   191713111.791         294.339          42.000    36816479.976   148244710.239         227.573          44.000  
C23  25179821.618   131117936.604       -2428.769          38.000                                                                  
C19  24966805.879   130008709.148        -713.146          39.000                                                                  
C10  38439925.124                2        546.152          31.000    38439923.472   154781643.001         422.198          41.000  
R21  20822877.903   111427425.458        1445.624          37.000    20822877.312    86665775.987        1124.622          40.000  
R08  23600356.561   126378845.643       -4669.689          40.000    23600396.323    98294820.487       -3631.977          39.000  
J03  37737295.113   198310828.364          -1.187          42.000    37737303.562   154527952.284          -0.835          42.000  
J07  37124217.888   195089083.284        -336.972          37.000    37124219.083   152017467.906        -262.510          42.000  
J04                                                                  37002577.397   151519364.581        -492.975          37.000  
> 2025 11 11 08 04 06.9600000  0 32                     
G28  24544131.454   128980261.914       -3387.322          39.000    24544138.704   100504133.316       -2639.186          36.000  
G26  21865416.588   114903536.869       -2545.937          43.000    21865417.597    89535228.232       -1984.310          37.000  
G27  20154360.316   105911879.591        1299.250          47.000    20154362.121    82528740.191        1012.239          45.000  
G31  22035525.727   115797471.070       -2702.303          38.000    22035525.784    90231794.489       -2105.918          37.000  
G04  20955110.947   110119851.024        -966.296          44.000    20955110.531    85807676.259        -752.838          43.000  
C37  22308579.967   116166624.464        -875.215          47.000                                                                  
C06  35873679.619   186803665.379          49.719          41.000    35873670.731   144448405.983          38.196          46.000  
C16  36315323.423   189103420.842          56.094          43.000    36315319.501   146226744.291          43.427          45.000  
C28  22652749.486   117958812.389         470.950          42.000                                                                  
C07  37189556.541   193655775.615         540.970          40.000    37189547.178   149746898.408         418.381          44.000  
C27  23492101.784   122329538.126        2492.535          45.000                                                                  
R10  22745211.281                       -2625.753          33.000                                                                  
R22  23146201.041   123556040.893        3909.049          45.000    23146227.614    96099274.661        3040.206          41.000  
R12  21720397.139   116026468.287        1666.343          44.000    21720400.374    90242818.115        1296.104          46.000  
R11  20154189.681   107697881.719        -713.489          43.000    20154189.582    83765012.564        -554.927          45.000  
R20  22134622.047   118363763.232       -2113.663          43.000    22134622.494    92060699.205       -1644.188          44.000  
R01  21130956.969   112957079.451       -2978.865          37.000                                                                  
G08  21723090.906   114155615.885        2902.906          39.000    21723095.255    88952451.780        2262.291          37.000  
G09  22203521.323   116680291.145        1243.159          40.000    22203523.904    90919716.892         968.747          41.000  
G16  20101976.837   105636601.772       -1126.968          43.000                                                                  
J02  38908524.596   204465678.111        -781.982          44.000    38908524.815   159323905.731        -609.454          46.000  
G18  24328016.336                         -53.976          31.000    24328023.678    99619194.068         -41.818          36.000  
C20  24747670.695   128867615.686       -2772.536          38.000                                                                  
C09  36816485.871   191713100.023         294.276          42.000    36816477.720   148244701.135         227.598          44.000  
C23  25179840.286   131118033.765       -2428.875          38.000                                                                  
C19  24966811.344   130008737.665        -712.905          39.000                                                                  
C10  38439920.573                2        545.740          32.000    38439919.272   154781626.114         422.167          41.000  
R21  20822867.072   111427367.631        1445.526          37.000    20822866.507    86665731.016        1124.371          40.000  
R08  23600391.441   126379032.430       -4669.653          40.000    23600431.206    98294965.766       -3632.021          39.000  
J03  37737295.127   198310828.432          -1.483          42.000    37737303.569   154527952.333          -1.099          42.000  
J07  37124220.452   195089096.741        -336.680          37.000    37124221.641   152017478.401        -262.409          42.000  
J04                                                                  37002582.217   151519384.307        -493.193          37.000  
> 2025 11 11 08 04 07.0000000  0 32                     
G28  24544157.212   128980397.402       -3387.234          39.000    24544164.493   100504238.920       -2639.760          36.000  
G26  21865435.977   114903638.710       -2546.045          43.000    21865436.975    89535307.589       -1984.148          37.000  
G27  20154350.454   105911827.632        1299.031          47.000    20154352.242    82528699.703        1012.147          45.000  
G31  22035546.314   115797579.182       -2702.656          38.000    22035546.352    90231878.729       -2106.101          37.000  
G04  20955118.283   110119889.671        -966.260          44.000    20955117.896    85807706.377        -752.942          43.000  
C37  22308586.705   116166659.472        -875.202          47.000                                                                  
C06  35873679.243   186803663.411          49.377          41.000    35873670.344   144448404.455          38.159          46.000  
C16  36315323.002   189103418.600          56.047          43.000    36315319.083   146226742.554          43.405          45.000  
C28  22652745.857   117958793.563         470.772          42.000                                                                  
C07  37189552.368   193655753.954         541.338          40.000    37189543.014   149746881.660         418.576          44.000  
C27  23492082.658   122329438.419        2492.621          45.000                                                                  
R10  22745230.978                       -2626.316          33.000                                                                  
R22  23146171.745   123555884.530        3909.018          45.000    23146198.308    96099153.052        3040.145          41.000  
R12  21720384.658   116026401.635        1666.272          44.000    21720387.884    90242766.273        1296.072          46.000  
R11  20154195.015   107697910.263        -713.608          43.000    20154194.915    83765034.761        -554.958          45.000  
R20  22134637.853   118363847.799       -2114.014          43.000    22134638.308    92060764.978       -1644.369          44.000  
R01  21130979.254   112957198.575       -2978.453          37.000                                                                  
G08  21723068.798   114155499.768        2902.869          39.000    21723073.147    88952361.292        2262.257          37.000  
G09  22203511.881   116680241.442        1242.709          40.000    22203514.449    90919678.160         968.507          41.000  
G16  20101985.417   105636646.844       -1126.849          43.000                                                                  
J02  38908530.544   204465709.397        -782.086          44.000    38908530.785   159323930.111        -609.491          46.000  
G18  24328016.303                         -53.451          31.000    24328024.086    99619195.769         -42.375          36.000  
C20  24747691.992   128867726.578       -2772.394          38.000                                                                  
C09  36816483.614   191713088.266         294.040          42.000    36816475.460   148244692.039         227.444          44.000  
C23  25179858.958   131118130.909       -2428.655          38.000                                                                  
C19  24966816.817   130008766.203        -713.212          39.000                                                                  
C10  38439915.967                2        545.557          35.000    38439915.048   154781609.224         422.210          41.000  
R21  20822856.261   111427309.798        1445.697          37.000    20822855.683    86665686.038        1124.365          40.000  
R08  23600426.318   126379219.227       -4669.813          40.000    23600466.107    98295111.049       -3632.020          39.000  
J03  37737295.174   198310828.496          -1.615          42.000    37737303.594   154527952.393          -1.439          42.000  
J07  37124223.022   195089110.230        -336.992          37.000    37124224.213   152017488.905        -262.543          42.000  
J04                                                                  37002587.032   151519404.035        -493.268          37.000  
> 2025 11 11 08 04 07.0400000  0 32                     
G28  24544182.967   128980532.897       -3387.323          39.000    24544190.299   100504344.517       -2639.879          36.000  
G26  21865455.346   114903740.555       -2546.125          43.000    21865456.353    89535386.943       -1983.933          37.000  
G27  20154340.572   105911775.678        1298.820          47.000    20154342.341    82528659.226        1011.880          45.000  
G31  22035566.884   115797687.291       -2702.825          38.000    22035566.916    90231962.952       -2105.788          37.000  
G04  20955125.656   110119928.313        -966.119          44.000    20955125.256    85807736.485        -752.802          43.000  
C37  22308593.434   116166694.486        -875.312          47.000                                                                  
C06  35873678.870   186803661.434          49.371          41.000    35873669.949   144448402.929          38.147          46.000  
C16  36315322.580   189103416.343          56.292          43.000    36315318.651   146226740.816          43.417          45.000  
C28  22652742.231   117958774.738         470.601          42.000                                                                  
C07  37189548.228   193655732.306         541.301          40.000    37189538.858   149746864.924         418.432          44.000  
C27  23492063.525   122329338.734        2492.251          45.000                                                                  
R10  22745250.662                       -2625.546          33.000                                                                  
R22  23146142.454   123555728.164        3909.094          45.000    23146169.001    96099031.454        3039.934          41.000  
R12  21720372.181   116026334.985        1666.231          44.000    21720375.405    90242714.430        1296.038          46.000  
R11  20154200.367   107697938.807        -713.644          43.000    20154200.252    83765056.972        -555.232          45.000  
R20  22134653.689   118363932.357       -2114.081          42.000    22134654.111    92060830.745       -1644.303          43.000  
R01  21131001.559   112957317.713       -2978.433          37.000                                                                  
G08  21723046.676   114155383.646        2902.986          41.000    21723051.062    88952270.819        2261.962          37.000  
G09  22203502.421   116680191.722        1242.838          40.000    22203504.983    90919639.416         968.540          41.000  
G16  20101993.977   105636691.906       -1126.638          43.000                                                                  
J02  38908536.513   204465740.685        -782.190          44.000    38908536.747   159323954.491        -609.534          46.000  
G18  24328016.951                         -54.626          31.000    24328024.495    99619197.435         -41.989          36.000  
C20  24747713.254   128867837.471       -2772.336          38.000                                                                  
C09  36816481.377   191713076.500         294.078          42.000    36816473.188   148244682.939         227.447          44.000  
C23  25179877.634   131118228.087       -2429.110          38.000                                                                  
C19  24966822.306   130008794.714        -712.874          39.000                                                                  
C10  38439911.969                2        546.058          35.000    38439910.833   154781592.333         422.266          41.000  
R21  20822845.456   111427251.995        1445.191          37.000    20822844.870    86665641.077        1124.036          41.000  
R08  23600461.195   126379406.015       -4669.770          40.000    23600500.978    98295256.333       -3632.082          39.000  
J03  37737295.192   198310828.553          -1.536          42.000    37737303.618   154527952.450          -1.534          42.000  
J07  37124225.605   195089123.722        -337.226          37.000    37124226.788   152017499.411        -262.637          42.000  
J04                                                                  37002591.840   151519423.762        -493.253          37.000  
> 2025 11 11 08 04 07.0800000  0 32                     
G28  24544208.771   128980668.392       -3387.346          39.000    24544216.099   100504450.079       -2639.386          36.000  
G26  21865474.711   114903842.411       -2546.363          43.000    21865475.718    89535466.296       -1983.862          37.000  
G27  20154330.683   105911723.713        1298.947          47.000    20154332.466    82528618.735        1012.051          45.000  
G31  22035587.436   115797795.402       -2702.951          38.000    22035587.486    90232047.208       -2106.183          37.000  
G04  20955133.030   110119966.960        -966.180          45.000    20955132.639    85807766.609        -752.997          43.000  
C37  22308600.169   116166729.498        -875.356          47.000                                                                  
C06  35873678.497   186803659.445          49.658          41.000    35873669.574   144448401.398          38.226          47.000  
C16  36315322.161   189103414.086          56.410          43.000    36315318.241   146226739.080          43.397          45.000  
C28  22652738.624   117958755.921         470.407          42.000                                                                  
C07  37189544.095   193655710.654         541.378          40.000    37189534.726   149746848.176         418.627          44.000  
C27  23492044.388   122329239.045        2492.178          45.000                                                                  
R10  22745270.372                       -2625.415          33.000                                                                  
R22  23146113.155   123555571.797        3909.150          45.000    23146139.726    96098909.845        3040.087          41.000  
R12  21720359.718   116026268.326        1666.343          44.000    21720362.952    90242662.604        1295.726          46.000  
R11  20154205.716   107697967.350        -713.624          43.000    20154205.591    83765079.174        -555.160          45.000  
R20  22134669.493   118364016.923       -2114.204          42.000    22134669.942    92060896.520       -1644.432          43.000  
R01  21131023.828   112957436.866       -2978.701          39.000                                                                  
G08  21723024.574   114155267.516        2903.199          41.000    21723028.971    88952180.340        2261.889          37.000  
G09  22203492.964   116680141.994        1243.025          40.000    22203495.524    90919600.672         968.564          41.000  
G16  20102002.563   105636736.973       -1126.628          44.000                                                                  
J02  38908542.481   204465771.955        -781.885          45.000    38908542.700   159323978.860        -609.338          46.000  
G18  24328018.098                         -54.314          31.000    24328024.910    99619199.115         -42.001          36.000  
C20  24747734.527   128867948.362       -2772.307          40.000                                                                  
C09  36816479.111   191713064.728         294.183          42.000    36816470.916   148244673.830         227.611          44.000  
C23  25179896.284   131118325.275       -2429.609          38.000                                                                  
C19  24966827.774   130008823.234        -712.874          39.000                                                                  
C10  38439908.019                2        545.947          35.000    38439906.625   154781575.438         422.370          41.000  
R21  20822834.675   111427194.210        1444.592          37.000    20822834.056    86665596.114        1123.938          41.000  
R08  23600496.090   126379592.806       -4669.795          40.000    23600535.869    98295401.620       -3632.162          39.000  
J03  37737295.198   198310828.602          -1.339          42.000    37737303.645   154527952.505          -1.530          42.000  
J07  37124228.158   195089137.188        -336.877          37.000    37124229.365   152017509.921        -262.744          43.000  
J04                                                                  37002596.653   151519443.480        -493.103          37.000  
> 2025 11 11 08 04 07.1200000  0 32                     
G28  24544234.550   128980803.878       -3387.234          39.000    24544241.896   100504555.661       -2639.419          36.000  
G26  21865494.070   114903944.255       -2546.263          43.000    21865495.125    89535545.668       -1984.110          37.000  
G27  20154320.784   105911671.743        1299.160          47.000    20154322.576    82528578.241        1012.232          45.000  
G31  22035608.030   115797903.520       -2703.093          38.000    22035608.070    90232131.439       -2105.956          37.000  
G04  20955140.381   110120005.604        -966.107          45.000    20955139.994    85807796.717        -752.826          43.000  
C37  22308606.907   116166764.503        -875.205          47.000                                                                  
C06  35873678.114   186803657.430          50.275          42.000    35873669.150   144448399.857          38.470          47.000  
C16  36315321.755   189103411.815          56.711          44.000    36315317.798   146226737.339          43.463          46.000  
C28  22652735.024   117958737.091         470.565          42.000                                                                  
C07  37189539.940   193655688.992         541.513          42.000    37189530.534   149746831.425         418.765          44.000  
C27  23492025.249   122329139.348        2492.328          45.000                                                                  
R10  22745290.144                       -2626.706          33.000                                                                  
R22  23146083.858   123555415.423        3909.323          45.000    23146110.416    96098788.235        3040.211          41.000  
R12  21720347.239   116026201.670        1666.403          44.000    21720350.455    90242610.756        1295.969          46.000  
R11  20154211.065   107697995.874        -713.264          43.000    20154210.924    83765101.369        -554.973          46.000  
R20  22134685.303   118364101.494       -2114.320          42.000    22134685.749    92060962.280       -1644.189          43.000  
R01  21131046.097   112957555.998       -2978.463          40.000                                                                  
G08  21723002.493   114155151.389        2903.248          41.000    21723006.862    88952089.849        2262.125          37.000  
G09  22203483.468   116680092.275        1242.984          41.000    22203486.064    90919561.928         968.557          42.000  
G16  20102011.127   105636782.028       -1126.405          44.000                                                                  
J02  38908548.420   204465803.218        -781.604          45.000    38908548.670   159324003.224        -609.137          46.000  
G18  24328018.718                         -53.341          31.000    24328025.331    99619200.784         -41.753          36.000  
C20  24747755.827   128868059.244       -2772.126          40.000                                                                  
C09  36816476.840   191713052.930         294.722          42.000    36816468.637   148244664.714         227.835          44.000  
C23  25179914.964   131118422.471       -2429.957          38.000                                                                  
C19  24966833.278   130008851.749        -712.800          39.000                                                                  
C10  38439904.718   200166660.3623        545.811          37.000    38439902.438   154781558.543         422.401          42.000  
R21  20822823.881   111427136.425        1444.409          37.000    20822823.241    86665551.140        1124.152          42.000  
R08  23600530.970   126379779.597       -4669.751          40.000    23600570.767    98295546.901       -3632.112          39.000  
J03  37737295.203   198310828.653          -1.271          42.000    37737303.660   154527952.548          -1.262          43.000  
J07  37124230.715   195089150.655        -336.706          38.000    37124231.912   152017520.427        -262.748          43.000  
J04                                                                  37002601.467   151519463.198        -493.002          37.000  
> 2025 11 11 08 04 07.1600000  0 32                     
G28  24544260.340   128980939.368       -3387.267          39.000    24544267.667   100504661.242       -2639.442          36.000  
G26  21865513.468   114904046.091       -2546.039          43.000    21865514.511    89535625.034       -1984.229          39.000  
G27  20154310.882   105911619.761        1299.489          47.000    20154312.696    82528537.749        1012.313          45.000  
G31  22035628.605   115798011.629       -2702.927          39.000    22035628.632    90232215.669       -2105.796          38.000  
G04  20955147.725   110120044.242        -966.003          46.000    20955147.328    85807826.811        -752.454          44.000  
C37  22308613.641   116166799.494        -874.888          48.000                                                                  
C06  35873677.728   186803655.413          50.525          42.000    35873668.767   144448398.313          38.623          47.000  
C16  36315321.324   189103409.540          56.886          44.000    36315317.378   146226735.601          43.455          46.000  
C28  22652731.434   117958718.261         470.693          43.000                                                                  
C07  37189535.776   193655667.341         541.353          42.000    37189526.388   149746814.669         418.894          44.000  
C27  23492006.091   122329039.660        2492.223          44.000                                                                  
R10  22745309.811                       -2625.920          32.000                                                                  
R22  23146054.542   123555259.050        3909.346          44.000    23146081.117    96098666.621        3040.323          41.000  
R12  21720334.749   116026135.014        1666.449          45.000    21720337.979    90242558.911        1296.053          46.000  
R11  20154216.395   107698024.401        -713.136          44.000    20154216.256    83765123.561        -554.831          46.000  
R20  22134701.089   118364186.034       -2113.804          42.000    22134701.587    92061028.054       -1644.354          42.000  
R01  21131068.376   112957675.137       -2978.451          42.000                                                                  
G08  21722980.398   114155035.261        2903.246          42.000    21722984.775    88951999.362        2262.182          39.000  
G09  22203473.990   116680042.563        1242.777          43.000    22203476.599    90919523.187         968.452          43.000  
G16  20102019.681   105636827.081       -1126.283          44.000                                                                  
J02  38908554.371   204465834.477        -781.433          46.000    38908554.603   159324027.587        -609.045          47.000  
G18  24328019.475                         -52.750          31.000    24328025.737    99619202.516         -42.781          36.000  
C20  24747777.124   128868170.138       -2772.242          42.000                                                                  
C09  36816474.570   191713041.129         295.047          42.000    36816466.358   148244655.590         228.097          44.000  
C23  25179933.619   131118519.657       -2429.983          38.000                                                                  
C19  24966838.750   130008880.263        -712.794          40.000                                                                  
C10  38439900.521   200166638.5432        545.559          37.000    38439898.217   154781541.636         422.622          43.000  
R21  20822813.095   111427078.629        1444.666          37.000    20822812.423    86665506.156        1124.469          43.000  
R08  23600565.849   126379966.388       -4669.764          40.000    23600605.632    98295692.180       -3632.075          39.000  
J03  37737295.215   198310828.708          -1.279          42.000    37737303.663   154527952.581          -0.947          43.000  
J07  37124233.273   195089164.131        -336.823          38.000    37124234.487   152017530.922        -262.532          43.000  
J04                                                                  37002606.287   151519482.916        -492.994          37.000  
> 2025 11 11 08 04 07.2000000  0 32                     
G28  24544286.145   128981074.862       -3387.346          39.000    24544293.440   100504766.806       -2639.240          36.000  
G26  21865532.814   114904147.924       -2545.866          43.000    21865533.872    89535704.379       -1983.809          39.000  
G27  20154300.977   105911567.781        1299.559          47.000    20154302.803    82528497.250        1012.429          45.000  
G31  22035649.167   115798119.717       -2702.447          40.000    22035649.198    90232299.886       -2105.504          39.000  
G04  20955155.100   110120082.885        -966.064          47.000    20955154.673    85807856.922        -752.588          44.000  
C37  22308620.349   116166834.488        -874.806          48.000                                                                  
C06  35873677.347   186803653.417          50.177          42.000    35873668.388   144448396.776          38.531          47.000  
C16  36315320.909   189103407.273          56.780          44.000    36315316.968   146226733.857          43.539          46.000  
C28  22652727.810   117958699.429         470.774          44.000                                                                  
C07  37189531.614   193655645.696         541.121          43.000    37189522.258   149746797.915         418.895          44.000  
C27  23491986.949   122328939.964        2492.334          44.000                                                                  
R10  22745329.504                       -2627.064          28.000                                                                  
R22  23146025.251   123555102.687        3909.139          44.000    23146051.802    96098545.016        3040.235          41.000  
R12  21720322.257   116026068.353        1666.503          46.000    21720325.488    90242507.068        1296.055          46.000  
R11  20154221.767   107698052.936        -713.269          45.000    20154221.612    83765145.757        -554.845          47.000  
R20  22134716.875   118364270.574       -2113.528          41.000    22134717.427    92061093.854       -1644.901          40.000  
R01  21131090.672   112957794.291       -2978.732          43.000                                                                  
G08  21722958.309   114154919.145        2902.980          43.000    21722962.692    88951908.880        2262.071          39.000  
G09  22203464.524   116679992.870        1242.358          44.000    22203467.145    90919484.461         968.167          43.000  
G16  20102028.238   105636872.138       -1126.323          45.000                                                                  
J02  38908560.365   204465865.755        -781.769          46.000    38908560.556   159324051.955        -609.131          47.000  
G18  24328019.578                         -54.572          31.000    24328026.154    99619204.190         -42.258          36.000  
C20  24747798.426   128868281.057       -2772.792          43.000                                                                  
C09  36816472.304   191713029.340         294.937          42.000    36816464.083   148244646.470         228.104          45.000  
C23  25179952.296   131118616.819       -2429.518          38.000                                                                  
C19  24966844.231   130008908.799        -713.244          42.000                                                                  
C10  38439896.858   200166616.7142        545.610          39.000    38439894.026   154781524.739         422.503          44.000  
R21  20822802.308   111427020.805        1445.300          41.000    20822801.611    86665461.163        1124.780          44.000  
R08  23600600.725   126380153.195       -4670.084          40.000    23600640.508    98295837.453       -3631.940          39.000  
J03  37737295.218   198310828.758          -1.217          40.000    37737303.700   154527952.642          -1.313          43.000  
J07  37124235.838   195089177.612        -336.980          39.000    37124237.074   152017541.429        -262.606          44.000  
J04                                                                  37002611.102   151519502.662        -493.479          37.000  
> 2025 11 11 08 04 07.2400000  0 32                     
G28  24544311.934   128981210.383       -3387.855          39.000    24544319.260   100504872.421       -2640.007          36.000  
G26  21865552.177   114904249.741       -2545.523          44.000    21865553.250    89535783.735       -1983.817          40.000  
G27  20154291.132   105911515.809        1299.395          47.000    20154292.930    82528456.756        1012.384          46.000  
G31  22035669.733   115798227.809       -2702.242          43.000    22035669.747    90232384.107       -2105.381          41.000  
G04  20955162.461   110120121.534        -966.217          47.000    20955162.019    85807887.040        -752.875          45.000  
C37  22308627.045   116166869.484        -874.838          48.000                                                                  
C06  35873676.963   186803651.418          50.031          43.000    35873667.979   144448395.242          38.397          47.000  
C16  36315320.485   189103405.014          56.558          45.000    36315316.532   146226732.103          43.760          47.000  
C28  22652724.207   117958680.585         471.052          46.000                                                                  
C07  37189527.444   193655624.051         541.043          43.000    37189518.104   149746781.161         418.859          44.000  
C27  23491967.797   122328840.278        2492.155          44.000                                                                  
R10  22745349.209                       -2628.592          28.000                                                                  
R22  23145995.984   123554946.333        3908.841          44.000    23146022.491    96098423.409        3040.197          41.000  
R12  21720309.765   116026001.706        1666.285          47.000    21720313.031    90242455.239        1295.792          46.000  
R11  20154227.105   107698081.464        -713.232          46.000    20154226.961    83765167.953        -554.884          47.000  
R20  22134732.680   118364355.112       -2113.417          41.000    22134733.277    92061159.667       -1645.351          40.000  
R01  21131112.991   112957913.468       -2979.270          45.000                                                                  
G08  21722936.214   114154803.041        2902.632          44.000    21722940.618    88951818.392        2262.117          41.000  
G09  22203455.081   116679943.171        1242.286          44.000    22203457.667    90919445.738         968.002          44.000  
G16  20102036.827   105636917.205       -1126.585          46.000                                                                  
J02  38908566.311   204465897.022        -781.720          47.000    38908566.528   159324076.326        -609.259          47.000  
G18  24328019.900                         -54.567          31.000    24328026.547    99619205.894         -42.407          33.000  
C20  24747819.714   128868391.985       -2773.221          44.000                                                                  
C09  36816470.033   191713017.557         294.706          43.000    36816461.803   148244637.356         227.994          45.000  
C23  25179970.947   131118713.955       -2428.670          38.000                                                                  
C19  24966849.691   130008937.371        -714.115          43.000                                                                  
C10  38439892.764   200166594.8722        545.881          40.000    38439889.821   154781507.858         422.127          44.000  
R21  20822791.502   111426962.966        1445.941          43.000    20822790.791    86665416.180        1124.719          45.000  
R08  23600635.602   126380339.992       -4670.046          41.000    23600675.398    98295982.747       -3632.273          39.000  
J03  37737295.229   198310828.831          -1.631          40.000    37737303.704   154527952.686          -1.237          43.000  
J07  37124238.377   195089191.081        -336.847          39.000    37124239.627   152017551.928        -262.522          44.000  
J04                                                                  37002615.918   151519522.380        -493.198          38.000  
