     3.04           OBSERVATION DATA    M: Mixed            RINEX VERSION / TYPE
RTKCONV 2.4.3 b34                       20251111 081124 UTC PGM / RUN BY / DATE 
format: u-blox UBX                                          COMMENT             
log: D:\GPdata\11_11\fingure_200_11_11_1.ubx                COMMENT             
                                                            MARKER NAME         
                                                            MARKER NUMBER       
                                                            MARKER TYPE         
                                                            OBSERVER / AGENCY   
                                                            REC # / TYPE / VERS 
                                                            ANT # / TYPE        
        0.0000        0.0000        0.0000                  APPROX POSITION XYZ 
        0.0000        0.0000        0.0000                  ANTENNA: DELTA H/E/N
G    8 C1C L1C D1C S1C C2L L2L D2L S2L                      SYS / # / OBS TYPES 
R    8 C1C L1C D1C S1C C2C L2C D2C S2C                      SYS / # / OBS TYPES 
J    8 C1C L1C D1C S1C C2L L2L D2L S2L                      SYS / # / OBS TYPES 
C    8 C2I L2I D2I S2I C7I L7I D7I S7I                      SYS / # / OBS TYPES 
  2025    11    11    08    02   10.9200000     GPS         TIME OF FIRST OBS   
  2025    11    11    08    02   30.8400000     GPS         TIME OF LAST OBS    
G L1C                                                       SYS / PHASE SHIFT   
G L2L  0.00000                                              SYS / PHASE SHIFT   
R L1C                                                       SYS / PHASE SHIFT   
R L2C                                                       SYS / PHASE SHIFT   
J L1C                                                       SYS / PHASE SHIFT   
J L2L  0.00000                                              SYS / PHASE SHIFT   
C L2I                                                       SYS / PHASE SHIFT   
C L7I                                                       SYS / PHASE SHIFT   
  8 R05  1 R12  6 R14 -7 R15  0 R16 -1 R24  2 R25  4 R26 -3 GLONASS SLOT / FRQ #
 C1C    0.000 C1P    0.000 C2C    0.000 C2P    0.000        GLONASS COD/PHS/BIS 
                                                            END OF HEADER       
> 2025 11 11 08 02 10.9200000  0 32                     
G28  24469607.194   128588642.0271      -3358.331          37.000    24469614.747   100198978.5471      -2616.919          38.000  
G26  21809404.937   114609195.3571      -2522.939          44.000    21809406.802    89305873.6291      -1965.930          43.000  
G27  20183910.283   106067162.8781       1381.318          48.000    20183911.338    82649741.4581       1076.149          46.000  
G31  21976285.766   115486158.2021      -2658.945          45.000    21976285.852    89989215.9081      -2071.827          44.000  
G04  20934673.578   110012451.7871       -880.780          46.000    20934673.393    85723986.5581       -686.212          46.000  
C37  22289346.777   116066475.0541       -846.996          49.000                                                                  
C06  35874840.518   186809707.9631         58.472          45.000    35874830.961   144453079.2261         45.306          48.000  
C16  36316636.153   189110252.7881         65.348          48.000    36316631.713   146232026.9371         50.671          48.000  
C28  22663958.537   118017176.9461        539.145          49.000                                                                  
C07  37201776.888   193719414.5541        559.425          43.000    37201768.947   149796106.9341        432.686          48.000  
C27  23547993.637   122620581.6691       2527.395          45.000                                                                  
R10  22688178.955   120940754.4411      -2609.899          41.000                                                                  
R22  23231246.826   124009979.8521       3917.649          44.000    23231277.092    96452336.6801       3047.056          42.000  
R12  21756748.735   116220644.7591       1684.437          49.000    21756750.829    90393844.4231       1310.046          48.000  
R11  20138974.179   107616571.6811       -684.012          51.000    20138972.574    83701773.1491       -531.996          50.000  
R20  22089782.538   118123982.2701      -2014.515          46.000    22089781.827    91874219.1221      -1566.873          47.000  
R01  21067129.769   112615880.3491      -2897.692          47.000                                                                  
G08  21787708.251   114495179.7331       2953.438          42.000    21787713.990    89217046.1321       2301.487          43.000  
G09  22231778.197   116828782.4161       1320.199          41.000    22231781.372    91035426.4921       1028.608          42.000  
G16  20077569.928   105508340.7371      -1079.785          46.000                                                                  
J02  38891232.200   204374803.0861       -780.133          46.000    38891231.947   159253092.7411       -607.910          47.000  
G18  24327574.681   127842267.7461         16.647          38.000    24327576.457    99617360.8881         13.348          39.000  
C20  24686246.774   128547763.1821      -2736.314          43.000                                                                  
C09  36823042.630   191747243.6951        298.145          45.000    36823035.307   148271103.6131        230.673          48.000  
C23  25125868.582   130836994.3641      -2410.959          41.000                                                                  
C19  24951631.124   129929689.2841       -645.222          41.000                                                                  
C10  38452228.472   200230843.5411        562.233          39.000    38452225.360   154831178.2131        434.700          43.000  
R21  20855237.558   111600587.1251       1543.707          51.000    20855237.408    86800458.8511       1200.720          50.000  
R08  23499177.125   125837027.0091      -4667.655          40.000    23499216.501    97873403.6181      -3630.165          44.000  
J03  37737314.648   198310929.4961          7.146          37.000    37737323.800   154528033.2001          5.769          42.000  
J07  37116816.726   195050187.1121       -329.387          39.000    37116817.337   151987161.4371       -256.903          46.000  
J04                                                                  36988702.815   151462552.6321       -483.594          40.000  
> 2025 11 11 08 02 10.9600000  0 32                     
G28  24469632.765   128588776.355       -3358.353          37.000    24469640.349   100199083.246       -2617.477          38.000  
G26  21809424.141   114609296.272       -2522.951          44.000    21809425.995    89305952.274       -1966.127          43.000  
G27  20183899.753   106067107.621        1381.326          48.000    20183900.818    82649698.399        1076.259          46.000  
G31  21976306.016   115486264.553       -2658.905          45.000    21976306.089    89989298.785       -2071.953          44.000  
G04  20934680.293   110012487.010        -880.695          46.000    20934680.076    85724014.003        -686.194          46.000  
C37  22289353.303   116066508.919        -846.791          49.000                                                                  
C06  35874840.081   186809705.614          58.539          45.000    35874830.500   144453077.413          45.251          48.000  
C16  36316635.704   189110250.158          65.513          48.000    36316631.214   146232024.902          50.748          48.000  
C28  22663954.424   118017155.375         539.160          49.000                                                                  
C07  37201772.574   193719392.168         559.451          43.000    37201764.639   149796089.614         432.875          48.000  
C27  23547974.242   122620480.564        2527.501          45.000                                                                  
R10  22688198.527   120940858.838       -2609.896          41.000                                                                  
R22  23231217.480   124009823.123        3917.877          44.000    23231247.718    96452214.791        3047.122          42.000  
R12  21756736.119   116220577.376        1684.464          49.000    21756738.197    90393792.014        1310.080          48.000  
R11  20138979.312   107616599.028        -683.872          51.000    20138977.673    83701794.421        -531.925          50.000  
R20  22089797.606   118124062.838       -2014.396          46.000    22089796.880    91874281.797       -1566.949          47.000  
R01  21067151.435   112615996.246       -2897.625          47.000                                                                  
G08  21787685.769   114495061.596        2953.399          42.000    21787691.536    89216954.078        2301.330          43.000  
G09  22231768.128   116828729.608        1320.079          41.000    22231771.335    91035385.338        1028.715          42.000  
G16  20077578.123   105508383.925       -1079.819          46.000                                                                  
J02  38891238.133   204374834.286        -780.109          46.000    38891237.894   159253117.057        -607.941          47.000  
G18  24327574.556   127842267.062          16.753          38.000    24327576.336    99617360.336          13.652          39.000  
C20  24686267.819   128547872.626       -2736.313          43.000                                                                  
C09  36823040.373   191747231.757         298.239          45.000    36823032.991   148271094.382         230.722          48.000  
C23  25125887.097   130837090.793       -2410.847          41.000                                                                  
C19  24951636.103   129929715.071        -644.922          41.000                                                                  
C10  38452224.166   200230821.039         562.308          39.000    38452221.006   154831160.804         435.004          43.000  
R21  20855226.017   111600525.368        1543.768          51.000    20855225.848    86800410.820        1200.714          50.000  
R08  23499211.996   125837213.699       -4667.451          40.000    23499251.348    97873548.828       -3630.226          44.000  
J03  37737314.633   198310929.218           6.952          37.000    37737323.748   154528032.983           5.506          42.000  
J07  37116819.235   195050200.297        -329.587          39.000    37116819.842   151987171.701        -256.761          46.000  
J04                                                                  36988707.545   151462571.978        -483.779          40.000  
> 2025 11 11 08 02 11.0000000  0 32                     
G28  24469658.344   128588910.690       -3358.481          37.000    24469665.905   100199187.903       -2616.874          38.000  
G26  21809443.345   114609397.193       -2523.072          44.000    21809445.202    89306030.909       -1966.053          43.000  
G27  20183889.200   106067052.364        1381.358          48.000    20183890.300    82649655.340        1076.328          46.000  
G31  21976326.261   115486370.903       -2658.836          45.000    21976326.306    89989381.646       -2071.708          44.000  
G04  20934686.986   110012522.238        -880.750          46.000    20934686.791    85724041.453        -686.267          46.000  
C37  22289359.793   116066542.789        -846.793          49.000                                                                  
C06  35874839.624   186809703.268          58.545          45.000    35874830.036   144453075.593          45.380          48.000  
C16  36316635.205   189110247.529          65.587          48.000    36316630.734   146232022.871          50.750          48.000  
C28  22663950.299   118017133.802         539.244          49.000                                                                  
C07  37201768.250   193719369.782         559.513          43.000    37201760.347   149796072.302         432.822          48.000  
C27  23547954.836   122620379.459        2527.569          45.000                                                                  
R10  22688218.118   120940963.221       -2609.680          41.000                                                                  
R22  23231188.100   124009666.394        3918.104          44.000    23231218.342    96452092.893        3047.322          42.000  
R12  21756723.507   116220509.988        1684.559          49.000    21756725.579    90393739.601        1310.196          48.000  
R11  20138984.426   107616626.376        -683.765          51.000    20138982.797    83701815.694        -531.905          50.000  
R20  22089812.676   118124143.407       -2014.310          46.000    22089811.952    91874344.468       -1566.911          47.000  
R01  21067173.118   112616112.141       -2897.497          47.000                                                                  
G08  21787663.267   114494943.467        2953.233          42.000    21787669.066    89216862.023        2301.291          43.000  
G09  22231758.067   116828676.785        1320.334          41.000    22231761.288    91035344.180        1028.778          42.000  
G16  20077586.330   105508427.105       -1079.672          46.000                                                                  
J02  38891244.058   204374865.485        -780.054          46.000    38891243.831   159253141.370        -607.910          47.000  
G18  24327574.432   127842266.374          16.935          38.000    24327576.205    99617359.812          13.313          39.000  
C20  24686288.846   128547982.074       -2736.358          43.000                                                                  
C09  36823038.086   191747219.823         298.228          45.000    36823030.696   148271085.149         230.766          48.000  
C23  25125905.618   130837187.228       -2410.877          41.000                                                                  
C19  24951641.047   129929740.869        -644.922          41.000                                                                  
C10  38452219.856   200230798.523         562.660          39.000    38452216.665   154831143.402         435.059          43.000  
R21  20855214.464   111600463.616        1543.720          51.000    20855214.311    86800362.787        1200.739          50.000  
R08  23499246.845   125837400.387       -4667.248          40.000    23499286.224    97873694.038       -3630.269          44.000  
J03  37737314.580   198310928.931           7.045          37.000    37737323.696   154528032.760           5.465          42.000  
J07  37116821.749   195050213.491        -329.883          39.000    37116822.352   151987181.975        -256.872          46.000  
J04                                                                  36988712.263   151462591.309        -483.581          40.000  
> 2025 11 11 08 02 11.0400000  0 32                     
G28  24469683.929   128589045.006       -3358.186          37.000    24469691.446   100199292.557       -2616.487          38.000  
G26  21809462.535   114609498.101       -2522.883          44.000    21809464.411    89306109.537       -1965.841          43.000  
G27  20183878.685   106066997.102        1381.445          48.000    20183879.768    82649612.278        1076.459          46.000  
G31  21976346.480   115486477.242       -2658.612          45.000    21976346.538    89989464.521       -2071.805          44.000  
G04  20934693.676   110012557.460        -880.652          46.000    20934693.490    85724068.899        -686.212          46.000  
C37  22289366.290   116066576.654        -846.664          49.000                                                                  
C06  35874839.167   186809700.909          58.826          45.000    35874829.589   144453073.771          45.514          48.000  
C16  36316634.725   189110244.891          65.812          48.000    36316630.253   146232020.837          50.776          48.000  
C28  22663946.159   118017112.234         539.205          49.000                                                                  
C07  37201763.959   193719347.383         559.830          43.000    37201756.049   149796054.988         432.828          48.000  
C27  23547935.428   122620278.352        2527.662          45.000                                                                  
R10  22688237.721   120941067.611       -2609.702          41.000                                                                  
R22  23231158.728   124009509.658        3918.345          44.000    23231188.970    96451970.989        3047.552          42.000  
R12  21756710.913   116220442.597        1684.703          49.000    21756712.956    90393687.186        1310.333          48.000  
R11  20138989.575   107616653.720        -683.641          51.000    20138987.905    83701836.963        -531.793          50.000  
R20  22089827.744   118124223.991       -2014.535          46.000    22089826.995    91874407.122       -1566.539          47.000  
R01  21067194.803   112616228.025       -2897.230          47.000                                                                  
G08  21787640.789   114494825.326        2953.392          42.000    21787646.587    89216769.975        2301.157          43.000  
G09  22231748.018   116828623.965        1320.469          41.000    22231751.247    91035303.016        1028.984          42.000  
G16  20077594.536   105508470.274       -1079.357          46.000                                                                  
J02  38891249.995   204374896.677        -779.883          46.000    38891249.767   159253165.669        -607.605          47.000  
G18  24327574.288   127842265.671          17.340          38.000    24327576.067    99617359.292          13.049          39.000  
C20  24686309.844   128548091.519       -2736.266          43.000                                                                  
C09  36823035.789   191747207.889         298.251          45.000    36823028.393   148271075.913         230.831          48.000  
C23  25125924.139   130837283.649       -2410.662          41.000                                                                  
C19  24951645.996   129929766.661        -644.887          41.000                                                                  
C10  38452215.531   200230776.007         562.887          39.000    38452212.342   154831125.992         435.250          43.000  
R21  20855202.913   111600401.856        1543.890          51.000    20855202.779    86800314.752        1200.818          50.000  
R08  23499281.721   125837587.088       -4667.383          40.000    23499321.100    97873839.239       -3630.115          44.000  
J03  37737314.511   198310928.620           7.520          37.000    37737323.630   154528032.527           5.664          42.000  
J07  37116824.237   195050226.662        -329.581          39.000    37116824.849   151987192.244        -256.824          46.000  
J04                                                                  36988716.968   151462610.635        -483.307          40.000  
> 2025 11 11 08 02 11.0800000  0 32                     
G28  24469709.473   128589179.324       -3358.044          37.000    24469717.009   100199397.216       -2616.389          38.000  
G26  21809481.726   114609599.006       -2522.708          44.000    21809483.623    89306188.171       -1965.823          43.000  
G27  20183868.147   106066941.844        1381.451          48.000    20183869.247    82649569.222        1076.415          46.000  
G31  21976366.706   115486583.603       -2658.962          45.000    21976366.787    89989547.382       -2071.631          44.000  
G04  20934700.369   110012592.682        -880.603          46.000    20934700.186    85724096.345        -686.176          46.000  
C37  22289372.792   116066610.523        -846.706          49.000                                                                  
C06  35874838.695   186809698.551          58.917          45.000    35874829.103   144453071.950          45.557          48.000  
C16  36316634.233   189110242.258          65.844          48.000    36316629.755   146232018.802          50.844          48.000  
C28  22663942.021   118017090.667         539.130          49.000                                                                  
C07  37201759.647   193719324.985         559.980          43.000    37201751.757   149796037.681         432.693          48.000  
C27  23547916.016   122620177.243        2527.679          45.000                                                                  
R10  22688257.313   120941172.003       -2609.754          41.000                                                                  
R22  23231129.350   124009352.921        3918.443          44.000    23231159.602    96451849.093        3047.512          42.000  
R12  21756698.306   116220375.206        1684.745          49.000    21756700.324    90393634.768        1310.413          48.000  
R11  20138994.677   107616681.063        -683.573          51.000    20138993.032    83701858.225        -531.613          50.000  
R20  22089842.821   118124304.558       -2014.344          46.000    22089842.078    91874469.785       -1566.541          47.000  
R01  21067216.478   112616343.922       -2897.341          47.000                                                                  
G08  21787618.292   114494707.171        2953.695          42.000    21787624.096    89216677.910        2301.411          43.000  
G09  22231737.962   116828571.153        1320.379          41.000    22231741.198    91035261.867        1028.883          42.000  
G16  20077602.754   105508513.455       -1079.455          46.000                                                                  
J02  38891255.929   204374927.873        -779.889          46.000    38891255.704   159253189.982        -607.739          47.000  
G18  24327574.136   127842264.985          17.250          38.000    24327575.926    99617358.758          13.152          39.000  
C20  24686330.853   128548200.946       -2735.891          43.000                                                                  
C09  36823033.534   191747195.950         298.385          45.000    36823026.116   148271066.682         230.789          48.000  
C23  25125942.664   130837380.070       -2410.564          41.000                                                                  
C19  24951650.948   129929792.463        -644.984          41.000                                                                  
C10  38452211.208   200230753.498         562.787          39.000    38452208.034   154831108.582         435.298          43.000  
R21  20855191.370   111600340.101        1543.866          51.000    20855191.242    86800266.719        1200.806          50.000  
R08  23499316.569   125837773.776       -4667.254          40.000    23499355.950    97873984.432       -3629.894          44.000  
J03  37737314.435   198310928.319           7.596          37.000    37737323.587   154528032.307           5.483          42.000  
J07  37116826.740   195050239.831        -329.350          39.000    37116827.370   151987202.515        -256.815          46.000  
J04                                                                  36988721.696   151462629.962        -483.201          40.000  
> 2025 11 11 08 02 11.1200000  0 32                     
G28  24469735.011   128589313.644       -3357.996          37.000    24469742.569   100199501.875       -2616.301          38.000  
G26  21809500.942   114609699.929       -2522.943          44.000    21809502.821    89306266.806       -1965.831          43.000  
G27  20183857.638   106066886.584        1381.476          48.000    20183858.713    82649526.160        1076.515          46.000  
G31  21976386.934   115486689.954       -2658.910          45.000    21976387.030    89989630.251       -2071.694          44.000  
G04  20934707.069   110012627.907        -880.627          46.000    20934706.880    85724123.797        -686.267          46.000  
C37  22289379.275   116066644.392        -846.745          49.000                                                                  
C06  35874838.218   186809696.186          59.106          45.000    35874828.646   144453070.126          45.605          48.000  
C16  36316633.743   189110239.632          65.715          48.000    36316629.263   146232016.769          50.835          48.000  
C28  22663937.874   118017069.098         539.175          49.000                                                                  
C07  37201755.348   193719302.589         559.993          43.000    37201747.473   149796020.365         432.812          48.000  
C27  23547896.574   122620076.138        2527.624          45.000                                                                  
R10  22688276.899   120941276.397       -2609.818          41.000                                                                  
R22  23231099.976   124009196.183        3918.497          44.000    23231130.249    96451727.196        3047.480          42.000  
R12  21756685.695   116220307.818        1684.729          49.000    21756687.689    90393582.353        1310.402          48.000  
R11  20138999.791   107616708.412        -683.675          51.000    20138998.153    83701879.494        -531.658          50.000  
R20  22089857.915   118124385.133       -2014.356          46.000    22089857.166    91874532.454       -1566.675          47.000  
R01  21067238.160   112616459.827       -2897.534          47.000                                                                  
G08  21787595.801   114494589.022        2953.766          42.000    21787601.608    89216585.852        2301.484          43.000  
G09  22231727.921   116828518.348        1320.199          41.000    22231731.130    91035220.706        1028.977          42.000  
G16  20077610.979   105508556.632       -1079.425          46.000                                                                  
J02  38891261.891   204374959.070        -779.926          46.000    38891261.622   159253214.290        -607.697          47.000  
G18  24327574.009   127842264.294          17.281          38.000    24327575.796    99617358.228          13.132          40.000  
C20  24686351.881   128548310.380       -2735.829          43.000                                                                  
C09  36823031.242   191747184.005         298.545          45.000    36823023.846   148271057.445         230.894          48.000  
C23  25125961.176   130837476.502       -2410.711          41.000                                                                  
C19  24951655.882   129929818.261        -645.036          41.000                                                                  
C10  38452206.891   200230730.992         562.688          39.000    38452203.697   154831091.176         435.205          43.000  
R21  20855179.838   111600278.348        1543.817          51.000    20855179.699    86800218.692        1200.684          50.000  
R08  23499351.434   125837960.460       -4667.088          40.000    23499390.796    97874129.641       -3630.079          43.000  
J03  37737314.363   198310928.034           7.294          37.000    37737323.522   154528032.079           5.607          42.000  
J07  37116829.244   195050252.996        -329.112          39.000    37116829.891   151987212.774        -256.596          46.000  
J04                                                                  36988726.423   151462649.303        -483.406          40.000  
> 2025 11 11 08 02 11.1600000  0 32                     
G28  24469760.571   128589447.966       -3358.049          37.000    24469768.122   100199606.547       -2616.575          38.000  
G26  21809520.135   114609800.839       -2522.875          44.000    21809522.009    89306345.437       -1965.815          43.000  
G27  20183847.114   106066831.335        1381.276          48.000    20183848.195    82649483.115        1076.234          46.000  
G31  21976407.159   115486796.307       -2658.900          45.000    21976407.252    89989713.129       -2071.881          44.000  
G04  20934713.759   110012663.130        -880.621          46.000    20934713.579    85724151.246        -686.279          46.000  
C37  22289385.776   116066678.259        -846.726          49.000                                                                  
C06  35874837.738   186809693.836          58.881          45.000    35874828.174   144453068.306          45.544          48.000  
C16  36316633.275   189110237.000          65.756          48.000    36316628.796   146232014.738          50.823          48.000  
C28  22663933.714   118017047.537         539.036          49.000                                                                  
C07  37201751.041   193719280.199         559.843          43.000    37201743.173   149796003.051         432.830          48.000  
C27  23547877.155   122619975.032        2527.642          45.000                                                                  
R10  22688296.486   120941380.811       -2610.269          41.000                                                                  
R22  23231070.613   124009039.464        3918.127          44.000    23231100.867    96451605.304        3047.336          42.000  
R12  21756673.080   116220240.431        1684.675          49.000    21756675.078    90393529.949        1310.183          48.000  
R11  20139004.912   107616735.762        -683.762          51.000    20139003.284    83701900.768        -531.809          50.000  
R20  22089872.989   118124465.707       -2014.343          46.000    22089872.253    91874595.132       -1566.887          47.000  
R01  21067259.842   112616575.728       -2897.590          47.000                                                                  
G08  21787573.317   114494470.876        2953.733          42.000    21787579.124    89216493.792        2301.491          43.000  
G09  22231717.847   116828465.524        1320.431          41.000    22231721.083    91035179.562        1028.698          42.000  
G16  20077619.208   105508599.822       -1079.645          46.000                                                                  
J02  38891267.804   204374990.259        -779.773          46.000    38891267.547   159253238.603        -607.782          47.000  
G18  24327573.859   127842263.611          17.098          38.000    24327575.666    99617357.690          13.306          39.000  
C20  24686372.886   128548419.815       -2735.830          43.000                                                                  
C09  36823028.939   191747172.052         298.802          45.000    36823021.546   148271048.210         230.863          48.000  
C23  25125979.689   130837572.941       -2410.944          41.000                                                                  
C19  24951660.865   129929844.052        -644.877          41.000                                                                  
C10  38452202.541   200230708.497         562.373          39.000    38452199.350   154831073.787         434.810          43.000  
R21  20855168.299   111600216.597        1543.762          51.000    20855168.163    86800170.669        1200.555          50.000  
R08  23499386.290   125838147.151       -4667.182          40.000    23499425.645    97874274.852       -3630.252          43.000  
J03  37737314.300   198310927.727           7.516          37.000    37737323.465   154528031.847           5.774          42.000  
J07  37116831.769   195050266.168        -329.200          39.000    37116832.407   151987223.039        -256.595          46.000  
J04                                                                  36988731.121   151462668.611        -482.940          40.000  
> 2025 11 11 08 02 11.2000000  0 32                     
G28  24469786.148   128589582.293       -3358.184          37.000    24469793.680   100199711.221       -2616.786          38.000  
G26  21809539.347   114609901.747       -2522.750          44.000    21809541.205    89306424.052       -1965.539          43.000  
G27  20183836.605   106066776.085        1381.203          48.000    20183837.652    82649440.061        1076.266          46.000  
G31  21976427.396   115486902.646       -2658.606          45.000    21976427.494    89989795.997       -2071.807          44.000  
G04  20934720.487   110012698.361        -880.750          46.000    20934720.296    85724178.691        -686.206          46.000  
C37  22289392.275   116066712.129        -846.739          49.000                                                                  
C06  35874837.275   186809691.483          58.838          45.000    35874827.717   144453066.489          45.453          48.000  
C16  36316632.769   189110234.370          65.745          48.000    36316628.301   146232012.700          50.894          48.000  
C28  22663929.559   118017025.969         539.115          49.000                                                                  
C07  37201746.736   193719257.808         559.785          43.000    37201738.893   149795985.732         432.944          48.000  
C27  23547857.750   122619873.925        2527.704          45.000                                                                  
R10  22688316.068   120941485.204       -2610.111          41.000                                                                  
R22  23231041.253   124008882.738        3918.080          44.000    23231071.502    96451483.402        3047.461          42.000  
R12  21756660.474   116220173.045        1684.623          49.000    21756662.463    90393477.537        1310.200          48.000  
R11  20139010.047   107616763.112        -683.805          51.000    20139008.407    83701922.041        -531.870          50.000  
R20  22089888.056   118124546.283       -2014.370          46.000    22089887.308    91874657.802       -1566.849          47.000  
R01  21067281.538   112616691.626       -2897.561          47.000                                                                  
G08  21787550.831   114494352.740        2953.504          42.000    21787556.635    89216401.721        2301.691          43.000  
G09  22231707.816   116828412.713        1320.321          41.000    22231711.027    91035138.410        1028.702          42.000  
G16  20077627.433   105508643.008       -1079.706          46.000                                                                  
J02  38891273.748   204375021.459        -779.932          46.000    38891273.468   159253262.905        -607.642          47.000  
G18  24327573.739   127842262.929          17.003          38.000    24327575.529    99617357.152          13.381          39.000  
C20  24686393.879   128548529.266       -2736.153          43.000                                                                  
C09  36823026.650   191747160.105         298.813          45.000    36823019.245   148271038.984         230.687          48.000  
C23  25125998.201   130837669.366       -2410.823          41.000                                                                  
C19  24951665.813   129929869.856        -644.973          41.000                                                                  
C10  38452198.258   200230685.997         562.419          39.000    38452195.038   154831056.383         434.910          43.000  
R21  20855156.744   111600154.842        1543.817          51.000    20855156.608    86800122.643        1200.580          50.000  
R08  23499421.154   125838333.838       -4667.145          40.000    23499460.514    97874420.054       -3630.146          43.000  
J03  37737314.238   198310927.437           7.343          37.000    37737323.409   154528031.622           5.702          42.000  
J07  37116834.286   195050279.333        -329.127          39.000    37116834.911   151987233.304        -256.638          46.000  
J04                                                                  36988735.841   151462687.920        -482.702          40.000  
> 2025 11 11 08 02 11.2400000  0 32                     
G28  24469811.719   128589716.614       -3358.162          37.000    24469819.239   100199815.887       -2616.725          38.000  
G26  21809558.578   114610002.655       -2522.721          44.000    21809560.405    89306502.694       -1965.894          43.000  
G27  20183826.076   106066720.835        1381.172          48.000    20183827.126    82649397.008        1076.267          46.000  
G31  21976447.642   115487008.996       -2658.685          45.000    21976447.736    89989878.865       -2071.761          44.000  
G04  20934727.187   110012733.590        -880.804          46.000    20934727.006    85724206.142        -686.273          46.000  
C37  22289398.773   116066745.995        -846.719          49.000                                                                  
C06  35874836.816   186809689.131          58.777          45.000    35874827.260   144453064.665          45.544          48.000  
C16  36316632.274   189110231.741          65.709          48.000    36316627.809   146232010.668          50.846          48.000  
C28  22663925.401   118017004.404         539.109          49.000                                                                  
C07  37201742.468   193719235.415         559.813          43.000    37201734.595   149795968.413         432.967          48.000  
C27  23547838.331   122619772.821        2527.617          45.000                                                                  
R10  22688335.650   120941589.584       -2609.734          41.000                                                                  
R22  23231011.893   124008726.004        3918.205          44.000    23231042.125    96451361.511        3047.305          42.000  
R12  21756647.862   116220105.656        1684.651          49.000    21756649.859    90393425.121        1310.294          48.000  
R11  20139015.151   107616790.460        -683.779          51.000    20139013.520    83701943.315        -531.900          50.000  
R20  22089903.115   118124626.862       -2014.467          46.000    22089902.375    91874720.473       -1566.827          47.000  
R01  21067303.222   112616807.519       -2897.452          47.000                                                                  
G08  21787528.357   114494234.613        2953.226          42.000    21787534.138    89216309.670        2301.450          43.000  
G09  22231697.758   116828359.891        1320.448          41.000    22231700.979    91035097.253        1028.841          42.000  
G16  20077635.648   105508686.189       -1079.629          46.000                                                                  
J02  38891279.675   204375052.656        -779.980          46.000    38891279.421   159253287.212        -607.635          47.000  
G18  24327573.603   127842262.229          17.263          38.000    24327575.398    99617356.592          13.798          39.000  
C20  24686414.907   128548638.703       -2736.076          43.000                                                                  
C09  36823024.345   191747148.176         298.427          45.000    36823016.969   148271029.751         230.737          48.000  
C23  25126016.727   130837765.792       -2410.752          41.000                                                                  
C19  24951670.764   129929895.658        -645.044          41.000                                                                  
C10  38452193.920   200230663.485         562.672          39.000    38452190.718   154831038.981         434.966          43.000  
R21  20855145.179   111600093.091        1543.781          51.000    20855145.082    86800074.611        1200.690          50.000  
R08  23499456.037   125838520.524       -4667.095          40.000    23499495.386    97874565.259       -3630.171          43.000  
J03  37737314.210   198310927.154           7.136          37.000    37737323.346   154528031.385           5.884          42.000  
J07  37116836.803   195050292.532        -329.725          39.000    37116837.427   151987243.572        -256.696          46.000  
J04                                                                  36988740.575   151462707.272        -483.330          40.000  
> 2025 11 11 08 02 11.2800000  0 32                     
G28  24469837.292   128589850.947       -3358.301          37.000    24469844.800   100199920.534       -2616.383          38.000  
G26  21809577.782   114610103.563       -2522.710          44.000    21809579.624    89306581.325       -1965.894          43.000  
G27  20183815.556   106066665.579        1381.292          48.000    20183816.613    82649353.949        1076.411          46.000  
G31  21976467.866   115487115.341       -2658.628          45.000    21976467.962    89989961.734       -2071.744          44.000  
G04  20934733.895   110012768.817        -880.737          46.000    20934733.699    85724233.590        -686.237          46.000  
C37  22289405.299   116066779.862        -846.687          49.000                                                                  
C06  35874836.354   186809686.772          58.893          45.000    35874826.811   144453062.845          45.514          48.000  
C16  36316631.784   189110229.112          65.685          48.000    36316627.298   146232008.628          50.957          48.000  
C28  22663921.258   118016982.836         539.159          49.000                                                                  
C07  37201738.160   193719213.026         559.769          43.000    37201730.279   149795951.100         432.869          48.000  
C27  23547818.910   122619671.707        2527.753          45.000                                                                  
R10  22688355.230   120941693.973       -2609.661          41.000                                                                  
R22  23230982.516   124008569.265        3918.367          44.000    23231012.736    96451239.613        3047.336          42.000  
R12  21756635.253   116220038.269        1684.644          49.000    21756637.251    90393372.708        1310.293          48.000  
R11  20139020.253   107616817.807        -683.722          51.000    20139018.644    83701964.586        -531.831          50.000  
R20  22089918.188   118124707.439       -2014.458          46.000    22089917.394    91874783.147       -1566.856          47.000  
R01  21067324.873   112616923.415       -2897.418          47.000                                                                  
G08  21787505.862   114494116.473        2953.292          42.000    21787511.652    89216217.620        2301.249          43.000  
G09  22231687.735   116828307.081        1320.332          41.000    22231690.934    91035056.107        1028.684          42.000  
G16  20077643.868   105508729.367       -1079.535          46.000                                                                  
J02  38891285.618   204375083.850        -779.913          46.000    38891285.354   159253311.523        -607.733          47.000  
G18  24327573.477   127842261.556          16.943          38.000    24327575.275    99617356.060          13.522          39.000  
C20  24686435.954   128548748.139       -2736.004          43.000                                                                  
C09  36823022.047   191747136.237         298.400          45.000    36823014.687   148271020.517         230.812          48.000  
C23  25126035.228   130837862.231       -2410.933          41.000                                                                  
C19  24951675.724   129929921.442        -644.738          41.000                                                                  
C10  38452189.595   200230640.973         562.875          39.000    38452186.380   154831021.572         435.120          43.000  
R21  20855133.643   111600031.338        1543.805          51.000    20855133.544    86800026.580        1200.769          50.000  
R08  23499490.899   125838707.225       -4667.385          40.000    23499530.257    97874710.461       -3630.135          43.000  
J03  37737314.137   198310926.858           7.288          37.000    37737323.277   154528031.146           5.975          42.000  
J07  37116839.314   195050305.718        -329.791          39.000    37116839.924   151987253.837        -256.668          46.000  
J04                                                                  36988745.290   151462726.612        -483.572          40.000  
> 2025 11 11 08 02 11.3200000  0 32                     
G28  24469862.868   128589985.261       -3358.053          37.000    24469870.374   100200025.224       -2616.921          38.000  
G26  21809597.015   114610204.477       -2522.791          44.000    21809598.850    89306659.957       -1965.878          43.000  
G27  20183805.045   106066610.318        1381.466          48.000    20183806.091    82649310.888        1076.503          46.000  
G31  21976488.107   115487221.693       -2658.760          45.000    21976488.172    89990044.609       -2071.882          44.000  
G04  20934740.571   110012804.041        -880.682          46.000    20934740.411    85724261.038        -686.224          46.000  
C37  22289411.802   116066813.731        -846.739          49.000                                                                  
C06  35874835.885   186809684.414          58.923          45.000    35874826.358   144453061.021          45.575          48.000  
C16  36316631.291   189110226.474          65.844          48.000    36316626.819   146232006.590          50.974          48.000  
C28  22663917.132   118016961.262         539.279          49.000                                                                  
C07  37201733.867   193719190.634         559.775          43.000    37201725.981   149795933.792         432.703          48.000  
C27  23547799.484   122619570.601        2527.666          45.000                                                                  
R10  22688374.794   120941798.359       -2609.633          41.000                                                                  
R22  23230953.157   124008412.541        3918.173          44.000    23230983.353    96451117.725        3047.206          42.000  
R12  21756622.637   116219970.878        1684.725          49.000    21756624.636    90393320.291        1310.358          48.000  
R11  20139025.378   107616845.152        -683.642          51.000    20139023.746    83701985.851        -531.694          50.000  
R20  22089933.234   118124788.013       -2014.399          46.000    22089932.436    91874845.827       -1566.986          47.000  
R01  21067346.545   112617039.319       -2897.533          47.000                                                                  
G08  21787483.386   114493998.333        2953.375          42.000    21787489.181    89216125.569        2301.190          43.000  
G09  22231677.717   116828254.276        1320.142          41.000    22231680.901    91035014.946        1028.897          42.000  
G16  20077652.087   105508772.549       -1079.529          46.000                                                                  
J02  38891291.564   204375115.041        -779.816          46.000    38891291.273   159253335.829        -607.733          47.000  
G18  24327573.361   127842260.867          17.085          38.000    24327575.137    99617355.532          13.300          39.000  
C20  24686456.982   128548857.581       -2736.033          43.000                                                                  
C09  36823019.761   191747124.303         298.341          45.000    36823012.383   148271011.277         230.953          48.000  
C23  25126053.743   130837958.647       -2410.660          41.000                                                                  
C19  24951680.690   129929947.241        -644.814          41.000                                                                  
C10  38452185.254   200230618.452         563.072          39.000    38452182.028   154831004.158         435.261          43.000  
R21  20855122.103   111599969.589        1543.720          51.000    20855122.009    86799978.549        1200.793          50.000  
R08  23499525.760   125838893.913       -4667.330          40.000    23499565.113    97874855.664       -3630.116          43.000  
J03  37737314.098   198310926.548           7.621          37.000    37737323.228   154528030.915           5.864          42.000  
J07  37116841.802   195050318.884        -329.468          39.000    37116842.428   151987264.101        -256.656          46.000  
J04                                                                  36988750.013   151462745.929        -483.229          40.000  
> 2025 11 11 08 02 11.3600000  0 32                     
G28  24469888.443   128590119.599       -3358.396          37.000    24469895.935   100200129.850       -2616.083          38.000  
G26  21809616.187   114610305.381       -2522.677          44.000    21809618.060    89306738.587       -1965.886          43.000  
G27  20183794.541   106066555.064        1381.383          48.000    20183795.590    82649267.831        1076.465          46.000  
G31  21976508.350   115487328.051       -2658.912          45.000    21976508.419    89990127.477       -2071.799          44.000  
G04  20934747.263   110012839.266        -880.646          46.000    20934747.114    85724288.493        -686.346          46.000  
C37  22289418.317   116066847.599        -846.745          49.000                                                                  
C06  35874835.436   186809682.057          58.887          45.000    35874825.909   144453059.198          45.581          48.000  
C16  36316630.783   189110223.840          65.867          48.000    36316626.327   146232004.548          51.045          48.000  
C28  22663913.005   118016939.697         539.202          49.000                                                                  
C07  37201729.576   193719168.236         559.904          43.000    37201721.714   149795916.473         432.854          48.000  
C27  23547780.049   122619469.497        2527.605          45.000                                                                  
R10  22688394.397   120941902.738       -2609.509          41.000                                                                  
R22  23230923.780   124008255.806        3918.285          44.000    23230953.985    96450995.831        3047.232          42.000  
R12  21756610.013   116219903.487        1684.748          49.000    21756612.025    90393267.873        1310.421          48.000  
R11  20139030.464   107616872.495        -683.580          51.000    20139028.875    83702007.118        -531.658          50.000  
R20  22089948.307   118124868.587       -2014.395          46.000    22089947.491    91874908.493       -1566.803          47.000  
R01  21067368.205   112617155.227       -2897.689          47.000                                                                  
G08  21787460.908   114493880.189        2953.534          42.000    21787466.693    89216033.510        2301.354          43.000  
G09  22231667.654   116828201.462        1320.241          41.000    22231670.827    91034973.789        1028.913          42.000  
G16  20077660.293   105508815.728       -1079.498          46.000                                                                  
J02  38891297.495   204375146.236        -779.864          46.000    38891297.212   159253360.135        -607.678          47.000  
G18  24327573.251   127842260.193          16.902          38.000    24327575.015    99617355.022          12.859          39.000  
C20  24686478.022   128548967.014       -2735.897          43.000                                                                  
C09  36823017.480   191747112.359         298.487          45.000    36823010.064   148271002.043         230.903          48.000  
C23  25126072.246   130838055.075       -2410.668          41.000                                                                  
C19  24951685.630   129929973.045        -645.031          41.000                                                                  
C10  38452180.946   200230595.939         563.015          39.000    38452177.723   154830986.760         435.057          43.000  
R21  20855110.588   111599907.841        1543.652          51.000    20855110.458    86799930.525        1200.641          49.000  
R08  23499560.638   125839080.608       -4667.372          40.000    23499599.965    97875000.870       -3630.159          43.000  
J03  37737314.017   198310926.249           7.579          37.000    37737323.174   154528030.690           5.713          42.000  
J07  37116844.299   195050332.053        -329.302          39.000    37116844.941   151987274.364        -256.618          46.000  
J04                                                                  36988754.738   151462765.259        -483.276          40.000  
> 2025 11 11 08 02 11.4000000  0 32                     
G28  24469914.003   128590253.926       -3358.384          37.000    24469921.503   100200234.536       -2616.676          38.000  
G26  21809635.373   114610406.295       -2522.770          44.000    21809637.267    89306817.224       -1965.956          43.000  
G27  20183784.037   106066499.810        1381.320          48.000    20183785.074    82649224.775        1076.396          46.000  
G31  21976528.581   115487434.397       -2658.786          45.000    21976528.642    89990210.352       -2071.884          44.000  
G04  20934753.964   110012874.494        -880.658          46.000    20934753.822    85724315.946        -686.401          46.000  
C37  22289424.817   116066881.467        -846.752          49.000                                                                  
C06  35874834.963   186809679.703          58.832          45.000    35874825.475   144453057.373          45.599          48.000  
C16  36316630.257   189110221.212          65.751          48.000    36316625.827   146232002.516          50.909          48.000  
C28  22663908.833   118016918.135         539.081          49.000                                                                  
C07  37201725.285   193719145.851         559.689          43.000    37201717.444   149795899.156         432.905          48.000  
C27  23547760.613   122619368.399        2527.445          45.000                                                                  
R10  22688413.977   120942007.138       -2609.843          41.000                                                                  
R22  23230894.428   124008099.078        3918.198          44.000    23230924.615    96450873.915        3047.674          42.000  
R12  21756597.377   116219836.099        1684.713          49.000    21756599.401    90393215.462        1310.299          48.000  
R11  20139035.587   107616899.842        -683.663          51.000    20139033.997    83702028.387        -531.696          50.000  
R20  22089963.377   118124949.177       -2014.674          46.000    22089962.588    91874971.166       -1566.823          47.000  
R01  21067389.886   112617271.130       -2897.699          47.000                                                                  
G08  21787438.433   114493762.043        2953.614          42.000    21787444.200    89215941.451        2301.411          43.000  
G09  22231657.594   116828148.643        1320.402          41.000    22231660.788    91034932.638        1028.789          42.000  
G16  20077668.494   105508858.908       -1079.505          46.000                                                                  
J02  38891303.428   204375177.431        -779.877          46.000    38891303.143   159253384.433        -607.526          47.000  
G18  24327573.131   127842259.504          17.051          38.000    24327574.893    99617354.481          13.212          39.000  
C20  24686499.035   128549076.460       -2736.078          43.000                                                                  
C09  36823015.186   191747100.412         298.600          45.000    36823007.757   148270992.808         230.875          48.000  
C23  25126090.772   130838151.502       -2410.683          41.000                                                                  
C19  24951690.580   129929998.842        -645.044          41.000                                                                  
C10  38452176.626   200230573.436         562.693          39.000    38452173.400   154830969.359         435.014          43.000  
R21  20855099.035   111599846.096        1543.597          51.000    20855098.900    86799882.501        1200.568          49.000  
R08  23499595.499   125839267.290       -4667.131          40.000    23499634.829    97875146.069       -3630.030          43.000  
J03  37737313.961   198310925.955           7.464          37.000    37737323.134   154528030.450           5.905          42.000  
J07  37116846.805   195050345.213        -329.089          39.000    37116847.463   151987284.634        -256.741          46.000  
J04                                                                  36988759.443   151462784.593        -483.352          40.000  
> 2025 11 11 08 02 11.4400000  0 32                     
G28  24469939.555   128590388.257       -3358.492          37.000    24469947.062   100200339.191       -2616.471          38.000  
G26  21809654.588   114610507.196       -2522.599          44.000    21809656.469    89306895.847       -1965.716          43.000  
G27  20183773.531   106066444.556        1381.327          48.000    20183774.573    82649181.719        1076.396          46.000  
G31  21976548.814   115487540.752       -2658.850          45.000    21976548.880    89990293.209       -2071.611          44.000  
G04  20934760.663   110012909.721        -880.695          46.000    20934760.536    85724343.398        -686.365          46.000  
C37  22289431.334   116066915.328        -846.597          49.000                                                                  
C06  35874834.490   186809677.340          59.003          45.000    35874825.026   144453055.545          45.660          48.000  
C16  36316629.778   189110218.573          65.878          48.000    36316625.334   146232000.478          50.903          48.000  
C28  22663904.709   118016896.560         539.267          49.000                                                                  
C07  37201720.979   193719123.449         559.910          43.000    37201713.133   149795881.836         433.001          48.000  
C27  23547741.215   122619267.290        2527.581          45.000                                                                  
R10  22688433.552   120942111.516       -2609.670          41.000                                                                  
R22  23230865.063   124007942.336        3918.384          44.000    23230895.240    96450752.012        3047.672          42.000  
R12  21756584.775   116219768.703        1684.844          49.000    21756586.796    90393163.043        1310.386          48.000  
R11  20139040.697   107616927.186        -683.625          51.000    20139039.112    83702049.654        -531.697          50.000  
R20  22089978.426   118125029.761       -2014.672          46.000    22089977.632    91875033.833       -1566.740          47.000  
R01  21067411.560   112617387.029       -2897.601          47.000                                                                  
G08  21787415.956   114493643.897        2953.641          42.000    21787421.708    89215849.390        2301.492          43.000  
G09  22231647.544   116828095.819        1320.559          41.000    22231650.763    91034891.488        1028.714          42.000  
G16  20077676.733   105508902.089       -1079.512          46.000                                                                  
J02  38891309.336   204375208.611        -779.578          46.000    38891309.074   159253408.731        -607.458          47.000  
G18  24327573.008   127842258.810          17.281          38.000    24327574.755    99617353.938          13.431          39.000  
C20  24686520.053   128549185.891       -2735.876          43.000                                                                  
C09  36823012.882   191747088.463         298.722          45.000    36823005.464   148270983.573         230.889          48.000  
C23  25126109.279   130838247.919       -2410.522          41.000                                                                  
C19  24951695.524   129930024.641        -645.067          41.000                                                                  
C10  38452172.278   200230550.930         562.595          39.000    38452169.059   154830951.956         435.027          43.000  
R21  20855087.501   111599784.347        1543.646          51.000    20855087.344    86799834.471        1200.635          49.000  
R08  23499630.341   125839453.971       -4667.027          40.000    23499669.692    97875291.262       -3629.864          43.000  
J03  37737313.921   198310925.649           7.649          37.000    37737323.079   154528030.234           5.555          42.000  
J07  37116849.299   195050358.387        -329.218          39.000    37116849.951   151987294.894        -256.590          46.000  
J04                                                                  36988764.157   151462803.909        -483.019          40.000  
> 2025 11 11 08 02 11.4800000  0 32                     
G28  24469965.126   128590522.574       -3358.291          37.000    24469972.614   100200443.870       -2616.819          38.000  
G26  21809673.801   114610608.109       -2522.721          44.000    21809675.654    89306974.482       -1965.812          43.000  
G27  20183763.013   106066389.304        1381.272          48.000    20183764.057    82649138.673        1076.216          46.000  
G31  21976569.055   115487647.096       -2658.756          45.000    21976569.127    89990376.071       -2071.551          44.000  
G04  20934767.366   110012944.954        -880.804          46.000    20934767.243    85724370.846        -686.261          46.000  
C37  22289437.859   116066949.191        -846.568          49.000                                                                  
C06  35874834.032   186809674.976          59.082          45.000    35874824.575   144453053.719          45.618          48.000  
C16  36316629.253   189110215.932          65.958          48.000    36316624.841   146231998.443          50.857          48.000  
C28  22663900.545   118016874.994         539.195          49.000                                                                  
C07  37201716.671   193719101.050         559.964          43.000    37201708.824   149795864.510         433.119          48.000  
C27  23547721.797   122619166.181        2527.698          45.000                                                                  
R10  22688453.117   120942215.903       -2609.735          41.000                                                                  
R22  23230835.707   124007785.597        3918.439          44.000    23230865.897    96450630.122        3047.415          42.000  
R12  21756572.151   116219701.309        1684.846          49.000    21756574.166    90393110.628        1310.359          48.000  
R11  20139045.834   107616954.536        -683.718          51.000    20139044.231    83702070.924        -531.766          50.000  
R20  22089993.500   118125110.338       -2014.520          46.000    22089992.682    91875096.498       -1566.632          47.000  
R01  21067433.244   112617502.926       -2897.501          47.000                                                                  
G08  21787393.473   114493525.752        2953.624          42.000    21787399.226    89215757.326        2301.568          43.000  
G09  22231637.501   116828043.007        1320.435          41.000    22231640.733    91034850.332        1028.794          42.000  
G16  20077684.947   105508945.270       -1079.557          46.000                                                                  
J02  38891315.282   204375239.798        -779.590          46.000    38891315.013   159253433.032        -607.477          47.000  
G18  24327572.859   127842258.105          17.557          38.000    24327574.625    99617353.401          13.396          39.000  
C20  24686541.091   128549295.329       -2735.928          43.000                                                                  
C09  36823010.569   191747076.512         298.789          45.000    36823003.145   148270974.332         230.987          48.000  
C23  25126127.779   130838344.330       -2410.355          41.000                                                                  
C19  24951700.457   129930050.443        -645.110          41.000                                                                  
C10  38452167.942   200230528.422         562.602          39.000    38452164.711   154830934.532         435.440          43.000  
R21  20855075.958   111599722.598        1543.671          51.000    20855075.793    86799786.443        1200.671          49.000  
R08  23499665.196   125839640.647       -4666.905          40.000    23499704.580    97875436.463       -3629.950          43.000  
J03  37737313.860   198310925.351           7.583          37.000    37737323.023   154528030.006           5.591          42.000  
J07  37116851.798   195050371.554        -329.206          39.000    37116852.463   151987305.157        -256.586          46.000  
J04                                                                  36988768.877   151462823.246        -483.265          40.000  
> 2025 11 11 08 02 11.5200000  0 32                     
G28  24469990.712   128590656.876       -3357.765          37.000    24469998.183   100200548.536       -2616.794          38.000  
G26  21809693.021   114610709.019       -2522.738          44.000    21809694.842    89307053.100       -1965.592          43.000  
G27  20183752.491   106066334.053        1381.254          48.000    20183753.532    82649095.620        1076.230          46.000  
G31  21976589.307   115487753.447       -2658.808          45.000    21976589.358    89990458.933       -2071.523          44.000  
G04  20934774.073   110012980.183        -880.804          46.000    20934773.951    85724398.298        -686.292          46.000  
C37  22289444.349   116066983.051        -846.512          49.000                                                                  
C06  35874833.583   186809672.606          59.222          45.000    35874824.140   144453051.895          45.569          48.000  
C16  36316628.722   189110213.291          66.016          48.000    36316624.334   146231996.403          50.931          48.000  
C28  22663896.410   118016853.429         539.112          49.000                                                                  
C07  37201712.377   193719078.644         560.110          43.000    37201704.518   149795847.192         433.018          48.000  
C27  23547702.367   122619065.066        2527.852          45.000                                                                  
R10  22688472.686   120942320.290       -2609.741          41.000                                                                  
R22  23230806.339   124007628.857        3918.431          44.000    23230836.542    96450508.215        3047.552          42.000  
R12  21756559.527   116219633.911        1684.922          49.000    21756561.554    90393058.212        1310.386          48.000  
R11  20139050.917   107616981.878        -683.624          51.000    20139049.341    83702092.189        -531.709          50.000  
R20  22090008.551   118125190.907       -2014.308          46.000    22090007.760    91875159.171       -1566.751          47.000  
R01  21067454.915   112617618.826       -2897.507          47.000                                                                  
G08  21787371.013   114493407.608        2953.590          42.000    21787376.760    89215665.269        2301.464          43.000  
G09  22231627.448   116827990.207        1320.133          41.000    22231630.677    91034809.173        1028.941          42.000  
G16  20077693.170   105508988.446       -1079.481          46.000                                                                  
J02  38891321.238   204375270.988        -779.694          46.000    38891320.968   159253457.340        -607.635          47.000  
G18  24327572.736   127842257.416          17.400          38.000    24327574.494    99617352.879          13.186          39.000  
C20  24686562.114   128549404.760       -2735.838          43.000                                                                  
C09  36823008.274   191747064.561         298.816          45.000    36823000.843   148270965.096         230.951          48.000  
C23  25126146.289   130838440.752       -2410.499          41.000                                                                  
C19  24951705.419   129930076.234        -644.921          41.000                                                                  
C10  38452163.610   200230505.903         562.849          39.000    38452160.377   154830917.127         435.247          43.000  
R21  20855064.422   111599660.849        1543.689          51.000    20855064.244    86799738.412        1200.745          49.000  
R08  23499700.065   125839827.324       -4666.900          40.000    23499739.451    97875581.661       -3629.951          43.000  
J03  37737313.803   198310925.053           7.559          37.000    37737322.968   154528029.763           5.916          42.000  
J07  37116854.289   195050384.725        -329.287          39.000    37116854.975   151987315.418        -256.555          46.000  
J04                                                                  36988773.578   151462842.560        -483.028          40.000  
> 2025 11 11 08 02 11.5600000  0 32                     
G28  24470016.266   128590791.188       -3357.697          37.000    24470023.732   100200653.190       -2616.589          38.000  
G26  21809712.231   114610809.930       -2522.757          44.000    21809714.025    89307131.732       -1965.686          43.000  
G27  20183741.996   106066278.806        1381.155          48.000    20183743.031    82649052.561        1076.399          46.000  
G31  21976609.537   115487859.793       -2658.730          45.000    21976609.592    89990541.815       -2071.880          44.000  
G04  20934780.781   110013015.421        -880.975          46.000    20934780.651    85724425.753        -686.389          46.000  
C37  22289450.832   116067016.925        -846.744          49.000                                                                  
C06  35874833.123   186809670.260          58.844          45.000    35874823.667   144453050.074          45.496          48.000  
C16  36316628.193   189110210.658          65.900          48.000    36316623.811   146231994.369          50.846          48.000  
C28  22663892.255   118016831.865         539.055          49.000                                                                  
C07  37201708.058   193719056.258         559.804          43.000    37201700.229   149795829.881         432.845          48.000  
C27  23547682.967   122618963.961        2527.684          45.000                                                                  
R10  22688492.260   120942424.694       -2610.090          41.000                                                                  
R22  23230776.966   124007472.126        3918.307          44.000    23230807.150    96450386.327        3047.221          42.000  
R12  21756546.890   116219566.530        1684.638          49.000    21756548.934    90393005.798        1310.346          48.000  
R11  20139056.029   107617009.225        -683.669          51.000    20139054.465    83702113.461        -531.815          50.000  
R20  22090023.631   118125271.489       -2014.437          46.000    22090022.815    91875221.847       -1566.874          47.000  
R01  21067476.599   112617734.728       -2897.537          47.000                                                                  
G08  21787348.543   114493289.471        2953.433          42.000    21787354.273    89215573.217        2301.357          43.000  
G09  22231617.404   116827937.412        1319.862          41.000    22231620.631    91034768.028        1028.748          42.000  
G16  20077701.397   105509031.634       -1079.664          46.000                                                                  
J02  38891327.199   204375302.185        -779.895          46.000    38891326.916   159253481.652        -607.794          47.000  
G18  24327572.646   127842256.744          17.003          38.000    24327574.373    99617352.352          13.109          39.000  
C20  24686583.116   128549514.202       -2735.983          43.000                                                                  
C09  36823005.964   191747052.625         298.519          45.000    36822998.533   148270955.854         231.021          48.000  
C23  25126164.806   130838537.187       -2410.828          41.000                                                                  
C19  24951710.373   129930102.038        -645.058          41.000                                                                  
C10  38452159.297   200230483.397         562.663          39.000    38452156.053   154830899.718         435.223          43.000  
R21  20855052.896   111599599.107        1543.549          51.000    20855052.726    86799690.387        1200.653          50.000  
R08  23499734.911   125840014.022       -4667.313          40.000    23499774.307    97875726.856       -3629.920          43.000  
J03  37737313.744   198310924.760           7.413          37.000    37737322.897   154528029.514           6.204          42.000  
J07  37116856.809   195050397.889        -329.201          39.000    37116857.475   151987325.679        -256.537          46.000  
J04                                                                  36988778.324   151462861.893        -483.272          40.000  
> 2025 11 11 08 02 11.6000000  0 32                     
G28  24470041.825   128590925.553       -3358.685          37.000    24470049.293   100200757.853       -2616.586          38.000  
G26  21809731.447   114610910.843       -2522.844          44.000    21809733.215    89307210.379       -1966.006          43.000  
G27  20183731.508   106066223.561        1381.068          48.000    20183732.525    82649009.522        1076.131          46.000  
G31  21976629.765   115487966.146       -2658.801          45.000    21976629.839    89990624.698       -2072.086          44.000  
G04  20934787.500   110013050.658        -881.036          46.000    20934787.356    85724453.212        -686.487          46.000  
C37  22289457.298   116067050.800        -846.882          49.000                                                                  
C06  35874832.660   186809667.909          58.716          45.000    35874823.216   144453048.256          45.392          48.000  
C16  36316627.629   189110208.034          65.657          48.000    36316623.285   146231992.335          50.822          48.000  
C28  22663888.083   118016810.309         538.886          49.000                                                                  
C07  37201703.768   193719033.860         559.845          43.000    37201695.919   149795812.571         432.707          47.000  
C27  23547663.524   122618862.859        2527.530          45.000                                                                  
R10  22688511.869   120942529.082       -2609.930          41.000                                                                  
R22  23230747.626   124007315.401        3918.134          44.000    23230777.798    96450264.433        3047.186          42.000  
R12  21756534.276   116219499.145        1684.580          49.000    21756536.295    90392953.391        1310.196          48.000  
R11  20139061.157   107617036.574        -683.750          51.000    20139059.594    83702134.735        -531.889          50.000  
R20  22090038.703   118125352.082       -2014.727          46.000    22090037.888    91875284.537       -1567.201          47.000  
R01  21067498.288   112617850.648       -2897.871          47.000                                                                  
G08  21787326.066   114493171.346        2953.144          42.000    21787331.789    89215481.166        2301.277          43.000  
G09  22231607.356   116827884.615        1319.807          41.000    22231610.596    91034726.893        1028.461          42.000  
G16  20077709.600   105509074.826       -1079.844          46.000                                                                  
J02  38891333.135   204375333.387        -780.084          46.000    38891332.850   159253505.964        -607.880          47.000  
G18  24327572.528   127842256.087          16.512          38.000    24327574.241    99617351.820          13.138          39.000  
C20  24686604.120   128549623.644       -2736.060          43.000                                                                  
C09  36823003.666   191747040.692         298.315          45.000    36822996.226   148270946.624         230.828          48.000  
C23  25126183.314   130838633.628       -2411.112          41.000                                                                  
C19  24951715.339   129930127.847        -645.217          41.000                                                                  
C10  38452154.967   200230460.899         562.429          39.000    38452151.725   154830882.325         434.933          43.000  
R21  20855041.345   111599537.367        1543.469          51.000    20855041.172    86799642.373        1200.378          50.000  
R08  23499769.768   125840200.719       -4667.485          40.000    23499809.152    97875872.057       -3630.013          43.000  
J03  37737313.686   198310924.450           7.681          37.000    37737322.822   154528029.293           5.765          42.000  
J07  37116859.318   195050411.068        -329.429          39.000    37116859.999   151987335.941        -256.550          46.000  
J04                                                                  36988783.051   151462881.221        -483.240          40.000  
> 2025 11 11 08 02 11.6400000  0 32                     
G28  24470067.375   128591059.851       -3357.941          37.000    24470074.870   100200862.528       -2616.765          38.000  
G26  21809750.641   114611011.751       -2522.844          44.000    21809752.417    89307289.013       -1965.988          43.000  
G27  20183720.973   106066168.317        1381.032          48.000    20183722.011    82648966.481        1076.002          46.000  
G31  21976650.000   115488072.512       -2659.105          45.000    21976650.070    89990707.568       -2071.930          44.000  
G04  20934794.207   110013085.901        -881.116          46.000    20934794.066    85724480.676        -686.627          46.000  
C37  22289463.799   116067084.676        -846.941          49.000                                                                  
C06  35874832.216   186809665.552          58.795          45.000    35874822.808   144453046.437          45.410          48.000  
C16  36316627.118   189110205.407          65.591          48.000    36316622.756   146231990.298          50.854          48.000  
C28  22663883.954   118016788.756         538.770          49.000                                                                  
C07  37201699.456   193719011.475         559.627          43.000    37201691.635   149795795.262         432.647          47.000  
C27  23547644.071   122618761.762        2527.383          45.000                                                                  
R10  22688531.445   120942633.475       -2609.885          41.000                                                                  
R22  23230718.259   124007158.677        3918.024          44.000    23230748.420    96450142.527        3047.456          42.000  
R12  21756521.671   116219431.753        1684.690          49.000    21756523.681    90392900.982        1310.155          48.000  
R11  20139066.296   107617063.929        -683.879          51.000    20139064.704    83702156.012        -531.975          50.000  
R20  22090053.781   118125432.689       -2015.130          46.000    22090052.953    91875347.231       -1567.391          47.000  
R01  21067519.960   112617966.555       -2897.812          47.000                                                                  
G08  21787303.596   114493053.216        2953.115          42.000    21787309.317    89215389.109        2301.338          43.000  
G09  22231597.318   116827831.809        1319.960          41.000    22231600.554    91034685.753        1028.377          42.000  
G16  20077717.812   105509118.013       -1079.822          46.000                                                                  
J02  38891339.066   204375364.578        -779.932          46.000    38891338.781   159253530.269        -607.776          47.000  
G18  24327572.400   127842255.430          16.281          38.000    24327574.124    99617351.285          13.282          39.000  
C20  24686625.141   128549733.089       -2736.160          43.000                                                                  
C09  36823001.402   191747028.753         298.336          45.000    36822993.908   148270937.394         230.727          48.000  
C23  25126201.828   130838730.061       -2411.028          41.000                                                                  
C19  24951720.284   129930153.659        -645.341          41.000                                                                  
C10  38452150.639   200230438.401         562.419          39.000    38452147.426   154830864.920         435.002          43.000  
R21  20855029.791   111599475.633        1543.310          51.000    20855029.621    86799594.360        1200.238          50.000  
R08  23499804.659   125840387.426       -4667.755          40.000    23499844.009    97876017.259       -3630.062          43.000  
J03  37737313.629   198310924.153           7.549          37.000    37737322.775   154528029.071           5.505          42.000  
J07  37116861.828   195050424.250        -329.593          39.000    37116862.534   151987346.214        -256.758          46.000  
J04                                                                  36988787.782   151462900.561        -483.409          40.000  
> 2025 11 11 08 02 11.6800000  0 32                     
G28  24470092.949   128591194.184       -3358.224          37.000    24470100.422   100200967.208       -2616.924          38.000  
G26  21809769.835   114611112.666       -2522.886          44.000    21809771.612    89307367.649       -1965.990          43.000  
G27  20183710.448   106066113.075        1380.990          48.000    20183711.500    82648923.429        1076.159          46.000  
G31  21976670.234   115488178.865       -2659.008          45.000    21976670.309    89990790.452       -2072.105          44.000  
G04  20934800.901   110013121.138        -881.049          46.000    20934800.795    85724508.139        -686.633          46.000  
C37  22289470.336   116067118.548        -846.906          49.000                                                                  
C06  35874831.770   186809663.200          58.759          45.000    35874822.376   144453044.622          45.367          48.000  
C16  36316626.618   189110202.783          65.532          48.000    36316622.248   146231988.266          50.796          48.000  
C28  22663879.831   118016767.203         538.737          49.000                                                                  
C07  37201695.173   193718989.106         559.288          43.000    37201687.325   149795777.948         432.721          47.000  
C27  23547624.663   122618660.668        2527.292          45.000                                                                  
R10  22688551.024   120942737.862       -2609.777          41.000                                                                  
R22  23230688.895   124007001.943        3918.244          44.000    23230719.056    96450020.623        3047.567          42.000  
R12  21756509.056   116219364.368        1684.625          49.000    21756511.064    90392848.575        1310.127          48.000  
R11  20139071.412   107617091.280        -683.859          51.000    20139069.836    83702177.288        -531.973          50.000  
R20  22090068.841   118125513.292       -2015.239          46.000    22090068.026    91875409.915       -1567.277          47.000  
R01  21067541.638   112618082.473       -2897.977          47.000                                                                  
G08  21787281.110   114492935.082        2953.194          42.000    21787286.828    89215297.067        2301.117          43.000  
G09  22231587.267   116827779.000        1320.087          41.000    22231590.502    91034644.610        1028.448          42.000  
G16  20077726.026   105509161.206       -1079.902          46.000                                                                  
J02  38891344.980   204375395.770        -779.864          46.000    38891344.718   159253554.577        -607.733          47.000  
G18  24327572.279   127842254.738          16.918          38.000    24327573.990    99617350.747          13.442          39.000  
C20  24686646.156   128549842.531       -2736.115          43.000                                                                  
C09  36822999.105   191747016.807         298.518          45.000    36822991.622   148270928.163         230.692          48.000  
C23  25126220.336   130838826.494       -2410.932          41.000                                                                  
C19  24951725.239   129930179.476        -645.478          41.000                                                                  
C10  38452146.329   200230415.894         562.623          39.000    38452143.112   154830847.525         434.917          43.000  
R21  20855018.252   111599413.901        1543.231          51.000    20855018.085    86799546.347        1200.232          50.000  
R08  23499839.512   125840574.114       -4667.438          40.000    23499878.867    97876162.473       -3630.333          43.000  
J03  37737313.581   198310923.890           6.852          37.000    37737322.712   154528028.855           5.328          42.000  
J07  37116864.335   195050437.436        -329.755          39.000    37116865.035   151987356.485        -256.825          46.000  
J04                                                                  36988792.500   151462919.886        -483.258          40.000  
> 2025 11 11 08 02 11.7200000  0 32                     
G28  24470118.486   128591328.490       -3357.836          37.000    24470125.987   100201071.908       -2617.385          38.000  
G26  21809789.031   114611213.592       -2523.091          44.000    21809790.813    89307446.271       -1965.707          43.000  
G27  20183699.936   106066057.838        1380.885          48.000    20183700.993    82648880.392        1075.979          46.000  
G31  21976690.471   115488285.225       -2659.030          45.000    21976690.544    89990873.327       -2072.023          44.000  
G04  20934807.627   110013156.380        -881.091          46.000    20934807.490    85724535.591        -686.414          46.000  
C37  22289476.866   116067152.420        -846.853          49.000                                                                  
C06  35874831.322   186809660.843          58.838          45.000    35874821.938   144453042.798          45.490          48.000  
C16  36316626.099   189110200.150          65.670          48.000    36316621.718   146231986.228          50.870          48.000  
C28  22663875.703   118016745.644         538.866          49.000                                                                  
C07  37201690.899   193718966.706         559.681          43.000    37201683.017   149795760.633         432.786          47.000  
C27  23547605.230   122618559.566        2527.441          45.000                                                                  
R10  22688570.618   120942842.245       -2609.658          41.000                                                                  
R22  23230659.517   124006845.208        3918.356          44.000    23230689.714    96449898.733        3047.367          42.000  
R12  21756496.451   116219296.992        1684.443          49.000    21756498.437    90392796.160        1310.266          48.000  
R11  20139076.504   107617118.629        -683.796          51.000    20139074.945    83702198.561        -531.892          50.000  
R20  22090083.886   118125593.879       -2014.945          46.000    22090083.089    91875472.578       -1566.816          47.000  
R01  21067563.340   112618198.384       -2897.907          47.000                                                                  
G08  21787258.612   114492816.953        2953.205          42.000    21787264.344    89215205.024        2301.033          43.000  
G09  22231577.228   116827726.191        1320.201          41.000    22231580.450    91034603.453        1028.763          42.000  
G16  20077734.240   105509204.390       -1079.730          46.000                                                                  
J02  38891350.925   204375426.958        -779.742          46.000    38891350.663   159253578.882        -607.635          47.000  
G18  24327572.145   127842254.059          17.020          38.000    24327573.878    99617350.231          13.157          39.000  
C20  24686667.183   128549951.980       -2736.211          43.000                                                                  
C09  36822996.798   191747004.863         298.574          45.000    36822989.321   148270918.931         230.715          48.000  
C23  25126238.857   130838922.913       -2410.654          41.000                                                                  
C19  24951730.201   129930205.276        -645.207          41.000                                                                  
C10  38452142.019   200230393.370         563.023          39.000    38452138.782   154830830.121         435.034          43.000  
R21  20855006.704   111599352.163        1543.341          51.000    20855006.536    86799498.326        1200.397          50.000  
R08  23499874.384   125840760.804       -4667.271          40.000    23499913.737    97876307.670       -3630.141          43.000  
J03  37737313.526   198310923.587           7.131          37.000    37737322.648   154528028.626           5.526          42.000  
J07  37116866.838   195050450.612        -329.584          39.000    37116867.541   151987366.747        -256.705          46.000  
J04                                                                  36988797.209   151462939.227        -483.496          40.000  
> 2025 11 11 08 02 11.7600000  0 32                     
G28  24470144.053   128591462.847       -3358.513          37.000    24470151.536   100201176.575       -2617.063          38.000  
G26  21809808.244   114611314.503       -2522.969          44.000    21809809.992    89307524.905       -1965.771          43.000  
G27  20183689.411   106066002.593        1380.992          48.000    20183690.484    82648837.336        1076.235          46.000  
G31  21976710.715   115488391.579       -2658.930          45.000    21976710.776    89990956.196       -2071.827          44.000  
G04  20934814.330   110013191.616        -880.988          46.000    20934814.212    85724563.047        -686.389          46.000  
C37  22289483.398   116067186.287        -846.745          49.000                                                                  
C06  35874830.878   186809658.482          58.990          45.000    35874821.504   144453040.971          45.624          48.000  
C16  36316625.569   189110197.507          65.946          48.000    36316621.206   146231984.188          50.955          48.000  
C28  22663871.557   118016724.085         538.936          49.000                                                                  
C07  37201686.603   193718944.311         559.821          43.000    37201678.744   149795743.317         432.856          47.000  
C27  23547585.829   122618458.457        2527.650          45.000                                                                  
R10  22688590.181   120942946.637       -2609.729          41.000                                                                  
R22  23230630.158   124006688.468        3918.484          44.000    23230660.334    96449776.840        3047.293          42.000  
R12  21756483.840   116219229.604        1684.560          49.000    21756485.819    90392743.748        1310.285          48.000  
R11  20139081.598   107617145.976        -683.721          51.000    20139080.071    83702219.830        -531.786          51.000  
R20  22090098.964   118125674.460       -2014.661          46.000    22090098.153    91875535.250       -1566.747          47.000  
R01  21067585.031   112618314.292       -2897.790          47.000                                                                  
G08  21787236.127   114492698.817        2953.295          42.000    21787241.843    89215112.969        2301.158          43.000  
G09  22231567.177   116827673.385        1320.138          41.000    22231570.411    91034562.317        1028.520          42.000  
G16  20077742.449   105509247.571       -1079.574          46.000                                                                  
J02  38891356.845   204375458.149        -779.742          46.000    38891356.612   159253603.184        -607.562          47.000  
G18  24327572.035   127842253.367          17.240          38.000    24327573.743    99617349.708          13.065          39.000  
C20  24686688.203   128550061.422       -2736.136          43.000                                                                  
C09  36822994.507   191746992.913         298.702          45.000    36822986.999   148270909.696         230.783          48.000  
C23  25126257.382   130839019.328       -2410.441          41.000                                                                  
C19  24951735.172   129930231.084        -645.210          41.000                                                                  
C10  38452137.694   200230370.868         562.837          39.000    38452134.473   154830812.709         435.231          43.000  
R21  20854995.166   111599290.421        1543.475          51.000    20854994.967    86799450.306        1200.464          50.000  
R08  23499909.222   125840947.486       -4667.050          40.000    23499948.607    97876452.871       -3630.060          43.000  
J03  37737313.483   198310923.293           7.177          37.000    37737322.590   154528028.391           5.756          42.000  
J07  37116869.343   195050463.776        -329.253          39.000    37116870.046   151987377.015        -256.698          46.000  
J04                                                                  36988801.946   151462958.561        -483.532          40.000  
> 2025 11 11 08 02 11.8000000  0 32                     
G28  24470169.634   128591597.153       -3357.999          37.000    24470177.100   100201281.226       -2616.486          38.000  
G26  21809827.441   114611415.414       -2522.864          44.000    21809829.200    89307603.536       -1965.774          43.000  
G27  20183678.878   106065947.348        1381.080          48.000    20183679.976    82648794.294        1076.128          46.000  
G31  21976730.956   115488497.928       -2658.837          45.000    21976730.999    89991039.068       -2071.770          44.000  
G04  20934821.025   110013226.852        -880.951          46.000    20934820.913    85724590.506        -686.438          46.000  
C37  22289489.909   116067220.149        -846.587          49.000                                                                  
C06  35874830.430   186809656.116          59.131          45.000    35874821.049   144453039.141          45.715          48.000  
C16  36316625.040   189110194.865          66.056          48.000    36316620.684   146231982.153          50.885          48.000  
C28  22663867.429   118016702.516         539.150          49.000                                                                  
C07  37201682.304   193718921.910         559.975          43.000    37201674.460   149795725.997         432.969          47.000  
C27  23547566.433   122618357.347        2527.773          45.000                                                                  
R10  22688609.760   120943051.039       -2609.958          41.000                                                                  
R22  23230600.786   124006531.735        3918.402          44.000    23230630.958    96449654.945        3047.299          42.000  
R12  21756471.249   116219162.212        1684.710          49.000    21756473.202    90392691.333        1310.356          48.000  
R11  20139086.708   107617173.323        -683.685          51.000    20139085.162    83702241.093        -531.594          51.000  
R20  22090114.048   118125755.038       -2014.453          46.000    22090113.241    91875597.936       -1566.986          47.000  
R01  21067606.730   112618430.198       -2897.677          47.000                                                                  
G08  21787213.639   114492580.664        2953.638          42.000    21787219.351    89215020.915        2301.263          43.000  
G09  22231557.143   116827620.582        1320.115          41.000    22231560.361    91034521.166        1028.663          42.000  
G16  20077750.659   105509290.757       -1079.595          46.000                                                                  
J02  38891362.800   204375489.343        -779.803          46.000    38891362.539   159253627.487        -607.550          47.000  
G18  24327571.899   127842252.668          17.432          38.000    24327573.607    99617349.182          13.126          39.000  
C20  24686709.219   128550170.853       -2735.917          43.000                                                                  
C09  36822992.202   191746980.964         298.736          45.000    36822984.697   148270900.451         231.003          48.000  
C23  25126275.903   130839115.759       -2410.670          41.000                                                                  
C19  24951740.121   129930256.884        -645.043          41.000                                                                  
C10  38452133.371   200230348.349         562.984          39.000    38452130.122   154830795.303         435.230          43.000  
R21  20854983.616   111599228.677        1543.597          51.000    20854983.418    86799402.283        1200.543          50.000  
R08  23499944.102   125841134.166       -4666.922          40.000    23499983.458    97876598.074       -3630.048          43.000  
J03  37737313.424   198310922.995           7.291          37.000    37737322.555   154528028.143           6.100          42.000  
J07  37116871.859   195050476.929        -328.885          39.000    37116872.555   151987387.271        -256.492          46.000  
J04                                                                  36988806.678   151462977.882        -483.203          40.000  
> 2025 11 11 08 02 11.8400000  0 32                     
G28  24470195.210   128591731.491       -3358.298          37.000    24470202.667   100201385.905       -2616.724          38.000  
G26  21809846.644   114611516.320       -2522.745          44.000    21809848.423    89307682.173       -1965.898          43.000  
G27  20183668.375   106065892.109        1380.998          48.000    20183669.479    82648751.250        1076.078          46.000  
G31  21976751.201   115488604.280       -2658.814          45.000    21976751.232    89991121.940       -2071.769          44.000  
G04  20934827.741   110013262.093        -881.030          46.000    20934827.623    85724617.972        -686.639          46.000  
C37  22289496.410   116067254.017        -846.649          49.000                                                                  
C06  35874829.988   186809653.761          58.978          45.000    35874820.583   144453037.318          45.612          48.000  
C16  36316624.528   189110192.232          65.920          48.000    36316620.152   146231980.117          50.872          48.000  
C28  22663863.285   118016680.959         539.037          49.000                                                                  
C07  37201678.007   193718899.517         559.887          43.000    37201670.162   149795708.686         432.825          47.000  
C27  23547547.026   122618256.248        2527.569          45.000                                                                  
R10  22688629.336   120943155.431       -2609.891          41.000                                                                  
R22  23230571.419   124006375.002        3918.307          44.000    23230601.594    96449533.047        3047.305          42.000  
R12  21756458.616   116219094.818        1684.795          49.000    21756460.593    90392638.916        1310.398          48.000  
R11  20139091.820   107617200.670        -683.680          51.000    20139090.275    83702262.365        -531.727          51.000  
R20  22090129.128   118125835.629       -2014.658          46.000    22090128.310    91875660.632       -1567.322          47.000  
R01  21067628.418   112618546.109       -2897.745          47.000                                                                  
G08  21787191.166   114492462.528        2953.525          42.000    21787196.885    89214928.852        2301.462          43.000  
G09  22231547.090   116827567.789        1319.877          41.000    22231550.307    91034480.025        1028.559          42.000  
G16  20077758.881   105509333.945       -1079.684          46.000                                                                  
J02  38891368.762   204375520.537        -779.846          46.000    38891368.442   159253651.788        -607.526          47.000  
G18  24327571.792   127842252.007          16.825          38.000    24327573.465    99617348.658          13.063          39.000  
C20  24686730.234   128550280.301       -2736.106          43.000                                                                  
C09  36822989.870   191746969.023         298.589          45.000    36822982.409   148270891.214         230.985          48.000  
C23  25126294.430   130839212.186       -2410.701          41.000                                                                  
C19  24951745.053   129930282.691        -645.139          41.000                                                                  
C10  38452129.050   200230325.842         562.811          39.000    38452125.786   154830777.908         434.971          43.000  
R21  20854972.086   111599166.944        1543.390          51.000    20854971.887    86799354.271        1200.360          50.000  
R08  23499978.968   125841320.855       -4667.134          40.000    23500018.298    97876743.275       -3630.024          43.000  
J03  37737313.362   198310922.708           7.125          37.000    37737322.484   154528027.910           5.946          42.000  
J07  37116874.373   195050490.108        -329.206          39.000    37116875.052   151987397.535        -256.569          46.000  
J04                                                                  36988811.383   151462997.190        -482.813          40.000  
> 2025 11 11 08 02 11.8800000  0 32                     
G28  24470220.748   128591865.809       -3358.076          37.000    24470228.217   100201490.573       -2616.681          38.000  
G26  21809865.855   114611617.225       -2522.635          44.000    21809867.625    89307760.809       -1965.933          43.000  
G27  20183657.879   106065836.872        1380.917          48.000    20183658.978    82648708.207        1076.028          46.000  
G31  21976771.445   115488710.635       -2658.888          45.000    21976771.479    89991204.823       -2071.965          44.000  
G04  20934834.449   110013297.340        -881.158          46.000    20934834.332    85724645.438        -686.743          46.000  
C37  22289502.900   116067287.892        -846.837          49.000                                                                  
C06  35874829.535   186809651.418          58.655          45.000    35874820.135   144453035.493          45.624          48.000  
C16  36316623.980   189110189.607          65.696          48.000    36316619.627   146231978.085          50.793          48.000  
C28  22663859.149   118016659.406         538.872          49.000                                                                  
C07  37201673.707   193718877.132         559.661          43.000    37201665.893   149795691.370         432.838          47.000  
C27  23547527.647   122618155.152        2527.415          45.000                                                                  
R10  22688648.906   120943259.817       -2609.699          41.000                                                                  
R22  23230542.071   124006218.281        3918.034          44.000    23230572.226    96449411.151        3047.344          42.000  
R12  21756445.989   116219027.433        1684.674          49.000    21756448.013    90392586.505        1310.316          48.000  
R11  20139096.955   107617228.028        -683.904          51.000    20139095.432    83702283.644        -531.939          51.000  
R20  22090144.205   118125916.235       -2015.040          46.000    22090143.386    91875723.333       -1567.592          47.000  
R01  21067650.123   112618662.030       -2897.988          47.000                                                                  
G08  21787168.668   114492344.397        2953.380          42.000    21787174.418    89214836.802        2301.360          43.000  
G09  22231537.028   116827514.986        1319.953          41.000    22231540.273    91034438.876        1028.643          42.000  
G16  20077767.109   105509377.137       -1079.803          46.000                                                                  
J02  38891374.703   204375551.731        -779.895          46.000    38891374.380   159253676.101        -607.745          47.000  
G18  24327571.698   127842251.359          16.249          38.000    24327573.331    99617348.139          12.917          39.000  
C20  24686751.214   128550389.758       -2736.399          43.000                                                                  
C09  36822987.601   191746957.082         298.483          45.000    36822980.115   148270881.984         230.846          48.000  
C23  25126312.921   130839308.622       -2410.899          41.000                                                                  
C19  24951750.010   129930308.505        -645.348          41.000                                                                  
C10  38452124.697   200230303.343         562.540          39.000    38452121.463   154830760.503         435.027          43.000  
R21  20854960.567   111599105.219        1543.146          51.000    20854960.350    86799306.261        1200.226          50.000  
R08  23500013.817   125841507.545       -4667.220          40.000    23500053.157    97876888.477       -3630.061          43.000  
J03  37737313.310   198310922.391           7.681          37.000    37737322.425   154528027.690           5.627          42.000  
J07  37116876.881   195050503.295        -329.577          39.000    37116877.555   151987407.799        -256.603          46.000  
J04                                                                  36988816.114   151463016.535        -483.266          40.000  
> 2025 11 11 08 02 11.9200000  0 32                     
G28  24470246.318   128592000.146       -3358.252          37.000    24470253.779   100201595.247       -2616.742          38.000  
G26  21809885.041   114611718.155       -2523.051          43.000    21809886.808    89307839.447       -1965.991          43.000  
G27  20183647.403   106065781.638        1380.825          48.000    20183648.455    82648665.170        1075.911          46.000  
G31  21976791.699   115488816.990       -2658.912          45.000    21976791.727    89991287.700       -2072.002          44.000  
G04  20934841.157   110013332.593        -881.360          46.000    20934841.037    85724672.901        -686.700          46.000  
C37  22289509.397   116067321.772        -847.000          49.000                                                                  
C06  35874829.117   186809649.065          58.704          45.000    35874819.716   144453033.683          45.319          48.000  
C16  36316623.436   189110186.987          65.471          48.000    36316619.115   146231976.052          50.764          48.000  
C28  22663854.988   118016637.859         538.683          49.000                                                                  
C07  37201669.402   193718854.747         559.563          43.000    37201661.578   149795674.057         432.801          47.000  
C27  23547508.235   122618054.058        2527.292          45.000                                                                  
R10  22688668.500   120943364.207       -2609.729          41.000                                                                  
R22  23230512.714   124006061.553        3918.036          44.000    23230542.867    96449289.239        3047.674          42.000  
R12  21756433.392   116218960.057        1684.444          49.000    21756435.385    90392534.094        1310.264          48.000  
R11  20139102.091   107617255.389        -684.052          51.000    20139100.571    83702304.922        -532.005          51.000  
R20  22090159.275   118125996.841       -2015.211          46.000    22090158.445    91875786.017       -1567.389          47.000  
R01  21067671.827   112618777.958       -2898.226          47.000                                                                  
G08  21787146.176   114492226.280        2953.037          42.000    21787151.920    89214744.753        2301.206          43.000  
G09  22231526.969   116827462.185        1319.958          41.000    22231530.218    91034397.718        1028.840          42.000  
G16  20077775.334   105509420.333       -1079.934          46.000                                                                  
J02  38891380.634   204375582.925        -779.907          46.000    38891380.314   159253700.413        -607.843          47.000  
G18  24327571.545   127842250.681          16.599          38.000    24327573.205    99617347.617          12.928          39.000  
C20  24686772.247   128550499.207       -2736.389          43.000                                                                  
C09  36822985.291   191746945.149         298.319          45.000    36822977.835   148270872.756         230.704          48.000  
C23  25126331.422   130839405.048       -2410.806          41.000                                                                  
C19  24951754.962   129930334.328        -645.610          41.000                                                                  
C10  38452120.397   200230280.843         562.448          39.000    38452117.150   154830743.101         435.065          43.000  
R21  20854949.029   111599043.496        1542.981          51.000    20854948.816    86799258.256        1200.116          50.000  
R08  23500048.687   125841694.260       -4667.712          40.000    23500088.015    97877033.686       -3630.197          43.000  
J03  37737313.245   198310922.109           7.273          37.000    37737322.374   154528027.466           5.543          42.000  
J07  37116879.377   195050516.475        -329.621          39.000    37116880.083   151987418.069        -256.744          46.000  
J04                                                                  36988820.824   151463035.868        -483.363          40.000  
> 2025 11 11 08 02 11.9600000  0 32                     
G28  24470271.890   128592134.478       -3358.290          37.000    24470279.364   100201699.918       -2616.776          38.000  
G26  21809904.246   114611819.074       -2523.083          43.000    21809906.011    89307918.091       -1966.097          43.000  
G27  20183636.880   106065726.405        1380.776          48.000    20183637.939    82648622.122        1076.087          46.000  
G31  21976811.943   115488923.364       -2659.224          45.000    21976811.974    89991370.579       -2071.997          44.000  
G04  20934847.885   110013367.840        -881.268          46.000    20934847.748    85724700.370        -686.749          46.000  
C37  22289515.883   116067355.654        -847.096          49.000                                                                  
C06  35874828.687   186809646.709          58.783          45.000    35874819.243   144453031.864          45.355          48.000  
C16  36316622.929   189110184.357          65.553          48.000    36316618.580   146231974.017          50.814          48.000  
C28  22663850.835   118016616.315         538.523          49.000                                                                  
C07  37201665.114   193718832.361         559.588          43.000    37201657.291   149795656.753         432.650          47.000  
C27  23547488.822   122617952.962        2527.324          45.000                                                                  
R10  22688688.098   120943468.609       -2609.997          41.000                                                                  
R22  23230483.355   124005904.819        3918.199          44.000    23230513.493    96449167.346        3047.466          42.000  
R12  21756420.783   116218892.675        1684.433          49.000    21756422.792    90392481.687        1310.155          48.000  
R11  20139107.225   107617282.746        -684.038          51.000    20139105.676    83702326.196        -531.948          51.000  
R20  22090174.358   118126077.453       -2015.382          46.000    22090173.531    91875848.699       -1567.212          47.000  
R01  21067693.508   112618893.877       -2898.158          47.000                                                                  
G08  21787123.691   114492108.151        2953.052          42.000    21787129.445    89214652.711        2301.000          43.000  
G09  22231516.947   116827409.398        1319.737          41.000    22231520.182    91034356.593        1028.337          42.000  
G16  20077783.536   105509463.530       -1079.994          46.000                                                                  
J02  38891386.561   204375614.117        -779.877          46.000    38891386.264   159253724.725        -607.855          47.000  
G18  24327571.395   127842250.016          16.571          38.000    24327573.070    99617347.085          13.138          39.000  
C20  24686793.266   128550608.654       -2736.279          43.000                                                                  
C09  36822983.013   191746933.221         298.212          45.000    36822975.552   148270863.523         230.742          48.000  
C23  25126349.966   130839501.476       -2410.792          41.000                                                                  
C19  24951759.941   129930360.151        -645.703          41.000                                                                  
C10  38452116.071   200230258.338         562.504          39.000    38452112.792   154830725.700         435.021          43.000  
R21  20854937.495   111598981.771        1543.018          51.000    20854937.279    86799210.245        1200.177          50.000  
R08  23500083.568   125841880.951       -4667.507          40.000    23500122.888    97877178.884       -3630.067          44.000  
J03  37737313.182   198310921.816           7.256          37.000    37737322.313   154528027.243           5.490          42.000  
J07  37116881.868   195050529.643        -329.354          39.000    37116882.603   151987428.347        -256.914          46.000  
J04                                                                  36988825.555   151463055.207        -483.460          40.000  
> 2025 11 11 08 02 12.0000000  0 32                     
G28  24470297.439   128592268.785       -3357.887          37.000    24470304.917   100201804.601       -2616.992          38.000  
G26  21809923.440   114611919.984       -2522.900          43.000    21809925.212    89307996.714       -1965.759          43.000  
G27  20183626.357   106065671.174        1380.734          48.000    20183627.408    82648579.085        1075.968          46.000  
G31  21976832.178   115489029.717       -2659.011          45.000    21976832.223    89991453.452       -2071.906          44.000  
G04  20934854.581   110013403.085        -881.177          46.000    20934854.449    85724727.829        -686.597          46.000  
C37  22289522.430   116067389.523        -846.887          49.000                                                                  
C06  35874828.270   186809644.346          58.984          45.000    35874818.799   144453030.041          45.508          48.000  
C16  36316622.423   189110181.723          65.717          48.000    36316618.054   146231971.982          50.874          48.000  
C28  22663846.705   118016594.764         538.623          49.000                                                                  
C07  37201660.810   193718809.968         559.765          43.000    37201652.992   149795639.432         432.851          47.000  
C27  23547469.399   122617851.864        2527.355          45.000                                                                  
R10  22688707.684   120943572.998       -2609.846          41.000                                                                  
R22  23230453.989   124005748.088        3918.230          44.000    23230484.141    96449045.466        3047.061          42.000  
R12  21756408.162   116218825.291        1684.510          49.000    21756410.164    90392429.279        1310.139          48.000  
R11  20139112.349   107617310.095        -683.875          51.000    20139110.794    83702347.470        -531.904          51.000  
R20  22090189.416   118126158.053       -2015.198          46.000    22090188.600    91875911.385       -1567.175          47.000  
R01  21067715.195   112619009.794       -2898.032          47.000                                                                  
G08  21787101.210   114491990.025        2953.045          42.000    21787106.964    89214560.668        2300.984          43.000  
G09  22231506.879   116827356.609        1319.666          41.000    22231510.140    91034315.466        1028.146          42.000  
G16  20077791.738   105509506.724       -1079.980          46.000                                                                  
J02  38891392.516   204375645.310        -779.852          46.000    38891392.194   159253749.028        -607.715          47.000  
G18  24327571.291   127842249.355          16.510          38.000    24327572.963    99617346.586          12.660          39.000  
C20  24686814.296   128550718.097       -2736.167          43.000                                                                  
C09  36822980.722   191746921.283         298.281          45.000    36822973.257   148270854.296         230.651          48.000  
C23  25126368.476   130839597.909       -2410.876          41.000                                                                  
C19  24951764.892   129930385.958        -645.436          41.000                                                                  
C10  38452111.735   200230235.820         562.745          39.000    38452108.458   154830708.302         434.935          43.000  
R21  20854925.951   111598920.047        1543.030          51.000    20854925.741    86799162.233        1200.214          50.000  
R08  23500118.445   125842067.641       -4667.352          40.000    23500157.749    97877324.088       -3630.116          44.000  
J03  37737313.104   198310921.517           7.392          37.000    37737322.246   154528027.010           5.709          42.000  
J07  37116884.352   195050542.812        -329.295          39.000    37116885.104   151987438.617        -256.869          46.000  
J04                                                                  36988830.267   151463074.532        -483.227          40.000  
> 2025 11 11 08 02 12.0400000  0 32                     
G28  24470323.007   128592403.117       -3358.114          37.000    24470330.463   100201909.270       -2616.798          38.000  
G26  21809942.630   114612020.891       -2522.739          43.000    21809944.418    89308075.340       -1965.621          43.000  
G27  20183615.849   106065615.933        1380.903          48.000    20183616.897    82648536.046        1075.931          46.000  
G31  21976852.420   115489136.077       -2659.004          45.000    21976852.469    89991536.332       -2071.998          44.000  
G04  20934861.295   110013438.330        -881.134          46.000    20934861.154    85724755.290        -686.536          46.000  
C37  22289528.934   116067423.382        -846.587          49.000                                                                  
C06  35874827.811   186809641.986          59.027          45.000    35874818.359   144453028.215          45.660          48.000  
C16  36316621.912   189110179.081          65.957          48.000    36316617.536   146231969.947          50.857          48.000  
C28  22663842.585   118016573.210         538.765          49.000                                                                  
C07  37201656.526   193718787.573         559.871          43.000    37201648.670   149795622.112         432.969          47.000  
C27  23547449.972   122617750.752        2527.682          45.000                                                                  
R10  22688727.266   120943677.391       -2609.846          41.000                                                                  
R22  23230424.632   124005591.359        3918.230          44.000    23230454.783    96448923.560        3047.350          42.000  
R12  21756395.527   116218757.896        1684.746          49.000    21756397.532    90392376.863        1310.286          48.000  
R11  20139117.466   107617337.440        -683.682          51.000    20139115.898    83702368.742        -531.843          51.000  
R20  22090204.496   118126238.648       -2015.004          46.000    22090203.639    91875974.075       -1567.234          47.000  
R01  21067736.863   112619125.707       -2897.898          47.000                                                                  
G08  21787078.715   114491871.900        2953.074          42.000    21787084.475    89214468.621        2301.024          43.000  
G09  22231496.845   116827303.810        1319.855          41.000    22231500.091    91034274.324        1028.333          42.000  
G16  20077799.949   105509549.908       -1079.752          46.000                                                                  
J02  38891398.433   204375676.498        -779.730          46.000    38891398.112   159253773.326        -607.507          47.000  
G18  24327571.123   127842248.669          16.914          38.000    24327572.841    99617346.080          12.527          39.000  
C20  24686835.325   128550827.537       -2736.039          43.000                                                                  
C09  36822978.430   191746909.325         298.748          45.000    36822970.973   148270845.046         231.033          48.000  
C23  25126387.007   130839694.335       -2410.743          41.000                                                                  
C19  24951769.860   129930411.758        -645.107          41.000                                                                  
C10  38452107.434   200230213.313         562.726          39.000    38452104.179   154830690.895         435.102          43.000  
R21  20854914.418   111598858.312        1543.274          51.000    20854914.193    86799114.227        1200.159          50.000  
R08  23500153.288   125842254.315       -4666.971          40.000    23500192.606    97877469.286       -3630.011          44.000  
J03  37737313.025   198310921.214           7.516          37.000    37737322.185   154528026.772           5.924          42.000  
J07  37116886.872   195050555.983        -329.285          39.000    37116887.629   151987448.873        -256.528          46.000  
J04                                                                  36988834.962   151463093.864        -483.256          40.000  
> 2025 11 11 08 02 12.0800000  0 32                     
G28  24470348.574   128592537.431       -3357.908          37.000    24470356.011   100202013.939       -2616.721          38.000  
G26  21809961.815   114612121.801       -2522.724          43.000    21809963.628    89308153.973       -1965.728          43.000  
G27  20183605.335   106065560.695        1380.965          48.000    20183606.389    82648493.010        1075.863          46.000  
G31  21976872.659   115489242.432       -2658.894          45.000    21976872.727    89991619.209       -2071.978          44.000  
G04  20934867.998   110013473.576        -881.134          46.000    20934867.870    85724782.752        -686.542          46.000  
C37  22289535.398   116067457.250        -846.612          49.000                                                                  
C06  35874827.403   186809639.627          58.997          45.000    35874817.917   144453026.387          45.740          48.000  
C16  36316621.381   189110176.441          66.016          48.000    36316616.992   146231967.908          50.901          48.000  
C28  22663838.476   118016551.653         538.870          49.000                                                                  
C07  37201652.211   193718765.172         560.007          43.000    37201644.368   149795604.795         432.941          47.000  
C27  23547430.584   122617649.648        2527.650          45.000                                                                  
R10  22688746.844   120943781.774       -2609.670          41.000                                                                  
R22  23230395.268   124005434.625        3918.286          44.000    23230425.423    96448801.659        3047.475          42.000  
R12  21756382.895   116218690.505        1684.791          49.000    21756384.922    90392324.454        1310.231          48.000  
R11  20139122.585   107617364.784        -683.616          51.000    20139121.014    83702390.012        -531.787          51.000  
R20  22090219.565   118126319.243       -2014.911          46.000    22090218.705    91876036.770       -1567.343          47.000  
R01  21067758.557   112619241.617       -2897.771          47.000                                                                  
G08  21787056.226   114491753.756        2953.415          42.000    21787062.003    89214376.566        2301.208          43.000  
G09  22231486.792   116827251.000        1320.142          41.000    22231490.021    91034233.179        1028.506          42.000  
G16  20077808.162   105509593.092       -1079.654          46.000                                                                  
J02  38891404.345   204375707.688        -779.736          46.000    38891404.041   159253797.622        -607.379          47.000  
G18  24327570.997   127842247.999          16.868          38.000    24327572.707    99617345.541          13.134          39.000  
C20  24686856.352   128550936.972       -2735.874          43.000                                                                  
C09  36822976.148   191746897.374         298.863          45.000    36822968.660   148270835.806         231.051          48.000  
C23  25126405.516   130839790.769       -2410.822          41.000                                                                  
C19  24951774.811   129930437.563        -645.035          41.000                                                                  
C10  38452103.112   200230190.805         562.726          39.000    38452099.876   154830673.483         435.280          43.000  
R21  20854902.874   111598796.577        1543.365          51.000    20854902.646    86799066.217        1200.195          50.000  
R08  23500188.145   125842440.984       -4666.695          40.000    23500227.475    97877614.480       -3629.914          44.000  
J03  37737312.978   198310920.907           7.707          37.000    37737322.121   154528026.534           5.983          42.000  
J07  37116889.386   195050569.155        -329.279          39.000    37116890.130   151987459.131        -256.419          46.000  
J04                                                                  36988839.679   151463113.187        -483.088          40.000  
> 2025 11 11 08 02 12.1200000  0 32                     
G28  24470374.159   128592671.786       -3358.524          37.000    24470381.569   100202118.606       -2616.688          38.000  
G26  21809981.030   114612222.716       -2522.792          43.000    21809982.846    89308232.615       -1965.916          43.000  
G27  20183594.832   106065505.458        1380.938          48.000    20183595.868    82648449.971        1075.895          46.000  
G31  21976892.886   115489348.787       -2658.885          45.000    21976892.975    89991702.079       -2071.828          44.000  
G04  20934874.701   110013508.820        -881.128          46.000    20934874.580    85724810.223        -686.725          46.000  
C37  22289541.889   116067491.121        -846.706          49.000                                                                  
C06  35874826.972   186809637.267          58.972          45.000    35874817.465   144453024.564          45.667          48.000  
C16  36316620.866   189110173.806          65.944          48.000    36316616.516   146231965.867          50.985          48.000  
C28  22663834.321   118016530.097         538.899          49.000                                                                  
C07  37201647.928   193718742.784         559.823          43.000    37201640.053   149795587.483         432.851          47.000  
C27  23547411.143   122617548.548        2527.557          45.000                                                                  
R10  22688766.441   120943886.168       -2609.786          41.000                                                                  
R22  23230365.905   124005277.888        3918.366          44.000    23230396.076    96448679.765        3047.316          42.000  
R12  21756370.288   116218623.117        1684.740          49.000    21756372.305    90392272.042        1310.244          48.000  
R11  20139127.728   107617392.135        -683.717          51.000    20139126.124    83702411.286        -531.843          51.000  
R20  22090234.657   118126399.837       -2014.836          46.000    22090233.792    91876099.456       -1567.216          47.000  
R01  21067780.232   112619357.532       -2897.796          47.000                                                                  
G08  21787033.748   114491635.617        2953.505          42.000    21787039.510    89214284.508        2301.341          43.000  
G09  22231476.758   116827198.200        1320.085          41.000    22231479.978    91034192.037        1028.529          42.000  
G16  20077816.394   105509636.279       -1079.663          46.000                                                                  
J02  38891410.297   204375738.876        -779.724          46.000    38891409.981   159253821.924        -607.452          47.000  
G18  24327570.876   127842247.325          16.859          38.000    24327572.570    99617345.012          13.253          39.000  
C20  24686877.350   128551046.423       -2736.129          43.000                                                                  
C09  36822973.832   191746885.427         298.806          45.000    36822966.362   148270826.568         231.000          48.000  
C23  25126424.047   130839887.188       -2410.573          41.000                                                                  
C19  24951779.780   129930463.376        -645.205          41.000                                                                  
C10  38452098.798   200230168.308         562.467          39.000    38452095.579   154830656.074         435.267          43.000  
R21  20854891.339   111598734.850        1543.213          51.000    20854891.104    86799018.203        1200.293          50.000  
R08  23500222.996   125842627.671       -4666.993          40.000    23500262.340    97877759.674       -3629.871          44.000  
J03  37737312.912   198310920.618           7.391          37.000    37737322.061   154528026.306           5.807          42.000  
J07  37116891.893   195050582.317        -329.112          39.000    37116892.631   151987469.386        -256.329          46.000  
J04                                                                  36988844.390   151463132.514        -483.108          40.000  
> 2025 11 11 08 02 12.1600000  0 32                     
G28  24470399.723   128592806.117       -3358.440          37.000    24470407.127   100202223.267       -2616.560          38.000  
G26  21810000.233   114612323.638       -2523.016          43.000    21810002.023    89308311.241       -1965.777          43.000  
G27  20183584.332   106065450.229        1380.757          48.000    20183585.345    82648406.932        1075.901          46.000  
G31  21976913.129   115489455.149       -2659.003          45.000    21976913.207    89991784.963       -2072.026          44.000  
G04  20934881.413   110013544.072        -881.280          46.000    20934881.295    85724837.689        -686.725          46.000  
C37  22289548.346   116067524.995        -846.822          49.000                                                                  
C06  35874826.542   186809634.916          58.789          45.000    35874817.004   144453022.743          45.575          48.000  
C16  36316620.356   189110171.175          65.836          48.000    36316616.041   146231963.832          50.924          48.000  
C28  22663830.169   118016508.546         538.802          49.000                                                                  
C07  37201643.613   193718720.393         559.779          43.000    37201635.743   149795570.170         432.787          47.000  
C27  23547391.743   122617447.454        2527.372          45.000                                                                  
R10  22688786.019   120943990.572       -2610.020          41.000                                                                  
R22  23230336.521   124005121.149        3918.408          44.000    23230366.692    96448557.853        3047.654          42.000  
R12  21756357.665   116218555.737        1684.543          49.000    21756359.670    90392219.626        1310.322          48.000  
R11  20139132.868   107617419.487        -683.823          51.000    20139131.242    83702432.555        -531.756          51.000  
R20  22090249.731   118126480.450       -2015.179          46.000    22090248.848    91876162.146       -1567.292          47.000  
R01  21067801.931   112619473.454       -2897.966          47.000                                                                  
G08  21787011.292   114491517.488        2953.321          42.000    21787017.030    89214192.457        2301.284          43.000  
G09  22231466.715   116827145.416        1319.770          41.000    22231469.929    91034150.909        1028.310          42.000  
G16  20077824.592   105509679.470       -1079.745          46.000                                                                  
J02  38891416.228   204375770.061        -779.639          46.000    38891415.916   159253846.231        -607.611          47.000  
G18  24327570.741   127842246.660          16.708          38.000    24327572.415    99617344.471          13.491          39.000  
C20  24686898.359   128551155.868       -2736.209          43.000                                                                  
C09  36822971.526   191746873.476         298.786          45.000    36822964.050   148270817.335         230.861          48.000  
C23  25126442.545   130839983.616       -2410.624          41.000                                                                  
C19  24951784.740   129930489.201        -645.494          41.000                                                                  
C10  38452094.453   200230145.807         562.437          39.000    38452091.264   154830638.682         434.921          43.000  
R21  20854879.829   111598673.130        1543.036          51.000    20854879.569    86798970.188        1200.372          50.000  
R08  23500257.867   125842814.372       -4667.431          40.000    23500297.208    97877904.876       -3630.007          44.000  
J03  37737312.872   198310920.329           7.240          37.000    37737321.997   154528026.071           5.833          42.000  
J07  37116894.403   195050595.500        -329.379          39.000    37116895.128   151987479.651        -256.497          46.000  
J04                                                                  36988849.107   151463151.837        -483.050          40.000  
> 2025 11 11 08 02 12.2000000  0 32                     
G28  24470425.263   128592940.448       -3358.383          37.000    24470432.714   100202327.932       -2616.523          38.000  
G26  21810019.438   114612424.549       -2522.893          43.000    21810021.212    89308389.873       -1965.786          43.000  
G27  20183573.837   106065395.002        1380.634          48.000    20183574.847    82648363.892        1075.970          46.000  
G31  21976933.362   115489561.516       -2659.150          45.000    21976933.445    89991867.831       -2071.856          44.000  
G04  20934888.115   110013579.324        -881.341          46.000    20934888.000    85724865.161        -686.847          46.000  
C37  22289554.850   116067558.870        -846.917          49.000                                                                  
C06  35874826.114   186809632.558          58.862          45.000    35874816.553   144453020.923          45.496          48.000  
C16  36316619.841   189110168.548          65.680          48.000    36316615.534   146231961.796          50.892          48.000  
C28  22663826.022   118016487.004         538.614          49.000                                                                  
C07  37201639.312   193718698.000         559.774          43.000    37201631.457   149795552.862         432.692          47.000  
C27  23547372.361   122617346.354        2527.397          45.000                                                                  
R10  22688805.604   120944094.962       -2609.883          41.000                                                                  
R22  23230307.154   124004964.408        3918.520          44.000    23230337.325    96448435.949        3047.690          42.000  
R12  21756345.064   116218488.350        1684.600          49.000    21756347.047    90392167.210        1310.371          48.000  
R11  20139137.984   107617446.844        -683.934          51.000    20139136.376    83702453.833        -531.894          51.000  
R20  22090264.814   118126561.059       -2015.288          46.000    22090263.918    91876224.839       -1567.349          47.000  
R01  21067823.625   112619589.383       -2898.168          47.000                                                                  
G08  21786988.812   114491399.367        2953.094          42.000    21786994.558    89214100.404        2301.311          43.000  
G09  22231456.675   116827092.629        1319.646          41.000    22231459.870    91034109.776        1028.289          42.000  
G16  20077832.826   105509722.669       -1079.920          46.000                                                                  
J02  38891422.181   204375801.254        -779.755          46.000    38891421.849   159253870.542        -607.745          47.000  
G18  24327570.636   127842245.999          16.532          38.000    24327572.275    99617343.955          13.164          39.000  
C20  24686919.365   128551265.313       -2736.191          43.000                                                                  
C09  36822969.217   191746861.545         298.433          45.000    36822961.754   148270808.097         230.876          48.000  
C23  25126461.067   130840080.050       -2410.760          41.000                                                                  
C19  24951789.698   129930515.013        -645.375          41.000                                                                  
C10  38452090.143   200230123.286         562.832          39.000    38452086.941   154830621.269         435.100          43.000  
R21  20854868.305   111598611.411        1542.914          51.000    20854868.052    86798922.180        1200.250          50.000  
R08  23500292.756   125843001.059       -4667.368          40.000    23500332.077    97878050.086       -3630.185          44.000  
J03  37737312.813   198310920.034           7.236          37.000    37737321.939   154528025.846           5.681          42.000  
J07  37116896.888   195050608.675        -329.395          39.000    37116897.648   151987489.921        -256.670          46.000  
J04                                                                  36988853.820   151463171.169        -483.237          40.000  
> 2025 11 11 08 02 12.2400000  0 32                     
G28  24470450.817   128593074.782       -3358.380          37.000    24470458.270   100202432.594       -2616.501          38.000  
G26  21810038.649   114612525.459       -2522.801          43.000    21810040.411    89308468.511       -1965.960          43.000  
G27  20183563.307   106065339.770        1380.686          48.000    20183564.338    82648320.847        1076.076          46.000  
G31  21976953.583   115489667.872       -2659.030          45.000    21976953.692    89991950.706       -2071.905          44.000  
G04  20934894.800   110013614.571        -881.268          46.000    20934894.714    85724892.630        -686.816          46.000  
C37  22289561.367   116067592.742        -846.894          49.000                                                                  
C06  35874825.676   186809630.196          58.978          45.000    35874816.112   144453019.100          45.502          48.000  
C16  36316619.361   189110165.913          65.771          48.000    36316615.026   146231959.756          50.938          48.000  
C28  22663821.898   118016465.452         538.700          49.000                                                                  
C07  37201635.013   193718675.605         559.846          43.000    37201627.156   149795535.539         432.913          47.000  
C27  23547352.957   122617245.255        2527.447          45.000                                                                  
R10  22688825.166   120944199.346       -2609.706          41.000                                                                  
R22  23230277.790   124004807.679        3918.294          44.000    23230307.966    96448314.055        3047.452          42.000  
R12  21756332.448   116218420.960        1684.666          49.000    21756334.450    90392114.799        1310.312          48.000  
R11  20139143.094   107617474.192        -683.815          51.000    20139141.513    83702475.106        -531.887          51.000  
R20  22090279.877   118126641.666       -2015.291          46.000    22090279.000    91876287.538       -1567.482          47.000  
R01  21067845.283   112619705.313       -2898.285          47.000                                                                  
G08  21786966.333   114491281.241        2953.059          42.000    21786972.072    89214008.359        2301.193          43.000  
G09  22231446.618   116827039.837        1319.681          41.000    22231449.813    91034068.632        1028.536          42.000  
G16  20077841.039   105509765.864       -1079.956          46.000                                                                  
J02  38891428.108   204375832.442        -779.742          46.000    38891427.790   159253894.846        -607.697          47.000  
G18  24327570.503   127842245.350          16.206          38.000    24327572.135    99617343.443          12.832          39.000  
C20  24686940.381   128551374.763       -2736.268          43.000                                                                  
C09  36822966.921   191746849.608         298.315          45.000    36822959.478   148270798.859         230.898          48.000  
C23  25126479.590   130840176.475       -2410.646          41.000                                                                  
C19  24951794.670   129930540.824        -645.318          41.000                                                                  
C10  38452085.825   200230100.768         562.966          39.000    38452082.633   154830603.864         435.088          43.000  
R21  20854856.748   111598549.684        1543.048          51.000    20854856.531    86798874.176        1200.110          50.000  
R08  23500327.645   125843187.751       -4667.404          40.000    23500366.944    97878195.283       -3629.999          44.000  
J03  37737312.756   198310919.737           7.288          37.000    37737321.903   154528025.621           5.594          42.000  
J07  37116899.382   195050621.835        -329.142          39.000    37116900.154   151987500.184        -256.646          46.000  
J04                                                                  36988858.538   151463190.488        -483.085          40.000  
> 2025 11 11 08 02 12.2800000  0 32                     
G28  24470476.364   128593209.103       -3358.085          37.000    24470483.827   100202537.269       -2616.787          38.000  
G26  21810057.835   114612626.370       -2522.764          43.000    21810059.623    89308547.146       -1965.982          43.000  
G27  20183552.784   106065284.538        1380.729          48.000    20183553.829    82648277.805        1076.043          46.000  
G31  21976973.822   115489774.226       -2658.907          45.000    21976973.932    89992033.588       -2072.026          44.000  
G04  20934901.539   110013649.827        -881.403          46.000    20934901.414    85724920.096        -686.725          46.000  
C37  22289567.861   116067626.612        -846.822          49.000                                                                  
C06  35874825.218   186809627.837          58.978          45.000    35874815.659   144453017.276          45.514          48.000  
C16  36316618.884   189110163.275          65.869          48.000    36316614.546   146231957.714          51.002          48.000  
C28  22663817.792   118016443.907         538.650          49.000                                                                  
C07  37201630.721   193718653.214         559.766          43.000    37201622.855   149795518.222         432.930          47.000  
C27  23547333.528   122617144.158        2527.391          45.000                                                                  
R10  22688844.742   120944303.721       -2609.489          41.000                                                                  
R22  23230248.434   124004650.949        3918.196          44.000    23230278.628    96448192.168        3047.204          42.000  
R12  21756319.823   116218353.572        1684.678          49.000    21756321.804    90392062.388        1310.252          48.000  
R11  20139148.220   107617501.541        -683.777          51.000    20139146.609    83702496.377        -531.837          51.000  
R20  22090294.976   118126722.275       -2015.286          46.000    22090294.067    91876350.234       -1567.450          47.000  
R01  21067866.958   112619821.232       -2898.146          47.000                                                                  
G08  21786943.867   114491163.104        2953.234          42.000    21786949.597    89213916.309        2301.189          43.000  
G09  22231436.585   116826987.042        1319.752          41.000    22231439.770    91034027.495        1028.480          42.000  
G16  20077849.256   105509809.059       -1079.967          46.000                                                                  
J02  38891434.051   204375863.634        -779.816          46.000    38891433.721   159253919.147        -607.593          47.000  
G18  24327570.363   127842244.673          16.538          38.000    24327572.012    99617342.929          12.697          39.000  
C20  24686961.393   128551484.211       -2736.292          43.000                                                                  
C09  36822964.625   191746837.662         298.452          45.000    36822957.160   148270789.620         230.937          48.000  
C23  25126498.106   130840272.899       -2410.585          41.000                                                                  
C19  24951799.608   129930566.647        -645.507          41.000                                                                  
C10  38452081.520   200230078.277         562.484          39.000    38452078.311   154830586.467         434.959          43.000  
R21  20854845.222   111598487.962        1543.036          51.000    20854845.014    86798826.175        1200.000          50.000  
R08  23500362.492   125843374.424       -4667.058          40.000    23500401.792    97878340.477       -3629.864          44.000  
J03  37737312.710   198310919.418           7.719          37.000    37737321.858   154528025.403           5.386          42.000  
J07  37116901.889   195050635.003        -329.174          39.000    37116902.655   151987510.449        -256.665          46.000  
J04                                                                  36988863.260   151463209.832        -483.482          40.000  
> 2025 11 11 08 02 12.3200000  0 32                     
G28  24470501.928   128593343.446       -3358.435          37.000    24470509.407   100202641.963       -2617.225          38.000  
G26  21810077.039   114612727.295       -2523.055          43.000    21810078.839    89308625.781       -1965.951          43.000  
G27  20183542.280   106065229.312        1380.598          48.000    20183543.329    82648234.788        1075.538          46.000  
G31  21976994.061   115489880.593       -2659.119          45.000    21976994.162    89992116.474       -2072.172          44.000  
G04  20934908.245   110013685.089        -881.598          46.000    20934908.130    85724947.575        -686.945          46.000  
C37  22289574.365   116067660.498        -847.065          49.000                                                                  
C06  35874824.758   186809625.487          58.752          45.000    35874815.183   144453015.453          45.520          48.000  
C16  36316618.403   189110160.641          65.818          48.000    36316614.070   146231955.685          50.803          48.000  
C28  22663813.641   118016422.366         538.504          49.000                                                                  
C07  37201626.404   193718630.837         559.458          43.000    37201618.572   149795500.913         432.781          47.000  
C27  23547314.127   122617043.070        2527.213          45.000                                                                  
R10  22688864.306   120944408.128       -2609.949          41.000                                                                  
R22  23230219.063   124004494.226        3918.022          44.000    23230249.260    96448070.279        3047.125          42.000  
R12  21756307.216   116218286.193        1684.493          49.000    21756309.173    90392009.981        1310.156          48.000  
R11  20139153.353   107617528.903        -684.014          51.000    20139151.738    83702517.661        -532.055          51.000  
R20  22090310.057   118126802.885       -2015.298          46.000    22090309.142    91876412.932       -1567.475          47.000  
R01  21067888.629   112619937.158       -2898.201          47.000                                                                  
G08  21786921.404   114491044.990        2952.924          42.000    21786927.125    89213824.275        2300.909          43.000  
G09  22231426.528   116826934.257        1319.571          41.000    22231429.749    91033986.366        1028.293          42.000  
G16  20077857.485   105509852.263       -1080.110          46.000                                                                  
J02  38891440.001   204375894.834        -780.035          46.000    38891439.658   159253943.461        -607.800          47.000  
G18  24327570.248   127842244.017          16.372          38.000    24327571.879    99617342.408          12.793          39.000  
C20  24686982.417   128551593.661       -2736.343          43.000                                                                  
C09  36822962.367   191746825.717         298.519          45.000    36822954.870   148270780.393         230.740          48.000  
C23  25126516.612   130840369.326       -2410.660          41.000                                                                  
C19  24951804.575   129930592.479        -645.735          41.000                                                                  
C10  38452077.186   200230055.761         562.807          39.000    38452073.958   154830569.070         434.861          43.000  
R21  20854833.686   111598426.255        1542.712          51.000    20854833.490    86798778.183        1199.799          50.000  
R08  23500397.358   125843561.123       -4667.368          40.000    23500436.664    97878485.684       -3630.117          44.000  
J03  37737312.665   198310919.136           7.277          37.000    37737321.809   154528025.165           5.715          42.000  
J07  37116904.396   195050648.189        -329.525          39.000    37116905.157   151987520.712        -256.591          46.000  
J04                                                                  36988867.983   151463229.162        -483.390          40.000  
> 2025 11 11 08 02 12.3600000  0 32                     
G28  24470527.489   128593477.777       -3358.390          37.000    24470534.985   100202746.653       -2617.379          38.000  
G26  21810096.247   114612828.229       -2523.357          43.000    21810098.055    89308704.432       -1966.222          43.000  
G27  20183531.792   106065174.104        1380.258          48.000    20183532.834    82648191.773        1075.268          46.000  
G31  21977014.314   115489986.978       -2659.575          45.000    21977014.402    89992199.369       -2072.359          44.000  
G04  20934914.960   110013720.366        -881.909          46.000    20934914.843    85724975.058        -687.128          46.000  
C37  22289580.891   116067694.397        -847.433          49.000                                                                  
C06  35874824.283   186809623.153          58.398          45.000    35874814.724   144453013.647          45.209          48.000  
C16  36316617.895   189110158.029          65.404          48.000    36316613.552   146231953.668          50.471          48.000  
C28  22663809.475   118016400.844         538.120          49.000                                                                  
C07  37201622.111   193718608.464         559.261          43.000    37201614.249   149795483.620         432.418          47.000  
C27  23547294.713   122616941.994        2526.893          45.000                                                                  
R10  22688883.896   120944512.546       -2610.394          41.000                                                                  
R22  23230189.699   124004337.507        3917.881          44.000    23230219.890    96447948.398        3046.966          42.000  
R12  21756294.612   116218218.831        1684.134          49.000    21756296.557    90391957.596        1309.708          48.000  
R11  20139158.485   107617556.281        -684.417          51.000    20139156.864    83702538.954        -532.346          51.000  
R20  22090325.123   118126883.518       -2015.708          46.000    22090324.213    91876475.639       -1567.648          47.000  
R01  21067910.328   112620053.114       -2898.750          47.000                                                                  
G08  21786898.936   114490926.889        2952.548          42.000    21786904.646    89213732.246        2300.682          43.000  
G09  22231416.501   116826881.507        1318.837          41.000    22231419.712    91033945.253        1027.891          42.000  
G16  20077865.732   105509895.475       -1080.354          46.000                                                                  
J02  38891445.956   204375926.048        -780.371          46.000    38891445.586   159253967.775        -607.898          47.000  
G18  24327570.108   127842243.357          16.379          38.000    24327571.748    99617341.922          12.244          39.000  
C20  24687003.435   128551703.130       -2736.699          43.000                                                                  
C09  36822960.067   191746813.793         298.199          45.000    36822952.571   148270771.175         230.478          48.000  
C23  25126535.117   130840465.785       -2411.295          41.000                                                                  
C19  24951809.556   129930618.319        -646.012          41.000                                                                  
C10  38452072.860   200230033.264         562.553          39.000    38452069.633   154830551.685         434.615          43.000  
R21  20854822.170   111598364.563        1542.322          51.000    20854821.976    86798730.202        1199.493          50.000  
R08  23500432.219   125843747.826       -4667.613          40.000    23500471.525    97878630.899       -3630.345          44.000  
J03  37737312.618   198310918.865           6.750          37.000    37737321.749   154528024.944           5.541          42.000  
J07  37116906.906   195050661.388        -329.931          39.000    37116907.671   151987530.990        -256.844          46.000  
J04                                                                  36988872.716   151463248.504        -483.548          40.000  
> 2025 11 11 08 02 12.4000000  0 32                     
G28  24470553.052   128593612.141       -3358.884          37.000    24470560.543   100202851.330       -2617.161          38.000  
G26  21810115.461   114612929.163       -2523.459          43.000    21810117.283    89308783.086       -1966.418          43.000  
G27  20183521.279   106065118.892        1380.155          48.000    20183522.319    82648148.752        1075.304          46.000  
G31  21977034.557   115490093.353       -2659.582          45.000    21977034.633    89992282.263       -2072.443          44.000  
G04  20934921.675   110013755.638        -881.952          46.000    20934921.548    85725002.548        -687.299          46.000  
C37  22289587.370   116067728.284        -847.372          49.000                                                                  
C06  35874823.855   186809620.815          58.313          45.000    35874814.253   144453011.838          45.148          48.000  
C16  36316617.416   189110155.421          65.171          48.000    36316613.064   146231951.646          50.426          48.000  
C28  22663805.348   118016379.310         538.167          49.000                                                                  
C07  37201617.813   193718586.095         559.141          43.000    37201609.958   149795466.322         432.357          47.000  
C27  23547275.310   122616840.905        2527.055          45.000                                                                  
R10  22688903.487   120944616.961       -2610.557          41.000                                                                  
R22  23230160.323   124004180.788        3917.841          44.000    23230190.521    96447826.508        3047.092          42.000  
R12  21756282.014   116218151.466        1683.996          49.000    21756283.936    90391905.199        1309.743          48.000  
R11  20139163.621   107617583.651        -684.425          51.000    20139161.974    83702560.242        -532.336          51.000  
R20  22090340.192   118126964.158       -2016.027          46.000    22090339.300    91876538.355       -1567.889          47.000  
R01  21067931.996   112620169.060       -2898.829          47.000                                                                  
G08  21786876.471   114490808.778        2952.584          42.000    21786882.154    89213640.203        2300.877          43.000  
G09  22231406.464   116826828.720        1319.246          41.000    22231409.647    91033904.135        1027.792          42.000  
G16  20077873.937   105509938.686       -1080.393          46.000                                                                  
J02  38891451.907   204375957.256        -780.353          46.000    38891451.539   159253992.090        -607.941          47.000  
G18  24327569.991   127842242.713          16.134          38.000    24327571.629    99617341.425          12.250          39.000  
C20  24687024.488   128551812.603       -2736.914          43.000                                                                  
C09  36822957.788   191746801.869         298.046          45.000    36822950.274   148270761.958         230.358          48.000  
C23  25126553.660   130840562.239       -2411.519          41.000                                                                  
C19  24951814.521   129930644.154        -646.048          41.000                                                                  
C10  38452068.573   200230010.786         562.123          39.000    38452065.310   154830534.287         434.808          43.000  
R21  20854810.635   111598302.862        1542.334          51.000    20854810.448    86798682.211        1199.603          50.000  
R08  23500467.084   125843934.533       -4667.791          40.000    23500506.379    97878776.118       -3630.547          44.000  
J03  37737312.554   198310918.597           6.501          37.000    37737321.714   154528024.728           5.410          42.000  
J07  37116909.429   195050674.581        -329.960          39.000    37116910.178   151987541.272        -257.005          46.000  
J04                                                                  36988877.450   151463267.844        -483.645          40.000  
> 2025 11 11 08 02 12.4400000  0 32                     
G28  24470578.608   128593746.484       -3358.815          37.000    24470586.093   100202955.985       -2616.683          38.000  
G26  21810134.675   114613030.087       -2523.286          43.000    21810136.478    89308861.729       -1966.278          43.000  
G27  20183510.770   106065063.684        1380.090          48.000    20183511.777    82648105.726        1075.500          46.000  
G31  21977054.805   115490199.727       -2659.489          45.000    21977054.881    89992365.147       -2072.275          44.000  
G04  20934928.377   110013790.902        -881.775          46.000    20934928.255    85725030.031        -687.238          46.000  
C37  22289593.883   116067762.167        -847.206          49.000                                                                  
C06  35874823.418   186809618.460          58.667          45.000    35874813.787   144453010.027          45.166          48.000  
C16  36316616.904   189110152.803          65.243          48.000    36316612.577   146231949.620          50.485          48.000  
C28  22663801.222   118016357.774         538.265          49.000                                                                  
C07  37201613.528   193718563.712         559.354          43.000    37201605.662   149795449.014         432.548          47.000  
C27  23547255.917   122616739.817        2527.124          45.000                                                                  
R10  22688923.054   120944721.360       -2610.277          41.000                                                                  
R22  23230130.967   124004024.068        3917.905          44.000    23230161.159    96447704.611        3047.272          42.000  
R12  21756269.398   116218084.087        1684.242          49.000    21756271.307    90391852.792        1310.000          48.000  
R11  20139168.736   107617611.019        -684.361          51.000    20139167.091    83702581.526        -532.209          50.000  
R20  22090355.248   118127044.779       -2015.800          46.000    22090354.354    91876601.062       -1567.808          46.000  
R01  21067953.684   112620285.003       -2898.772          47.000                                                                  
G08  21786853.988   114490690.663        2952.735          42.000    21786859.691    89213548.172        2300.748          43.000  
G09  22231396.419   116826775.929        1319.629          41.000    22231399.604    91033863.012        1027.896          42.000  
G16  20077882.157   105509981.889       -1080.233          46.000                                                                  
J02  38891457.823   204375988.453        -780.084          46.000    38891457.494   159254016.401        -607.855          47.000  
G18  24327569.863   127842242.051          16.334          38.000    24327571.465    99617340.911          12.545          39.000  
C20  24687045.502   128551922.062       -2736.725          43.000                                                                  
C09  36822955.496   191746789.926         298.335          45.000    36822947.995   148270752.727         230.562          48.000  
C23  25126572.158   130840658.672       -2411.170          41.000                                                                  
C19  24951819.501   129930669.990        -646.014          41.000                                                                  
C10  38452064.263   200229988.290         562.248          39.000    38452060.983   154830516.886         434.937          43.000  
R21  20854799.092   111598241.151        1542.566          51.000    20854798.913    86798634.210        1199.860          50.000  
R08  23500501.938   125844121.226       -4667.542          40.000    23500541.255    97878921.325       -3630.379          43.000  
J03  37737312.527   198310918.308           6.847          37.000    37737321.649   154528024.513           5.345          42.000  
J07  37116911.934   195050687.758        -329.682          39.000    37116912.693   151987551.541        -256.876          46.000  
J04                                                                  36988882.167   151463287.170        -483.366          40.000  
> 2025 11 11 08 02 12.4800000  0 32                     
G28  24470604.187   128593880.815       -3358.539          37.000    24470611.660   100203060.657       -2616.728          38.000  
G26  21810153.873   114613131.004       -2523.030          43.000    21810155.662    89308940.357       -1965.882          43.000  
G27  20183500.240   106065008.459        1380.403          48.000    20183501.271    82648062.692        1075.755          46.000  
G31  21977075.051   115490306.091       -2659.240          45.000    21977075.127    89992448.029       -2072.133          44.000  
G04  20934935.101   110013826.157        -881.458          46.000    20934934.971    85725057.502        -686.932          46.000  
C37  22289600.403   116067796.037        -846.886          49.000                                                                  
C06  35874822.963   186809616.102          58.929          45.000    35874813.321   144453008.203          45.459          48.000  
C16  36316616.411   189110150.161          65.736          48.000    36316612.072   146231947.585          50.692          48.000  
C28  22663797.090   118016336.234         538.439          49.000                                                                  
C07  37201609.203   193718541.319         559.687          43.000    37201601.332   149795431.698         432.771          47.000  
C27  23547236.512   122616638.717        2527.364          45.000                                                                  
R10  22688942.632   120944825.745       -2609.898          41.000                                                                  
R22  23230101.624   124003867.331        3918.248          44.000    23230131.788    96447582.727        3047.115          42.000  
R12  21756256.780   116218016.697        1684.561          49.000    21756258.704    90391800.379        1310.212          48.000  
R11  20139173.863   107617638.371        -683.980          51.000    20139172.205    83702602.799        -531.942          50.000  
R20  22090370.326   118127125.395       -2015.580          46.000    22090369.421    91876663.765       -1567.683          46.000  
R01  21067975.379   112620400.925       -2898.313          47.000                                                                  
G08  21786831.513   114490572.543        2952.912          42.000    21786837.215    89213456.127        2300.960          43.000  
G09  22231386.376   116826723.157        1319.498          41.000    22231389.544    91033821.886        1028.040          42.000  
G16  20077890.364   105510025.085       -1080.013          46.000                                                                  
J02  38891463.753   204376019.636        -779.681          46.000    38891463.444   159254040.708        -607.745          47.000  
G18  24327569.739   127842241.411          16.078          38.000    24327571.323    99617340.398          12.766          39.000  
C20  24687066.528   128552031.516       -2736.445          43.000                                                                  
C09  36822953.208   191746777.971         298.733          45.000    36822945.727   148270743.491         230.798          48.000  
C23  25126590.677   130840755.102       -2410.884          41.000                                                                  
C19  24951824.463   129930695.805        -645.624          41.000                                                                  
C10  38452059.937   200229965.782         562.600          39.000    38452056.649   154830499.482         435.066          43.000  
R21  20854787.562   111598179.436        1542.798          51.000    20854787.362    86798586.208        1200.012          50.000  
R08  23500536.787   125844307.907       -4667.147          40.000    23500576.094    97879066.519       -3629.990          43.000  
J03  37737312.472   198310918.006           7.319          37.000    37737321.606   154528024.283           5.601          42.000  
J07  37116914.448   195050700.914        -329.121          39.000    37116915.201   151987561.810        -256.779          46.000  
J04                                                                  36988886.885   151463306.505        -483.409          40.000  
> 2025 11 11 08 02 12.5200000  0 32                     
G28  24470629.747   128594015.131       -3358.099          37.000    24470637.221   100203165.321       -2616.628          38.000  
G26  21810173.051   114613231.914       -2522.795          43.000    21810174.880    89309018.999       -1965.929          43.000  
G27  20183489.720   106064953.235        1380.570          48.000    20183490.762    82648019.660        1075.833          46.000  
G31  21977095.288   115490412.451       -2659.043          45.000    21977095.375    89992530.909       -2072.020          44.000  
G04  20934941.812   110013861.415        -881.433          46.000    20934941.651    85725084.975        -686.816          46.000  
C37  22289606.917   116067829.908        -846.726          49.000                                                                  
C06  35874822.528   186809613.738          59.125          45.000    35874812.836   144453006.368          45.813          48.000  
C16  36316615.943   189110147.520          66.002          48.000    36316611.559   146231945.550          50.841          48.000  
C28  22663792.964   118016314.684         538.688          49.000                                                                  
C07  37201604.900   193718518.918         560.008          43.000    37201597.037   149795414.377         432.984          47.000  
C27  23547217.096   122616537.623        2527.381          45.000                                                                  
R10  22688962.203   120944930.128       -2609.624          41.000                                                                  
R22  23230072.274   124003710.600        3918.313          44.000    23230102.405    96447460.839        3047.135          42.000  
R12  21756244.174   116217949.307        1684.742          49.000    21756246.107    90391747.969        1310.283          48.000  
R11  20139178.969   107617665.721        -683.759          51.000    20139177.300    83702624.073        -531.832          50.000  
R20  22090385.389   118127205.999       -2015.207          46.000    22090384.483    91876726.467       -1567.595          46.000  
R01  21067997.066   112620516.844       -2898.032          47.000                                                                  
G08  21786809.032   114490454.402        2953.350          42.000    21786814.751    89213364.083        2301.077          43.000  
G09  22231376.336   116826670.358        1319.839          41.000    22231379.492    91033780.747        1028.372          42.000  
G16  20077898.572   105510068.281       -1079.928          46.000                                                                  
J02  38891469.687   204376050.824        -779.626          46.000    38891469.385   159254065.013        -607.660          47.000  
G18  24327569.611   127842240.738          16.512          38.000    24327571.205    99617339.876          13.043          39.000  
C20  24687087.542   128552140.967       -2736.316          43.000                                                                  
C09  36822950.916   191746766.026         298.746          45.000    36822943.470   148270734.249         231.014          48.000  
C23  25126609.210   130840851.532       -2410.687          41.000                                                                  
C19  24951829.421   129930721.622        -645.464          41.000                                                                  
C10  38452055.615   200229943.275         562.679          39.000    38452052.328   154830482.074         435.182          43.000  
R21  20854776.010   111598117.717        1542.957          51.000    20854775.829    86798538.204        1200.116          50.000  
R08  23500571.663   125844494.584       -4666.915          40.000    23500610.950    97879211.727       -3630.078          43.000  
J03  37737312.391   198310917.695           7.731          37.000    37737321.548   154528024.037           5.997          42.000  
J07  37116916.946   195050714.085        -329.080          39.000    37116917.686   151987572.066        -256.510          46.000  
J04                                                                  36988891.608   151463325.842        -483.427          40.000  
> 2025 11 11 08 02 12.5600000  0 32                     
G28  24470655.307   128594149.481       -3358.475          37.000    24470662.802   100203270.014       -2617.151          38.000  
G26  21810192.286   114613332.830       -2522.790          43.000    21810194.093    89309097.635       -1965.895          43.000  
G27  20183479.212   106064898.011        1380.630          48.000    20183480.241    82647976.628        1075.825          46.000  
G31  21977115.519   115490518.813       -2658.998          45.000    21977115.598    89992613.786       -2071.955          44.000  
G04  20934948.509   110013896.675        -881.445          46.000    20934948.366    85725112.449        -686.829          46.000  
C37  22289613.419   116067863.780        -846.719          49.000                                                                  
C06  35874822.067   186809611.381          59.052          45.000    35874812.371   144453004.542          45.776          48.000  
C16  36316615.440   189110144.884          66.022          48.000    36316611.074   146231943.504          51.091          48.000  
C28  22663788.819   118016293.143         538.627          49.000                                                                  
C07  37201600.598   193718496.529         559.902          43.000    37201592.738   149795397.066         432.880          47.000  
C27  23547197.700   122616436.523        2527.479          45.000                                                                  
R10  22688981.781   120945034.520       -2609.655          41.000                                                                  
R22  23230042.915   124003553.862        3918.398          44.000    23230073.031    96447338.938        3047.391          42.000  
R12  21756231.561   116217881.925        1684.661          49.000    21756233.493    90391695.548        1310.506          48.000  
R11  20139184.074   107617693.072        -683.706          51.000    20139182.412    83702645.344        -531.753          50.000  
R20  22090400.457   118127286.612       -2015.217          46.000    22090399.532    91876789.166       -1567.507          46.000  
R01  21068018.764   112620632.771       -2898.033          47.000                                                                  
G08  21786786.575   114490336.277        2953.284          42.000    21786792.258    89213272.033        2301.228          43.000  
G09  22231366.303   116826617.575        1319.684          41.000    22231369.445    91033739.606        1028.557          42.000  
G16  20077906.802   105510111.476       -1079.861          46.000                                                                  
J02  38891475.619   204376082.014        -779.657          46.000    38891475.299   159254089.313        -607.532          47.000  
G18  24327569.491   127842240.075          16.567          38.000    24327571.063    99617339.342          13.352          39.000  
C20  24687108.544   128552250.411       -2736.127          43.000                                                                  
C09  36822948.600   191746754.087         298.595          45.000    36822941.189   148270725.008         231.082          48.000  
C23  25126627.733   130840947.956       -2410.560          41.000                                                                  
C19  24951834.366   129930747.452        -645.619          41.000                                                                  
C10  38452051.304   200229920.763         562.789          39.000    38452048.019   154830464.670         435.150          43.000  
R21  20854764.483   111598056.002        1542.957          51.000    20854764.292    86798490.209        1199.963          50.000  
R08  23500606.542   125844681.265       -4666.886          40.000    23500645.813    97879356.926       -3629.980          43.000  
J03  37737312.334   198310917.408           7.449          37.000    37737321.501   154528023.816           5.716          42.000  
J07  37116919.455   195050727.256        -329.149          39.000    37116920.195   151987582.329        -256.505          46.000  
J04                                                                  36988896.334   151463345.152        -483.005          40.000  
> 2025 11 11 08 02 12.6000000  0 32                     
G28  24470680.866   128594283.813       -3358.396          37.000    24470688.359   100203374.684       -2617.014          38.000  
G26  21810211.504   114613433.750       -2522.880          43.000    21810213.316    89309176.264       -1965.755          43.000  
G27  20183468.709   106064842.790        1380.566          48.000    20183469.725    82647933.601        1075.719          46.000  
G31  21977135.773   115490625.181       -2659.087          45.000    21977135.849    89992696.671       -2072.029          44.000  
G04  20934955.237   110013931.942        -881.635          46.000    20934955.095    85725139.922        -686.829          46.000  
C37  22289619.944   116067897.658        -846.859          49.000                                                                  
C06  35874821.607   186809609.027          58.905          45.000    35874811.885   144453002.725          45.544          48.000  
C16  36316614.942   189110142.253          65.865          48.000    36316610.606   146231941.468          51.007          48.000  
C28  22663784.673   118016271.612         538.377          49.000                                                                  
C07  37201596.294   193718474.145         559.711          43.000    37201588.447   149795379.757         432.764          47.000  
C27  23547178.277   122616335.435        2527.300          45.000                                                                  
R10  22689001.348   120945138.923       -2609.944          41.000                                                                  
R22  23230013.540   124003397.125        3918.478          44.000    23230043.667    96447217.030        3047.656          42.000  
R12  21756218.944   116217814.546        1684.539          49.000    21756220.895    90391643.132        1310.483          48.000  
R11  20139189.197   107617720.425        -683.764          51.000    20139187.532    83702666.620        -531.843          50.000  
R20  22090415.544   118127367.234       -2015.411          46.000    22090414.590    91876851.868       -1567.551          46.000  
R01  21068040.441   112620748.703       -2898.168          47.000                                                                  
G08  21786764.108   114490218.168        2952.932          42.000    21786769.784    89213179.989        2301.188          43.000  
G09  22231356.248   116826564.797        1319.497          41.000    22231359.407    91033698.472        1028.492          42.000  
G16  20077915.042   105510154.681       -1080.045          46.000                                                                  
J02  38891481.552   204376113.208        -779.779          46.000    38891481.243   159254113.619        -607.611          47.000  
G18  24327569.376   127842239.422          16.440          38.000    24327570.933    99617338.834          13.004          39.000  
C20  24687129.542   128552359.861       -2736.183          43.000                                                                  
C09  36822946.322   191746742.142         298.615          45.000    36822938.893   148270715.773         230.991          48.000  
C23  25126646.268   130841044.393       -2410.790          41.000                                                                  
C19  24951839.303   129930773.277        -645.605          41.000                                                                  
C10  38452046.994   200229898.250         562.862          39.000    38452043.705   154830447.270         435.027          43.000  
R21  20854752.943   111597994.298        1542.706          51.000    20854752.774    86798442.217        1199.823          50.000  
R08  23500641.416   125844867.963       -4667.208          40.000    23500680.677    97879502.119       -3629.814          43.000  
J03  37737312.253   198310917.105           7.482          37.000    37737321.459   154528023.596           5.499          42.000  
J07  37116921.953   195050740.449        -329.612          39.000    37116922.710   151987592.595        -256.601          46.000  
J04                                                                  36988901.068   151463364.489        -483.223          40.000  
> 2025 11 11 08 02 12.6400000  0 32                     
G28  24470706.436   128594418.139       -3358.287          37.000    24470713.915   100203479.356       -2616.918          38.000  
G26  21810230.718   114613534.665       -2522.905          43.000    21810232.508    89309254.905       -1965.910          43.000  
G27  20183458.192   106064787.568        1380.547          48.000    20183459.214    82647890.575        1075.657          46.000  
G31  21977156.013   115490731.540       -2659.025          45.000    21977156.114    89992779.560       -2072.212          44.000  
G04  20934961.947   110013967.204        -881.616          46.000    20934961.812    85725167.405        -687.006          46.000  
C37  22289626.427   116067931.531        -846.852          49.000                                                                  
C06  35874821.153   186809606.670          58.905          45.000    35874811.408   144453000.908          45.422          48.000  
C16  36316614.455   189110139.622          65.808          48.000    36316610.152   146231939.430          50.997          48.000  
C28  22663780.538   118016250.070         538.462          49.000                                                                  
C07  37201591.981   193718451.752         559.756          43.000    37201584.147   149795362.441         432.849          47.000  
C27  23547158.869   122616234.341        2527.300          45.000                                                                  
R10  22689020.939   120945243.325       -2610.056          41.000                                                                  
R22  23229984.197   124003240.388        3918.463          44.000    23230014.295    96447095.125        3047.672          42.000  
R12  21756206.338   116217747.158        1684.639          49.000    21756208.276    90391590.733        1310.139          48.000  
R11  20139194.324   107617747.775        -683.759          51.000    20139192.655    83702687.897        -531.930          51.000  
R20  22090430.622   118127447.854       -2015.513          46.000    22090429.677    91876914.570       -1567.571          46.000  
R01  21068062.118   112620864.646       -2898.428          47.000                                                                  
G08  21786741.634   114490100.039        2953.045          42.000    21786747.308    89213087.949        2301.076          43.000  
G09  22231346.225   116826512.033        1319.127          41.000    22231349.373    91033657.350        1028.213          42.000  
G16  20077923.279   105510197.878       -1079.981          46.000                                                                  
J02  38891487.483   204376144.397        -779.773          46.000    38891487.195   159254137.920        -607.562          47.000  
G18  24327569.256   127842238.771          16.337          38.000    24327570.811    99617338.307          13.137          39.000  
C20  24687150.564   128552469.310       -2736.170          43.000                                                                  
C09  36822944.010   191746730.198         298.622          45.000    36822936.566   148270706.539         230.917          48.000  
C23  25126664.809   130841140.820       -2410.718          41.000                                                                  
C19  24951844.226   129930799.113        -645.807          41.000                                                                  
C10  38452042.641   200229875.745         562.713          39.000    38452039.372   154830429.865         435.064          43.000  
R21  20854741.426   111597932.587        1542.712          51.000    20854741.232    86798394.223        1199.799          50.000  
R08  23500676.274   125845054.658       -4667.392          40.000    23500715.535    97879647.311       -3629.729          43.000  
J03  37737312.192   198310916.809           7.431          38.000    37737321.386   154528023.371           5.510          42.000  
J07  37116924.458   195050753.615        -329.419          39.000    37116925.222   151987602.863        -256.678          46.000  
J04                                                                  36988905.777   151463383.812        -483.119          40.000  
> 2025 11 11 08 02 12.6800000  0 32                     
G28  24470731.990   128594552.460       -3358.099          37.000    24470739.479   100203584.025       -2616.821          38.000  
G26  21810249.939   114613635.582       -2522.951          43.000    21810251.694    89309333.539       -1965.863          43.000  
G27  20183447.677   106064732.343        1380.571          48.000    20183448.697    82647847.544        1075.713          46.000  
G31  21977176.253   115490837.907       -2659.102          45.000    21977176.352    89992862.433       -2071.995          44.000  
G04  20934968.638   110014002.459        -881.458          46.000    20934968.536    85725194.879        -686.945          46.000  
C37  22289632.936   116067965.409        -846.916          49.000                                                                  
C06  35874820.720   186809604.311          58.929          45.000    35874810.944   144452999.086          45.477          48.000  
C16  36316613.990   189110136.984          65.908          48.000    36316609.657   146231937.390          50.994          48.000  
C28  22663776.411   118016228.528         538.507          49.000                                                                  
C07  37201587.673   193718429.362         559.757          43.000    37201579.832   149795345.120         432.983          47.000  
C27  23547139.473   122616133.243        2527.411          45.000                                                                  
R10  22689040.513   120945347.710       -2609.799          41.000                                                                  
R22  23229954.840   124003083.646        3918.519          44.000    23229984.933    96446973.225        3047.576          42.000  
R12  21756193.734   116217679.771        1684.656          49.000    21756195.682    90391538.327        1310.101          48.000  
R11  20139199.459   107617775.129        -683.840          51.000    20139197.808    83702709.171        -531.886          51.000  
R20  22090445.707   118127528.475       -2015.548          46.000    22090444.744    91876977.273       -1567.589          46.000  
R01  21068083.810   112620980.576       -2898.354          47.000                                                                  
G08  21786719.138   114489981.912        2953.069          42.000    21786724.804    89212995.906        2301.029          43.000  
G09  22231336.182   116826459.242        1319.462          41.000    22231339.356    91033616.220        1028.184          42.000  
G16  20077931.492   105510241.071       -1079.888          46.000                                                                  
J02  38891493.437   204376175.585        -779.749          46.000    38891493.130   159254162.220        -607.532          47.000  
G18  24327569.131   127842238.106          16.538          38.000    24327570.668    99617337.808          12.683          39.000  
C20  24687171.583   128552578.755       -2736.135          43.000                                                                  
C09  36822941.735   191746718.246         298.778          45.000    36822934.252   148270697.304         230.878          48.000  
C23  25126683.315   130841237.251       -2410.784          41.000                                                                  
C19  24951849.192   129930824.919        -645.342          41.000                                                                  
C10  38452038.314   200229853.249         562.436          39.000    38452035.056   154830412.458         435.144          43.000  
R21  20854729.896   111597870.877        1542.719          51.000    20854729.686    86798346.223        1199.908          50.000  
R08  23500711.142   125845241.339       -4667.188          40.000    23500750.396    97879792.502       -3629.755          43.000  
J03  37737312.141   198310916.514           7.401          38.000    37737321.337   154528023.130           5.861          42.000  
J07  37116926.963   195050766.783        -329.221          39.000    37116927.712   151987613.119        -256.488          46.000  
J04                                                                  36988910.494   151463403.139        -483.108          40.000  
> 2025 11 11 08 02 12.7200000  0 32                     
G28  24470757.522   128594686.792       -3358.124          37.000    24470765.047   100203688.698       -2616.823          38.000  
G26  21810269.133   114613736.489       -2522.773          43.000    21810270.889    89309412.174       -1965.876          43.000  
G27  20183437.150   106064677.115        1380.634          48.000    20183438.203    82647804.515        1075.701          46.000  
G31  21977196.504   115490944.270       -2659.043          45.000    21977196.582    89992945.303       -2071.837          44.000  
G04  20934975.344   110014037.716        -881.421          46.000    20934975.253    85725222.350        -686.847          46.000  
C37  22289639.475   116067999.280        -846.826          49.000                                                                  
C06  35874820.252   186809601.948          59.015          45.000    35874810.484   144452997.257          45.642          48.000  
C16  36316613.504   189110134.341          66.001          48.000    36316609.189   146231935.346          51.079          48.000  
C28  22663772.313   118016206.983         538.608          49.000                                                                  
C07  37201583.350   193718406.963         559.904          43.000    37201575.509   149795327.805         432.935          47.000  
C27  23547120.052   122616032.141        2527.522          45.000                                                                  
R10  22689060.087   120945452.089       -2609.535          41.000                                                                  
R22  23229925.490   124002926.915        3918.356          44.000    23229955.546    96446851.325        3047.476          42.000  
R12  21756181.107   116217612.379        1684.759          49.000    21756183.075    90391485.909        1310.306          48.000  
R11  20139204.593   107617802.482        -683.846          51.000    20139202.915    83702730.441        -531.811          51.000  
R20  22090460.801   118127609.087       -2015.405          46.000    22090459.818    91877039.976       -1567.615          47.000  
R01  21068105.486   112621096.504       -2898.253          47.000                                                                  
G08  21786696.640   114489863.791        2953.060          42.000    21786702.315    89212903.862        2301.051          43.000  
G09  22231326.131   116826406.450        1319.705          41.000    22231329.307    91033575.080        1028.386          42.000  
G16  20077939.687   105510284.265       -1079.864          46.000                                                                  
J02  38891499.359   204376206.768        -779.669          46.000    38891499.073   159254186.516        -607.422          47.000  
G18  24327568.997   127842237.455          16.326          38.000    24327570.549    99617337.313          12.344          39.000  
C20  24687192.615   128552688.204       -2736.204          43.000                                                                  
C09  36822939.458   191746706.297         298.771          45.000    36822931.945   148270688.061         231.016          48.000  
C23  25126701.842   130841333.662       -2410.456          41.000                                                                  
C19  24951854.118   129930850.749        -645.537          41.000                                                                  
C10  38452033.982   200229830.736         562.634          39.000    38452030.734   154830395.046         435.249          43.000  
R21  20854718.352   111597809.165        1542.767          51.000    20854718.134    86798298.223        1199.957          50.000  
R08  23500745.995   125845428.018       -4667.028          40.000    23500785.261    97879937.701       -3629.872          43.000  
J03  37737312.085   198310916.207           7.585          38.000    37737321.273   154528022.896           5.955          42.000  
J07  37116929.464   195050779.943        -329.004          39.000    37116930.200   151987623.376        -256.379          46.000  
J04                                                                  36988915.244   151463422.472        -483.309          40.000  
> 2025 11 11 08 02 12.7600000  0 32                     
G28  24470783.101   128594821.124       -3358.167          37.000    24470790.618   100203793.394       -2617.239          38.000  
G26  21810288.338   114613837.388       -2522.535          43.000    21810290.079    89309490.803       -1965.767          43.000  
G27  20183426.624   106064621.891        1380.608          48.000    20183427.699    82647761.478        1075.844          46.000  
G31  21977216.730   115491050.625       -2658.902          45.000    21977216.821    89993028.190       -2072.055          44.000  
G04  20934982.056   110014072.979        -881.549          46.000    20934981.969    85725249.825        -686.841          46.000  
C37  22289645.952   116068033.151        -846.815          49.000                                                                  
C06  35874819.803   186809599.585          59.070          45.000    35874810.022   144452995.431          45.691          48.000  
C16  36316613.013   189110131.699          66.057          48.000    36316608.692   146231933.312          50.930          48.000  
C28  22663768.158   118016185.435         538.675          49.000                                                                  
C07  37201579.050   193718384.564         559.946          43.000    37201571.211   149795310.488         432.921          47.000  
C27  23547100.663   122615931.027        2527.792          45.000                                                                  
R10  22689079.660   120945556.473       -2609.507          41.000                                                                  
R22  23229896.111   124002770.180        3918.281          44.000    23229926.166    96446729.429        3047.378          42.000  
R12  21756168.478   116217544.985        1684.834          49.000    21756170.455    90391433.490        1310.434          48.000  
R11  20139209.693   107617829.832        -683.796          51.000    20139208.037    83702751.713        -531.799          51.000  
R20  22090475.881   118127689.706       -2015.465          46.000    22090474.894    91877102.685       -1567.731          47.000  
R01  21068127.164   112621212.436       -2898.297          47.000                                                                  
G08  21786674.164   114489745.668        2953.054          42.000    21786679.857    89212811.817        2301.078          43.000  
G09  22231316.092   116826353.676        1319.489          41.000    22231319.248    91033533.948        1028.371          42.000  
G16  20077947.908   105510327.455       -1079.809          46.000                                                                  
J02  38891505.286   204376237.947        -779.541          46.000    38891505.011   159254210.819        -607.526          47.000  
G18  24327568.871   127842236.778          16.696          38.000    24327570.439    99617336.797          12.655          39.000  
C20  24687213.621   128552797.649       -2736.186          43.000                                                                  
C09  36822937.156   191746694.351         298.669          45.000    36822929.629   148270678.821         231.001          48.000  
C23  25126720.382   130841430.088       -2410.578          41.000                                                                  
C19  24951859.073   129930876.573        -645.578          41.000                                                                  
C10  38452029.666   200229808.231         562.584          39.000    38452026.434   154830377.640         435.174          43.000  
R21  20854706.837   111597747.455        1542.737          51.000    20854706.614    86798250.225        1199.963          50.000  
R08  23500780.854   125845614.693       -4666.899          40.000    23500820.135    97880082.895       -3629.866          43.000  
J03  37737312.041   198310915.914           7.378          38.000    37737321.208   154528022.656           6.052          42.000  
J07  37116931.981   195050793.106        -329.042          39.000    37116932.697   151987633.630        -256.314          46.000  
J04                                                                  36988919.984   151463441.791        -483.131          40.000  
> 2025 11 11 08 02 12.8000000  0 32                     
G28  24470808.651   128594955.436       -3357.937          37.000    24470816.176   100203898.050       -2616.804          38.000  
G26  21810307.534   114613938.305       -2522.793          43.000    21810309.273    89309569.435       -1965.784          43.000  
G27  20183416.121   106064566.673        1380.490          48.000    20183417.198    82647718.443        1075.867          46.000  
G31  21977236.962   115491156.984       -2658.935          45.000    21977237.054    89993111.068       -2072.014          44.000  
G04  20934988.767   110014108.240        -881.549          46.000    20934988.661    85725277.303        -686.938          46.000  
C37  22289652.488   116068067.019        -846.726          49.000                                                                  
C06  35874819.335   186809597.224          59.033          45.000    35874809.541   144452993.602          45.728          48.000  
C16  36316612.471   189110129.068          65.835          48.000    36316608.228   146231931.279          50.826          48.000  
C28  22663764.018   118016163.892         538.642          49.000                                                                  
C07  37201574.742   193718362.169         559.912          43.000    37201566.912   149795293.176         432.817          47.000  
C27  23547081.235   122615829.931        2527.550          45.000                                                                  
R10  22689099.251   120945660.858       -2609.510          41.000                                                                  
R22  23229866.743   124002613.443        3918.326          44.000    23229896.797    96446607.527        3047.485          42.000  
R12  21756155.867   116217477.600        1684.684          49.000    21756157.840    90391381.077        1310.383          48.000  
R11  20139214.823   107617857.180        -683.740          51.000    20139213.169    83702772.990        -531.893          51.000  
R20  22090490.975   118127770.328       -2015.547          46.000    22090489.973    91877165.388       -1567.661          47.000  
R01  21068148.849   112621328.369       -2898.316          47.000                                                                  
G08  21786651.677   114489627.536        2953.188          42.000    21786657.394    89212719.756        2301.412          43.000  
G09  22231306.073   116826300.878        1319.851          41.000    22231309.211    91033492.821        1028.195          42.000  
G16  20077956.154   105510370.657       -1079.986          46.000                                                                  
J02  38891511.227   204376269.133        -779.651          46.000    38891510.957   159254235.121        -607.550          47.000  
G18  24327568.755   127842236.120          16.537          38.000    24327570.312    99617336.281          12.769          39.000  
C20  24687234.642   128552907.108       -2736.407          43.000                                                                  
C09  36822934.864   191746682.397         298.795          45.000    36822927.324   148270669.580         231.018          48.000  
C23  25126738.871   130841526.522       -2410.725          41.000                                                                  
C19  24951864.017   129930902.404        -645.773          41.000                                                                  
C10  38452025.354   200229785.714         562.825          39.000    38452022.117   154830360.236         435.137          43.000  
R21  20854695.307   111597685.745        1542.712          51.000    20854695.078    86798202.231        1199.896          50.000  
R08  23500815.719   125845801.374       -4666.900          40.000    23500855.013    97880228.103       -3630.143          43.000  
J03  37737311.966   198310915.590           7.822          38.000    37737321.152   154528022.413           6.124          42.000  
J07  37116934.477   195050806.267        -329.021          39.000    37116935.197   151987643.893        -256.461          46.000  
J04                                                                  36988924.703   151463461.120        -483.244          40.000  
> 2025 11 11 08 02 12.8400000  0 32                     
G28  24470834.236   128595089.766       -3358.130          37.000    24470841.729   100204002.701       -2616.469          38.000  
G26  21810326.731   114614039.219       -2522.855          43.000    21810328.471    89309648.067       -1965.778          43.000  
G27  20183405.617   106064511.456        1380.391          48.000    20183406.685    82647675.422        1075.630          46.000  
G31  21977257.194   115491263.343       -2659.024          45.000    21977257.305    89993193.958       -2072.214          44.000  
G04  20934995.489   110014143.508        -881.677          46.000    20934995.373    85725304.791        -687.170          46.000  
C37  22289658.978   116068100.897        -846.888          49.000                                                                  
C06  35874818.869   186809594.868          58.929          45.000    35874809.079   144452991.782          45.587          48.000  
C16  36316611.966   189110126.429          65.892          48.000    36316607.709   146231929.236          50.922          48.000  
C28  22663759.861   118016142.356         538.451          49.000                                                                  
C07  37201570.444   193718339.781         559.750          43.000    37201562.597   149795275.861         432.805          47.000  
C27  23547061.812   122615728.837        2527.372          45.000                                                                  
R10  22689118.831   120945765.258       -2609.855          41.000                                                                  
R22  23229837.363   124002456.710        3918.302          44.000    23229867.431    96446485.634        3047.348          42.000  
R12  21756143.233   116217410.221        1684.496          49.000    21756145.247    90391328.668        1310.256          48.000  
R11  20139219.947   107617884.530        -683.734          51.000    20139218.257    83702794.265        -531.911          51.000  
R20  22090506.064   118127850.948       -2015.553          46.000    22090505.032    91877228.089       -1567.570          47.000  
R01  21068170.546   112621444.299       -2898.309          47.000                                                                  
G08  21786629.171   114489509.415        2953.033          42.000    21786634.924    89212627.713        2301.282          43.000  
G09  22231296.029   116826248.099        1319.639          41.000    22231299.180    91033451.709        1027.865          42.000  
G16  20077964.355   105510413.855       -1080.016          46.000                                                                  
J02  38891517.149   204376300.319        -779.675          46.000    38891516.898   159254259.423        -607.593          47.000  
G18  24327568.632   127842235.458          16.508          38.000    24327570.191    99617335.773          12.729          39.000  
C20  24687255.668   128553016.543       -2736.081          43.000                                                                  
C09  36822932.588   191746670.447         298.759          45.000    36822925.035   148270660.336         231.062          48.000  
C23  25126757.366   130841622.948       -2410.711          41.000                                                                  
C19  24951868.974   129930928.236        -645.866          41.000                                                                  
C10  38452021.009   200229763.203         562.768          39.000    38452017.799   154830342.833         435.026          43.000  
R21  20854683.772   111597624.040        1542.633          51.000    20854683.577    86798154.241        1199.762          50.000  
R08  23500850.584   125845988.061       -4667.085          40.000    23500889.883    97880373.302       -3630.080          43.000  
J03  37737311.909   198310915.296           7.572          38.000    37737321.086   154528022.179           5.935          42.000  
J07  37116936.994   195050819.444        -329.327          39.000    37116937.723   151987654.158        -256.604          46.000  
J04                                                                  36988929.431   151463480.455        -483.451          40.000  
> 2025 11 11 08 02 12.8800000  0 32                     
G28  24470859.814   128595224.102       -3358.368          37.000    24470867.276   100204107.376       -2616.670          39.000  
G26  21810345.938   114614140.141       -2523.042          43.000    21810347.671    89309726.711       -1965.993          43.000  
G27  20183395.134   106064456.250        1380.143          48.000    20183396.155    82647632.402        1075.463          46.000  
G31  21977277.432   115491369.718       -2659.347          45.000    21977277.547    89993276.844       -2072.228          44.000  
G04  20935002.192   110014178.787        -882.001          46.000    20935002.072    85725332.284        -687.372          46.000  
C37  22289665.441   116068134.783        -847.125          49.000                                                                  
C06  35874818.417   186809592.514          58.813          45.000    35874808.622   144452989.962          45.471          48.000  
C16  36316611.442   189110123.798          65.767          48.000    36316607.210   146231927.202          50.814          48.000  
C28  22663755.706   118016120.829         538.180          49.000                                                                  
C07  37201566.127   193718317.392         559.688          43.000    37201558.288   149795258.549         432.748          47.000  
C27  23547042.384   122615627.751        2527.120          45.000                                                                  
R10  22689138.399   120945869.652       -2609.948          41.000                                                                  
R22  23229808.005   124002299.980        3918.208          44.000    23229838.081    96446363.733        3047.398          42.000  
R12  21756130.620   116217342.840        1684.437          49.000    21756132.629    90391276.263        1310.136          48.000  
R11  20139225.050   107617911.895        -684.059          51.000    20139223.383    83702815.549        -532.104          51.000  
R20  22090521.161   118127931.581       -2015.810          46.000    22090520.113    91877290.799       -1567.695          47.000  
R01  21068192.234   112621560.246       -2898.595          47.000                                                                  
G08  21786606.724   114489391.301        2952.840          42.000    21786612.442    89212535.686        2300.845          43.000  
G09  22231285.998   116826195.337        1319.171          41.000    22231289.150    91033410.589        1027.859          42.000  
G16  20077972.570   105510457.065       -1080.260          46.000                                                                  
J02  38891523.104   204376331.517        -779.913          46.000    38891522.848   159254283.724        -607.581          47.000  
G18  24327568.550   127842234.829          15.959          38.000    24327570.049    99617335.252          12.897          39.000  
C20  24687276.693   128553126.002       -2736.293          43.000                                                                  
C09  36822930.280   191746658.508         298.529          45.000    36822922.726   148270651.103         230.854          48.000  
C23  25126775.880   130841719.390       -2410.975          41.000                                                                  
C19  24951873.925   129930954.061        -645.811          41.000                                                                  
C10  38452016.691   200229740.706         562.497          39.000    38452013.461   154830325.436         434.897          43.000  
R21  20854672.226   111597562.344        1542.395          51.000    20854672.077    86798106.258        1199.548          50.000  
R08  23500885.452   125846174.762       -4667.517          40.000    23500924.759    97880518.501       -3630.012          43.000  
J03  37737311.852   198310915.007           7.247          38.000    37737321.037   154528021.960           5.574          42.000  
J07  37116939.505   195050832.632        -329.704          39.000    37116940.244   151987664.427        -256.749          46.000  
J04                                                                  36988934.143   151463499.784        -483.427          40.000  
> 2025 11 11 08 02 12.9200000  0 32                     
G28  24470885.375   128595358.491       -3359.457          37.000    24470892.858   100204212.081       -2617.354          39.000  
G26  21810365.141   114614241.098       -2523.781          43.000    21810366.873    89309805.377       -1966.551          43.000  
G27  20183384.646   106064401.065        1379.635          48.000    20183385.665    82647589.403        1075.024          46.000  
G31  21977297.659   115491476.105       -2659.720          45.000    21977297.796    89993359.747       -2072.536          44.000  
G04  20935008.932   110014214.085        -882.501          46.000    20935008.788    85725359.785        -687.604          46.000  
C37  22289671.943   116068168.688        -847.599          49.000                                                                  
C06  35874817.976   186809590.185          58.289          45.000    35874808.177   144452988.159          45.117          48.000  
C16  36316610.911   189110121.199          65.133          48.000    36316606.715   146231925.184          50.482          48.000  
C28  22663751.582   118016099.330         537.524          49.000                                                                  
C07  37201561.851   193718295.042         558.895          43.000    37201553.957   149795241.262         432.264          47.000  
C27  23547022.978   122615526.692        2526.505          45.000                                                                  
R10  22689157.977   120945974.073       -2610.477          41.000                                                                  
R22  23229778.645   124002143.274        3917.718          44.000    23229808.731    96446241.859        3046.906          42.000  
R12  21756118.025   116217275.478        1684.057          49.000    21756120.037    90391223.880        1309.678          48.000  
R11  20139230.180   107617939.288        -684.741          51.000    20139228.533    83702836.848        -532.451          51.000  
R20  22090536.235   118128012.243       -2016.424          46.000    22090535.217    91877353.537       -1568.295          47.000  
R01  21068213.932   112621676.219       -2899.190          47.000                                                                  
G08  21786584.253   114489273.212        2952.297          42.000    21786589.987    89212443.673        2300.353          43.000  
G09  22231275.940   116826142.593        1318.596          41.000    22231279.098    91033369.484        1027.575          42.000  
G16  20077980.795   105510500.299       -1080.810          46.000                                                                  
J02  38891529.058   204376362.732        -780.359          46.000    38891528.787   159254308.053        -608.105          47.000  
G18  24327568.448   127842234.214          15.353          38.000    24327569.937    99617334.771          12.292          39.000  
C20  24687297.713   128553235.482       -2736.860          43.000                                                                  
C09  36822927.984   191746646.593         297.987          45.000    36822920.459   148270641.891         230.377          48.000  
C23  25126794.386   130841815.853       -2411.534          41.000                                                                  
C19  24951878.893   129930979.906        -646.080          41.000                                                                  
C10  38452012.405   200229718.233         561.906          39.000    38452009.150   154830308.057         434.485          43.000  
R21  20854660.729   111597500.672        1541.821          51.000    20854660.558    86798058.292        1199.152          50.000  
R08  23500920.305   125846361.473       -4667.879          40.000    23500959.629    97880663.719       -3630.338          43.000  
J03  37737311.798   198310914.747           6.600          38.000    37737320.986   154528021.759           5.053          42.000  
J07  37116942.015   195050845.833        -330.057          39.000    37116942.749   151987674.714        -257.158          46.000  
J04                                                                  36988938.894   151463519.129        -483.656          40.000  
> 2025 11 11 08 02 12.9600000  0 32                     
G28  24470910.943   128595492.842       -3359.250          37.000    24470918.438   100204316.785       -2617.677          39.000  
G26  21810384.368   114614342.049       -2523.984          43.000    21810386.100    89309884.041       -1966.762          43.000  
G27  20183374.150   106064345.875        1379.567          48.000    20183375.174    82647546.394        1075.048          46.000  
G31  21977317.891   115491582.512       -2660.188          45.000    21977318.043    89993442.652       -2072.693          44.000  
G04  20935015.678   110014249.386        -882.703          46.000    20935015.491    85725387.285        -687.640          46.000  
C37  22289678.454   116068202.596        -847.822          49.000                                                                  
C06  35874817.507   186809587.855          58.093          45.000    35874807.736   144452986.356          44.952          48.000  
C16  36316610.415   189110118.599          64.860          48.000    36316606.219   146231923.170          50.293          48.000  
C28  22663747.455   118016077.826         537.354          49.000                                                                  
C07  37201557.559   193718272.689         558.612          43.000    37201549.692   149795223.982         431.929          47.000  
C27  23547003.585   122615425.629        2526.360          45.000                                                                  
R10  22689177.564   120946078.500       -2610.790          41.000                                                                  
R22  23229749.293   124001986.569        3917.486          44.000    23229779.370    96446119.982        3046.754          42.000  
R12  21756105.435   116217208.123        1683.837          49.000    21756107.421    90391171.498        1309.431          48.000  
R11  20139235.307   107617966.675        -684.902          51.000    20139233.668    83702858.145        -532.559          51.000  
R20  22090551.309   118128092.913       -2016.851          46.000    22090550.308    91877416.275       -1568.537          47.000  
R01  21068235.647   112621792.200       -2899.627          47.000                                                                  
G08  21786561.768   114489155.123        2952.077          42.000    21786567.508    89212351.654        2300.268          43.000  
G09  22231265.906   116826089.841        1318.549          41.000    22231269.052    91033328.378        1027.515          42.000  
G16  20077989.028   105510543.530       -1080.951          46.000                                                                  
J02  38891535.017   204376393.949        -780.548          46.000    38891534.733   159254332.380        -608.307          47.000  
G18  24327568.334   127842233.573          15.627          38.000    24327569.817    99617334.298          11.865          39.000  
C20  24687318.736   128553344.961       -2737.063          43.000                                                                  
C09  36822925.688   191746634.674         297.816          45.000    36822918.207   148270632.686         230.041          48.000  
C23  25126812.912   130841912.310       -2411.638          41.000                                                                  
C19  24951883.851   129931005.750        -646.182          41.000                                                                  
C10  38452008.098   200229695.752         561.842          39.000    38452004.815   154830290.684         434.222          43.000  
R21  20854649.187   111597439.002        1541.602          51.000    20854649.041    86798010.321        1199.121          50.000  
R08  23500955.168   125846548.179       -4667.864          40.000    23500994.497    97880808.931       -3630.405          43.000  
J03  37737311.764   198310914.503           5.990          38.000    37737320.932   154528021.557           4.869          42.000  
J07  37116944.508   195050859.032        -330.139          39.000    37116945.255   151987685.007        -257.389          46.000  
J04                                                                  36988943.624   151463538.491        -484.027          40.000  
> 2025 11 11 08 02 13.0000000  0 32                     
G28  24470936.516   128595627.189       -3358.927          37.000    24470944.003   100204421.484       -2617.657          39.000  
G26  21810403.572   114614442.980       -2523.671          43.000    21810405.304    89309962.680       -1966.334          43.000  
G27  20183363.631   106064290.667        1379.938          48.000    20183364.664    82647503.379        1075.212          46.000  
G31  21977338.156   115491688.901       -2660.046          45.000    21977338.282    89993525.543       -2072.471          44.000  
G04  20935022.370   110014284.666        -882.324          46.000    20935022.187    85725414.772        -687.402          46.000  
C37  22289684.967   116068236.478        -847.381          49.000                                                                  
C06  35874817.041   186809585.509          58.386          45.000    35874807.297   144452984.545          45.123          48.000  
C16  36316609.897   189110115.973          65.250          48.000    36316605.696   146231921.145          50.439          48.000  
C28  22663743.305   118016056.299         537.797          49.000                                                                  
C07  37201553.274   193718250.309         559.078          43.000    37201545.381   149795206.675         432.321          47.000  
C27  23546984.151   122615324.551        2526.677          45.000                                                                  
R10  22689197.173   120946182.904       -2610.455          41.000                                                                  
R22  23229719.916   124001829.851        3917.715          44.000    23229750.024    96445998.094        3046.970          42.000  
R12  21756092.828   116217140.751        1684.032          49.000    21756094.799    90391119.091        1309.825          48.000  
R11  20139240.415   107617994.043        -684.510          51.000    20139238.771    83702879.430        -532.319          51.000  
R20  22090566.382   118128173.550       -2016.363          46.000    22090565.369    91877478.996       -1568.289          47.000  
R01  21068257.345   112621908.147       -2899.161          47.000                                                                  
G08  21786539.284   114489037.017        2952.337          42.000    21786545.034    89212259.621        2300.572          43.000  
G09  22231255.848   116826037.070        1318.931          41.000    22231259.001    91033287.256        1027.849          42.000  
G16  20077997.249   105510586.748       -1080.724          46.000                                                                  
J02  38891540.948   204376425.147        -780.219          46.000    38891540.661   159254356.693        -608.075          47.000  
G18  24327568.208   127842232.921          16.012          38.000    24327569.689    99617333.793          12.299          39.000  
C20  24687339.763   128553454.427       -2736.899          43.000                                                                  
C09  36822923.406   191746622.741         298.034          45.000    36822915.898   148270623.457         230.359          48.000  
C23  25126831.442   130842008.759       -2411.462          41.000                                                                  
C19  24951888.804   129931031.612        -646.509          41.000                                                                  
C10  38452003.740   200229673.251         562.257          39.000    38452000.501   154830273.279         434.761          43.000  
R21  20854637.674   111597377.313        1541.919          51.000    20854637.486    86797962.342        1199.310          50.000  
R08  23500990.015   125846734.869       -4667.442          40.000    23501029.391    97880954.134       -3630.213          43.000  
J03  37737311.707   198310914.205           6.800          38.000    37737320.868   154528021.324           5.431          42.000  
J07  37116947.004   195050872.196        -329.493          39.000    37116947.769   151987695.272        -256.969          46.000  
J04                                                                  36988948.329   151463557.820        -483.642          40.000  
> 2025 11 11 08 02 13.0400000  0 32                     
G28  24470962.075   128595761.503       -3358.079          37.000    24470969.576   100204526.146       -2616.976          39.000  
G26  21810422.780   114614543.896       -2523.165          43.000    21810424.497    89310041.305       -1965.888          43.000  
G27  20183353.143   106064235.451        1380.286          48.000    20183354.158    82647460.350        1075.567          46.000  
G31  21977358.392   115491795.263       -2659.459          45.000    21977358.519    89993608.429       -2072.271          43.000  
G04  20935029.066   110014319.934        -881.873          46.000    20935028.890    85725442.263        -687.305          46.000  
C37  22289691.480   116068270.349        -846.928          49.000                                                                  
C06  35874816.581   186809583.154          58.740          45.000    35874806.879   144452982.719          45.496          48.000  
C16  36316609.361   189110113.332          65.771          48.000    36316605.172   146231919.105          50.806          48.000  
C28  22663739.167   118016034.758         538.329          49.000                                                                  
C07  37201548.952   193718227.905         559.822          43.000    37201541.080   149795189.355         432.822          47.000  
C27  23546964.732   122615223.448        2527.337          45.000                                                                  
R10  22689216.761   120946287.294       -2609.971          41.000                                                                  
R22  23229690.553   124001673.108        3918.339          44.000    23229720.652    96445876.196        3047.250          42.000  
R12  21756080.223   116217073.361        1684.493          49.000    21756082.189    90391066.671        1310.293          48.000  
R11  20139245.541   107618021.393        -683.938          51.000    20139243.897    83702900.706        -532.008          51.000  
R20  22090581.453   118128254.168       -2015.689          46.000    22090580.442    91877541.700       -1567.828          47.000  
R01  21068279.036   112622024.083       -2898.674          47.000                                                                  
G08  21786516.798   114488918.890        2952.874          42.000    21786522.576    89212167.574        2301.036          42.000  
G09  22231245.795   116825984.296        1319.225          41.000    22231248.952    91033246.136        1027.974          42.000  
G16  20078005.468   105510629.947       -1080.208          46.000                                                                  
J02  38891546.891   204376456.329        -779.718          46.000    38891546.588   159254380.989        -607.611          47.000  
G18  24327568.080   127842232.256          16.509          38.000    24327569.557    99617333.295          12.408          39.000  
C20  24687360.785   128553563.881       -2736.569          43.000                                                                  
C09  36822921.107   191746610.785         298.611          45.000    36822913.611   148270614.215         230.813          48.000  
C23  25126849.954   130842105.175       -2410.797          41.000                                                                  
C19  24951893.763   129931057.454        -646.249          41.000                                                                  
C10  38451999.430   200229650.744         562.620          39.000    38451996.175   154830255.873         435.093          43.000  
R21  20854626.142   111597315.609        1542.419          51.000    20854625.942    86797914.352        1199.640          50.000  
R08  23501024.851   125846921.541       -4666.895          40.000    23501064.258    97881099.343       -3630.226          43.000  
J03  37737311.626   198310913.900           7.414          38.000    37737320.816   154528021.086           5.846          42.000  
J07  37116949.510   195050885.365        -329.259          39.000    37116950.270   151987705.527        -256.558          46.000  
J04                                                                  36988953.069   151463577.152        -483.462          40.000  
> 2025 11 11 08 02 13.0800000  0 32                     
G28  24470987.621   128595895.829       -3357.977          37.000    24470995.119   100204630.820       -2616.792          39.000  
G26  21810441.992   114614644.800       -2522.707          43.000    21810443.702    89310119.938       -1965.784          43.000  
G27  20183342.617   106064180.244        1380.270          48.000    20183343.642    82647417.324        1075.676          46.000  
G31  21977378.609   115491901.629       -2659.183          45.000    21977378.752    89993691.316       -2072.232          43.000  
G04  20935035.819   110014355.209        -881.830          46.000    20935035.592    85725469.748        -687.158          46.000  
C37  22289697.998   116068304.224        -846.842          49.000                                                                  
C06  35874816.107   186809580.789          59.106          45.000    35874806.412   144452980.896          45.618          48.000  
C16  36316608.826   189110110.696          65.948          48.000    36316604.642   146231917.067          50.983          48.000  
C28  22663735.032   118016013.226         538.397          49.000                                                                  
C07  37201544.638   193718205.513         559.948          43.000    37201536.805   149795172.032         433.099          47.000  
C27  23546945.316   122615122.359        2527.371          45.000                                                                  
R10  22689236.352   120946391.698       -2609.971          41.000                                                                  
R22  23229661.171   124001516.372        3918.452          44.000    23229691.289    96445754.298        3047.397          42.000  
R12  21756067.622   116217005.973        1684.698          49.000    21756069.564    90391014.264        1310.280          48.000  
R11  20139250.675   107618048.743        -683.719          51.000    20139249.020    83702921.979        -531.830          51.000  
R20  22090596.522   118128334.798       -2015.649          46.000    22090595.524    91877604.419       -1567.903          47.000  
R01  21068300.748   112622140.021       -2898.476          47.000                                                                  
G08  21786494.329   114488800.771        2952.990          42.000    21786500.103    89212075.540        2301.017          42.000  
G09  22231235.759   116825931.532        1319.141          41.000    22231238.904    91033205.020        1027.964          42.000  
G16  20078013.690   105510673.155       -1080.170          46.000                                                                  
J02  38891552.813   204376487.522        -779.742          46.000    38891552.519   159254405.291        -607.513          47.000  
G18  24327567.973   127842231.620          16.208          38.000    24327569.427    99617332.782          12.705          39.000  
C20  24687381.824   128553673.339       -2736.458          43.000                                                                  
C09  36822918.820   191746598.840         298.688          45.000    36822911.327   148270604.970         231.124          48.000  
C23  25126868.459   130842201.597       -2410.531          41.000                                                                  
C19  24951898.736   129931083.291        -646.058          41.000                                                                  
C10  38451995.096   200229628.245         562.531          39.000    38451991.876   154830238.475         435.042          43.000  
R21  20854614.596   111597253.911        1542.517          51.000    20854614.429    86797866.367        1199.658          50.000  
R08  23501059.692   125847108.223       -4666.886          40.000    23501099.125    97881244.538       -3629.992          43.000  
J03  37737311.580   198310913.597           7.604          38.000    37737320.753   154528020.860           5.788          42.000  
J07  37116952.023   195050898.539        -329.249          39.000    37116952.794   151987715.795        -256.568          46.000  
J04                                                                  36988957.785   151463596.466        -482.979          40.000  
> 2025 11 11 08 02 13.1200000  0 32                     
G28  24471013.188   128596030.188       -3358.533          37.000    24471020.679   100204735.504       -2616.995          39.000  
G26  21810461.193   114614745.732       -2522.972          43.000    21810462.906    89310198.607       -1966.399          43.000  
G27  20183332.116   106064125.058        1379.820          48.000    20183333.150    82647374.332        1075.038          46.000  
G31  21977398.826   115492008.010       -2659.388          45.000    21977399.020    89993774.219       -2072.482          43.000  
G04  20935042.533   110014390.499        -882.111          46.000    20935042.323    85725497.249        -687.402          46.000  
C37  22289704.497   116068338.125        -847.292          49.000                                                                  
C06  35874815.652   186809578.444          58.838          45.000    35874806.007   144452979.083          45.435          48.000  
C16  36316608.289   189110108.083          65.557          48.000    36316604.121   146231915.044          50.746          48.000  
C28  22663730.898   118015991.715         537.998          49.000                                                                  
C07  37201540.344   193718183.148         559.471          43.000    37201532.519   149795154.734         432.750          47.000  
C27  23546925.887   122615021.282        2527.067          45.000                                                                  
R10  22689255.927   120946496.102       -2610.000          41.000                                                                  
R22  23229631.811   124001359.655        3918.137          44.000    23229661.931    96445632.408        3047.314          42.000  
R12  21756055.006   116216938.610        1684.327          49.000    21756056.978    90390961.875        1309.935          48.000  
R11  20139255.803   107618076.120        -684.153          51.000    20139254.152    83702943.275        -532.188          51.000  
R20  22090611.622   118128415.447       -2016.006          46.000    22090610.611    91877667.146       -1568.102          47.000  
R01  21068322.440   112622255.978       -2898.753          47.000                                                                  
G08  21786471.871   114488682.692        2952.331          42.000    21786477.623    89211983.514        2300.793          42.000  
G09  22231225.709   116825878.785        1318.807          41.000    22231228.882    91033163.927        1027.513          42.000  
G16  20078021.935   105510716.373       -1080.344          46.000                                                                  
J02  38891558.747   204376518.729        -780.054          46.000    38891558.481   159254429.608        -607.806          47.000  
G18  24327567.861   127842231.009          15.526          38.000    24327569.305    99617332.280          12.640          39.000  
C20  24687402.843   128553782.812       -2736.720          43.000                                                                  
C09  36822916.544   191746586.918         298.288          45.000    36822909.068   148270595.746         230.835          48.000  
C23  25126886.965   130842298.046       -2410.938          41.000                                                                  
C19  24951903.674   129931109.132        -646.056          41.000                                                                  
C10  38451990.772   200229605.768         562.062          39.000    38451987.547   154830221.099         434.603          43.000  
R21  20854603.069   111597192.239        1542.029          51.000    20854602.902    86797818.396        1199.390          50.000  
R08  23501094.565   125847294.934       -4667.485          40.000    23501133.993    97881389.750       -3630.196          43.000  
J03  37737311.521   198310913.321           7.126          38.000    37737320.690   154528020.645           5.530          42.000  
J07  37116954.559   195050911.744        -329.814          39.000    37116955.314   151987726.073        -256.834          46.000  
J04                                                                  36988962.491   151463615.824        -483.608          40.000  
> 2025 11 11 08 02 13.1600000  0 32                     
G28  24471038.757   128596164.549       -3358.953          37.000    24471046.221   100204840.191       -2617.097          39.000  
G26  21810480.403   114614846.686       -2523.583          43.000    21810482.130    89310277.280       -1966.841          43.000  
G27  20183321.639   106064069.885        1379.337          48.000    20183322.650    82647331.347        1074.575          46.000  
G31  21977419.080   115492114.424       -2660.107          45.000    21977419.279    89993857.129       -2072.714          43.000  
G04  20935049.264   110014425.809        -882.672          46.000    20935049.022    85725524.759        -687.701          46.000  
C37  22289711.013   116068372.039        -847.788          49.000                                                                  
C06  35874815.208   186809576.127          58.130          45.000    35874805.601   144452977.285          45.068          48.000  
C16  36316607.757   189110105.484          65.092          48.000    36316603.605   146231913.033          50.392          48.000  
C28  22663726.775   118015970.222         537.436          49.000                                                                  
C07  37201536.073   193718160.795         558.934          43.000    37201528.252   149795137.448         432.303          47.000  
C27  23546906.476   122614920.218        2526.661          45.000                                                                  
R10  22689275.512   120946600.528       -2610.479          41.000                                                                  
R22  23229602.478   124001202.963        3917.421          44.000    23229632.580    96445510.533        3046.946          42.000  
R12  21756042.369   116216871.257        1683.912          49.000    21756044.367    90390909.490        1309.651          48.000  
R11  20139260.952   107618103.515        -684.774          51.000    20139259.289    83702964.584        -532.647          51.000  
R20  22090626.708   118128496.122       -2016.684          46.000    22090625.712    91877729.889       -1568.480          47.000  
R01  21068344.142   112622371.960       -2899.334          47.000                                                                  
G08  21786449.405   114488564.608        2952.061          42.000    21786455.155    89211891.503        2300.397          43.000  
G09  22231215.680   116825826.038        1318.600          41.000    22231218.849    91033122.819        1027.518          42.000  
G16  20078030.161   105510759.611       -1080.859          46.000                                                                  
J02  38891564.695   204376549.951        -780.499          46.000    38891564.431   159254453.934        -608.154          47.000  
G18  24327567.754   127842230.396          15.209          38.000    24327569.175    99617331.802          12.092          39.000  
C20  24687423.880   128553892.307       -2737.274          43.000                                                                  
C09  36822914.260   191746575.001         297.905          45.000    36822906.787   148270586.536         230.414          48.000  
C23  25126905.481   130842394.524       -2411.711          41.000                                                                  
C19  24951908.628   129931134.996        -646.445          41.000                                                                  
C10  38451986.471   200229583.292         561.817          39.000    38451983.247   154830203.717         434.463          43.000  
R21  20854591.530   111597130.585        1541.425          51.000    20854591.367    86797770.439        1198.975          50.000  
R08  23501129.431   125847481.655       -4667.964          40.000    23501168.859    97881534.979       -3630.639          43.000  
J03  37737311.467   198310913.048           6.863          38.000    37737320.639   154528020.441           5.157          42.000  
J07  37116957.081   195050924.945        -330.085          39.000    37116957.825   151987736.362        -257.181          46.000  
J04                                                                  36988967.206   151463635.173        -483.817          40.000  
> 2025 11 11 08 02 13.2000000  0 32                     
G28  24471064.366   128596298.935       -3359.568          37.000    24471071.776   100204944.904       -2617.665          39.000  
G26  21810499.630   114614947.655       -2524.161          43.000    21810501.365    89310355.946       -1966.887          43.000  
G27  20183311.153   106064014.722        1378.938          48.000    20183312.175    82647288.366        1074.370          46.000  
G31  21977439.320   115492220.825       -2660.220          45.000    21977439.528    89993940.049       -2073.017          43.000  
G04  20935056.002   110014461.128        -883.063          46.000    20935055.746    85725552.283        -688.110          46.000  
C37  22289717.500   116068405.965        -848.230          49.000                                                                  
C06  35874814.740   186809573.805          57.874          45.000    35874805.180   144452975.499          44.672          48.000  
C16  36316607.264   189110102.897          64.646          48.000    36316603.090   146231911.035          50.001          48.000  
C28  22663722.637   118015948.737         537.041          49.000                                                                  
C07  37201531.772   193718138.455         558.458          43.000    37201523.959   149795120.180         431.759          47.000  
C27  23546887.059   122614819.175        2526.115          45.000                                                                  
R10  22689295.109   120946704.965       -2610.988          41.000                                                                  
R22  23229573.132   124001046.277        3917.017          44.000    23229603.234    96445388.662        3046.732          42.000  
R12  21756029.760   116216803.916        1683.495          49.000    21756031.748    90390857.125        1309.138          48.000  
R11  20139266.092   107618130.919        -685.185          51.000    20139264.421    83702985.900        -532.979          51.000  
R20  22090641.804   118128576.803       -2017.133          46.000    22090640.804    91877792.648       -1568.974          47.000  
R01  21068365.867   112622487.953       -2899.854          47.000                                                                  
G08  21786426.930   114488446.525        2951.947          42.000    21786432.682    89211799.502        2300.009          43.000  
G09  22231205.648   116825773.320        1318.005          41.000    22231208.803    91033081.737        1027.087          42.000  
G16  20078038.407   105510802.857       -1081.242          46.000                                                                  
J02  38891570.623   204376581.173        -780.682          46.000    38891570.368   159254478.277        -608.575          47.000  
G18  24327567.647   127842229.798          14.840          38.000    24327569.062    99617331.344          11.458          39.000  
C20  24687444.905   128554001.804       -2737.535          43.000                                                                  
C09  36822911.979   191746563.100         297.494          45.000    36822904.512   148270577.336         230.008          48.000  
C23  25126924.000   130842490.991       -2411.846          41.000                                                                  
C19  24951913.593   129931160.884        -647.112          41.000                                                                  
C10  38451982.166   200229560.829         561.480          39.000    38451978.909   154830186.337         434.371          43.000  
R21  20854580.003   111597068.936        1541.089          51.000    20854579.847    86797722.494        1198.584          50.000  
R08  23501164.286   125847668.376       -4668.164          40.000    23501203.741    97881680.211       -3630.884          43.000  
J03  37737311.431   198310912.808           6.126          38.000    37737320.611   154528020.248           4.782          42.000  
J07  37116959.587   195050938.158        -330.405          39.000    37116960.348   151987746.660        -257.479          46.000  
J04                                                                  36988971.929   151463654.536        -484.131          40.000  
> 2025 11 11 08 02 13.2400000  0 32                     
G28  24471089.957   128596433.316       -3359.735          37.000    24471097.380   100205049.623       -2618.020          39.000  
G26  21810518.858   114615048.621       -2524.354          43.000    21810520.582    89310434.623       -1966.996          43.000  
G27  20183300.665   106063959.563        1378.782          48.000    20183301.653    82647245.373        1074.568          46.000  
G31  21977459.588   115492327.252       -2660.693          45.000    21977459.757    89994022.969       -2073.142          43.000  
G04  20935062.717   110014496.453        -883.313          46.000    20935062.464    85725579.804        -688.202          46.000  
C37  22289724.018   116068439.887        -848.284          49.000                                                                  
C06  35874814.290   186809571.500          57.520          45.000    35874804.753   144452973.710          44.525          48.000  
C16  36316606.757   189110100.305          64.552          48.000    36316602.586   146231909.030          49.933          48.000  
C28  22663718.527   118015927.247         537.021          49.000                                                                  
C07  37201527.488   193718116.102         558.500          43.000    37201519.679   149795102.909         431.583          47.000  
C27  23546867.647   122614718.133        2525.846          45.000                                                                  
R10  22689314.708   120946809.406       -2611.237          41.000                                                                  
R22  23229543.764   124000889.588        3916.980          44.000    23229573.870    96445266.796        3046.561          42.000  
R12  21756017.184   116216736.585        1683.167          49.000    21756019.155    90390804.747        1309.199          48.000  
R11  20139271.249   107618158.319        -685.248          51.000    20139269.548    83703007.208        -532.930          51.000  
R20  22090656.898   118128657.491       -2017.403          46.000    22090655.895    91877855.401       -1569.040          47.000  
R01  21068387.543   112622603.951       -2900.128          47.000                                                                  
G08  21786404.444   114488328.441        2951.952          42.000    21786410.205    89211707.505        2299.778          43.000  
G09  22231195.603   116825720.600        1317.791          41.000    22231198.770    91033040.658        1026.869          42.000  
G16  20078046.627   105510846.110       -1081.486          46.000                                                                  
J02  38891576.570   204376612.405        -780.878          46.000    38891576.299   159254502.613        -608.600          47.000  
G18  24327567.529   127842229.206          14.536          38.000    24327568.956    99617330.880          11.304          39.000  
C20  24687465.945   128554111.300       -2737.615          43.000                                                                  
C09  36822909.722   191746551.195         297.425          45.000    36822902.234   148270568.133         229.901          48.000  
C23  25126942.555   130842587.473       -2412.131          41.000                                                                  
C19  24951918.546   129931186.767        -647.298          41.000                                                                  
C10  38451977.847   200229538.367         561.359          39.000    38451974.606   154830168.961         434.292          43.000  
R21  20854568.496   111597007.289        1540.973          51.000    20854568.330    86797674.543        1198.566          50.000  
R08  23501199.147   125847855.105       -4668.340          40.000    23501238.629    97881825.443       -3630.968          43.000  
J03  37737311.376   198310912.562           5.946          38.000    37737320.577   154528020.042           4.887          42.000  
J07  37116962.097   195050951.375        -330.556          39.000    37116962.853   151987756.955        -257.525          46.000  
J04                                                                  36988976.650   151463673.902        -484.305          40.000  
> 2025 11 11 08 02 13.2800000  0 32                     
G28  24471115.545   128596567.692       -3359.669          37.000    24471122.938   100205154.340       -2618.099          39.000  
G26  21810538.066   114615149.577       -2524.191          43.000    21810539.784    89310513.273       -1966.548          43.000  
G27  20183290.142   106063904.394        1378.949          48.000    20183291.158    82647202.381        1074.637          46.000  
G31  21977479.823   115492433.666       -2660.643          45.000    21977480.002    89994105.879       -2072.972          43.000  
G04  20935069.448   110014531.771        -883.209          46.000    20935069.187    85725607.330        -688.293          46.000  
C37  22289730.568   116068473.799        -848.082          49.000                                                                  
C06  35874813.854   186809569.183          57.629          45.000    35874804.318   144452971.919          44.586          48.000  
C16  36316606.259   189110097.706          64.716          48.000    36316602.072   146231907.024          49.958          48.000  
C28  22663714.396   118015905.760         536.978          49.000                                                                  
C07  37201523.219   193718093.758         558.466          43.000    37201515.406   149795085.622         431.844          47.000  
C27  23546848.238   122614617.083        2525.979          45.000                                                                  
R10  22689334.282   120946913.834       -2611.015          41.000                                                                  
R22  23229514.400   124000732.894        3917.128          44.000    23229544.511    96445144.922        3046.702          42.000  
R12  21756004.570   116216669.238        1683.337          49.000    21756006.551    90390752.366        1309.340          48.000  
R11  20139276.380   107618185.711        -685.076          51.000    20139274.667    83703028.512        -532.784          51.000  
R20  22090671.977   118128738.166       -2017.216          46.000    22090670.950    91877918.157       -1569.113          47.000  
R01  21068409.245   112622719.929       -2899.869          47.000                                                                  
G08  21786381.967   114488210.375        2951.666          42.000    21786387.733    89211615.500        2299.851          43.000  
G09  22231185.560   116825667.869        1317.917          41.000    22231188.724    91032999.560        1027.176          42.000  
G16  20078054.854   105510889.353       -1081.377          46.000                                                                  
J02  38891582.510   204376643.633        -780.853          46.000    38891582.231   159254526.942        -608.429          47.000  
G18  24327567.374   127842228.590          14.908          38.000    24327568.858    99617330.397          11.719          39.000  
C20  24687486.978   128554220.794       -2737.577          43.000                                                                  
C09  36822907.445   191746539.280         297.626          45.000    36822899.974   148270558.921         230.058          48.000  
C23  25126961.085   130842683.950       -2412.154          41.000                                                                  
C19  24951923.551   129931212.659        -647.434          41.000                                                                  
C10  38451973.549   200229515.894         561.651          39.000    38451970.290   154830151.596         434.065          43.000  
R21  20854556.963   111596945.637        1541.101          51.000    20854556.792    86797626.587        1198.706          50.000  
R08  23501234.022   125848041.837       -4668.431          40.000    23501273.490    97881970.667       -3630.807          43.000  
J03  37737311.313   198310912.301           6.204          38.000    37737320.528   154528019.847           4.758          42.000  
J07  37116964.596   195050964.575        -330.266          39.000    37116965.345   151987767.243        -257.408          46.000  
J04                                                                  36988981.384   151463693.258        -484.143          40.000  
> 2025 11 11 08 02 13.3200000  0 32                     
G28  24471141.130   128596702.045       -3359.157          37.000    24471148.497   100205259.053       -2617.999          39.000  
G26  21810557.285   114615250.524       -2523.912          43.000    21810559.000    89310591.934       -1966.524          43.000  
G27  20183279.632   106063849.222        1379.150          48.000    20183280.661    82647159.391        1074.694          46.000  
G31  21977500.067   115492540.070       -2660.367          45.000    21977500.226    89994188.802       -2073.092          43.000  
G04  20935076.156   110014567.084        -883.008          46.000    20935075.898    85725634.847        -688.110          46.000  
C37  22289737.070   116068507.713        -847.970          49.000                                                                  
C06  35874813.389   186809566.851          58.032          45.000    35874803.890   144452970.121          44.788          48.000  
C16  36316605.754   189110095.107          64.847          48.000    36316601.561   146231905.014          50.105          48.000  
C28  22663710.284   118015884.263         537.224          49.000                                                                  
C07  37201518.924   193718071.395         558.797          43.000    37201511.112   149795068.332         432.130          47.000  
C27  23546828.848   122614516.030        2526.128          45.000                                                                  
R10  22689353.842   120947018.265       -2610.904          41.000                                                                  
R22  23229485.052   124000576.186        3917.497          44.000    23229515.127    96445023.047        3046.783          42.000  
R12  21755991.956   116216601.884        1683.599          49.000    21755993.966    90390699.978        1309.523          48.000  
R11  20139281.500   107618213.103        -684.912          51.000    20139279.807    83703049.815        -532.666          51.000  
R20  22090687.057   118128818.834       -2016.937          46.000    22090686.021    91877980.900       -1568.819          47.000  
R01  21068430.939   112622835.909       -2899.680          47.000                                                                  
G08  21786359.482   114488092.287        2951.915          42.000    21786365.256    89211523.479        2300.211          43.000  
G09  22231175.525   116825615.135        1318.129          41.000    22231178.689    91032958.474        1027.131          42.000  
G16  20078063.075   105510932.592       -1081.173          46.000                                                                  
J02  38891588.424   204376674.847        -780.548          46.000    38891588.151   159254551.259        -608.087          47.000  
G18  24327567.240   127842227.957          15.450          38.000    24327568.749    99617329.919          11.857          39.000  
C20  24687507.997   128554330.277       -2737.311          43.000                                                                  
C09  36822905.170   191746527.370         297.702          45.000    36822897.681   148270549.708         230.186          48.000  
C23  25126979.623   130842780.409       -2411.730          41.000                                                                  
C19  24951928.496   129931238.514        -646.815          41.000                                                                  
C10  38451969.247   200229493.422         561.775          39.000    38451965.981   154830134.231         434.017          43.000  
R21  20854545.424   111596883.981        1541.254          51.000    20854545.266    86797578.633        1198.779          50.000  
R08  23501268.888   125848228.552       -4668.109          40.000    23501308.326    97882115.894       -3630.732          43.000  
J03  37737311.274   198310912.033           6.511          38.000    37737320.484   154528019.626           5.219          42.000  
J07  37116967.114   195050977.782        -330.214          39.000    37116967.861   151987777.532        -257.322          46.000  
J04                                                                  36988986.116   151463712.613        -483.963          40.000  
> 2025 11 11 08 02 13.3600000  0 32                     
G28  24471166.690   128596836.410       -3359.178          37.000    24471174.064   100205363.746       -2617.565          39.000  
G26  21810576.490   114615351.480       -2523.920          43.000    21810578.212    89310670.593       -1966.545          43.000  
G27  20183269.124   106063794.058        1379.094          48.000    20183270.150    82647116.411        1074.532          46.000  
G31  21977520.302   115492646.470       -2660.116          45.000    21977520.479    89994271.710       -2072.901          43.000  
G04  20935082.866   110014602.400        -882.953          46.000    20935082.597    85725662.359        -687.909          46.000  
C37  22289743.624   116068541.619        -847.759          49.000                                                                  
C06  35874812.936   186809564.520          58.221          45.000    35874803.468   144452968.320          44.946          48.000  
C16  36316605.238   189110092.507          64.930          48.000    36316601.022   146231903.003          50.183          48.000  
C28  22663706.150   118015862.774         537.184          49.000                                                                  
C07  37201514.621   193718049.042         558.828          43.000    37201506.805   149795051.040         432.272          47.000  
C27  23546809.448   122614414.969        2526.381          45.000                                                                  
R10  22689373.424   120947122.677       -2610.499          41.000                                                                  
R22  23229455.703   124000419.486        3917.563          44.000    23229485.766    96444901.185        3046.609          42.000  
R12  21755979.363   116216534.537        1683.650          49.000    21755981.341    90390647.600        1309.434          48.000  
R11  20139286.617   107618240.500        -684.944          51.000    20139284.926    83703071.122        -532.667          50.000  
R20  22090702.138   118128899.506       -2016.843          46.000    22090701.109    91878043.641       -1568.625          47.000  
R01  21068452.633   112622951.895       -2899.654          47.000                                                                  
G08  21786337.035   114487974.224        2951.635          42.000    21786342.762    89211431.481        2300.003          43.000  
G09  22231165.497   116825562.388        1318.439          41.000    22231168.665    91032917.386        1027.171          42.000  
G16  20078071.308   105510975.833       -1081.104          46.000                                                                  
J02  38891594.367   204376706.071        -780.585          46.000    38891594.104   159254575.596        -608.301          47.000  
G18  24327567.126   127842227.339          15.570          38.000    24327568.636    99617329.448          11.787          39.000  
C20  24687529.030   128554439.771       -2737.318          43.000                                                                  
C09  36822902.876   191746515.463         297.676          45.000    36822895.388   148270540.499         230.198          48.000  
C23  25126998.139   130842876.853       -2411.250          41.000                                                                  
C19  24951933.463   129931264.373        -646.551          41.000                                                                  
C10  38451964.934   200229470.942         561.984          39.000    38451961.655   154830116.851         434.296          43.000  
R21  20854533.895   111596822.320        1541.437          51.000    20854533.748    86797530.691        1198.608          50.000  
R08  23501303.757   125848415.252       -4667.654          40.000    23501343.184    97882261.113       -3630.578          43.000  
J03  37737311.227   198310911.767           6.582          38.000    37737320.422   154528019.403           5.540          42.000  
J07  37116969.632   195050990.994        -330.258          39.000    37116970.363   151987787.832        -257.484          46.000  
J04                                                                  36988990.845   151463731.963        -483.825          40.000  
> 2025 11 11 08 02 13.4000000  0 32                     
G28  24471192.280   128596970.783       -3359.257          37.000    24471199.612   100205468.453       -2617.637          39.000  
G26  21810595.696   114615452.437       -2523.922          43.000    21810597.443    89310749.268       -1966.783          43.000  
G27  20183258.629   106063738.891        1379.125          48.000    20183259.651    82647073.427        1074.521          46.000  
G31  21977540.570   115492752.882       -2660.245          45.000    21977540.723    89994354.627       -2072.943          43.000  
G04  20935089.599   110014637.723        -883.032          46.000    20935089.325    85725689.883        -688.037          46.000  
C37  22289750.150   116068575.541        -847.942          49.000                                                                  
C06  35874812.481   186809562.212          57.867          45.000    35874803.031   144452966.529          44.836          48.000  
C16  36316604.717   189110089.914          64.835          48.000    36316600.528   146231900.999          50.129          48.000  
C28  22663702.009   118015841.294         537.001          49.000                                                                  
C07  37201510.317   193718026.701         558.615          43.000    37201502.496   149795033.762         432.063          47.000  
C27  23546790.033   122614313.919        2526.262          45.000                                                                  
R10  22689393.020   120947227.117       -2610.802          41.000                                                                  
R22  23229426.335   124000262.791        3917.443          44.000    23229456.419    96444779.336        3046.268          42.000  
R12  21755966.744   116216467.198        1683.511          49.000    21755968.724    90390595.229        1309.279          48.000  
R11  20139291.753   107618267.907        -685.149          51.000    20139290.065    83703092.436        -532.829          50.000  
R20  22090717.229   118128980.184       -2016.937          46.000    22090716.201    91878106.395       -1568.740          47.000  
R01  21068474.317   112623067.890       -2899.822          47.000                                                                  
G08  21786314.576   114487856.146        2951.755          42.000    21786320.294    89211339.472        2300.105          43.000  
G09  22231155.486   116825509.661        1318.256          41.000    22231158.619    91032876.300        1027.091          42.000  
G16  20078079.532   105511019.085       -1081.275          46.000                                                                  
J02  38891600.321   204376737.301        -780.749          46.000    38891600.049   159254599.932        -608.411          47.000  
G18  24327567.021   127842226.753          14.937          38.000    24327568.520    99617328.989          11.586          39.000  
C20  24687550.019   128554549.279       -2737.607          43.000                                                                  
C09  36822900.592   191746503.558         297.624          45.000    36822893.084   148270531.295         230.091          48.000  
C23  25127016.655   130842973.316       -2411.374          41.000                                                                  
C19  24951938.428   129931290.248        -646.682          41.000                                                                  
C10  38451960.601   200229448.489         561.508          39.000    38451957.340   154830099.472         434.443          43.000  
R21  20854522.376   111596760.670        1541.296          51.000    20854522.252    86797482.749        1198.511          50.000  
R08  23501338.642   125848601.982       -4668.006          40.000    23501378.075    97882406.346       -3630.739          43.000  
J03  37737311.164   198310911.496           6.752          38.000    37737320.363   154528019.223           4.873          42.000  
J07  37116972.136   195051004.201        -330.219          39.000    37116972.868   151987798.129        -257.493          46.000  
J04                                                                  36988995.573   151463751.328        -484.029          40.000  
> 2025 11 11 08 02 13.4400000  0 32                     
G28  24471217.852   128597105.199       -3360.078          37.000    24471225.180   100205573.158       -2617.598          39.000  
G26  21810614.930   114615553.406       -2524.137          43.000    21810616.661    89310827.955       -1967.138          43.000  
G27  20183248.152   106063683.739        1378.851          48.000    20183249.160    82647030.445        1074.502          46.000  
G31  21977560.834   115492859.306       -2660.558          45.000    21977560.969    89994437.563       -2073.304          43.000  
G04  20935096.319   110014673.053        -883.221          46.000    20935096.054    85725717.414        -688.239          46.000  
C37  22289756.655   116068609.477        -848.280          49.000                                                                  
C06  35874812.028   186809559.907          57.605          45.000    35874802.633   144452964.741          44.702          48.000  
C16  36316604.204   189110087.325          64.733          48.000    36316600.006   146231899.000          49.990          48.000  
C28  22663697.849   118015819.818         536.865          49.000                                                                  
C07  37201506.029   193718004.360         558.508          43.000    37201498.181   149795016.485         431.934          47.000  
C27  23546770.629   122614212.882        2525.935          45.000                                                                  
R10  22689412.612   120947331.570       -2611.259          41.000                                                                  
R22  23229396.964   124000106.102        3917.243          44.000    23229427.069    96444657.489        3046.084          42.000  
R12  21755954.133   116216399.866        1683.331          49.000    21755956.087    90390542.862        1309.128          48.000  
R11  20139296.902   107618295.316        -685.278          51.000    20139295.197    83703113.758        -533.083          50.000  
R20  22090732.341   118129060.891       -2017.485          46.000    22090731.289    91878169.154       -1568.929          47.000  
R01  21068496.011   112623183.903       -2900.221          47.000                                                                  
G08  21786292.115   114487738.079        2951.721          42.000    21786297.830    89211247.467        2300.120          43.000  
G09  22231145.460   116825456.944        1318.008          41.000    22231148.585    91032835.224        1026.895          42.000  
G16  20078087.752   105511062.348       -1081.549          46.000                                                                  
J02  38891606.275   204376768.538        -780.957          46.000    38891605.992   159254624.271        -608.527          47.000  
G18  24327566.928   127842226.182          14.393          38.000    24327568.410    99617328.533          11.388          39.000  
C20  24687571.063   128554658.787       -2737.751          43.000                                                                  
C09  36822898.291   191746491.661         297.462          45.000    36822890.809   148270522.090         230.047          48.000  
C23  25127035.207   130843069.792       -2411.755          41.000                                                                  
C19  24951943.391   129931316.143        -647.162          41.000                                                                  
C10  38451956.303   200229426.034         561.299          39.000    38451953.004   154830082.105         434.289          43.000  
R21  20854510.858   111596699.041        1540.814          51.000    20854510.743    86797434.811        1198.389          50.000  
R08  23501373.527   125848788.725       -4668.438          40.000    23501412.962    97882551.578       -3630.813          43.000  
J03  37737311.093   198310911.239           6.511          38.000    37737320.328   154528019.046           4.415          42.000  
J07  37116974.651   195051017.418        -330.341          39.000    37116975.370   151987808.427        -257.530          46.000  
J04                                                                  36989000.314   151463770.694        -484.197          40.000  
> 2025 11 11 08 02 13.4800000  0 32                     
G28  24471243.443   128597239.595       -3360.197          37.000    24471250.771   100205677.890       -2618.068          39.000  
G26  21810634.155   114615654.383       -2524.371          43.000    21810635.868    89310906.640       -1967.228          43.000  
G27  20183237.668   106063628.598        1378.523          48.000    20183238.670    82646987.473        1074.311          46.000  
G31  21977581.094   115492965.743       -2660.938          45.000    21977581.209    89994520.489       -2073.309          43.000  
G04  20935103.049   110014708.389        -883.441          46.000    20935102.791    85725744.951        -688.446          46.000  
C37  22289763.158   116068643.412        -848.439          49.000                                                                  
C06  35874811.617   186809557.605          57.446          45.000    35874802.203   144452962.962          44.519          48.000  
C16  36316603.700   189110084.743          64.545          48.000    36316599.488   146231897.004          49.863          48.000  
C28  22663693.744   118015798.341         536.824          49.000                                                                  
C07  37201501.775   193717982.034         558.173          43.000    37201493.890   149794999.217         431.688          47.000  
C27  23546751.206   122614111.849        2525.721          45.000                                                                  
R10  22689432.203   120947436.035       -2611.748          41.000                                                                  
R22  23229367.607   123999949.427        3916.903          44.000    23229397.724    96444535.628        3046.299          42.000  
R12  21755941.536   116216332.526        1683.404          49.000    21755943.469    90390490.487        1309.219          48.000  
R11  20139302.059   107618322.734        -685.494          51.000    20139300.328    83703135.084        -533.243          50.000  
R20  22090747.451   118129141.595       -2017.703          46.000    22090746.399    91878231.924       -1569.228          47.000  
R01  21068517.741   112623299.916       -2900.432          47.000                                                                  
G08  21786269.632   114487620.014        2951.589          42.000    21786275.374    89211155.471        2299.923          43.000  
G09  22231135.423   116825404.241        1317.637          41.000    22231138.578    91032794.159        1026.606          42.000  
G16  20078095.985   105511105.613       -1081.689          46.000                                                                  
J02  38891612.240   204376799.784        -781.201          46.000    38891611.936   159254648.609        -608.563          47.000  
G18  24327566.789   127842225.592          14.418          38.000    24327568.305    99617328.054          11.761          39.000  
C20  24687592.083   128554768.290       -2737.688          43.000                                                                  
C09  36822896.015   191746479.762         297.402          45.000    36822888.528   148270512.895         229.889          48.000  
C23  25127053.748   130843166.300       -2412.518          42.000                                                                  
C19  24951948.374   129931342.056        -647.768          41.000                                                                  
C10  38451951.989   200229403.583         561.202          39.000    38451948.714   154830064.740         434.129          43.000  
R21  20854499.360   111596637.424        1540.393          51.000    20854499.236    86797386.876        1198.309          50.000  
R08  23501408.423   125848975.463       -4668.528          40.000    23501447.828    97882696.817       -3630.966          43.000  
J03  37737311.064   198310911.011           5.820          38.000    37737320.292   154528018.857           4.469          42.000  
J07  37116977.163   195051030.643        -330.600          39.000    37116977.883   151987818.728        -257.573          46.000  
J04                                                                  36989005.049   151463790.080        -484.558          40.000  
> 2025 11 11 08 02 13.5200000  0 32                     
G28  24471269.041   128597373.951       -3359.506          37.000    24471276.360   100205782.615       -2618.157          39.000  
G26  21810653.382   114615755.356       -2524.385          44.000    21810655.083    89310985.324       -1967.209          43.000  
G27  20183227.175   106063573.456        1378.415          48.000    20183228.168    82646944.508        1074.113          46.000  
G31  21977601.335   115493072.184       -2661.136          45.000    21977601.451    89994603.417       -2073.263          43.000  
G04  20935109.793   110014743.729        -883.600          46.000    20935109.530    85725772.491        -688.593          46.000  
C37  22289769.672   116068677.351        -848.533          49.000                                                                  
C06  35874811.185   186809555.297          57.574          45.000    35874801.777   144452961.172          44.629          48.000  
C16  36316603.220   189110082.168          64.349          48.000    36316598.989   146231895.007          49.823          48.000  
C28  22663689.625   118015776.867         536.797          49.000                                                                  
C07  37201497.504   193717959.690         558.387          43.000    37201489.615   149794981.954         431.515          47.000  
C27  23546731.796   122614010.824        2525.501          45.000                                                                  
R10  22689451.798   120947540.511       -2612.091          41.000                                                                  
R22  23229338.247   123999792.748        3916.825          44.000    23229368.351    96444413.758        3046.617          42.000  
R12  21755928.953   116216265.195        1683.308          49.000    21755930.876    90390438.121        1309.137          49.000  
R11  20139307.182   107618350.146        -685.442          51.000    20139305.462    83703156.409        -533.264          50.000  
R20  22090762.545   118129222.297       -2017.715          46.000    22090761.534    91878294.701       -1569.477          47.000  
R01  21068539.437   112623415.927       -2900.433          47.000                                                                  
G08  21786247.153   114487501.963        2951.286          42.000    21786252.902    89211063.489        2299.582          43.000  
G09  22231125.402   116825351.544        1317.311          41.000    22231128.556    91032753.092        1026.551          42.000  
G16  20078104.210   105511148.874       -1081.660          46.000                                                                  
J02  38891618.184   204376831.023        -781.152          46.000    38891617.899   159254672.953        -608.643          47.000  
G18  24327566.678   127842224.996          14.631          38.000    24327568.180    99617327.607          11.366          39.000  
C20  24687613.108   128554877.803       -2737.806          43.000                                                                  
C09  36822893.723   191746467.865         297.348          45.000    36822886.272   148270503.698         229.864          48.000  
C23  25127072.280   130843262.790       -2412.529          42.000                                                                  
C19  24951953.355   129931367.957        -647.774          41.000                                                                  
C10  38451947.671   200229381.135         561.093          39.000    38451944.408   154830047.390         433.796          43.000  
R21  20854487.829   111596575.803        1540.302          51.000    20854487.726    86797338.939        1198.328          50.000  
R08  23501443.321   125849162.197       -4668.409          40.000    23501482.727    97882842.052       -3630.966          43.000  
J03  37737311.003   198310910.763           5.870          38.000    37737320.247   154528018.665           4.641          42.000  
J07  37116979.677   195051043.863        -330.598          39.000    37116980.412   151987829.032        -257.635          46.000  
J04                                                                  36989009.777   151463809.440        -484.309          40.000  
> 2025 11 11 08 02 13.5600000  0 32                     
G28  24471294.634   128597508.347       -3359.727          37.000    24471301.955   100205887.337       -2618.098          39.000  
G26  21810672.580   114615856.319       -2524.211          44.000    21810674.287    89311063.989       -1966.867          43.000  
G27  20183216.665   106063518.302        1378.655          48.000    20183217.685    82646901.536        1074.153          46.000  
G31  21977621.578   115493178.597       -2660.664          45.000    21977621.692    89994686.339       -2073.138          44.000  
G04  20935116.504   110014779.065        -883.545          46.000    20935116.264    85725800.023        -688.483          46.000  
C37  22289776.163   116068711.281        -848.399          49.000                                                                  
C06  35874810.767   186809552.982          57.776          45.000    35874801.354   144452959.389          44.568          48.000  
C16  36316602.723   189110079.584          64.438          48.000    36316598.490   146231893.002          49.972          48.000  
C28  22663685.490   118015755.399         536.658          49.000                                                                  
C07  37201493.213   193717937.352         558.381          43.000    37201485.342   149794964.680         431.631          47.000  
C27  23546712.405   122613909.781        2525.792          45.000                                                                  
R10  22689471.398   120947644.943       -2611.413          41.000                                                                  
R22  23229308.880   123999636.068        3916.834          44.000    23229338.994    96444291.897        3046.596          42.000  
R12  21755916.347   116216197.864        1683.226          49.000    21755918.303    90390385.752        1309.180          49.000  
R11  20139312.306   107618377.550        -685.248          51.000    20139310.593    83703177.728        -533.138          50.000  
R20  22090777.636   118129302.995       -2017.612          46.000    22090776.631    91878357.472       -1569.453          47.000  
R01  21068561.105   112623531.916       -2900.032          47.000                                                                  
G08  21786224.680   114487383.908        2951.260          42.000    21786230.439    89210971.499        2299.580          43.000  
G09  22231115.374   116825298.839        1317.376          41.000    22231118.513    91032712.022        1026.587          42.000  
G16  20078112.442   105511192.134       -1081.614          46.000                                                                  
J02  38891624.106   204376862.266        -781.134          46.000    38891623.823   159254697.291        -608.551          47.000  
G18  24327566.577   127842224.386          15.000          38.000    24327568.084    99617327.160          11.122          39.000  
C20  24687634.134   128554987.318       -2737.928          43.000                                                                  
C09  36822891.441   191746455.965         297.406          45.000    36822883.997   148270494.492         230.016          48.000  
C23  25127090.822   130843359.271       -2412.330          42.000                                                                  
C19  24951958.322   129931393.845        -647.498          41.000                                                                  
C10  38451943.373   200229358.692         560.995          39.000    38451940.088   154830030.031         433.811          43.000  
R21  20854476.297   111596514.168        1540.625          51.000    20854476.210    86797290.996        1198.480          50.000  
R08  23501478.208   125849348.917       -4668.070          40.000    23501517.585    97882987.292       -3631.020          43.000  
J03  37737310.980   198310910.525           5.794          38.000    37737320.204   154528018.469           4.813          42.000  
J07  37116982.198   195051057.087        -330.645          39.000    37116982.904   151987839.337        -257.669          46.000  
J04                                                                  36989014.511   151463828.817        -484.410          40.000  
> 2025 11 11 08 02 13.6000000  0 32                     
G28  24471320.226   128597642.763       -3360.272          37.000    24471327.514   100205992.057       -2618.021          37.000  
G26  21810691.798   114615957.294       -2524.323          43.000    21810693.502    89311142.663       -1966.825          43.000  
G27  20183206.190   106063463.151        1378.749          48.000    20183207.191    82646858.562        1074.273          46.000  
G31  21977641.810   115493285.017       -2660.499          45.000    21977641.947    89994769.267       -2073.164          44.000  
G04  20935123.217   110014814.395        -883.356          46.000    20935122.981    85725827.556        -688.428          46.000  
C37  22289782.692   116068745.209        -848.283          49.000                                                                  
C06  35874810.339   186809550.664          57.941          45.000    35874800.890   144452957.606          44.537          48.000  
C16  36316602.268   189110076.996          64.554          48.000    36316598.000   146231891.006          49.900          48.000  
C28  22663681.351   118015733.934         536.561          49.000                                                                  
C07  37201488.942   193717915.016         558.375          43.000    37201481.035   149794947.402         431.820          47.000  
C27  23546693.010   122613808.734        2526.089          45.000                                                                  
R10  22689490.989   120947749.383       -2611.090          41.000                                                                  
R22  23229279.522   123999479.383        3917.017          44.000    23229309.624    96444170.031        3046.613          42.000  
R12  21755903.746   116216130.538        1683.133          49.000    21755905.699    90390333.376        1309.311          49.000  
R11  20139317.429   107618404.957        -685.217          51.000    20139315.727    83703199.044        -532.963          50.000  
R20  22090792.715   118129383.695       -2017.523          46.000    22090791.735    91878420.231       -1569.182          47.000  
R01  21068582.816   112623647.905       -2899.794          47.000                                                                  
G08  21786202.200   114487265.851        2951.280          42.000    21786207.977    89210879.503        2299.751          43.000  
G09  22231105.345   116825246.110        1317.928          41.000    22231108.488    91032670.931        1027.040          42.000  
G16  20078120.660   105511235.391       -1081.493          46.000                                                                  
J02  38891630.033   204376893.496        -780.884          46.000    38891629.775   159254721.632        -608.557          47.000  
G18  24327566.490   127842223.810          14.603          38.000    24327567.974    99617326.711          11.102          39.000  
C20  24687655.164   128555096.832       -2737.915          43.000                                                                  
C09  36822889.187   191746444.074         297.289          45.000    36822881.709   148270485.290         230.015          48.000  
C23  25127109.356   130843455.738       -2411.906          42.000                                                                  
C19  24951963.322   129931419.742        -647.491          41.000                                                                  
C10  38451939.072   200229336.231         561.335          39.000    38451935.767   154830012.660         434.076          43.000  
R21  20854464.762   111596452.527        1540.930          51.000    20854464.685    86797243.056        1198.511          50.000  
R08  23501513.079   125849535.646       -4668.077          40.000    23501552.434    97883132.532       -3631.044          43.000  
J03  37737310.957   198310910.285           5.864          38.000    37737320.166   154528018.271           4.944          42.000  
J07  37116984.718   195051070.316        -330.792          39.000    37116985.400   151987849.641        -257.673          46.000  
J04                                                                  36989019.243   151463848.180        -484.194          40.000  
> 2025 11 11 08 02 13.6400000  0 32                     
G28  24471345.782   128597777.138       -3359.781          37.000    24471353.068   100206096.750       -2617.502          37.000  
G26  21810711.021   114616058.257       -2524.138          44.000    21810712.703    89311221.324       -1966.603          43.000  
G27  20183195.695   106063407.988        1378.997          48.000    20183196.693    82646815.581        1074.454          46.000  
G31  21977662.054   115493391.418       -2660.096          45.000    21977662.195    89994852.183       -2072.971          44.000  
G04  20935129.947   110014849.719        -883.148          46.000    20935129.697    85725855.087        -688.300          46.000  
C37  22289789.223   116068779.121        -847.914          49.000                                                                  
C06  35874809.901   186809548.334          58.203          45.000    35874800.437   144452955.809          44.818          48.000  
C16  36316601.785   189110074.402          64.771          48.000    36316597.521   146231888.989          50.238          48.000  
C28  22663677.222   118015712.454         536.838          49.000                                                                  
C07  37201484.661   193717892.666         558.633          43.000    37201476.748   149794930.113         432.139          47.000  
C27  23546673.609   122613707.671        2526.531          45.000                                                                  
R10  22689510.579   120947853.799       -2610.505          41.000                                                                  
R22  23229250.162   123999322.682        3917.427          44.000    23229280.254    96444048.162        3046.738          42.000  
R12  21755891.137   116216063.199        1683.362          49.000    21755893.090    90390280.993        1309.504          49.000  
R11  20139322.551   107618432.361        -685.106          51.000    20139320.817    83703220.345        -532.597          50.000  
R20  22090807.794   118129464.370       -2017.059          46.000    22090806.820    91878482.971       -1568.687          47.000  
R01  21068604.531   112623763.911       -2899.992          47.000                                                                  
G08  21786179.727   114487147.768        2951.820          42.000    21786185.496    89210787.501        2299.946          43.000  
G09  22231095.298   116825193.386        1318.133          41.000    22231098.447    91032629.847        1027.128          42.000  
G16  20078128.903   105511278.634       -1081.168          46.000                                                                  
J02  38891635.961   204376924.712        -780.493          46.000    38891635.719   159254745.960        -608.301          47.000  
G18  24327566.383   127842223.195          15.070          38.000    24327567.862    99617326.255          11.237          39.000  
C20  24687676.196   128555206.317       -2737.389          43.000                                                                  
C09  36822886.894   191746432.166         297.568          45.000    36822879.422   148270476.080         230.190          48.000  
C23  25127127.892   130843552.194       -2411.452          42.000                                                                  
C19  24951968.280   129931445.614        -647.013          41.000                                                                  
C10  38451934.754   200229313.747         562.013          39.000    38451931.490   154829995.290         434.224          43.000  
R21  20854453.209   111596390.873        1541.315          51.000    20854453.160    86797195.112        1198.584          50.000  
R08  23501547.953   125849722.378       -4668.170          40.000    23501587.307    97883277.763       -3630.915          43.000  
J03  37737310.906   198310910.004           6.671          38.000    37737320.124   154528018.068           5.074          42.000  
J07  37116987.230   195051083.511        -330.192          39.000    37116987.900   151987859.928        -257.329          46.000  
J04                                                                  36989023.970   151463867.518        -483.607          40.000  
